{
  "country_code": "CF",
  "country": "Central African Republic",
  "city": "Bambari",
  "geonameid": 240604,
  "target_addresses": 4,
  "samples": [
    {
      "lat": 5.761772899116015,
      "lon": 20.679702613839215,
      "geoinfo": {
        "display_name": "Carrefour, Broto, Bambari, Ouaka, Central African Republic",
        "road": null,
        "house_number": null,
        "neighbourhood": null,
        "suburb": "Carrefour",
        "city_district": null,
        "city": "Bambari",
        "state": "Ouaka",
        "postcode": null,
        "country": "Central African Republic",
        "country_code": "cf"
      },
      "address": "Carrefour, Bambari, Ouaka, Central African Republic"
    },
    {
      "lat": 5.735654419862006,
      "lon": 20.69872600807398,
      "geoinfo": {
        "display_name": "Akpe 3, Bambari, Ouaka, Central African Republic",
        "road": null,
        "house_number": null,
        "neighbourhood": null,
        "suburb": "Akpe 3",
        "city_district": null,
        "city": "Bambari",
        "state": "Ouaka",
        "postcode": null,
        "country": "Central African Republic",
        "country_code": "cf"
      },
      "address": "Akpe 3, Bambari, Ouaka, Central African Republic"
    },
    {
      "lat": 5.748968861010065,
      "lon": 20.63918082672406,
      "geoinfo": {
        "display_name": "Kapabanga, Bambari, Ouaka, Central African Republic",
        "road": null,
        "house_number": null,
        "neighbourhood": null,
        "suburb": null,
        "city_district": null,
        "city": "Bambari",
        "state": "Ouaka",
        "postcode": null,
        "country": "Central African Republic",
        "country_code": "cf"
      },
      "address": "Bambari, Ouaka, Central African Republic"
    },
    {
      "lat": 5.7664204845380365,
      "lon": 20.67290463218329,
      "geoinfo": {
        "display_name": "Secteur, Broto, Bambari, Ouaka, Central African Republic",
        "road": null,
        "house_number": null,
        "neighbourhood": null,
        "suburb": "Secteur",
        "city_district": null,
        "city": "Bambari",
        "state": "Ouaka",
        "postcode": null,
        "country": "Central African Republic",
        "country_code": "cf"
      },
      "address": "Secteur, Bambari, Ouaka, Central African Republic"
    },
    {
      "lat": 5.785909426315186,
      "lon": 20.704613127740622,
      "geoinfo": {
        "display_name": "Site IDP's Elevage, Broto, Bambari, Ouaka, Central African Republic",
        "road": null,
        "house_number": null,
        "neighbourhood": null,
        "suburb": "Site IDP's Elevage",
        "city_district": null,
        "city": "Bambari",
        "state": "Ouaka",
        "postcode": null,
        "country": "Central African Republic",
        "country_code": "cf"
      },
      "address": "843, Site IDP's Elevage, Broto, Bambari, 08536 Ouaka, Central African Republic"
    },
    {
      "lat": 5.737296387567588,
      "lon": 20.69523585485816,
      "geoinfo": {
        "display_name": "Bambari, Ouaka, Central African Republic",
        "road": null,
        "house_number": null,
        "neighbourhood": null,
        "suburb": null,
        "city_district": null,
        "city": "Bambari",
        "state": "Ouaka",
        "postcode": null,
        "country": "Central African Republic",
        "country_code": "cf"
      },
      "address": "367, Bambari, 97028 Ouaka, Central African Republic"
    },
    {
      "lat": 5.805876409583189,
      "lon": 20.667358095039546,
      "geoinfo": {
        "display_name": "Centre-ville, Kidigra, Bambari, Ouaka, Central African Republic",
        "road": null,
        "house_number": null,
        "neighbourhood": null,
        "suburb": "Centre-ville",
        "city_district": null,
        "city": "Bambari",
        "state": "Ouaka",
        "postcode": null,
        "country": "Central African Republic",
        "country_code": "cf"
      },
      "address": "165, Centre-ville, Bambari, 48652 Ouaka, Central African Republic"
    },
    {
      "lat": 5.7474484953139,
      "lon": 20.65708500560363,
      "geoinfo": {
        "display_name": "Ancien Site Sangaris, Bambari, Ouaka, Central African Republic",
        "road": null,
        "house_number": null,
        "neighbourhood": "Ancien Site Sangaris",
        "suburb": null,
        "city_district": null,
        "city": "Bambari",
        "state": "Ouaka",
        "postcode": null,
        "country": "Central African Republic",
        "country_code": "cf"
      },
      "address": "586, Ancien Site Sangaris, Bambari, 48977 Ouaka, Central African Republic"
    }
  ],
  "updated_at": "2025-10-19T01:41:00.677004+00:00",
  "_kind": "geo_samples"
}