{
  "country_code": "CF",
  "country": "Central African Republic",
  "city": "Bangui",
  "geonameid": 2389853,
  "target_addresses": 4,
  "samples": [
    {
      "lat": 4.384265184795016,
      "lon": 18.540594367458347,
      "geoinfo": {
        "display_name": "Bangui, Central African Republic",
        "road": null,
        "house_number": null,
        "neighbourhood": null,
        "suburb": null,
        "city_district": null,
        "city": "Bangui",
        "state": null,
        "postcode": null,
        "country": "Central African Republic",
        "country_code": "cf"
      },
      "address": "Bangui, Central African Republic"
    },
    {
      "lat": 4.384188679135679,
      "lon": 18.588601156111555,
      "geoinfo": {
        "display_name": "Bimbo, Ombella-M'Poko, Central African Republic",
        "road": null,
        "house_number": null,
        "neighbourhood": null,
        "suburb": null,
        "city_district": null,
        "city": "Bimbo",
        "state": "Ombella-M'Poko",
        "postcode": null,
        "country": "Central African Republic",
        "country_code": "cf"
      },
      "address": "Bangui, Ombella-M'Poko, Central African Republic"
    },
    {
      "lat": 4.352985162072086,
      "lon": 18.564339738783218,
      "geoinfo": {
        "display_name": "RN 6, Point Kilométre 0, Bangui, Central African Republic",
        "road": "RN 6",
        "house_number": null,
        "neighbourhood": "Point Kilométre 0",
        "suburb": null,
        "city_district": null,
        "city": "Bangui",
        "state": null,
        "postcode": null,
        "country": "Central African Republic",
        "country_code": "cf"
      },
      "address": "RN 6, Bangui, Ombella-M'Poko, Central African Republic"
    },
    {
      "lat": 4.386415896662421,
      "lon": 18.557432742341653,
      "geoinfo": {
        "display_name": "Avenue des Martyrs, Bangui, Central African Republic",
        "road": "Avenue des Martyrs",
        "house_number": null,
        "neighbourhood": null,
        "suburb": null,
        "city_district": null,
        "city": "Bangui",
        "state": null,
        "postcode": null,
        "country": "Central African Republic",
        "country_code": "cf"
      },
      "address": "Avenue des Martyrs, Bangui, Ombella-M'Poko, Central African Republic"
    },
    {
      "lat": 4.35230069563992,
      "lon": 18.558392084485444,
      "geoinfo": {
        "display_name": "RN 6, Point Kilométre 0, Bangui, Central African Republic",
        "road": "RN 6",
        "house_number": null,
        "neighbourhood": "Point Kilométre 0",
        "suburb": null,
        "city_district": null,
        "city": "Bangui",
        "state": null,
        "postcode": null,
        "country": "Central African Republic",
        "country_code": "cf"
      },
      "address": "RN 6, 63244 Bangui, Central African Republic"
    },
    {
      "lat": 4.363098945630577,
      "lon": 18.517531874198333,
      "geoinfo": {
        "display_name": "Bimbo, Ombella-M'Poko, Central African Republic",
        "road": null,
        "house_number": null,
        "neighbourhood": null,
        "suburb": null,
        "city_district": null,
        "city": "Bimbo",
        "state": "Ombella-M'Poko",
        "postcode": null,
        "country": "Central African Republic",
        "country_code": "cf"
      },
      "address": "513, Bimbo, 73405 Ombella-M'Poko, Central African Republic"
    },
    {
      "lat": 4.3645360970331835,
      "lon": 18.57854191731055,
      "geoinfo": {
        "display_name": "Point Kilométre 0, Bangui, Central African Republic",
        "road": null,
        "house_number": null,
        "neighbourhood": "Point Kilométre 0",
        "suburb": null,
        "city_district": null,
        "city": "Bangui",
        "state": null,
        "postcode": null,
        "country": "Central African Republic",
        "country_code": "cf"
      },
      "address": "Point Kilométre 0, 33225 Bangui, Central African Republic"
    },
    {
      "lat": 4.370933441556598,
      "lon": 18.568488083552435,
      "geoinfo": {
        "display_name": "Lakouanga, Bangui, Central African Republic",
        "road": null,
        "house_number": null,
        "neighbourhood": "Lakouanga",
        "suburb": null,
        "city_district": null,
        "city": "Bangui",
        "state": null,
        "postcode": null,
        "country": "Central African Republic",
        "country_code": "cf"
      },
      "address": "647, Lakouanga, 68204 Bangui, Central African Republic"
    }
  ],
  "updated_at": "2025-10-19T01:25:54.612856+00:00",
  "_kind": "geo_samples"
}