{
  "country_code": "CF",
  "country": "Central African Republic",
  "city": "Bimbo",
  "geonameid": 2388873,
  "target_addresses": 4,
  "samples": [
    {
      "lat": 4.293065410455464,
      "lon": 18.433703864982945,
      "geoinfo": {
        "display_name": "Sabongo, Ombella-M'Poko, Central African Republic",
        "road": null,
        "house_number": null,
        "neighbourhood": null,
        "suburb": null,
        "city_district": null,
        "city": "Sabongo",
        "state": "Ombella-M'Poko",
        "postcode": null,
        "country": "Central African Republic",
        "country_code": "cf"
      },
      "address": "Bimbo, Ombella-M'Poko, Central African Republic"
    },
    {
      "lat": 4.29004124586404,
      "lon": 18.413358219341678,
      "geoinfo": {
        "display_name": "Yombo, Ombella-M'Poko, Central African Republic",
        "road": null,
        "house_number": null,
        "neighbourhood": null,
        "suburb": null,
        "city_district": null,
        "city": "Yombo",
        "state": "Ombella-M'Poko",
        "postcode": null,
        "country": "Central African Republic",
        "country_code": "cf"
      },
      "address": "415, Bimbo, 76683 Ombella-M'Poko, Central African Republic"
    },
    {
      "lat": 4.2378803035117025,
      "lon": 18.380154441021162,
      "geoinfo": {
        "display_name": "Sébokélé, Ombella-M'Poko, Central African Republic",
        "road": null,
        "house_number": null,
        "neighbourhood": null,
        "suburb": null,
        "city_district": null,
        "city": "Sébokélé",
        "state": "Ombella-M'Poko",
        "postcode": null,
        "country": "Central African Republic",
        "country_code": "cf"
      },
      "address": "741, Bimbo, 47512 Ombella-M'Poko, Central African Republic"
    },
    {
      "lat": 4.2605864146475145,
      "lon": 18.44295672263946,
      "geoinfo": {
        "display_name": "Batéré Samba, Ombella-M'Poko, Central African Republic",
        "road": null,
        "house_number": null,
        "neighbourhood": null,
        "suburb": null,
        "city_district": null,
        "city": "Batéré Samba",
        "state": "Ombella-M'Poko",
        "postcode": null,
        "country": "Central African Republic",
        "country_code": "cf"
      },
      "address": "173, Bimbo, 82736 Ombella-M'Poko, Central African Republic"
    },
    {
      "lat": 4.269296039682461,
      "lon": 18.388364045262435,
      "geoinfo": {
        "display_name": "Gbokila, Ombella-M'Poko, Central African Republic",
        "road": null,
        "house_number": null,
        "neighbourhood": null,
        "suburb": null,
        "city_district": null,
        "city": "Gbokila",
        "state": "Ombella-M'Poko",
        "postcode": null,
        "country": "Central African Republic",
        "country_code": "cf"
      },
      "address": "566, Bimbo, 78939 Ombella-M'Poko, Central African Republic"
    }
  ],
  "updated_at": "2025-10-19T01:25:17.922437+00:00",
  "_kind": "geo_samples"
}