{
  "country_code": "CF",
  "country": "Central African Republic",
  "city": "Boali",
  "geonameid": 2388720,
  "target_addresses": 20,
  "samples": [
    {
      "lat": 4.829325769154919,
      "lon": 18.137412580542417,
      "geoinfo": {
        "display_name": "Boali, Ombella-M'Poko, Central African Republic",
        "road": null,
        "house_number": null,
        "neighbourhood": null,
        "suburb": null,
        "city_district": null,
        "city": "Boali",
        "state": "Ombella-M'Poko",
        "postcode": null,
        "country": "Central African Republic",
        "country_code": "cf"
      },
      "address": "Boali, Ombella-M'Poko, Central African Republic"
    },
    {
      "lat": 4.805126855174635,
      "lon": 18.087607237525567,
      "geoinfo": {
        "display_name": "RN 1, Dogba, Bogbayo, Ombella-M'Poko, Central African Republic",
        "road": "RN 1",
        "house_number": null,
        "neighbourhood": null,
        "suburb": null,
        "city_district": null,
        "city": "Bogbayo",
        "state": "Ombella-M'Poko",
        "postcode": null,
        "country": "Central African Republic",
        "country_code": "cf"
      },
      "address": "RN 1, Boali, Ombella-M'Poko, Central African Republic"
    },
    {
      "lat": 4.797650848358876,
      "lon": 18.16877087850468,
      "geoinfo": {
        "display_name": "Boali, Ombella-M'Poko, Central African Republic",
        "road": null,
        "house_number": null,
        "neighbourhood": null,
        "suburb": null,
        "city_district": null,
        "city": "Boali",
        "state": "Ombella-M'Poko",
        "postcode": null,
        "country": "Central African Republic",
        "country_code": "cf"
      },
      "address": "Boali, 96484 Ombella-M'Poko, Central African Republic"
    },
    {
      "lat": 4.770040697533476,
      "lon": 18.14636111943438,
      "geoinfo": {
        "display_name": "RN 1, Dogba, Bogbayo, Ombella-M'Poko, Central African Republic",
        "road": "RN 1",
        "house_number": null,
        "neighbourhood": null,
        "suburb": null,
        "city_district": null,
        "city": "Bogbayo",
        "state": "Ombella-M'Poko",
        "postcode": null,
        "country": "Central African Republic",
        "country_code": "cf"
      },
      "address": "RN 1, Boali, 15786 Ombella-M'Poko, Central African Republic"
    },
    {
      "lat": 4.780044465227106,
      "lon": 18.101423136832853,
      "geoinfo": {
        "display_name": "Bogbayo, Ombella-M'Poko, Central African Republic",
        "road": null,
        "house_number": null,
        "neighbourhood": null,
        "suburb": null,
        "city_district": null,
        "city": "Bogbayo",
        "state": "Ombella-M'Poko",
        "postcode": null,
        "country": "Central African Republic",
        "country_code": "cf"
      },
      "address": "Boali, 38871 Ombella-M'Poko, Central African Republic"
    },
    {
      "lat": 4.813322116041142,
      "lon": 18.096145252554322,
      "geoinfo": {
        "display_name": "Bogbayo, Ombella-M'Poko, Central African Republic",
        "road": null,
        "house_number": null,
        "neighbourhood": null,
        "suburb": null,
        "city_district": null,
        "city": "Bogbayo",
        "state": "Ombella-M'Poko",
        "postcode": null,
        "country": "Central African Republic",
        "country_code": "cf"
      },
      "address": "Boali, 72019 Ombella-M'Poko, Central African Republic"
    },
    {
      "lat": 4.785612759884949,
      "lon": 18.149935658382024,
      "geoinfo": {
        "display_name": "Boali, Ombella-M'Poko, Central African Republic",
        "road": null,
        "house_number": null,
        "neighbourhood": null,
        "suburb": null,
        "city_district": null,
        "city": "Boali",
        "state": "Ombella-M'Poko",
        "postcode": null,
        "country": "Central African Republic",
        "country_code": "cf"
      },
      "address": "316, Boali, 54528 Ombella-M'Poko, Central African Republic"
    },
    {
      "lat": 4.803163652795339,
      "lon": 18.10301777616239,
      "geoinfo": {
        "display_name": "Boali, Ombella-M'Poko, Central African Republic",
        "road": null,
        "house_number": null,
        "neighbourhood": null,
        "suburb": null,
        "city_district": null,
        "city": "Boali",
        "state": "Ombella-M'Poko",
        "postcode": null,
        "country": "Central African Republic",
        "country_code": "cf"
      },
      "address": "549, Boali, 05309 Ombella-M'Poko, Central African Republic"
    },
    {
      "lat": 4.806000433463881,
      "lon": 18.157276219369145,
      "geoinfo": {
        "display_name": "Boali, Ombella-M'Poko, Central African Republic",
        "road": null,
        "house_number": null,
        "neighbourhood": null,
        "suburb": null,
        "city_district": null,
        "city": "Boali",
        "state": "Ombella-M'Poko",
        "postcode": null,
        "country": "Central African Republic",
        "country_code": "cf"
      },
      "address": "327, Boali, 99644 Ombella-M'Poko, Central African Republic"
    },
    {
      "lat": 4.799048629889488,
      "lon": 18.143162140996385,
      "geoinfo": {
        "display_name": "Bogbayo, Ombella-M'Poko, Central African Republic",
        "road": null,
        "house_number": null,
        "neighbourhood": null,
        "suburb": null,
        "city_district": null,
        "city": "Bogbayo",
        "state": "Ombella-M'Poko",
        "postcode": null,
        "country": "Central African Republic",
        "country_code": "cf"
      },
      "address": "621, Boali, 34087 Ombella-M'Poko, Central African Republic"
    },
    {
      "lat": 4.785206361733847,
      "lon": 18.089007396787984,
      "geoinfo": {
        "display_name": "Bogbayo, Ombella-M'Poko, Central African Republic",
        "road": null,
        "house_number": null,
        "neighbourhood": null,
        "suburb": null,
        "city_district": null,
        "city": "Bogbayo",
        "state": "Ombella-M'Poko",
        "postcode": null,
        "country": "Central African Republic",
        "country_code": "cf"
      },
      "address": "417, Boali, 02973 Ombella-M'Poko, Central African Republic"
    },
    {
      "lat": 4.793129537880238,
      "lon": 18.142196176913423,
      "geoinfo": {
        "display_name": "Bogbayo, Ombella-M'Poko, Central African Republic",
        "road": null,
        "house_number": null,
        "neighbourhood": null,
        "suburb": null,
        "city_district": null,
        "city": "Bogbayo",
        "state": "Ombella-M'Poko",
        "postcode": null,
        "country": "Central African Republic",
        "country_code": "cf"
      },
      "address": "250, Boali, 45877 Ombella-M'Poko, Central African Republic"
    },
    {
      "lat": 4.785281934292684,
      "lon": 18.159222645927322,
      "geoinfo": {
        "display_name": "Boali, Ombella-M'Poko, Central African Republic",
        "road": null,
        "house_number": null,
        "neighbourhood": null,
        "suburb": null,
        "city_district": null,
        "city": "Boali",
        "state": "Ombella-M'Poko",
        "postcode": null,
        "country": "Central African Republic",
        "country_code": "cf"
      },
      "address": "944, Boali, 63372 Ombella-M'Poko, Central African Republic"
    },
    {
      "lat": 4.777681534269694,
      "lon": 18.150128508310832,
      "geoinfo": {
        "display_name": "Boali, Ombella-M'Poko, Central African Republic",
        "road": null,
        "house_number": null,
        "neighbourhood": null,
        "suburb": null,
        "city_district": null,
        "city": "Boali",
        "state": "Ombella-M'Poko",
        "postcode": null,
        "country": "Central African Republic",
        "country_code": "cf"
      },
      "address": "738, Boali, 00354 Ombella-M'Poko, Central African Republic"
    },
    {
      "lat": 4.771541784570343,
      "lon": 18.1572997038195,
      "geoinfo": {
        "display_name": "Boali, Ombella-M'Poko, Central African Republic",
        "road": null,
        "house_number": null,
        "neighbourhood": null,
        "suburb": null,
        "city_district": null,
        "city": "Boali",
        "state": "Ombella-M'Poko",
        "postcode": null,
        "country": "Central African Republic",
        "country_code": "cf"
      },
      "address": "237, Boali, 23631 Ombella-M'Poko, Central African Republic"
    },
    {
      "lat": 4.830207446719968,
      "lon": 18.142129475790263,
      "geoinfo": {
        "display_name": "Boali, Ombella-M'Poko, Central African Republic",
        "road": null,
        "house_number": null,
        "neighbourhood": null,
        "suburb": null,
        "city_district": null,
        "city": "Boali",
        "state": "Ombella-M'Poko",
        "postcode": null,
        "country": "Central African Republic",
        "country_code": "cf"
      },
      "address": "340, Boali, 78808 Ombella-M'Poko, Central African Republic"
    },
    {
      "lat": 4.8021422227664905,
      "lon": 18.082606091897443,
      "geoinfo": {
        "display_name": "Ombella-M'Poko, Central African Republic",
        "road": null,
        "house_number": null,
        "neighbourhood": null,
        "suburb": null,
        "city_district": null,
        "city": null,
        "state": "Ombella-M'Poko",
        "postcode": null,
        "country": "Central African Republic",
        "country_code": "cf"
      },
      "address": "301, Boali, 83857 Ombella-M'Poko, Central African Republic"
    },
    {
      "lat": 4.811352255765632,
      "lon": 18.136415888013158,
      "geoinfo": {
        "display_name": "Bogbayo, Ombella-M'Poko, Central African Republic",
        "road": null,
        "house_number": null,
        "neighbourhood": null,
        "suburb": null,
        "city_district": null,
        "city": "Bogbayo",
        "state": "Ombella-M'Poko",
        "postcode": null,
        "country": "Central African Republic",
        "country_code": "cf"
      },
      "address": "408, Boali, 61322 Ombella-M'Poko, Central African Republic"
    },
    {
      "lat": 4.836788630811941,
      "lon": 18.116386222868044,
      "geoinfo": {
        "display_name": "Boali, Ombella-M'Poko, Central African Republic",
        "road": null,
        "house_number": null,
        "neighbourhood": null,
        "suburb": null,
        "city_district": null,
        "city": "Boali",
        "state": "Ombella-M'Poko",
        "postcode": null,
        "country": "Central African Republic",
        "country_code": "cf"
      },
      "address": "586, Boali, 03782 Ombella-M'Poko, Central African Republic"
    },
    {
      "lat": 4.8146575335886705,
      "lon": 18.106192060824196,
      "geoinfo": {
        "display_name": "Bogbayo, Ombella-M'Poko, Central African Republic",
        "road": null,
        "house_number": null,
        "neighbourhood": null,
        "suburb": null,
        "city_district": null,
        "city": "Bogbayo",
        "state": "Ombella-M'Poko",
        "postcode": null,
        "country": "Central African Republic",
        "country_code": "cf"
      },
      "address": "790, Boali, 46682 Ombella-M'Poko, Central African Republic"
    }
  ],
  "updated_at": "2025-10-19T03:40:50.214479+00:00",
  "_kind": "geo_samples"
}