{
  "country_code": "CF",
  "country": "Central African Republic",
  "city": "Bossangoa",
  "geonameid": 2388036,
  "target_addresses": 4,
  "samples": [
    {
      "lat": 6.497496752777526,
      "lon": 17.42375432782852,
      "geoinfo": {
        "display_name": "RR 8, Cimetière, Bossangoa, Ouham, Central African Republic",
        "road": "RR 8",
        "house_number": null,
        "neighbourhood": "Cimetière",
        "suburb": null,
        "city_district": null,
        "city": "Bossangoa",
        "state": "Ouham",
        "postcode": null,
        "country": "Central African Republic",
        "country_code": "cf"
      },
      "address": "RR 8, Bossangoa, Ouham, Central African Republic"
    },
    {
      "lat": 6.507026531819943,
      "lon": 17.42108983114691,
      "geoinfo": {
        "display_name": "Bornoi, Bossangoa, Ouham, Central African Republic",
        "road": null,
        "house_number": null,
        "neighbourhood": "Bornoi",
        "suburb": null,
        "city_district": null,
        "city": "Bossangoa",
        "state": "Ouham",
        "postcode": null,
        "country": "Central African Republic",
        "country_code": "cf"
      },
      "address": "Bornoi, Bossangoa, Ouham, Central African Republic"
    },
    {
      "lat": 6.474624585698291,
      "lon": 17.45570581677476,
      "geoinfo": {
        "display_name": "RR 9, Bodomo, Bozoro, Ouham, Central African Republic",
        "road": "RR 9",
        "house_number": null,
        "neighbourhood": "Bodomo",
        "suburb": null,
        "city_district": null,
        "city": "Bozoro",
        "state": "Ouham",
        "postcode": null,
        "country": "Central African Republic",
        "country_code": "cf"
      },
      "address": "RR 9, Bossangoa, Ouham, Central African Republic"
    },
    {
      "lat": 6.531858958198776,
      "lon": 17.459920373433857,
      "geoinfo": {
        "display_name": "Sara, Bossangoa, Ouham, Central African Republic",
        "road": null,
        "house_number": null,
        "neighbourhood": "Sara",
        "suburb": null,
        "city_district": null,
        "city": "Bossangoa",
        "state": "Ouham",
        "postcode": null,
        "country": "Central African Republic",
        "country_code": "cf"
      },
      "address": "Sara, Bossangoa, Ouham, Central African Republic"
    },
    {
      "lat": 6.516859481189761,
      "lon": 17.4411595226923,
      "geoinfo": {
        "display_name": "Ngambay, Bossangoa, Ouham, Central African Republic",
        "road": null,
        "house_number": null,
        "neighbourhood": "Ngambay",
        "suburb": null,
        "city_district": null,
        "city": "Bossangoa",
        "state": "Ouham",
        "postcode": null,
        "country": "Central African Republic",
        "country_code": "cf"
      },
      "address": "736, Ngambay, Bossangoa, 36323 Ouham, Central African Republic"
    },
    {
      "lat": 6.449490388980181,
      "lon": 17.452362696030264,
      "geoinfo": {
        "display_name": "Vouh, Bossangoa, Ouham, Central African Republic",
        "road": null,
        "house_number": null,
        "neighbourhood": "Vouh",
        "suburb": null,
        "city_district": null,
        "city": "Bossangoa",
        "state": "Ouham",
        "postcode": null,
        "country": "Central African Republic",
        "country_code": "cf"
      },
      "address": "889, Vouh, Bossangoa, 60118 Ouham, Central African Republic"
    },
    {
      "lat": 6.492013084361567,
      "lon": 17.43975916378756,
      "geoinfo": {
        "display_name": "Maçon, Bossangoa, Ouham, Central African Republic",
        "road": null,
        "house_number": null,
        "neighbourhood": "Maçon",
        "suburb": null,
        "city_district": null,
        "city": "Bossangoa",
        "state": "Ouham",
        "postcode": null,
        "country": "Central African Republic",
        "country_code": "cf"
      },
      "address": "084, Maçon, Bossangoa, 73148 Ouham, Central African Republic"
    },
    {
      "lat": 6.519513331810801,
      "lon": 17.477742336836034,
      "geoinfo": {
        "display_name": "Sara, Bossangoa, Ouham, Central African Republic",
        "road": null,
        "house_number": null,
        "neighbourhood": "Sara",
        "suburb": null,
        "city_district": null,
        "city": "Bossangoa",
        "state": "Ouham",
        "postcode": null,
        "country": "Central African Republic",
        "country_code": "cf"
      },
      "address": "815, Sara, Bossangoa, 19161 Ouham, Central African Republic"
    }
  ],
  "updated_at": "2025-10-19T03:10:08.970212+00:00",
  "_kind": "geo_samples"
}