{
  "country_code": "CF",
  "country": "Central African Republic",
  "city": "Bozoum",
  "geonameid": 2387546,
  "target_addresses": 4,
  "samples": [
    {
      "lat": 6.348865631873326,
      "lon": 16.354276433523385,
      "geoinfo": {
        "display_name": "Ouham, Ouham-Pendé, Central African Republic",
        "road": null,
        "house_number": null,
        "neighbourhood": null,
        "suburb": null,
        "city_district": null,
        "city": "Ouham",
        "state": "Ouham-Pendé",
        "postcode": null,
        "country": "Central African Republic",
        "country_code": "cf"
      },
      "address": "Bozoum, Ouham-Pendé, Central African Republic"
    },
    {
      "lat": 6.334651053641412,
      "lon": 16.349000387464244,
      "geoinfo": {
        "display_name": "RR 6, Ouham, Ouham-Pendé, Central African Republic",
        "road": "RR 6",
        "house_number": null,
        "neighbourhood": null,
        "suburb": null,
        "city_district": null,
        "city": "Ouham",
        "state": "Ouham-Pendé",
        "postcode": null,
        "country": "Central African Republic",
        "country_code": "cf"
      },
      "address": "RR 6, Bozoum, Ouham-Pendé, Central African Republic"
    },
    {
      "lat": 6.302852981043433,
      "lon": 16.406677958110496,
      "geoinfo": {
        "display_name": "RN 7, Bozoum, Ouham-Pendé, Central African Republic",
        "road": "RN 7",
        "house_number": null,
        "neighbourhood": null,
        "suburb": null,
        "city_district": null,
        "city": "Bozoum",
        "state": "Ouham-Pendé",
        "postcode": null,
        "country": "Central African Republic",
        "country_code": "cf"
      },
      "address": "RN 7, Bozoum, Ouham-Pendé, Central African Republic"
    },
    {
      "lat": 6.318312979462596,
      "lon": 16.417351505384783,
      "geoinfo": {
        "display_name": "RR 8, Bozoum, Ouham-Pendé, Central African Republic",
        "road": "RR 8",
        "house_number": null,
        "neighbourhood": null,
        "suburb": null,
        "city_district": null,
        "city": "Bozoum",
        "state": "Ouham-Pendé",
        "postcode": null,
        "country": "Central African Republic",
        "country_code": "cf"
      },
      "address": "RR 8, Bozoum, Ouham-Pendé, Central African Republic"
    },
    {
      "lat": 6.287558978907271,
      "lon": 16.38580603191723,
      "geoinfo": {
        "display_name": "Bozoum, Ouham-Pendé, Central African Republic",
        "road": null,
        "house_number": null,
        "neighbourhood": null,
        "suburb": null,
        "city_district": null,
        "city": "Bozoum",
        "state": "Ouham-Pendé",
        "postcode": null,
        "country": "Central African Republic",
        "country_code": "cf"
      },
      "address": "610, Bozoum, 02702 Ouham-Pendé, Central African Republic"
    },
    {
      "lat": 6.337065939704892,
      "lon": 16.38486768860849,
      "geoinfo": {
        "display_name": "Bozoum, Ouham-Pendé, Central African Republic",
        "road": null,
        "house_number": null,
        "neighbourhood": null,
        "suburb": null,
        "city_district": null,
        "city": "Bozoum",
        "state": "Ouham-Pendé",
        "postcode": null,
        "country": "Central African Republic",
        "country_code": "cf"
      },
      "address": "864, Bozoum, 89964 Ouham-Pendé, Central African Republic"
    },
    {
      "lat": 6.322994237063752,
      "lon": 16.40462464383428,
      "geoinfo": {
        "display_name": "Dana, Ouham-Pendé, Central African Republic",
        "road": null,
        "house_number": null,
        "neighbourhood": null,
        "suburb": null,
        "city_district": null,
        "city": "Dana",
        "state": "Ouham-Pendé",
        "postcode": null,
        "country": "Central African Republic",
        "country_code": "cf"
      },
      "address": "792, Bozoum, 12176 Ouham-Pendé, Central African Republic"
    },
    {
      "lat": 6.304215990586611,
      "lon": 16.38805966462024,
      "geoinfo": {
        "display_name": "Bozoum, Ouham-Pendé, Central African Republic",
        "road": null,
        "house_number": null,
        "neighbourhood": null,
        "suburb": null,
        "city_district": null,
        "city": "Bozoum",
        "state": "Ouham-Pendé",
        "postcode": null,
        "country": "Central African Republic",
        "country_code": "cf"
      },
      "address": "830, Bozoum, 62963 Ouham-Pendé, Central African Republic"
    }
  ],
  "updated_at": "2025-10-19T03:09:41.919483+00:00",
  "_kind": "geo_samples"
}