{
  "country_code": "CF",
  "country": "Central African Republic",
  "city": "Kaga-Bandoro",
  "geonameid": 2386012,
  "target_addresses": 4,
  "samples": [
    {
      "lat": 7.01181120753087,
      "lon": 19.148433254194483,
      "geoinfo": {
        "display_name": "Kandji-Mara, Bobara, Kaga-Bandoro, Nana-Grébizi, Central African Republic",
        "road": null,
        "house_number": null,
        "neighbourhood": "Kandji-Mara",
        "suburb": "Bobara",
        "city_district": null,
        "city": "Kaga-Bandoro",
        "state": "Nana-Grébizi",
        "postcode": null,
        "country": "Central African Republic",
        "country_code": "cf"
      },
      "address": "018, Kandji-Mara, Bobara, Kaga-Bandoro, 93943 Nana-Grébizi, Central African Republic"
    },
    {
      "lat": 6.984850353736059,
      "lon": 19.165333837022498,
      "geoinfo": {
        "display_name": "Dagaza, Ouakara, Kaga-Bandoro, Nana-Grébizi, Central African Republic",
        "road": null,
        "house_number": null,
        "neighbourhood": "Dagaza",
        "suburb": "Ouakara",
        "city_district": null,
        "city": "Kaga-Bandoro",
        "state": "Nana-Grébizi",
        "postcode": null,
        "country": "Central African Republic",
        "country_code": "cf"
      },
      "address": "370, Dagaza, Ouakara, Kaga-Bandoro, 11534 Nana-Grébizi, Central African Republic"
    },
    {
      "lat": 6.951817050825269,
      "lon": 19.174771406742913,
      "geoinfo": {
        "display_name": "Bissingale, Kaga-Bandoro, Nana-Grébizi, Central African Republic",
        "road": null,
        "house_number": null,
        "neighbourhood": null,
        "suburb": "Bissingale",
        "city_district": null,
        "city": "Kaga-Bandoro",
        "state": "Nana-Grébizi",
        "postcode": null,
        "country": "Central African Republic",
        "country_code": "cf"
      },
      "address": "752, Bissingale, Kaga-Bandoro, 72243 Nana-Grébizi, Central African Republic"
    },
    {
      "lat": 6.982348916810408,
      "lon": 19.155406258134164,
      "geoinfo": {
        "display_name": "Zefio, Nana-Grébizi, Central African Republic",
        "road": null,
        "house_number": null,
        "neighbourhood": null,
        "suburb": null,
        "city_district": null,
        "city": "Zefio",
        "state": "Nana-Grébizi",
        "postcode": null,
        "country": "Central African Republic",
        "country_code": "cf"
      },
      "address": "205, Kaga-Bandoro, 31198 Nana-Grébizi, Central African Republic"
    }
  ],
  "updated_at": "2025-10-19T03:18:40.278474+00:00",
  "_kind": "geo_samples"
}