{
  "country_code": "CM",
  "country": "Cameroon",
  "city": "Bafia",
  "geonameid": 2235194,
  "target_addresses": 2,
  "samples": [
    {
      "lat": 4.722374980654771,
      "lon": 11.260368600779291,
      "geoinfo": {
        "display_name": "Dagno, Bafia, Mbam-et-Inoubou, Centre, Cameroon",
        "road": null,
        "house_number": null,
        "neighbourhood": null,
        "suburb": null,
        "city_district": null,
        "city": "Bafia",
        "state": "Centre",
        "postcode": null,
        "country": "Cameroon",
        "country_code": "cm"
      },
      "address": "Bafia, Centre, Cameroon"
    },
    {
      "lat": 4.751688381064514,
      "lon": 11.260673746374986,
      "geoinfo": {
        "display_name": "D47, Centre Administratif, Bafia, Mbam-et-Inoubou, Centre, Cameroon",
        "road": "D47",
        "house_number": null,
        "neighbourhood": null,
        "suburb": null,
        "city_district": null,
        "city": "Bafia",
        "state": "Centre",
        "postcode": null,
        "country": "Cameroon",
        "country_code": "cm"
      },
      "address": "D47, Bafia, Centre, Cameroon"
    },
    {
      "lat": 4.788323972114181,
      "lon": 11.23635709339339,
      "geoinfo": {
        "display_name": "Quartier Residentiel, Bafia, Mbam-et-Inoubou, Centre, Cameroon",
        "road": null,
        "house_number": null,
        "neighbourhood": null,
        "suburb": null,
        "city_district": null,
        "city": "Bafia",
        "state": "Centre",
        "postcode": null,
        "country": "Cameroon",
        "country_code": "cm"
      },
      "address": "900, Quartier Residentiel, Bafia, Mbam-et-Inoubou, 07635 Centre, Cameroon"
    },
    {
      "lat": 4.741533958623246,
      "lon": 11.226654439243049,
      "geoinfo": {
        "display_name": "Donenkeng I, Bafia, Mbam-et-Inoubou, Centre, Cameroon",
        "road": null,
        "house_number": null,
        "neighbourhood": null,
        "suburb": null,
        "city_district": null,
        "city": "Bafia",
        "state": "Centre",
        "postcode": null,
        "country": "Cameroon",
        "country_code": "cm"
      },
      "address": "464, Donenkeng I, Bafia, Mbam-et-Inoubou, 05702 Centre, Cameroon"
    }
  ],
  "updated_at": "2025-10-19T01:50:03.226309+00:00",
  "_kind": "geo_samples"
}