{
  "country_code": "CM",
  "country": "Cameroon",
  "city": "Batouri",
  "geonameid": 2234663,
  "target_addresses": 2,
  "samples": [
    {
      "lat": 4.441715778775131,
      "lon": 14.360192593078438,
      "geoinfo": {
        "display_name": "Bondossi, Batouri, Kadey, East, Cameroon",
        "road": null,
        "house_number": null,
        "neighbourhood": null,
        "suburb": null,
        "city_district": null,
        "city": "Batouri",
        "state": "East",
        "postcode": null,
        "country": "Cameroon",
        "country_code": "cm"
      },
      "address": "Batouri, East, Cameroon"
    },
    {
      "lat": 4.460635171073549,
      "lon": 14.391458179840685,
      "geoinfo": {
        "display_name": "Batouri-Yokadouma, Tripano, Go, Djira, Batouri, Kadey, East, Cameroon",
        "road": "Batouri-Yokadouma",
        "house_number": null,
        "neighbourhood": null,
        "suburb": null,
        "city_district": null,
        "city": "Batouri",
        "state": "East",
        "postcode": null,
        "country": "Cameroon",
        "country_code": "cm"
      },
      "address": "Batouri-Yokadouma, Batouri, East, Cameroon"
    },
    {
      "lat": 4.464638707766964,
      "lon": 14.344550349534156,
      "geoinfo": {
        "display_name": "Sambo 1, Batouri, Kadey, East, Cameroon",
        "road": null,
        "house_number": null,
        "neighbourhood": null,
        "suburb": null,
        "city_district": null,
        "city": "Batouri",
        "state": "East",
        "postcode": null,
        "country": "Cameroon",
        "country_code": "cm"
      },
      "address": "Sambo 1, Batouri, Kadey, 22019 East, Cameroon"
    },
    {
      "lat": 4.4573541703518424,
      "lon": 14.39032168621657,
      "geoinfo": {
        "display_name": "Nzembé, Narke I, Batouri, Kadey, East, Cameroon",
        "road": null,
        "house_number": null,
        "neighbourhood": null,
        "suburb": null,
        "city_district": null,
        "city": "Batouri",
        "state": "East",
        "postcode": null,
        "country": "Cameroon",
        "country_code": "cm"
      },
      "address": "812, Nzembé, Narke I, Batouri, Kadey, 09457 East, Cameroon"
    }
  ],
  "updated_at": "2025-10-19T01:31:10.198455+00:00",
  "_kind": "geo_samples"
}