{
  "country_code": "CM",
  "country": "Cameroon",
  "city": "Buea",
  "geonameid": 2233410,
  "target_addresses": 7,
  "samples": [
    {
      "lat": 4.188219758792793,
      "lon": 9.265622559525388,
      "geoinfo": {
        "display_name": "Bitingui, Buea, Fako, Southwest, Cameroon",
        "road": null,
        "house_number": null,
        "neighbourhood": null,
        "suburb": null,
        "city_district": null,
        "city": "Buea",
        "state": "Southwest",
        "postcode": null,
        "country": "Cameroon",
        "country_code": "cm"
      },
      "address": "Buea, Southwest, Cameroon"
    },
    {
      "lat": 4.1351050745720075,
      "lon": 9.246649338857186,
      "geoinfo": {
        "display_name": "The appostolique church, Tea Road(Long Street), Small-Soppo, Small Sopo, Buea, Fako, Southwest, Cameroon",
        "road": "Tea Road(Long Street)",
        "house_number": null,
        "neighbourhood": null,
        "suburb": "Small-Soppo",
        "city_district": null,
        "city": "Buea",
        "state": "Southwest",
        "postcode": null,
        "country": "Cameroon",
        "country_code": "cm"
      },
      "address": "Tea Road(Long Street), Buea, Southwest, Cameroon"
    },
    {
      "lat": 4.1124372676903755,
      "lon": 9.23919234970494,
      "geoinfo": {
        "display_name": "Tole, Buea, Fako, Southwest, Cameroon",
        "road": null,
        "house_number": null,
        "neighbourhood": null,
        "suburb": null,
        "city_district": null,
        "city": "Buea",
        "state": "Southwest",
        "postcode": null,
        "country": "Cameroon",
        "country_code": "cm"
      },
      "address": "042, Tole, Buea, Fako, 21524 Southwest, Cameroon"
    },
    {
      "lat": 4.170080768507105,
      "lon": 9.282366417878023,
      "geoinfo": {
        "display_name": "Bitingui, Buea, Fako, Southwest, Cameroon",
        "road": null,
        "house_number": null,
        "neighbourhood": null,
        "suburb": null,
        "city_district": null,
        "city": "Buea",
        "state": "Southwest",
        "postcode": null,
        "country": "Cameroon",
        "country_code": "cm"
      },
      "address": "879, Bitingui, Buea, Fako, 25045 Southwest, Cameroon"
    },
    {
      "lat": 4.162577307908353,
      "lon": 9.281869164582341,
      "geoinfo": {
        "display_name": "Molyko, Buea, Fako, Southwest, Cameroon",
        "road": null,
        "house_number": null,
        "neighbourhood": null,
        "suburb": null,
        "city_district": null,
        "city": "Buea",
        "state": "Southwest",
        "postcode": null,
        "country": "Cameroon",
        "country_code": "cm"
      },
      "address": "864, Molyko, Buea, Fako, 05037 Southwest, Cameroon"
    },
    {
      "lat": 4.152500758991082,
      "lon": 9.279005259094948,
      "geoinfo": {
        "display_name": "Molyko, Buea, Fako, Southwest, Cameroon",
        "road": null,
        "house_number": null,
        "neighbourhood": null,
        "suburb": null,
        "city_district": null,
        "city": "Buea",
        "state": "Southwest",
        "postcode": null,
        "country": "Cameroon",
        "country_code": "cm"
      },
      "address": "481, Molyko, Buea, Fako, 03977 Southwest, Cameroon"
    },
    {
      "lat": 4.184525443635807,
      "lon": 9.236250542322091,
      "geoinfo": {
        "display_name": "Ewonda, Buea, Fako, Southwest, Cameroon",
        "road": null,
        "house_number": null,
        "neighbourhood": null,
        "suburb": null,
        "city_district": null,
        "city": "Buea",
        "state": "Southwest",
        "postcode": null,
        "country": "Cameroon",
        "country_code": "cm"
      },
      "address": "884, Ewonda, Buea, Fako, 65975 Southwest, Cameroon"
    }
  ],
  "updated_at": "2025-10-19T03:49:54.521459+00:00",
  "_kind": "geo_samples"
}