{
  "country_code": "CM",
  "country": "Cameroon",
  "city": "Bélabo",
  "geonameid": 2234536,
  "target_addresses": 2,
  "samples": [
    {
      "lat": 4.899026739384474,
      "lon": 13.27297542629276,
      "geoinfo": {
        "display_name": "Ndoumba II, Bélabo, Lom-et-Djérem, East, Cameroon",
        "road": null,
        "house_number": null,
        "neighbourhood": null,
        "suburb": null,
        "city_district": null,
        "city": "Bélabo",
        "state": "East",
        "postcode": null,
        "country": "Cameroon",
        "country_code": "cm"
      },
      "address": "Bélabo, East, Cameroon"
    },
    {
      "lat": 4.9058285609694945,
      "lon": 13.291554723133373,
      "geoinfo": {
        "display_name": "Lycée technique de Belabo, N18, Mbwam, Bélabo, Lom-et-Djérem, East, Cameroon",
        "road": "N18",
        "house_number": null,
        "neighbourhood": null,
        "suburb": null,
        "city_district": null,
        "city": "Bélabo",
        "state": "East",
        "postcode": null,
        "country": "Cameroon",
        "country_code": "cm"
      },
      "address": "N18, Bélabo, East, Cameroon"
    },
    {
      "lat": 4.909409300981178,
      "lon": 13.326507254759552,
      "geoinfo": {
        "display_name": "Essandjan, Bélabo, Lom-et-Djérem, East, Cameroon",
        "road": null,
        "house_number": null,
        "neighbourhood": null,
        "suburb": null,
        "city_district": null,
        "city": "Bélabo",
        "state": "East",
        "postcode": null,
        "country": "Cameroon",
        "country_code": "cm"
      },
      "address": "630, Essandjan, Bélabo, Lom-et-Djérem, 11477 East, Cameroon"
    },
    {
      "lat": 4.959504776448716,
      "lon": 13.336255227020535,
      "geoinfo": {
        "display_name": "Yébi, Bélabo, Lom-et-Djérem, East, Cameroon",
        "road": null,
        "house_number": null,
        "neighbourhood": null,
        "suburb": null,
        "city_district": null,
        "city": "Bélabo",
        "state": "East",
        "postcode": null,
        "country": "Cameroon",
        "country_code": "cm"
      },
      "address": "625, Yébi, Bélabo, Lom-et-Djérem, 12676 East, Cameroon"
    }
  ],
  "updated_at": "2025-10-19T03:17:02.081157+00:00",
  "_kind": "geo_samples"
}