{
  "country_code": "CM",
  "country": "Cameroon",
  "city": "Douala",
  "geonameid": 2232593,
  "target_addresses": 2,
  "samples": [
    {
      "lat": 4.02347914016275,
      "lon": 9.675435379812322,
      "geoinfo": {
        "display_name": "Douala I, Communauté urbaine de Douala, Wouri, Littoral, Cameroon",
        "road": null,
        "house_number": null,
        "neighbourhood": null,
        "suburb": null,
        "city_district": null,
        "city": "Douala I",
        "state": "Littoral",
        "postcode": null,
        "country": "Cameroon",
        "country_code": "cm"
      },
      "address": "Douala, Littoral, Cameroon"
    },
    {
      "lat": 4.049778361400692,
      "lon": 9.715204293733997,
      "geoinfo": {
        "display_name": "Mboalal, 3443, Rue 1.430, Bessengue, Deido, Douala I, Communauté urbaine de Douala, Wouri, Littoral, Cameroon",
        "road": "Rue 1.430",
        "house_number": "3443",
        "neighbourhood": null,
        "suburb": "Bessengue",
        "city_district": null,
        "city": "Douala I",
        "state": "Littoral",
        "postcode": null,
        "country": "Cameroon",
        "country_code": "cm"
      },
      "address": "3443 Rue 1.430, Douala, Littoral, Cameroon"
    },
    {
      "lat": 4.055891751230312,
      "lon": 9.742775570883753,
      "geoinfo": {
        "display_name": "University of Douala Ndog-Bong campus, La Route du Campus 2 ESSEC, Domaine Universitaire, Makepe, Douala V, Communauté urbaine de Douala, Wouri, Littoral, Cameroon",
        "road": "La Route du Campus 2 ESSEC",
        "house_number": null,
        "neighbourhood": null,
        "suburb": "Domaine Universitaire",
        "city_district": null,
        "city": "Douala V",
        "state": "Littoral",
        "postcode": null,
        "country": "Cameroon",
        "country_code": "cm"
      },
      "address": "La Route du Campus 2 ESSEC, Douala, 24952 Littoral, Cameroon"
    },
    {
      "lat": 4.060120017905806,
      "lon": 9.733541126823999,
      "geoinfo": {
        "display_name": "Cité SIC, Makepe, Douala V, Communauté urbaine de Douala, Wouri, Littoral, Cameroon",
        "road": null,
        "house_number": null,
        "neighbourhood": null,
        "suburb": "Cité SIC",
        "city_district": null,
        "city": "Douala V",
        "state": "Littoral",
        "postcode": null,
        "country": "Cameroon",
        "country_code": "cm"
      },
      "address": "630, Cité SIC, Makepe, Douala V, Communauté urbaine de Douala, Wouri, 71681 Littoral, Cameroon"
    }
  ],
  "updated_at": "2025-10-19T01:31:02.596984+00:00",
  "_kind": "geo_samples"
}