{
  "country_code": "CM",
  "country": "Cameroon",
  "city": "Figuil",
  "geonameid": 2231636,
  "target_addresses": 2,
  "samples": [
    {
      "lat": 9.78089842104422,
      "lon": 13.999120499079714,
      "geoinfo": {
        "display_name": "Ouro_ngara, Figuil, Mayo-Louti, North, Cameroon",
        "road": null,
        "house_number": null,
        "neighbourhood": null,
        "suburb": null,
        "city_district": null,
        "city": "Figuil",
        "state": "North",
        "postcode": null,
        "country": "Cameroon",
        "country_code": "cm"
      },
      "address": "Figuil, North, Cameroon"
    },
    {
      "lat": 9.759528078728723,
      "lon": 13.932721914828928,
      "geoinfo": {
        "display_name": "Garoua-Maroua, Pomla_figuil, Figuil, Mayo-Louti, North, Cameroon",
        "road": "Garoua-Maroua",
        "house_number": null,
        "neighbourhood": null,
        "suburb": null,
        "city_district": null,
        "city": "Figuil",
        "state": "North",
        "postcode": null,
        "country": "Cameroon",
        "country_code": "cm"
      },
      "address": "Garoua-Maroua, Figuil, North, Cameroon"
    },
    {
      "lat": 9.778402340822389,
      "lon": 13.944117399721115,
      "geoinfo": {
        "display_name": "Pomla_figuil, Figuil, Mayo-Louti, North, Cameroon",
        "road": null,
        "house_number": null,
        "neighbourhood": null,
        "suburb": null,
        "city_district": null,
        "city": "Figuil",
        "state": "North",
        "postcode": null,
        "country": "Cameroon",
        "country_code": "cm"
      },
      "address": "053, Pomla_figuil, Figuil, Mayo-Louti, 66599 North, Cameroon"
    },
    {
      "lat": 9.77427962488139,
      "lon": 13.994374070663309,
      "geoinfo": {
        "display_name": "Ouro_ngara, Figuil, Mayo-Louti, North, Cameroon",
        "road": null,
        "house_number": null,
        "neighbourhood": null,
        "suburb": null,
        "city_district": null,
        "city": "Figuil",
        "state": "North",
        "postcode": null,
        "country": "Cameroon",
        "country_code": "cm"
      },
      "address": "176, Ouro_ngara, Figuil, Mayo-Louti, 54072 North, Cameroon"
    }
  ],
  "updated_at": "2025-10-19T03:16:54.868479+00:00",
  "_kind": "geo_samples"
}