{
  "country_code": "CM",
  "country": "Cameroon",
  "city": "Melong",
  "geonameid": 2227230,
  "target_addresses": 7,
  "samples": [
    {
      "lat": 5.164776365562489,
      "lon": 9.967030250019098,
      "geoinfo": {
        "display_name": "Lélem-Mangwété, Mélong, Moungo, Littoral, Cameroon",
        "road": null,
        "house_number": null,
        "neighbourhood": null,
        "suburb": null,
        "city_district": null,
        "city": "Mélong",
        "state": "Littoral",
        "postcode": null,
        "country": "Cameroon",
        "country_code": "cm"
      },
      "address": "Melong, Littoral, Cameroon"
    },
    {
      "lat": 5.126232788262542,
      "lon": 9.925130483169973,
      "geoinfo": {
        "display_name": "Tombel Bangem Road, Njom, Mouanguel, Mélong, Moungo, Littoral, Cameroon",
        "road": "Tombel Bangem Road",
        "house_number": null,
        "neighbourhood": null,
        "suburb": null,
        "city_district": null,
        "city": "Mélong",
        "state": "Littoral",
        "postcode": null,
        "country": "Cameroon",
        "country_code": "cm"
      },
      "address": "Tombel Bangem Road, Melong, Littoral, Cameroon"
    },
    {
      "lat": 5.133136647991617,
      "lon": 9.98519115945736,
      "geoinfo": {
        "display_name": "Douala-Bafoussam (N5), Nkongsoung, Mélong, Moungo, Littoral, Cameroon",
        "road": "Douala-Bafoussam (N5)",
        "house_number": null,
        "neighbourhood": null,
        "suburb": null,
        "city_district": null,
        "city": "Mélong",
        "state": "Littoral",
        "postcode": null,
        "country": "Cameroon",
        "country_code": "cm"
      },
      "address": "Douala-Bafoussam (N5), Melong, 86073 Littoral, Cameroon"
    },
    {
      "lat": 5.137039582889048,
      "lon": 9.933302579451095,
      "geoinfo": {
        "display_name": "Mbouendoum, Melong, Mélong, Moungo, Littoral, Cameroon",
        "road": null,
        "house_number": null,
        "neighbourhood": null,
        "suburb": null,
        "city_district": null,
        "city": "Mélong",
        "state": "Littoral",
        "postcode": null,
        "country": "Cameroon",
        "country_code": "cm"
      },
      "address": "105, Mbouendoum, Melong, Mélong, Moungo, 34210 Littoral, Cameroon"
    },
    {
      "lat": 5.123429435125858,
      "lon": 9.958592965411835,
      "geoinfo": {
        "display_name": "Melong, Mélong, Moungo, Littoral, Cameroon",
        "road": null,
        "house_number": null,
        "neighbourhood": null,
        "suburb": null,
        "city_district": null,
        "city": "Mélong",
        "state": "Littoral",
        "postcode": null,
        "country": "Cameroon",
        "country_code": "cm"
      },
      "address": "126, Melong, Mélong, Moungo, 87616 Littoral, Cameroon"
    },
    {
      "lat": 5.08370114446173,
      "lon": 9.94969980559605,
      "geoinfo": {
        "display_name": "Ekolkang, Mélong, Moungo, Littoral, Cameroon",
        "road": null,
        "house_number": null,
        "neighbourhood": null,
        "suburb": null,
        "city_district": null,
        "city": "Mélong",
        "state": "Littoral",
        "postcode": null,
        "country": "Cameroon",
        "country_code": "cm"
      },
      "address": "069, Melong, 83444 Littoral, Cameroon"
    },
    {
      "lat": 5.157751733793068,
      "lon": 9.984449498917652,
      "geoinfo": {
        "display_name": "Mélong, Moungo, Littoral, Cameroon",
        "road": null,
        "house_number": null,
        "neighbourhood": null,
        "suburb": null,
        "city_district": null,
        "city": "Mélong",
        "state": "Littoral",
        "postcode": null,
        "country": "Cameroon",
        "country_code": "cm"
      },
      "address": "872, Melong, 74444 Littoral, Cameroon"
    }
  ],
  "updated_at": "2025-10-19T03:49:30.554443+00:00",
  "_kind": "geo_samples"
}