{
  "country_code": "CM",
  "country": "Cameroon",
  "city": "Pitoa",
  "geonameid": 2222568,
  "target_addresses": 2,
  "samples": [
    {
      "lat": 9.347746941610907,
      "lon": 13.49904883827066,
      "geoinfo": {
        "display_name": "Concession Projet_neb, Pitoa, Bénoué, North, Cameroon",
        "road": null,
        "house_number": null,
        "neighbourhood": null,
        "suburb": null,
        "city_district": null,
        "city": "Pitoa",
        "state": "North",
        "postcode": null,
        "country": "Cameroon",
        "country_code": "cm"
      },
      "address": "Pitoa, North, Cameroon"
    },
    {
      "lat": 9.414062712003346,
      "lon": 13.530304550497407,
      "geoinfo": {
        "display_name": "Garoua-Maroua, Dollere, Pitoa, Bénoué, North, Cameroon",
        "road": "Garoua-Maroua",
        "house_number": null,
        "neighbourhood": null,
        "suburb": null,
        "city_district": null,
        "city": "Pitoa",
        "state": "North",
        "postcode": null,
        "country": "Cameroon",
        "country_code": "cm"
      },
      "address": "Garoua-Maroua, Pitoa, North, Cameroon"
    },
    {
      "lat": 9.345985247300838,
      "lon": 13.488423229274924,
      "geoinfo": {
        "display_name": "Kismatari, Garoua III, Communauté urbaine de Garoua, Bénoué, North, Cameroon",
        "road": null,
        "house_number": null,
        "neighbourhood": null,
        "suburb": null,
        "city_district": null,
        "city": "Garoua III",
        "state": "North",
        "postcode": null,
        "country": "Cameroon",
        "country_code": "cm"
      },
      "address": "171, Kismatari, Garoua III, Communauté urbaine de Garoua, Bénoué, 74252 North, Cameroon"
    },
    {
      "lat": 9.345400357363753,
      "lon": 13.52457261324973,
      "geoinfo": {
        "display_name": "Chefferie deOuro Djide, Loumbol, Pitoa, Bénoué, North, Cameroon",
        "road": null,
        "house_number": null,
        "neighbourhood": null,
        "suburb": null,
        "city_district": null,
        "city": "Pitoa",
        "state": "North",
        "postcode": null,
        "country": "Cameroon",
        "country_code": "cm"
      },
      "address": "108, Chefferie deOuro Djide, Loumbol, Pitoa, Bénoué, 71679 North, Cameroon"
    }
  ],
  "updated_at": "2025-10-19T03:11:34.253045+00:00",
  "_kind": "geo_samples"
}