{
  "country_code": "NR",
  "country": "Nauru",
  "city": "Yaren",
  "geonameid": 7626461,
  "target_addresses": 100,
  "samples": [
    {
      "lat": -0.5427640439398754,
      "lon": 166.92839345855253,
      "geoinfo": {
        "display_name": "Ibwenape, Meneng District, Meneng, Nauru",
        "road": null,
        "house_number": null,
        "neighbourhood": null,
        "suburb": null,
        "city_district": null,
        "city": "Ibwenape",
        "state": "Meneng",
        "postcode": null,
        "country": "Nauru",
        "country_code": "nr"
      },
      "address": "Yaren, Meneng, Nauru"
    },
    {
      "lat": -0.5271495171356062,
      "lon": 166.94689213396398,
      "geoinfo": {
        "display_name": "Island Ring Road, Anibare District, Anabar District, Anabar, Nauru",
        "road": "Island Ring Road",
        "house_number": null,
        "neighbourhood": null,
        "suburb": null,
        "city_district": null,
        "city": "Anibare District",
        "state": "Anabar",
        "postcode": null,
        "country": "Nauru",
        "country_code": "nr"
      },
      "address": "Island Ring Road, Yaren, Anabar, Nauru"
    },
    {
      "lat": -0.5558262808367558,
      "lon": 166.9385718891791,
      "geoinfo": {
        "display_name": "Bunker, Island Ring Road, Anabar, Meneng District, Meneng, Nauru",
        "road": "Island Ring Road",
        "house_number": null,
        "neighbourhood": null,
        "suburb": null,
        "city_district": null,
        "city": "Anabar",
        "state": "Meneng",
        "postcode": null,
        "country": "Nauru",
        "country_code": "nr"
      },
      "address": "Island Ring Road, Yaren, Meneng, Nauru"
    },
    {
      "lat": -0.5241739939237449,
      "lon": 166.8952138976142,
      "geoinfo": {
        "display_name": "Butimangum, Arijejen, Denigomodu District, Ubenide, Nauru",
        "road": null,
        "house_number": null,
        "neighbourhood": null,
        "suburb": null,
        "city_district": null,
        "city": "Arijejen",
        "state": "Ubenide",
        "postcode": null,
        "country": "Nauru",
        "country_code": "nr"
      },
      "address": "Yaren, Ubenide, Nauru"
    },
    {
      "lat": -0.5523824960833499,
      "lon": 166.889666668631,
      "geoinfo": {
        "display_name": "Orro, Aiwo District, Aiwo, Nauru",
        "road": null,
        "house_number": null,
        "neighbourhood": null,
        "suburb": null,
        "city_district": null,
        "city": "Orro",
        "state": "Aiwo",
        "postcode": null,
        "country": "Nauru",
        "country_code": "nr"
      },
      "address": "Yaren, Aiwo, Nauru"
    },
    {
      "lat": -0.5218405493776987,
      "lon": 166.91689102080585,
      "geoinfo": {
        "display_name": "Island Ring Road, Anabar, Denigomodu District, Ubenide, Nauru",
        "road": "Island Ring Road",
        "house_number": null,
        "neighbourhood": null,
        "suburb": null,
        "city_district": null,
        "city": "Anabar",
        "state": "Ubenide",
        "postcode": null,
        "country": "Nauru",
        "country_code": "nr"
      },
      "address": "Island Ring Road, Yaren, Ubenide, Nauru"
    },
    {
      "lat": -0.5719320659269231,
      "lon": 166.88931525433154,
      "geoinfo": {
        "display_name": "Boe, Boe District, Boe, Nauru",
        "road": null,
        "house_number": null,
        "neighbourhood": null,
        "suburb": null,
        "city_district": null,
        "city": "Boe",
        "state": "Boe",
        "postcode": null,
        "country": "Nauru",
        "country_code": "nr"
      },
      "address": "Yaren, Boe, Nauru"
    },
    {
      "lat": -0.536008306512411,
      "lon": 166.92067527212154,
      "geoinfo": {
        "display_name": "Arenibek, Buada District, Buada, Nauru",
        "road": null,
        "house_number": null,
        "neighbourhood": null,
        "suburb": null,
        "city_district": null,
        "city": "Arenibek",
        "state": "Buada",
        "postcode": null,
        "country": "Nauru",
        "country_code": "nr"
      },
      "address": "Yaren, Buada, Nauru"
    },
    {
      "lat": -0.5368429858660769,
      "lon": 166.941643627584,
      "geoinfo": {
        "display_name": "Anibare District, Anabar, Nauru",
        "road": null,
        "house_number": null,
        "neighbourhood": null,
        "suburb": null,
        "city_district": null,
        "city": "Anibare District",
        "state": "Anabar",
        "postcode": null,
        "country": "Nauru",
        "country_code": "nr"
      },
      "address": "Yaren, Anabar, Nauru"
    },
    {
      "lat": -0.5457603757205237,
      "lon": 166.92180792103017,
      "geoinfo": {
        "display_name": "Yaren District, Meneng District, Yaren, Nauru",
        "road": null,
        "house_number": null,
        "neighbourhood": null,
        "suburb": null,
        "city_district": null,
        "city": "Yaren District",
        "state": "Yaren",
        "postcode": null,
        "country": "Nauru",
        "country_code": "nr"
      },
      "address": "Yaren, Yaren, Nauru"
    },
    {
      "lat": -0.5512202895208012,
      "lon": 166.92523847618946,
      "geoinfo": {
        "display_name": "Yaren Basketball Court, Island Ring Road, Yaren District, Boe District, Yaren, Nauru",
        "road": "Island Ring Road",
        "house_number": null,
        "neighbourhood": null,
        "suburb": null,
        "city_district": null,
        "city": "Yaren District",
        "state": "Yaren",
        "postcode": null,
        "country": "Nauru",
        "country_code": "nr"
      },
      "address": "Island Ring Road, Yaren, Yaren, Nauru"
    },
    {
      "lat": -0.5081359561063493,
      "lon": 166.93333355150116,
      "geoinfo": {
        "display_name": "Baitsi, Ewa District, Anetan, Nauru",
        "road": null,
        "house_number": null,
        "neighbourhood": null,
        "suburb": null,
        "city_district": null,
        "city": "Baitsi",
        "state": "Anetan",
        "postcode": null,
        "country": "Nauru",
        "country_code": "nr"
      },
      "address": "Yaren, Anetan, Nauru"
    },
    {
      "lat": -0.5150720664891453,
      "lon": 166.94099458480872,
      "geoinfo": {
        "display_name": "Regional Processing Centre 3 (RPC3), Island Ring Road, Anabar, Ewa District, Anetan, Nauru",
        "road": "Island Ring Road",
        "house_number": null,
        "neighbourhood": null,
        "suburb": null,
        "city_district": null,
        "city": "Anabar",
        "state": "Anetan",
        "postcode": null,
        "country": "Nauru",
        "country_code": "nr"
      },
      "address": "Island Ring Road, Yaren, Anetan, Nauru"
    },
    {
      "lat": -0.5455080138238727,
      "lon": 166.91035940697856,
      "geoinfo": {
        "display_name": "Island Ring Road, Yaren District, Boe District, Boe, Nauru",
        "road": "Island Ring Road",
        "house_number": null,
        "neighbourhood": null,
        "suburb": null,
        "city_district": null,
        "city": "Yaren District",
        "state": "Boe",
        "postcode": null,
        "country": "Nauru",
        "country_code": "nr"
      },
      "address": "Island Ring Road, Yaren, Boe, Nauru"
    },
    {
      "lat": -0.538396188545966,
      "lon": 166.90605485815126,
      "geoinfo": {
        "display_name": "Island Ring Road, Orro, Aiwo District, Aiwo, Nauru",
        "road": "Island Ring Road",
        "house_number": null,
        "neighbourhood": null,
        "suburb": null,
        "city_district": null,
        "city": "Orro",
        "state": "Aiwo",
        "postcode": null,
        "country": "Nauru",
        "country_code": "nr"
      },
      "address": "Island Ring Road, Yaren, Aiwo, Nauru"
    }
  ],
  "updated_at": "2025-10-16T20:51:13.566700+00:00",
  "_kind": "geo_samples"
}