{
  "country_code": "MF",
  "country": "Saint Martin",
  "city": "Marigot",
  "geonameid": 3578851,
  "target_addresses": 100,
  "samples": [
    {
      "lat": 18.102544406503306,
      "lon": -63.11186242645229,
      "geoinfo": {
        "display_name": "La Belle Créole, Saint Martin (France), Saint Martin, 97150, France",
        "road": null,
        "house_number": null,
        "neighbourhood": null,
        "suburb": "La Belle Créole",
        "city_district": null,
        "city": null,
        "state": "Saint Martin (France)",
        "postcode": "97150",
        "country": "France",
        "country_code": "fr"
      },
      "address": "La Belle Créole, Marigot, Saint Martin (France), Saint Martin"
    },
    {
      "lat": 18.076787712333324,
      "lon": -63.08588137433083,
      "geoinfo": {
        "display_name": "Boulevard du Docteur Hubert Petit, Galisbay, Marigot, Saint Martin (France), Saint Martin, 97150, France",
        "road": "Boulevard du Docteur Hubert Petit",
        "house_number": null,
        "neighbourhood": null,
        "suburb": "Galisbay",
        "city_district": null,
        "city": "Marigot",
        "state": "Saint Martin (France)",
        "postcode": "97150",
        "country": "France",
        "country_code": "fr"
      },
      "address": "Boulevard du Docteur Hubert Petit, Marigot, Saint Martin (France), Saint Martin"
    },
    {
      "lat": 18.06130695517295,
      "lon": -63.07263500014049,
      "geoinfo": {
        "display_name": "Les Hauts de Concordia, Marigot, Saint Martin (France), Saint Martin, 97150, France",
        "road": null,
        "house_number": null,
        "neighbourhood": null,
        "suburb": "Les Hauts de Concordia",
        "city_district": null,
        "city": "Marigot",
        "state": "Saint Martin (France)",
        "postcode": "97150",
        "country": "France",
        "country_code": "fr"
      },
      "address": "Les Hauts de Concordia, Marigot, Saint Martin (France), Saint Martin"
    },
    {
      "lat": 18.053726271535556,
      "lon": -63.09086808335997,
      "geoinfo": {
        "display_name": "Rue de Hollande, ZAC de Bellevue, Bellevue, Marigot, Saint Martin (France), Saint Martin, 97150, France",
        "road": "Rue de Hollande",
        "house_number": null,
        "neighbourhood": null,
        "suburb": "Bellevue",
        "city_district": null,
        "city": "Marigot",
        "state": "Saint Martin (France)",
        "postcode": "97150",
        "country": "France",
        "country_code": "fr"
      },
      "address": "Rue de Hollande, Marigot, Saint Martin (France), Saint Martin"
    },
    {
      "lat": 18.095596508717062,
      "lon": -63.05686310372138,
      "geoinfo": {
        "display_name": "La Savane, Grand Case, Saint Martin (France), Saint Martin, 97150, France",
        "road": null,
        "house_number": null,
        "neighbourhood": null,
        "suburb": "La Savane",
        "city_district": null,
        "city": "Grand Case",
        "state": "Saint Martin (France)",
        "postcode": "97150",
        "country": "France",
        "country_code": "fr"
      },
      "address": "La Savane, Marigot, Saint Martin (France), Saint Martin"
    },
    {
      "lat": 18.091896319085038,
      "lon": -63.06257837992464,
      "geoinfo": {
        "display_name": "Impasse Félix Choisy, La Savane, Grand Case, Saint Martin (France), Saint Martin, 97150, France",
        "road": "Impasse Félix Choisy",
        "house_number": null,
        "neighbourhood": null,
        "suburb": "La Savane",
        "city_district": null,
        "city": "Grand Case",
        "state": "Saint Martin (France)",
        "postcode": "97150",
        "country": "France",
        "country_code": "fr"
      },
      "address": "Impasse Félix Choisy, Marigot, Saint Martin (France), Saint Martin"
    },
    {
      "lat": 18.063974317186428,
      "lon": -63.10599384497662,
      "geoinfo": {
        "display_name": "Rue de Sandy Ground, Sandy Ground, Marigot, Saint Martin (France), Saint Martin, 97150, France",
        "road": "Rue de Sandy Ground",
        "house_number": null,
        "neighbourhood": null,
        "suburb": "Sandy Ground",
        "city_district": null,
        "city": "Marigot",
        "state": "Saint Martin (France)",
        "postcode": "97150",
        "country": "France",
        "country_code": "fr"
      },
      "address": "Rue de Sandy Ground, Marigot, Saint Martin (France), Saint Martin"
    },
    {
      "lat": 18.11075602268238,
      "lon": -63.088472330743414,
      "geoinfo": {
        "display_name": "Friar's Bay, Marigot, Saint Martin (France), Saint Martin, 97150, France",
        "road": null,
        "house_number": null,
        "neighbourhood": null,
        "suburb": "Friar's Bay",
        "city_district": null,
        "city": "Marigot",
        "state": "Saint Martin (France)",
        "postcode": "97150",
        "country": "France",
        "country_code": "fr"
      },
      "address": "Friar's Bay, Marigot, Saint Martin (France), Saint Martin"
    },
    {
      "lat": 18.06553217417124,
      "lon": -63.09118178738708,
      "geoinfo": {
        "display_name": "Rue Charles Tondu, Bellevue, Marigot, Saint Martin (France), Saint Martin, 97150, France",
        "road": "Rue Charles Tondu",
        "house_number": null,
        "neighbourhood": null,
        "suburb": "Bellevue",
        "city_district": null,
        "city": "Marigot",
        "state": "Saint Martin (France)",
        "postcode": "97150",
        "country": "France",
        "country_code": "fr"
      },
      "address": "Rue Charles Tondu, Marigot, Saint Martin (France), Saint Martin"
    },
    {
      "lat": 18.06268611801596,
      "lon": -63.11248093590332,
      "geoinfo": {
        "display_name": "Nettlé Bay Beach Club, Rue de la Baie Nettlé, Baie Nettlé, Marigot, Saint Martin (France), Saint Martin, 97150, France",
        "road": "Rue de la Baie Nettlé",
        "house_number": null,
        "neighbourhood": null,
        "suburb": "Baie Nettlé",
        "city_district": null,
        "city": "Marigot",
        "state": "Saint Martin (France)",
        "postcode": "97150",
        "country": "France",
        "country_code": "fr"
      },
      "address": "Rue de la Baie Nettlé, Marigot, Saint Martin (France), Saint Martin"
    },
    {
      "lat": 18.09104120335495,
      "lon": -63.092657221866745,
      "geoinfo": {
        "display_name": "Bienvenue, Rambaud, Saint Martin (France), Saint Martin, 97150, France",
        "road": null,
        "house_number": null,
        "neighbourhood": null,
        "suburb": "Bienvenue",
        "city_district": null,
        "city": "Rambaud",
        "state": "Saint Martin (France)",
        "postcode": "97150",
        "country": "France",
        "country_code": "fr"
      },
      "address": "Bienvenue, Marigot, Saint Martin (France), Saint Martin"
    },
    {
      "lat": 18.031741187033287,
      "lon": -63.10845448282314,
      "geoinfo": {
        "display_name": "Simpson Bay, Sint Maarten, Netherlands",
        "road": null,
        "house_number": null,
        "neighbourhood": null,
        "suburb": null,
        "city_district": null,
        "city": "Simpson Bay",
        "state": null,
        "postcode": null,
        "country": "Sint Maarten",
        "country_code": "nl"
      },
      "address": "Marigot, Saint Martin (France), Saint Martin"
    },
    {
      "lat": 18.083767127882744,
      "lon": -63.047500451580945,
      "geoinfo": {
        "display_name": "Route de Pic Paradis, Colombier, Saint Martin (France), Saint Martin, 97150, France",
        "road": "Route de Pic Paradis",
        "house_number": null,
        "neighbourhood": null,
        "suburb": "Colombier",
        "city_district": null,
        "city": null,
        "state": "Saint Martin (France)",
        "postcode": "97150",
        "country": "France",
        "country_code": "fr"
      },
      "address": "Route de Pic Paradis, Marigot, Saint Martin (France), Saint Martin"
    },
    {
      "lat": 18.07997991874058,
      "lon": -63.07352650558686,
      "geoinfo": {
        "display_name": "Rue de Rambaud, Agrément, Rambaud, Saint Martin (France), Saint Martin, 97150, France",
        "road": "Rue de Rambaud",
        "house_number": null,
        "neighbourhood": null,
        "suburb": "Agrément",
        "city_district": null,
        "city": "Rambaud",
        "state": "Saint Martin (France)",
        "postcode": "97150",
        "country": "France",
        "country_code": "fr"
      },
      "address": "Rue de Rambaud, Marigot, Saint Martin (France), Saint Martin"
    },
    {
      "lat": 18.094526666336495,
      "lon": -63.09380861398653,
      "geoinfo": {
        "display_name": "La Batterie, Rambaud, Saint Martin (France), Saint Martin, 97150, France",
        "road": null,
        "house_number": null,
        "neighbourhood": null,
        "suburb": "La Batterie",
        "city_district": null,
        "city": "Rambaud",
        "state": "Saint Martin (France)",
        "postcode": "97150",
        "country": "France",
        "country_code": "fr"
      },
      "address": "La Batterie, Marigot, Saint Martin (France), Saint Martin"
    },
    {
      "lat": 18.0792370484183,
      "lon": -63.122246688237354,
      "geoinfo": {
        "display_name": "Falaise des Oiseaux, Les Terres Basses, Saint Martin, 97150, France",
        "road": null,
        "house_number": null,
        "neighbourhood": null,
        "suburb": "Les Terres Basses",
        "city_district": null,
        "city": null,
        "state": "Saint Martin",
        "postcode": "97150",
        "country": "France",
        "country_code": "fr"
      },
      "address": "Les Terres Basses, Marigot, Saint Martin, Saint Martin"
    },
    {
      "lat": 18.057339056513587,
      "lon": -63.11016380835807,
      "geoinfo": {
        "display_name": "Baie Nettlé, Marigot, Saint Martin (France), Saint Martin, 97150, France",
        "road": null,
        "house_number": null,
        "neighbourhood": null,
        "suburb": "Baie Nettlé",
        "city_district": null,
        "city": "Marigot",
        "state": "Saint Martin (France)",
        "postcode": "97150",
        "country": "France",
        "country_code": "fr"
      },
      "address": "Baie Nettlé, Marigot, Saint Martin (France), Saint Martin"
    },
    {
      "lat": 18.082771752308183,
      "lon": -63.06661492634862,
      "geoinfo": {
        "display_name": "41, Rue de Rambaud, Morne Valois, Rambaud, Saint Martin (France), Saint Martin, 97150, France",
        "road": "Rue de Rambaud",
        "house_number": "41",
        "neighbourhood": null,
        "suburb": null,
        "city_district": null,
        "city": "Rambaud",
        "state": "Saint Martin (France)",
        "postcode": "97150",
        "country": "France",
        "country_code": "fr"
      },
      "address": "41 Rue de Rambaud, Marigot, Saint Martin (France), Saint Martin"
    },
    {
      "lat": 18.071446540304322,
      "lon": -63.06497100330783,
      "geoinfo": {
        "display_name": "Golden Grove Farm, 90, Rue de Colombier, Colombier, Rambaud, Saint Martin (France), Saint Martin, 97150, France",
        "road": "Rue de Colombier",
        "house_number": "90",
        "neighbourhood": null,
        "suburb": "Colombier",
        "city_district": null,
        "city": "Rambaud",
        "state": "Saint Martin (France)",
        "postcode": "97150",
        "country": "France",
        "country_code": "fr"
      },
      "address": "90 Rue de Colombier, Marigot, Saint Martin (France), Saint Martin"
    },
    {
      "lat": 18.067006601075082,
      "lon": -63.04946554168911,
      "geoinfo": {
        "display_name": "Colombier, Rambaud, Saint Martin (France), Saint Martin, 97150, France",
        "road": null,
        "house_number": null,
        "neighbourhood": null,
        "suburb": "Colombier",
        "city_district": null,
        "city": "Rambaud",
        "state": "Saint Martin (France)",
        "postcode": "97150",
        "country": "France",
        "country_code": "fr"
      },
      "address": "Colombier, Marigot, Saint Martin (France), Saint Martin"
    },
    {
      "lat": 18.09681539622098,
      "lon": -63.080133796702846,
      "geoinfo": {
        "display_name": "Rue de Friar's Bay, Friar's Bay, Saint Martin (France), Saint Martin, 97150, France",
        "road": "Rue de Friar's Bay",
        "house_number": null,
        "neighbourhood": null,
        "suburb": "Friar's Bay",
        "city_district": null,
        "city": null,
        "state": "Saint Martin (France)",
        "postcode": "97150",
        "country": "France",
        "country_code": "fr"
      },
      "address": "Rue de Friar's Bay, Marigot, Saint Martin (France), Saint Martin"
    },
    {
      "lat": 18.075060591531123,
      "lon": -63.06300292679984,
      "geoinfo": {
        "display_name": "Rue de Colombier, Colombier, Rambaud, Saint Martin (France), Saint Martin, 97150, France",
        "road": "Rue de Colombier",
        "house_number": null,
        "neighbourhood": null,
        "suburb": "Colombier",
        "city_district": null,
        "city": "Rambaud",
        "state": "Saint Martin (France)",
        "postcode": "97150",
        "country": "France",
        "country_code": "fr"
      },
      "address": "Rue de Colombier, Marigot, Saint Martin (France), Saint Martin"
    },
    {
      "lat": 18.076963674976415,
      "lon": -63.080036226809874,
      "geoinfo": {
        "display_name": "Rue de Galisbay Port, Agrément, Rambaud, Saint Martin (France), Saint Martin, 97150, France",
        "road": "Rue de Galisbay Port",
        "house_number": null,
        "neighbourhood": null,
        "suburb": "Agrément",
        "city_district": null,
        "city": "Rambaud",
        "state": "Saint Martin (France)",
        "postcode": "97150",
        "country": "France",
        "country_code": "fr"
      },
      "address": "Rue de Galisbay Port, Marigot, Saint Martin (France), Saint Martin"
    },
    {
      "lat": 18.07730677031304,
      "lon": -63.076950203773336,
      "geoinfo": {
        "display_name": "Agrément, Rambaud, Saint Martin (France), Saint Martin, 97150, France",
        "road": null,
        "house_number": null,
        "neighbourhood": null,
        "suburb": "Agrément",
        "city_district": null,
        "city": "Rambaud",
        "state": "Saint Martin (France)",
        "postcode": "97150",
        "country": "France",
        "country_code": "fr"
      },
      "address": "Agrément, Marigot, Saint Martin (France), Saint Martin"
    },
    {
      "lat": 18.090570759789166,
      "lon": -63.068989421658316,
      "geoinfo": {
        "display_name": "Impasse Morne Hope, Saint-Louis, Rambaud, Saint Martin (France), Saint Martin, 97150, France",
        "road": "Impasse Morne Hope",
        "house_number": null,
        "neighbourhood": null,
        "suburb": "Saint-Louis",
        "city_district": null,
        "city": "Rambaud",
        "state": "Saint Martin (France)",
        "postcode": "97150",
        "country": "France",
        "country_code": "fr"
      },
      "address": "Impasse Morne Hope, Marigot, Saint Martin (France), Saint Martin"
    },
    {
      "lat": 18.07017591616217,
      "lon": -63.09767765128112,
      "geoinfo": {
        "display_name": "Sandy Ground, Marigot, Saint Martin (France), Saint Martin, 97150, France",
        "road": null,
        "house_number": null,
        "neighbourhood": null,
        "suburb": "Sandy Ground",
        "city_district": null,
        "city": "Marigot",
        "state": "Saint Martin (France)",
        "postcode": "97150",
        "country": "France",
        "country_code": "fr"
      },
      "address": "Sandy Ground, Marigot, Saint Martin (France), Saint Martin"
    },
    {
      "lat": 18.06778338354957,
      "lon": -63.095976954683124,
      "geoinfo": {
        "display_name": "12, Rue du Morne Rond, Sandy Ground, Marigot, Saint Martin (France), Saint Martin, 97150, France",
        "road": "Rue du Morne Rond",
        "house_number": "12",
        "neighbourhood": null,
        "suburb": "Sandy Ground",
        "city_district": null,
        "city": "Marigot",
        "state": "Saint Martin (France)",
        "postcode": "97150",
        "country": "France",
        "country_code": "fr"
      },
      "address": "12 Rue du Morne Rond, Marigot, Saint Martin (France), Saint Martin"
    },
    {
      "lat": 18.08286413619881,
      "lon": -63.06519270028575,
      "geoinfo": {
        "display_name": "4, Impasse Thomas Durvo, Helligard, Rambaud, Saint Martin (France), Saint Martin, 97150, France",
        "road": "Impasse Thomas Durvo",
        "house_number": "4",
        "neighbourhood": null,
        "suburb": "Helligard",
        "city_district": null,
        "city": "Rambaud",
        "state": "Saint Martin (France)",
        "postcode": "97150",
        "country": "France",
        "country_code": "fr"
      },
      "address": "4 Impasse Thomas Durvo, Marigot, Saint Martin (France), Saint Martin"
    },
    {
      "lat": 18.097977308809376,
      "lon": -63.06574374025672,
      "geoinfo": {
        "display_name": "N 7, La Savane, Grand Case, Saint Martin (France), Saint Martin, 97150, France",
        "road": "N 7",
        "house_number": null,
        "neighbourhood": null,
        "suburb": "La Savane",
        "city_district": null,
        "city": "Grand Case",
        "state": "Saint Martin (France)",
        "postcode": "97150",
        "country": "France",
        "country_code": "fr"
      },
      "address": "N 7, Marigot, Saint Martin (France), Saint Martin"
    },
    {
      "lat": 18.0575543583828,
      "lon": -63.0957346334943,
      "geoinfo": {
        "display_name": "Rue Yellow Tail, Sandy Ground, Marigot, Saint Martin (France), Saint Martin, 97150, France",
        "road": "Rue Yellow Tail",
        "house_number": null,
        "neighbourhood": null,
        "suburb": "Sandy Ground",
        "city_district": null,
        "city": "Marigot",
        "state": "Saint Martin (France)",
        "postcode": "97150",
        "country": "France",
        "country_code": "fr"
      },
      "address": "Rue Yellow Tail, Marigot, Saint Martin (France), Saint Martin"
    },
    {
      "lat": 18.06326295655347,
      "lon": -63.07646829833766,
      "geoinfo": {
        "display_name": "2, Lotissement Les Hauts de Concordia, Les Hauts de Concordia, Marigot, Saint Martin (France), Saint Martin, 97150, France",
        "road": "Lotissement Les Hauts de Concordia",
        "house_number": "2",
        "neighbourhood": null,
        "suburb": "Les Hauts de Concordia",
        "city_district": null,
        "city": "Marigot",
        "state": "Saint Martin (France)",
        "postcode": "97150",
        "country": "France",
        "country_code": "fr"
      },
      "address": "2 Lotissement Les Hauts de Concordia, Marigot, Saint Martin (France), Saint Martin"
    },
    {
      "lat": 18.065291151692538,
      "lon": -63.08230632895548,
      "geoinfo": {
        "display_name": "12, Impasse Louis Vanterpool, Concordia, Marigot, Saint Martin (France), Saint Martin, 97150, France",
        "road": "Impasse Louis Vanterpool",
        "house_number": "12",
        "neighbourhood": null,
        "suburb": "Concordia",
        "city_district": null,
        "city": "Marigot",
        "state": "Saint Martin (France)",
        "postcode": "97150",
        "country": "France",
        "country_code": "fr"
      },
      "address": "12 Impasse Louis Vanterpool, Marigot, Saint Martin (France), Saint Martin"
    },
    {
      "lat": 18.084278498796422,
      "lon": -63.0585718800677,
      "geoinfo": {
        "display_name": "Jardin des Dains, Résidence Savana, Saint-Louis, Rambaud, Saint Martin (France), Saint Martin, 97150, France",
        "road": "Jardin des Dains",
        "house_number": null,
        "neighbourhood": null,
        "suburb": "Saint-Louis",
        "city_district": null,
        "city": "Rambaud",
        "state": "Saint Martin (France)",
        "postcode": "97150",
        "country": "France",
        "country_code": "fr"
      },
      "address": "Jardin des Dains, Marigot, Saint Martin (France), Saint Martin"
    },
    {
      "lat": 18.076562545568265,
      "lon": -63.064890218006944,
      "geoinfo": {
        "display_name": "Rue Lotterie, La Loterie Farm, Rambaud, Saint Martin (France), Saint Martin, 97150, France",
        "road": "Rue Lotterie",
        "house_number": null,
        "neighbourhood": null,
        "suburb": null,
        "city_district": null,
        "city": "Rambaud",
        "state": "Saint Martin (France)",
        "postcode": "97150",
        "country": "France",
        "country_code": "fr"
      },
      "address": "Rue Lotterie, Marigot, Saint Martin (France), Saint Martin"
    },
    {
      "lat": 18.07928976236112,
      "lon": -63.0967333998949,
      "geoinfo": {
        "display_name": "Galisbay, Marigot, Saint Martin (France), Saint Martin, 97150, France",
        "road": null,
        "house_number": null,
        "neighbourhood": null,
        "suburb": "Galisbay",
        "city_district": null,
        "city": "Marigot",
        "state": "Saint Martin (France)",
        "postcode": "97150",
        "country": "France",
        "country_code": "fr"
      },
      "address": "Galisbay, Marigot, Saint Martin (France), Saint Martin"
    },
    {
      "lat": 18.070364684154896,
      "lon": -63.09231765554435,
      "geoinfo": {
        "display_name": "Marina Fort-Louis Parking, Galisbay, Marigot, Saint Martin (France), Saint Martin, 97150, France",
        "road": "Marina Fort-Louis Parking",
        "house_number": null,
        "neighbourhood": null,
        "suburb": "Galisbay",
        "city_district": null,
        "city": "Marigot",
        "state": "Saint Martin (France)",
        "postcode": "97150",
        "country": "France",
        "country_code": "fr"
      },
      "address": "Marina Fort-Louis Parking, Marigot, Saint Martin (France), Saint Martin"
    },
    {
      "lat": 18.07895018097386,
      "lon": -63.07237778345974,
      "geoinfo": {
        "display_name": "Impasse Hodge Viotty, Morne Valois, Rambaud, Saint Martin (France), Saint Martin, 97150, France",
        "road": "Impasse Hodge Viotty",
        "house_number": null,
        "neighbourhood": null,
        "suburb": null,
        "city_district": null,
        "city": "Rambaud",
        "state": "Saint Martin (France)",
        "postcode": "97150",
        "country": "France",
        "country_code": "fr"
      },
      "address": "Impasse Hodge Viotty, Marigot, Saint Martin (France), Saint Martin"
    },
    {
      "lat": 18.063717984343004,
      "lon": -63.074103959272676,
      "geoinfo": {
        "display_name": "Hospital Louis Constant Fleming, Rue Jean Luc Hamlet, Résidence Cannelle, Les Hauts de Concordia, Marigot, Saint Martin (France), Saint Martin, 97150, France",
        "road": "Rue Jean Luc Hamlet",
        "house_number": null,
        "neighbourhood": null,
        "suburb": "Les Hauts de Concordia",
        "city_district": null,
        "city": "Marigot",
        "state": "Saint Martin (France)",
        "postcode": "97150",
        "country": "France",
        "country_code": "fr"
      },
      "address": "Rue Jean Luc Hamlet, Marigot, Saint Martin (France), Saint Martin"
    },
    {
      "lat": 18.05556571355075,
      "lon": -63.08498398186071,
      "geoinfo": {
        "display_name": "Bellevue, Marigot, Saint Martin (France), Saint Martin, 97150, France",
        "road": null,
        "house_number": null,
        "neighbourhood": null,
        "suburb": "Bellevue",
        "city_district": null,
        "city": "Marigot",
        "state": "Saint Martin (France)",
        "postcode": "97150",
        "country": "France",
        "country_code": "fr"
      },
      "address": "Bellevue, Marigot, Saint Martin (France), Saint Martin"
    },
    {
      "lat": 18.077155412138847,
      "lon": -63.070643679483936,
      "geoinfo": {
        "display_name": "Impasse des Mangoustes, Helligard, Rambaud, Saint Martin (France), Saint Martin, 97150, France",
        "road": "Impasse des Mangoustes",
        "house_number": null,
        "neighbourhood": null,
        "suburb": "Helligard",
        "city_district": null,
        "city": "Rambaud",
        "state": "Saint Martin (France)",
        "postcode": "97150",
        "country": "France",
        "country_code": "fr"
      },
      "address": "Impasse des Mangoustes, Marigot, Saint Martin (France), Saint Martin"
    },
    {
      "lat": 18.06408439654658,
      "lon": -63.086214721408325,
      "geoinfo": {
        "display_name": "55, Rue de Hollande, ZAC de Bellevue, Bellevue, Marigot, Saint Martin (France), Saint Martin, 97150, France",
        "road": "Rue de Hollande",
        "house_number": "55",
        "neighbourhood": null,
        "suburb": "Bellevue",
        "city_district": null,
        "city": "Marigot",
        "state": "Saint Martin (France)",
        "postcode": "97150",
        "country": "France",
        "country_code": "fr"
      },
      "address": "55 Rue de Hollande, Marigot, Saint Martin (France), Saint Martin"
    },
    {
      "lat": 18.061868417796873,
      "lon": -63.08217384845356,
      "geoinfo": {
        "display_name": "Rue de Hollande Voie N 4, Bellevue, Marigot, Saint Martin (France), Saint Martin, 97150, France",
        "road": "Rue de Hollande Voie N 4",
        "house_number": null,
        "neighbourhood": null,
        "suburb": "Bellevue",
        "city_district": null,
        "city": "Marigot",
        "state": "Saint Martin (France)",
        "postcode": "97150",
        "country": "France",
        "country_code": "fr"
      },
      "address": "Rue de Hollande Voie N 4, Marigot, Saint Martin (France), Saint Martin"
    },
    {
      "lat": 18.05951704148658,
      "lon": -63.07930997304284,
      "geoinfo": {
        "display_name": "88, Lotissement Les Hauts de Concordia, Les Hauts de Concordia, Marigot, Saint Martin (France), Saint Martin, 97150, France",
        "road": "Lotissement Les Hauts de Concordia",
        "house_number": "88",
        "neighbourhood": null,
        "suburb": "Les Hauts de Concordia",
        "city_district": null,
        "city": "Marigot",
        "state": "Saint Martin (France)",
        "postcode": "97150",
        "country": "France",
        "country_code": "fr"
      },
      "address": "88 Lotissement Les Hauts de Concordia, Marigot, Saint Martin (France), Saint Martin"
    },
    {
      "lat": 18.064791612832884,
      "lon": -63.05647995762785,
      "geoinfo": {
        "display_name": "Impasse Richard Gibbs, Colombier, Rambaud, Saint Martin (France), Saint Martin, 97150, France",
        "road": "Impasse Richard Gibbs",
        "house_number": null,
        "neighbourhood": null,
        "suburb": "Colombier",
        "city_district": null,
        "city": "Rambaud",
        "state": "Saint Martin (France)",
        "postcode": "97150",
        "country": "France",
        "country_code": "fr"
      },
      "address": "Impasse Richard Gibbs, Marigot, Saint Martin (France), Saint Martin"
    },
    {
      "lat": 18.090869863385425,
      "lon": -63.064931922534875,
      "geoinfo": {
        "display_name": "Caribalu SXM, 8, Rue de Rambaud, Saint-Louis, Rambaud, Saint Martin (France), Saint Martin, 97150, France",
        "road": "Rue de Rambaud",
        "house_number": "8",
        "neighbourhood": null,
        "suburb": "Saint-Louis",
        "city_district": null,
        "city": "Rambaud",
        "state": "Saint Martin (France)",
        "postcode": "97150",
        "country": "France",
        "country_code": "fr"
      },
      "address": "8 Rue de Rambaud, Marigot, Saint Martin (France), Saint Martin"
    },
    {
      "lat": 18.057914931190464,
      "lon": -63.07646877224345,
      "geoinfo": {
        "display_name": "Lotissement Les Hauts de Concordia, Les Hauts de Concordia, Marigot, Saint Martin (France), Saint Martin, 97150, France",
        "road": "Lotissement Les Hauts de Concordia",
        "house_number": null,
        "neighbourhood": null,
        "suburb": "Les Hauts de Concordia",
        "city_district": null,
        "city": "Marigot",
        "state": "Saint Martin (France)",
        "postcode": "97150",
        "country": "France",
        "country_code": "fr"
      },
      "address": "Lotissement Les Hauts de Concordia, Marigot, Saint Martin (France), Saint Martin"
    },
    {
      "lat": 18.073438274090105,
      "lon": -63.07644426214354,
      "geoinfo": {
        "display_name": "Impasse Nel Anna, Agrément, Rambaud, Saint Martin (France), Saint Martin, 97150, France",
        "road": "Impasse Nel Anna",
        "house_number": null,
        "neighbourhood": null,
        "suburb": "Agrément",
        "city_district": null,
        "city": "Rambaud",
        "state": "Saint Martin (France)",
        "postcode": "97150",
        "country": "France",
        "country_code": "fr"
      },
      "address": "Impasse Nel Anna, Marigot, Saint Martin (France), Saint Martin"
    },
    {
      "lat": 18.08321524885978,
      "lon": -63.07017010559663,
      "geoinfo": {
        "display_name": "17, Rue Saint-Louis, Saint-Louis, Rambaud, Saint Martin (France), Saint Martin, 97150, France",
        "road": "Rue Saint-Louis",
        "house_number": "17",
        "neighbourhood": null,
        "suburb": "Saint-Louis",
        "city_district": null,
        "city": "Rambaud",
        "state": "Saint Martin (France)",
        "postcode": "97150",
        "country": "France",
        "country_code": "fr"
      },
      "address": "17 Rue Saint-Louis, Marigot, Saint Martin (France), Saint Martin"
    },
    {
      "lat": 18.06795062829987,
      "lon": -63.07886531529964,
      "geoinfo": {
        "display_name": "Rue Mont Carmel, Concordia, Marigot, Saint Martin (France), Saint Martin, 97150, France",
        "road": "Rue Mont Carmel",
        "house_number": null,
        "neighbourhood": null,
        "suburb": "Concordia",
        "city_district": null,
        "city": "Marigot",
        "state": "Saint Martin (France)",
        "postcode": "97150",
        "country": "France",
        "country_code": "fr"
      },
      "address": "Rue Mont Carmel, Marigot, Saint Martin (France), Saint Martin"
    },
    {
      "lat": 18.07353582796578,
      "lon": -63.05553680955309,
      "geoinfo": {
        "display_name": "Impasse Blanco, Colombier, Rambaud, Saint Martin (France), Saint Martin, 97150, France",
        "road": "Impasse Blanco",
        "house_number": null,
        "neighbourhood": null,
        "suburb": "Colombier",
        "city_district": null,
        "city": "Rambaud",
        "state": "Saint Martin (France)",
        "postcode": "97150",
        "country": "France",
        "country_code": "fr"
      },
      "address": "Impasse Blanco, Marigot, Saint Martin (France), Saint Martin"
    },
    {
      "lat": 18.058783619916667,
      "lon": -63.09840057829128,
      "geoinfo": {
        "display_name": "11, Rue Chirurgien, Sandy Ground, Marigot, Saint Martin (France), Saint Martin, 97150, France",
        "road": "Rue Chirurgien",
        "house_number": "11",
        "neighbourhood": null,
        "suburb": "Sandy Ground",
        "city_district": null,
        "city": "Marigot",
        "state": "Saint Martin (France)",
        "postcode": "97150",
        "country": "France",
        "country_code": "fr"
      },
      "address": "11 Rue Chirurgien, Marigot, Saint Martin (France), Saint Martin"
    },
    {
      "lat": 18.07527060574934,
      "lon": -63.07860657770175,
      "geoinfo": {
        "display_name": "4, Rue Nana Clark, Agrément, Rambaud, Saint Martin (France), Saint Martin, 97150, France",
        "road": "Rue Nana Clark",
        "house_number": "4",
        "neighbourhood": null,
        "suburb": "Agrément",
        "city_district": null,
        "city": "Rambaud",
        "state": "Saint Martin (France)",
        "postcode": "97150",
        "country": "France",
        "country_code": "fr"
      },
      "address": "4 Rue Nana Clark, Marigot, Saint Martin (France), Saint Martin"
    },
    {
      "lat": 18.081292757408075,
      "lon": -63.0623807237246,
      "geoinfo": {
        "display_name": "Impasse Viotty Hays, Helligard, Rambaud, Saint Martin (France), Saint Martin, 97150, France",
        "road": "Impasse Viotty Hays",
        "house_number": null,
        "neighbourhood": null,
        "suburb": "Helligard",
        "city_district": null,
        "city": "Rambaud",
        "state": "Saint Martin (France)",
        "postcode": "97150",
        "country": "France",
        "country_code": "fr"
      },
      "address": "Impasse Viotty Hays, Marigot, Saint Martin (France), Saint Martin"
    },
    {
      "lat": 18.091215312565854,
      "lon": -63.08019082467754,
      "geoinfo": {
        "display_name": "Rue de la Batterie, La Batterie, Rambaud, Saint Martin (France), Saint Martin, 97150, France",
        "road": "Rue de la Batterie",
        "house_number": null,
        "neighbourhood": null,
        "suburb": "La Batterie",
        "city_district": null,
        "city": "Rambaud",
        "state": "Saint Martin (France)",
        "postcode": "97150",
        "country": "France",
        "country_code": "fr"
      },
      "address": "Rue de la Batterie, Marigot, Saint Martin (France), Saint Martin"
    },
    {
      "lat": 18.06878185528727,
      "lon": -63.08056344097219,
      "geoinfo": {
        "display_name": "Rue Antoine Lake, Concordia, Marigot, Saint Martin (France), Saint Martin, 97150, France",
        "road": "Rue Antoine Lake",
        "house_number": null,
        "neighbourhood": null,
        "suburb": "Concordia",
        "city_district": null,
        "city": "Marigot",
        "state": "Saint Martin (France)",
        "postcode": "97150",
        "country": "France",
        "country_code": "fr"
      },
      "address": "Rue Antoine Lake, Marigot, Saint Martin (France), Saint Martin"
    },
    {
      "lat": 18.066900309686194,
      "lon": -63.08657509954995,
      "geoinfo": {
        "display_name": "Boulevard de France, Galisbay, Marigot, Saint Martin (France), Saint Martin, 97150, France",
        "road": "Boulevard de France",
        "house_number": null,
        "neighbourhood": null,
        "suburb": "Galisbay",
        "city_district": null,
        "city": "Marigot",
        "state": "Saint Martin (France)",
        "postcode": "97150",
        "country": "France",
        "country_code": "fr"
      },
      "address": "Boulevard de France, Marigot, Saint Martin (France), Saint Martin"
    },
    {
      "lat": 18.103306458784946,
      "lon": -63.06239118496143,
      "geoinfo": {
        "display_name": "Sebastiano, 234, Rue de Rambaud, Saint-Louis, Grand Case, Saint Martin (France), Saint Martin, 97150, France",
        "road": "Rue de Rambaud",
        "house_number": "234",
        "neighbourhood": null,
        "suburb": "Saint-Louis",
        "city_district": null,
        "city": "Grand Case",
        "state": "Saint Martin (France)",
        "postcode": "97150",
        "country": "France",
        "country_code": "fr"
      },
      "address": "234 Rue de Rambaud, Marigot, Saint Martin (France), Saint Martin"
    },
    {
      "lat": 18.034800874496053,
      "lon": -63.085311257242424,
      "geoinfo": {
        "display_name": "Coconut Reef Fishing Charters, 58, Well Road, Cole Bay, Cul-de-Sac, Sint Maarten, Netherlands",
        "road": "Well Road",
        "house_number": "58",
        "neighbourhood": null,
        "suburb": "Cole Bay",
        "city_district": null,
        "city": "Cul-de-Sac",
        "state": null,
        "postcode": null,
        "country": "Sint Maarten",
        "country_code": "nl"
      },
      "address": "58 Well Road, Marigot, Saint Martin (France), Saint Martin"
    },
    {
      "lat": 18.06374602585207,
      "lon": -63.10281903625354,
      "geoinfo": {
        "display_name": "148, Rue Lady Fish, Sandy Ground, Marigot, Saint Martin (France), Saint Martin, 97150, France",
        "road": "Rue Lady Fish",
        "house_number": "148",
        "neighbourhood": null,
        "suburb": "Sandy Ground",
        "city_district": null,
        "city": "Marigot",
        "state": "Saint Martin (France)",
        "postcode": "97150",
        "country": "France",
        "country_code": "fr"
      },
      "address": "148 Rue Lady Fish, Marigot, Saint Martin (France), Saint Martin"
    },
    {
      "lat": 18.06138269128725,
      "lon": -63.08850735035788,
      "geoinfo": {
        "display_name": "Rue de Low Town, ZAC de Bellevue, Bellevue, Marigot, Saint Martin (France), Saint Martin, 97150, France",
        "road": "Rue de Low Town",
        "house_number": null,
        "neighbourhood": null,
        "suburb": "Bellevue",
        "city_district": null,
        "city": "Marigot",
        "state": "Saint Martin (France)",
        "postcode": "97150",
        "country": "France",
        "country_code": "fr"
      },
      "address": "Rue de Low Town, Marigot, Saint Martin (France), Saint Martin"
    },
    {
      "lat": 18.06617119237578,
      "lon": -63.080712376281056,
      "geoinfo": {
        "display_name": "58 A, Rue de Concordia, Concordia, Marigot, Saint Martin (France), Saint Martin, 97150, France",
        "road": "Rue de Concordia",
        "house_number": "58 A",
        "neighbourhood": null,
        "suburb": "Concordia",
        "city_district": null,
        "city": "Marigot",
        "state": "Saint Martin (France)",
        "postcode": "97150",
        "country": "France",
        "country_code": "fr"
      },
      "address": "58 A Rue de Concordia, Marigot, Saint Martin (France), Saint Martin"
    },
    {
      "lat": 18.06683195411694,
      "lon": -63.08396044573771,
      "geoinfo": {
        "display_name": "1, Rue de Saint-James, Concordia, Marigot, Saint Martin (France), Saint Martin, 97150, France",
        "road": "Rue de Saint-James",
        "house_number": "1",
        "neighbourhood": null,
        "suburb": "Concordia",
        "city_district": null,
        "city": "Marigot",
        "state": "Saint Martin (France)",
        "postcode": "97150",
        "country": "France",
        "country_code": "fr"
      },
      "address": "1 Rue de Saint-James, Marigot, Saint Martin (France), Saint Martin"
    },
    {
      "lat": 18.070788130732648,
      "lon": -63.079419504529795,
      "geoinfo": {
        "display_name": "Centre d'Affaires, Rue Frédérick Arrondell, Spring, Marigot, Saint Martin (France), Saint Martin, 97150, France",
        "road": "Rue Frédérick Arrondell",
        "house_number": null,
        "neighbourhood": null,
        "suburb": "Spring",
        "city_district": null,
        "city": "Marigot",
        "state": "Saint Martin (France)",
        "postcode": "97150",
        "country": "France",
        "country_code": "fr"
      },
      "address": "Rue Frédérick Arrondell, Marigot, Saint Martin (France), Saint Martin"
    },
    {
      "lat": 18.071572195054525,
      "lon": -63.07028744266485,
      "geoinfo": {
        "display_name": "Rue Nana Clark, Agrément, Rambaud, Saint Martin (France), Saint Martin, 97150, France",
        "road": "Rue Nana Clark",
        "house_number": null,
        "neighbourhood": null,
        "suburb": "Agrément",
        "city_district": null,
        "city": "Rambaud",
        "state": "Saint Martin (France)",
        "postcode": "97150",
        "country": "France",
        "country_code": "fr"
      },
      "address": "Rue Nana Clark, Marigot, Saint Martin (France), Saint Martin"
    },
    {
      "lat": 18.06840842568965,
      "lon": -63.07788449889539,
      "geoinfo": {
        "display_name": "Impasse Clamy Cherry, Spring, Marigot, Saint Martin (France), Saint Martin, 97150, France",
        "road": "Impasse Clamy Cherry",
        "house_number": null,
        "neighbourhood": null,
        "suburb": "Spring",
        "city_district": null,
        "city": "Marigot",
        "state": "Saint Martin (France)",
        "postcode": "97150",
        "country": "France",
        "country_code": "fr"
      },
      "address": "Impasse Clamy Cherry, Marigot, Saint Martin (France), Saint Martin"
    },
    {
      "lat": 18.068357655308393,
      "lon": -63.06184326325204,
      "geoinfo": {
        "display_name": "Impasse Spring Garden, Colombier, Rambaud, Saint Martin (France), Saint Martin, 97150, France",
        "road": "Impasse Spring Garden",
        "house_number": null,
        "neighbourhood": null,
        "suburb": "Colombier",
        "city_district": null,
        "city": "Rambaud",
        "state": "Saint Martin (France)",
        "postcode": "97150",
        "country": "France",
        "country_code": "fr"
      },
      "address": "Impasse Spring Garden, Marigot, Saint Martin (France), Saint Martin"
    },
    {
      "lat": 18.08795339775375,
      "lon": -63.06093167512478,
      "geoinfo": {
        "display_name": "Résidence Savana, Saint-Louis, Rambaud, Saint Martin (France), Saint Martin, 97150, France",
        "road": null,
        "house_number": null,
        "neighbourhood": null,
        "suburb": "Saint-Louis",
        "city_district": null,
        "city": "Rambaud",
        "state": "Saint Martin (France)",
        "postcode": "97150",
        "country": "France",
        "country_code": "fr"
      },
      "address": "Saint-Louis, Marigot, Saint Martin (France), Saint Martin"
    },
    {
      "lat": 18.06806941641423,
      "lon": -63.081266480909136,
      "geoinfo": {
        "display_name": "10, Rue Joseph Richardson, Concordia, Marigot, Saint Martin (France), Saint Martin, 97150, France",
        "road": "Rue Joseph Richardson",
        "house_number": "10",
        "neighbourhood": null,
        "suburb": "Concordia",
        "city_district": null,
        "city": "Marigot",
        "state": "Saint Martin (France)",
        "postcode": "97150",
        "country": "France",
        "country_code": "fr"
      },
      "address": "10 Rue Joseph Richardson, Marigot, Saint Martin (France), Saint Martin"
    },
    {
      "lat": 18.08701254050921,
      "lon": -63.06360673340657,
      "geoinfo": {
        "display_name": "Lotissement Résidence Savana, Résidence Savana, Saint-Louis, Rambaud, Saint Martin (France), Saint Martin, 97150, France",
        "road": "Lotissement Résidence Savana",
        "house_number": null,
        "neighbourhood": null,
        "suburb": "Saint-Louis",
        "city_district": null,
        "city": "Rambaud",
        "state": "Saint Martin (France)",
        "postcode": "97150",
        "country": "France",
        "country_code": "fr"
      },
      "address": "Lotissement Résidence Savana, Marigot, Saint Martin (France), Saint Martin"
    },
    {
      "lat": 18.060742860820355,
      "lon": -63.084106862574984,
      "geoinfo": {
        "display_name": "Rue de Hollande Voie N 2, Bellevue, Marigot, Saint Martin (France), Saint Martin, 97150, France",
        "road": "Rue de Hollande Voie N 2",
        "house_number": null,
        "neighbourhood": null,
        "suburb": "Bellevue",
        "city_district": null,
        "city": "Marigot",
        "state": "Saint Martin (France)",
        "postcode": "97150",
        "country": "France",
        "country_code": "fr"
      },
      "address": "Rue de Hollande Voie N 2, Marigot, Saint Martin (France), Saint Martin"
    }
  ],
  "updated_at": "2025-10-16T19:29:32.226964+00:00",
  "_kind": "geo_samples"
}