{
  "country_code": "WS",
  "country": "Samoa",
  "city": "Apia",
  "geonameid": 4035413,
  "target_addresses": 100,
  "samples": [
    {
      "lat": -13.821588009333883,
      "lon": -171.72527942898748,
      "geoinfo": {
        "display_name": "Vaiala, Tuamasaga, Samoa",
        "road": null,
        "house_number": null,
        "neighbourhood": null,
        "suburb": null,
        "city_district": null,
        "city": "Vaiala",
        "state": "Tuamasaga",
        "postcode": null,
        "country": "Samoa",
        "country_code": "ws"
      },
      "address": "Apia, Tuamasaga, Samoa"
    },
    {
      "lat": -13.841605791911912,
      "lon": -171.7633445707643,
      "geoinfo": {
        "display_name": "Ifiifi Street, Malifa, Tuamasaga, Samoa",
        "road": "Ifiifi Street",
        "house_number": null,
        "neighbourhood": null,
        "suburb": null,
        "city_district": null,
        "city": "Malifa",
        "state": "Tuamasaga",
        "postcode": null,
        "country": "Samoa",
        "country_code": "ws"
      },
      "address": "Ifiifi Street, Apia, Tuamasaga, Samoa"
    },
    {
      "lat": -13.834615847322281,
      "lon": -171.75800890533472,
      "geoinfo": {
        "display_name": "Leone Assembly of God Church, Fa'ato'ia Road, Leone, Tuamasaga, Samoa",
        "road": "Fa'ato'ia Road",
        "house_number": null,
        "neighbourhood": null,
        "suburb": null,
        "city_district": null,
        "city": "Leone",
        "state": "Tuamasaga",
        "postcode": null,
        "country": "Samoa",
        "country_code": "ws"
      },
      "address": "Fa'ato'ia Road, Apia, Tuamasaga, Samoa"
    },
    {
      "lat": -13.831946726370617,
      "lon": -171.76840342521243,
      "geoinfo": {
        "display_name": "Samoa Housing Corporation, Convent Street, Savalolo, Tuamasaga, Samoa",
        "road": "Convent Street",
        "house_number": null,
        "neighbourhood": null,
        "suburb": null,
        "city_district": null,
        "city": "Savalolo",
        "state": "Tuamasaga",
        "postcode": null,
        "country": "Samoa",
        "country_code": "ws"
      },
      "address": "Convent Street, Apia, Tuamasaga, Samoa"
    },
    {
      "lat": -13.825833479249646,
      "lon": -171.76131637506782,
      "geoinfo": {
        "display_name": "Harbour Control Tower, Main Beach Road, Matautu Tai, Tuamasaga, Samoa",
        "road": "Main Beach Road",
        "house_number": null,
        "neighbourhood": null,
        "suburb": null,
        "city_district": null,
        "city": "Matautu Tai",
        "state": "Tuamasaga",
        "postcode": null,
        "country": "Samoa",
        "country_code": "ws"
      },
      "address": "Main Beach Road, Apia, Tuamasaga, Samoa"
    },
    {
      "lat": -13.8337947495074,
      "lon": -171.75682125081045,
      "geoinfo": {
        "display_name": "Kapisi Store, Matautu Street, Matautu Uta, Tuamasaga, Samoa",
        "road": "Matautu Street",
        "house_number": null,
        "neighbourhood": null,
        "suburb": null,
        "city_district": null,
        "city": "Matautu Uta",
        "state": "Tuamasaga",
        "postcode": null,
        "country": "Samoa",
        "country_code": "ws"
      },
      "address": "Matautu Street, Apia, Tuamasaga, Samoa"
    },
    {
      "lat": -13.828121937861496,
      "lon": -171.75734694009748,
      "geoinfo": {
        "display_name": "Tokelau Apia Liaison Office, Main Beach Road, Matautu Tai, Tuamasaga, Samoa",
        "road": "Main Beach Road",
        "house_number": null,
        "neighbourhood": null,
        "suburb": null,
        "city_district": null,
        "city": "Matautu Tai",
        "state": "Tuamasaga",
        "postcode": null,
        "country": "Samoa",
        "country_code": "ws"
      },
      "address": "532, Main Beach Road, Apia, 21179 Tuamasaga, Samoa"
    },
    {
      "lat": -13.830580590058114,
      "lon": -171.76732303642717,
      "geoinfo": {
        "display_name": "Main Beach Road, Matafele, Tuamasaga, Samoa",
        "road": "Main Beach Road",
        "house_number": null,
        "neighbourhood": null,
        "suburb": null,
        "city_district": null,
        "city": "Matafele",
        "state": "Tuamasaga",
        "postcode": null,
        "country": "Samoa",
        "country_code": "ws"
      },
      "address": "564, Main Beach Road, Apia, 74948 Tuamasaga, Samoa"
    },
    {
      "lat": -13.826556633634999,
      "lon": -171.75517770264617,
      "geoinfo": {
        "display_name": "Main Beach Road, Matautu Tai, Tuamasaga, Samoa",
        "road": "Main Beach Road",
        "house_number": null,
        "neighbourhood": null,
        "suburb": null,
        "city_district": null,
        "city": "Matautu Tai",
        "state": "Tuamasaga",
        "postcode": null,
        "country": "Samoa",
        "country_code": "ws"
      },
      "address": "654, Main Beach Road, Apia, 06089 Tuamasaga, Samoa"
    },
    {
      "lat": -13.846261852532846,
      "lon": -171.76400096722992,
      "geoinfo": {
        "display_name": "Tupua Tamasese Meaole Hospital, Ifiifi Street, Motootua, Tuamasaga, Samoa",
        "road": "Ifiifi Street",
        "house_number": null,
        "neighbourhood": null,
        "suburb": null,
        "city_district": null,
        "city": "Motootua",
        "state": "Tuamasaga",
        "postcode": null,
        "country": "Samoa",
        "country_code": "ws"
      },
      "address": "221, Ifiifi Street, Apia, 50700 Tuamasaga, Samoa"
    },
    {
      "lat": -13.82710491826488,
      "lon": -171.75137792729322,
      "geoinfo": {
        "display_name": "Main Beach Road, Vaiala Tai, Tuamasaga, Samoa",
        "road": "Main Beach Road",
        "house_number": null,
        "neighbourhood": null,
        "suburb": null,
        "city_district": null,
        "city": "Vaiala Tai",
        "state": "Tuamasaga",
        "postcode": null,
        "country": "Samoa",
        "country_code": "ws"
      },
      "address": "824, Main Beach Road, Apia, 79991 Tuamasaga, Samoa"
    },
    {
      "lat": -13.845008328780883,
      "lon": -171.76300301055147,
      "geoinfo": {
        "display_name": "Western Samoa Nurses Association Nurses Hall, Ifiifi Street, Motootua, Tuamasaga, Samoa",
        "road": "Ifiifi Street",
        "house_number": null,
        "neighbourhood": null,
        "suburb": null,
        "city_district": null,
        "city": "Motootua",
        "state": "Tuamasaga",
        "postcode": null,
        "country": "Samoa",
        "country_code": "ws"
      },
      "address": "141, Ifiifi Street, Apia, 40662 Tuamasaga, Samoa"
    },
    {
      "lat": -13.827932455644849,
      "lon": -171.75502975067525,
      "geoinfo": {
        "display_name": "Vailala Congregational Christian Church, Main Beach Road, Vaiala Tai, Tuamasaga, Samoa",
        "road": "Main Beach Road",
        "house_number": null,
        "neighbourhood": null,
        "suburb": null,
        "city_district": null,
        "city": "Vaiala Tai",
        "state": "Tuamasaga",
        "postcode": null,
        "country": "Samoa",
        "country_code": "ws"
      },
      "address": "271, Main Beach Road, Apia, 25253 Tuamasaga, Samoa"
    },
    {
      "lat": -13.833292270127929,
      "lon": -171.76643196486665,
      "geoinfo": {
        "display_name": "Marist Brothers Primary School, Convent Street, Mulivai, Tuamasaga, Samoa",
        "road": "Convent Street",
        "house_number": null,
        "neighbourhood": null,
        "suburb": null,
        "city_district": null,
        "city": "Mulivai",
        "state": "Tuamasaga",
        "postcode": null,
        "country": "Samoa",
        "country_code": "ws"
      },
      "address": "735, Convent Street, Apia, 55130 Tuamasaga, Samoa"
    },
    {
      "lat": -13.833200642784405,
      "lon": -171.76709843750237,
      "geoinfo": {
        "display_name": "Marist Brothers Primary School, Convent Street, Mulivai, Tuamasaga, Samoa",
        "road": "Convent Street",
        "house_number": null,
        "neighbourhood": null,
        "suburb": null,
        "city_district": null,
        "city": "Mulivai",
        "state": "Tuamasaga",
        "postcode": null,
        "country": "Samoa",
        "country_code": "ws"
      },
      "address": "967, Convent Street, Apia, 95788 Tuamasaga, Samoa"
    },
    {
      "lat": -13.833764375010777,
      "lon": -171.76741260177351,
      "geoinfo": {
        "display_name": "Marist Brothers Primary School, Convent Street, Mulivai, Tuamasaga, Samoa",
        "road": "Convent Street",
        "house_number": null,
        "neighbourhood": null,
        "suburb": null,
        "city_district": null,
        "city": "Mulivai",
        "state": "Tuamasaga",
        "postcode": null,
        "country": "Samoa",
        "country_code": "ws"
      },
      "address": "419, Convent Street, Apia, 42755 Tuamasaga, Samoa"
    },
    {
      "lat": -13.833653290546666,
      "lon": -171.76727280486472,
      "geoinfo": {
        "display_name": "Marist Brothers Primary School, Convent Street, Mulivai, Tuamasaga, Samoa",
        "road": "Convent Street",
        "house_number": null,
        "neighbourhood": null,
        "suburb": null,
        "city_district": null,
        "city": "Mulivai",
        "state": "Tuamasaga",
        "postcode": null,
        "country": "Samoa",
        "country_code": "ws"
      },
      "address": "269, Convent Street, Apia, 62626 Tuamasaga, Samoa"
    },
    {
      "lat": -13.83261934099392,
      "lon": -171.76651544847135,
      "geoinfo": {
        "display_name": "Apia Catholic Church, Main Beach Road, Mulivai, Tuamasaga, Samoa",
        "road": "Main Beach Road",
        "house_number": null,
        "neighbourhood": null,
        "suburb": null,
        "city_district": null,
        "city": "Mulivai",
        "state": "Tuamasaga",
        "postcode": null,
        "country": "Samoa",
        "country_code": "ws"
      },
      "address": "000, Main Beach Road, Apia, 75741 Tuamasaga, Samoa"
    },
    {
      "lat": -13.83299722495836,
      "lon": -171.76722913010244,
      "geoinfo": {
        "display_name": "Caritas Community Hall, Convent Street, Mulivai, Tuamasaga, Samoa",
        "road": "Convent Street",
        "house_number": null,
        "neighbourhood": null,
        "suburb": null,
        "city_district": null,
        "city": "Mulivai",
        "state": "Tuamasaga",
        "postcode": null,
        "country": "Samoa",
        "country_code": "ws"
      },
      "address": "211, Convent Street, Apia, 13021 Tuamasaga, Samoa"
    },
    {
      "lat": -13.83322696793171,
      "lon": -171.76731913104152,
      "geoinfo": {
        "display_name": "Caritas Community Hall, Convent Street, Mulivai, Tuamasaga, Samoa",
        "road": "Convent Street",
        "house_number": null,
        "neighbourhood": null,
        "suburb": null,
        "city_district": null,
        "city": "Mulivai",
        "state": "Tuamasaga",
        "postcode": null,
        "country": "Samoa",
        "country_code": "ws"
      },
      "address": "419, Convent Street, Apia, 28978 Tuamasaga, Samoa"
    },
    {
      "lat": -13.8329021351272,
      "lon": -171.7663177063513,
      "geoinfo": {
        "display_name": "Apia Supermarket, Convent Street, Mulivai, Tuamasaga, Samoa",
        "road": "Convent Street",
        "house_number": null,
        "neighbourhood": null,
        "suburb": null,
        "city_district": null,
        "city": "Mulivai",
        "state": "Tuamasaga",
        "postcode": null,
        "country": "Samoa",
        "country_code": "ws"
      },
      "address": "612, Convent Street, Apia, 94200 Tuamasaga, Samoa"
    },
    {
      "lat": -13.83418581129247,
      "lon": -171.76649011643065,
      "geoinfo": {
        "display_name": "Convent Street, Mulivai, Tuamasaga, Samoa",
        "road": "Convent Street",
        "house_number": null,
        "neighbourhood": null,
        "suburb": null,
        "city_district": null,
        "city": "Mulivai",
        "state": "Tuamasaga",
        "postcode": null,
        "country": "Samoa",
        "country_code": "ws"
      },
      "address": "491, Convent Street, Apia, 35555 Tuamasaga, Samoa"
    },
    {
      "lat": -13.833270513740864,
      "lon": -171.7666504466978,
      "geoinfo": {
        "display_name": "Convent Street, Mulivai, Tuamasaga, Samoa",
        "road": "Convent Street",
        "house_number": null,
        "neighbourhood": null,
        "suburb": null,
        "city_district": null,
        "city": "Mulivai",
        "state": "Tuamasaga",
        "postcode": null,
        "country": "Samoa",
        "country_code": "ws"
      },
      "address": "584, Convent Street, Apia, 56842 Tuamasaga, Samoa"
    },
    {
      "lat": -13.832574684853878,
      "lon": -171.76640102675097,
      "geoinfo": {
        "display_name": "Apia Catholic Church, Main Beach Road, Mulivai, Tuamasaga, Samoa",
        "road": "Main Beach Road",
        "house_number": null,
        "neighbourhood": null,
        "suburb": null,
        "city_district": null,
        "city": "Mulivai",
        "state": "Tuamasaga",
        "postcode": null,
        "country": "Samoa",
        "country_code": "ws"
      },
      "address": "665, Main Beach Road, Apia, 90180 Tuamasaga, Samoa"
    },
    {
      "lat": -13.833450032887884,
      "lon": -171.76705922553526,
      "geoinfo": {
        "display_name": "Marist Brothers Primary School, Convent Street, Mulivai, Tuamasaga, Samoa",
        "road": "Convent Street",
        "house_number": null,
        "neighbourhood": null,
        "suburb": null,
        "city_district": null,
        "city": "Mulivai",
        "state": "Tuamasaga",
        "postcode": null,
        "country": "Samoa",
        "country_code": "ws"
      },
      "address": "091, Convent Street, Apia, 33920 Tuamasaga, Samoa"
    },
    {
      "lat": -13.833362165627372,
      "lon": -171.76672725566738,
      "geoinfo": {
        "display_name": "Convent Street, Mulivai, Tuamasaga, Samoa",
        "road": "Convent Street",
        "house_number": null,
        "neighbourhood": null,
        "suburb": null,
        "city_district": null,
        "city": "Mulivai",
        "state": "Tuamasaga",
        "postcode": null,
        "country": "Samoa",
        "country_code": "ws"
      },
      "address": "094, Convent Street, Apia, 15570 Tuamasaga, Samoa"
    },
    {
      "lat": -13.834072635865628,
      "lon": -171.76654579514715,
      "geoinfo": {
        "display_name": "Convent Street, Mulivai, Tuamasaga, Samoa",
        "road": "Convent Street",
        "house_number": null,
        "neighbourhood": null,
        "suburb": null,
        "city_district": null,
        "city": "Mulivai",
        "state": "Tuamasaga",
        "postcode": null,
        "country": "Samoa",
        "country_code": "ws"
      },
      "address": "938, Convent Street, Apia, 59610 Tuamasaga, Samoa"
    },
    {
      "lat": -13.83282050273797,
      "lon": -171.7662349764486,
      "geoinfo": {
        "display_name": "Liquor Planet, Convent Street, Mulivai, Tuamasaga, Samoa",
        "road": "Convent Street",
        "house_number": null,
        "neighbourhood": null,
        "suburb": null,
        "city_district": null,
        "city": "Mulivai",
        "state": "Tuamasaga",
        "postcode": null,
        "country": "Samoa",
        "country_code": "ws"
      },
      "address": "406, Convent Street, Apia, 98177 Tuamasaga, Samoa"
    },
    {
      "lat": -13.832730838972203,
      "lon": -171.7671014525119,
      "geoinfo": {
        "display_name": "Convent Street, Mulivai, Tuamasaga, Samoa",
        "road": "Convent Street",
        "house_number": null,
        "neighbourhood": null,
        "suburb": null,
        "city_district": null,
        "city": "Mulivai",
        "state": "Tuamasaga",
        "postcode": null,
        "country": "Samoa",
        "country_code": "ws"
      },
      "address": "368, Convent Street, Apia, 83536 Tuamasaga, Samoa"
    },
    {
      "lat": -13.83308107342555,
      "lon": -171.76590463507048,
      "geoinfo": {
        "display_name": "Nourish Cafe, Convent Street, Mulivai, Tuamasaga, Samoa",
        "road": "Convent Street",
        "house_number": null,
        "neighbourhood": null,
        "suburb": null,
        "city_district": null,
        "city": "Mulivai",
        "state": "Tuamasaga",
        "postcode": null,
        "country": "Samoa",
        "country_code": "ws"
      },
      "address": "590, Convent Street, Apia, 15363 Tuamasaga, Samoa"
    },
    {
      "lat": -13.833375225192421,
      "lon": -171.7668533740931,
      "geoinfo": {
        "display_name": "Marist Brothers Primary School, Convent Street, Mulivai, Tuamasaga, Samoa",
        "road": "Convent Street",
        "house_number": null,
        "neighbourhood": null,
        "suburb": null,
        "city_district": null,
        "city": "Mulivai",
        "state": "Tuamasaga",
        "postcode": null,
        "country": "Samoa",
        "country_code": "ws"
      },
      "address": "592, Convent Street, Apia, 95955 Tuamasaga, Samoa"
    },
    {
      "lat": -13.83313510536499,
      "lon": -171.76718669755314,
      "geoinfo": {
        "display_name": "Caritas Community Hall, Convent Street, Mulivai, Tuamasaga, Samoa",
        "road": "Convent Street",
        "house_number": null,
        "neighbourhood": null,
        "suburb": null,
        "city_district": null,
        "city": "Mulivai",
        "state": "Tuamasaga",
        "postcode": null,
        "country": "Samoa",
        "country_code": "ws"
      },
      "address": "719, Convent Street, Apia, 66858 Tuamasaga, Samoa"
    },
    {
      "lat": -13.833066644343399,
      "lon": -171.76715480241748,
      "geoinfo": {
        "display_name": "Caritas Community Hall, Convent Street, Mulivai, Tuamasaga, Samoa",
        "road": "Convent Street",
        "house_number": null,
        "neighbourhood": null,
        "suburb": null,
        "city_district": null,
        "city": "Mulivai",
        "state": "Tuamasaga",
        "postcode": null,
        "country": "Samoa",
        "country_code": "ws"
      },
      "address": "979, Convent Street, Apia, 17511 Tuamasaga, Samoa"
    },
    {
      "lat": -13.833435526518613,
      "lon": -171.76599654520723,
      "geoinfo": {
        "display_name": "Marist Brothers Primary School, Convent Street, Mulivai, Tuamasaga, Samoa",
        "road": "Convent Street",
        "house_number": null,
        "neighbourhood": null,
        "suburb": null,
        "city_district": null,
        "city": "Mulivai",
        "state": "Tuamasaga",
        "postcode": null,
        "country": "Samoa",
        "country_code": "ws"
      },
      "address": "155, Convent Street, Apia, 99080 Tuamasaga, Samoa"
    },
    {
      "lat": -13.833802501309611,
      "lon": -171.76697846966576,
      "geoinfo": {
        "display_name": "Convent Street, Mulivai, Tuamasaga, Samoa",
        "road": "Convent Street",
        "house_number": null,
        "neighbourhood": null,
        "suburb": null,
        "city_district": null,
        "city": "Mulivai",
        "state": "Tuamasaga",
        "postcode": null,
        "country": "Samoa",
        "country_code": "ws"
      },
      "address": "305, Convent Street, Apia, 43428 Tuamasaga, Samoa"
    },
    {
      "lat": -13.832837435490246,
      "lon": -171.7665683501401,
      "geoinfo": {
        "display_name": "Apia Catholic Church, Main Beach Road, Mulivai, Tuamasaga, Samoa",
        "road": "Main Beach Road",
        "house_number": null,
        "neighbourhood": null,
        "suburb": null,
        "city_district": null,
        "city": "Mulivai",
        "state": "Tuamasaga",
        "postcode": null,
        "country": "Samoa",
        "country_code": "ws"
      },
      "address": "016, Main Beach Road, Apia, 74473 Tuamasaga, Samoa"
    },
    {
      "lat": -13.834139049199756,
      "lon": -171.7667943571185,
      "geoinfo": {
        "display_name": "Convent Street, Mulivai, Tuamasaga, Samoa",
        "road": "Convent Street",
        "house_number": null,
        "neighbourhood": null,
        "suburb": null,
        "city_district": null,
        "city": "Mulivai",
        "state": "Tuamasaga",
        "postcode": null,
        "country": "Samoa",
        "country_code": "ws"
      },
      "address": "625, Convent Street, Apia, 83976 Tuamasaga, Samoa"
    },
    {
      "lat": -13.833877905571136,
      "lon": -171.76616794015607,
      "geoinfo": {
        "display_name": "Convent Street, Mulivai, Tuamasaga, Samoa",
        "road": "Convent Street",
        "house_number": null,
        "neighbourhood": null,
        "suburb": null,
        "city_district": null,
        "city": "Mulivai",
        "state": "Tuamasaga",
        "postcode": null,
        "country": "Samoa",
        "country_code": "ws"
      },
      "address": "354, Convent Street, Apia, 62624 Tuamasaga, Samoa"
    },
    {
      "lat": -13.833497850054345,
      "lon": -171.7668231961926,
      "geoinfo": {
        "display_name": "Convent Street, Mulivai, Tuamasaga, Samoa",
        "road": "Convent Street",
        "house_number": null,
        "neighbourhood": null,
        "suburb": null,
        "city_district": null,
        "city": "Mulivai",
        "state": "Tuamasaga",
        "postcode": null,
        "country": "Samoa",
        "country_code": "ws"
      },
      "address": "250, Convent Street, Apia, 76419 Tuamasaga, Samoa"
    },
    {
      "lat": -13.833683328808032,
      "lon": -171.76618623090198,
      "geoinfo": {
        "display_name": "Convent Street, Mulivai, Tuamasaga, Samoa",
        "road": "Convent Street",
        "house_number": null,
        "neighbourhood": null,
        "suburb": null,
        "city_district": null,
        "city": "Mulivai",
        "state": "Tuamasaga",
        "postcode": null,
        "country": "Samoa",
        "country_code": "ws"
      },
      "address": "341, Convent Street, Apia, 20269 Tuamasaga, Samoa"
    },
    {
      "lat": -13.833699670850322,
      "lon": -171.76726601250758,
      "geoinfo": {
        "display_name": "Marist Brothers Primary School, Convent Street, Mulivai, Tuamasaga, Samoa",
        "road": "Convent Street",
        "house_number": null,
        "neighbourhood": null,
        "suburb": null,
        "city_district": null,
        "city": "Mulivai",
        "state": "Tuamasaga",
        "postcode": null,
        "country": "Samoa",
        "country_code": "ws"
      },
      "address": "170, Convent Street, Apia, 38684 Tuamasaga, Samoa"
    },
    {
      "lat": -13.833604434394571,
      "lon": -171.76687872707706,
      "geoinfo": {
        "display_name": "Convent Street, Mulivai, Tuamasaga, Samoa",
        "road": "Convent Street",
        "house_number": null,
        "neighbourhood": null,
        "suburb": null,
        "city_district": null,
        "city": "Mulivai",
        "state": "Tuamasaga",
        "postcode": null,
        "country": "Samoa",
        "country_code": "ws"
      },
      "address": "435, Convent Street, Apia, 91707 Tuamasaga, Samoa"
    },
    {
      "lat": -13.833628002906572,
      "lon": -171.76740118411044,
      "geoinfo": {
        "display_name": "Marist Brothers Primary School, Convent Street, Mulivai, Tuamasaga, Samoa",
        "road": "Convent Street",
        "house_number": null,
        "neighbourhood": null,
        "suburb": null,
        "city_district": null,
        "city": "Mulivai",
        "state": "Tuamasaga",
        "postcode": null,
        "country": "Samoa",
        "country_code": "ws"
      },
      "address": "284, Convent Street, Apia, 72845 Tuamasaga, Samoa"
    },
    {
      "lat": -13.832743300546813,
      "lon": -171.76723316374986,
      "geoinfo": {
        "display_name": "Caritas Community Hall, Convent Street, Mulivai, Tuamasaga, Samoa",
        "road": "Convent Street",
        "house_number": null,
        "neighbourhood": null,
        "suburb": null,
        "city_district": null,
        "city": "Mulivai",
        "state": "Tuamasaga",
        "postcode": null,
        "country": "Samoa",
        "country_code": "ws"
      },
      "address": "149, Convent Street, Apia, 06335 Tuamasaga, Samoa"
    },
    {
      "lat": -13.832887108085007,
      "lon": -171.76598689765171,
      "geoinfo": {
        "display_name": "Nourish Cafe, Convent Street, Mulivai, Tuamasaga, Samoa",
        "road": "Convent Street",
        "house_number": null,
        "neighbourhood": null,
        "suburb": null,
        "city_district": null,
        "city": "Mulivai",
        "state": "Tuamasaga",
        "postcode": null,
        "country": "Samoa",
        "country_code": "ws"
      },
      "address": "305, Convent Street, Apia, 76600 Tuamasaga, Samoa"
    },
    {
      "lat": -13.833066093905723,
      "lon": -171.7664879927582,
      "geoinfo": {
        "display_name": "Marist Brothers Primary School, Convent Street, Mulivai, Tuamasaga, Samoa",
        "road": "Convent Street",
        "house_number": null,
        "neighbourhood": null,
        "suburb": null,
        "city_district": null,
        "city": "Mulivai",
        "state": "Tuamasaga",
        "postcode": null,
        "country": "Samoa",
        "country_code": "ws"
      },
      "address": "583, Convent Street, Apia, 31800 Tuamasaga, Samoa"
    },
    {
      "lat": -13.833489222461148,
      "lon": -171.7672979629859,
      "geoinfo": {
        "display_name": "Marist Brothers Primary School, Convent Street, Mulivai, Tuamasaga, Samoa",
        "road": "Convent Street",
        "house_number": null,
        "neighbourhood": null,
        "suburb": null,
        "city_district": null,
        "city": "Mulivai",
        "state": "Tuamasaga",
        "postcode": null,
        "country": "Samoa",
        "country_code": "ws"
      },
      "address": "499, Convent Street, Apia, 74113 Tuamasaga, Samoa"
    },
    {
      "lat": -13.83284903571994,
      "lon": -171.76713395471631,
      "geoinfo": {
        "display_name": "Convent Street, Mulivai, Tuamasaga, Samoa",
        "road": "Convent Street",
        "house_number": null,
        "neighbourhood": null,
        "suburb": null,
        "city_district": null,
        "city": "Mulivai",
        "state": "Tuamasaga",
        "postcode": null,
        "country": "Samoa",
        "country_code": "ws"
      },
      "address": "677, Convent Street, Apia, 90534 Tuamasaga, Samoa"
    },
    {
      "lat": -13.833005397181026,
      "lon": -171.7659282777431,
      "geoinfo": {
        "display_name": "JPs Fitness Centre, Convent Street, Mulivai, Tuamasaga, Samoa",
        "road": "Convent Street",
        "house_number": null,
        "neighbourhood": null,
        "suburb": null,
        "city_district": null,
        "city": "Mulivai",
        "state": "Tuamasaga",
        "postcode": null,
        "country": "Samoa",
        "country_code": "ws"
      },
      "address": "981, Convent Street, Apia, 69884 Tuamasaga, Samoa"
    },
    {
      "lat": -13.833137952328283,
      "lon": -171.76637345054465,
      "geoinfo": {
        "display_name": "Marist Brothers Primary School, Convent Street, Mulivai, Tuamasaga, Samoa",
        "road": "Convent Street",
        "house_number": null,
        "neighbourhood": null,
        "suburb": null,
        "city_district": null,
        "city": "Mulivai",
        "state": "Tuamasaga",
        "postcode": null,
        "country": "Samoa",
        "country_code": "ws"
      },
      "address": "567, Convent Street, Apia, 64709 Tuamasaga, Samoa"
    },
    {
      "lat": -13.832714150318047,
      "lon": -171.76662084352787,
      "geoinfo": {
        "display_name": "Apia Catholic Church, Main Beach Road, Mulivai, Tuamasaga, Samoa",
        "road": "Main Beach Road",
        "house_number": null,
        "neighbourhood": null,
        "suburb": null,
        "city_district": null,
        "city": "Mulivai",
        "state": "Tuamasaga",
        "postcode": null,
        "country": "Samoa",
        "country_code": "ws"
      },
      "address": "718, Main Beach Road, Apia, 55774 Tuamasaga, Samoa"
    },
    {
      "lat": -13.83298942863233,
      "lon": -171.76626239230143,
      "geoinfo": {
        "display_name": "Convent Street, Mulivai, Tuamasaga, Samoa",
        "road": "Convent Street",
        "house_number": null,
        "neighbourhood": null,
        "suburb": null,
        "city_district": null,
        "city": "Mulivai",
        "state": "Tuamasaga",
        "postcode": null,
        "country": "Samoa",
        "country_code": "ws"
      },
      "address": "869, Convent Street, Apia, 58784 Tuamasaga, Samoa"
    },
    {
      "lat": -13.83312763817137,
      "lon": -171.7658683995616,
      "geoinfo": {
        "display_name": "Nourish Cafe, Convent Street, Mulivai, Tuamasaga, Samoa",
        "road": "Convent Street",
        "house_number": null,
        "neighbourhood": null,
        "suburb": null,
        "city_district": null,
        "city": "Mulivai",
        "state": "Tuamasaga",
        "postcode": null,
        "country": "Samoa",
        "country_code": "ws"
      },
      "address": "459, Convent Street, Apia, 06054 Tuamasaga, Samoa"
    },
    {
      "lat": -13.833156597047573,
      "lon": -171.76619356303001,
      "geoinfo": {
        "display_name": "Convent Street, Mulivai, Tuamasaga, Samoa",
        "road": "Convent Street",
        "house_number": null,
        "neighbourhood": null,
        "suburb": null,
        "city_district": null,
        "city": "Mulivai",
        "state": "Tuamasaga",
        "postcode": null,
        "country": "Samoa",
        "country_code": "ws"
      },
      "address": "082, Convent Street, Apia, 07706 Tuamasaga, Samoa"
    },
    {
      "lat": -13.833915156480483,
      "lon": -171.7667958846314,
      "geoinfo": {
        "display_name": "Convent Street, Mulivai, Tuamasaga, Samoa",
        "road": "Convent Street",
        "house_number": null,
        "neighbourhood": null,
        "suburb": null,
        "city_district": null,
        "city": "Mulivai",
        "state": "Tuamasaga",
        "postcode": null,
        "country": "Samoa",
        "country_code": "ws"
      },
      "address": "188, Convent Street, Apia, 08511 Tuamasaga, Samoa"
    },
    {
      "lat": -13.833889553901257,
      "lon": -171.76693571560386,
      "geoinfo": {
        "display_name": "Convent Street, Mulivai, Tuamasaga, Samoa",
        "road": "Convent Street",
        "house_number": null,
        "neighbourhood": null,
        "suburb": null,
        "city_district": null,
        "city": "Mulivai",
        "state": "Tuamasaga",
        "postcode": null,
        "country": "Samoa",
        "country_code": "ws"
      },
      "address": "259, Convent Street, Apia, 15902 Tuamasaga, Samoa"
    },
    {
      "lat": -13.832678728803623,
      "lon": -171.76652192331505,
      "geoinfo": {
        "display_name": "Apia Catholic Church, Main Beach Road, Mulivai, Tuamasaga, Samoa",
        "road": "Main Beach Road",
        "house_number": null,
        "neighbourhood": null,
        "suburb": null,
        "city_district": null,
        "city": "Mulivai",
        "state": "Tuamasaga",
        "postcode": null,
        "country": "Samoa",
        "country_code": "ws"
      },
      "address": "345, Main Beach Road, Apia, 99984 Tuamasaga, Samoa"
    },
    {
      "lat": -13.832978216485502,
      "lon": -171.7672546479437,
      "geoinfo": {
        "display_name": "Caritas Community Hall, Convent Street, Mulivai, Tuamasaga, Samoa",
        "road": "Convent Street",
        "house_number": null,
        "neighbourhood": null,
        "suburb": null,
        "city_district": null,
        "city": "Mulivai",
        "state": "Tuamasaga",
        "postcode": null,
        "country": "Samoa",
        "country_code": "ws"
      },
      "address": "984, Convent Street, Apia, 47863 Tuamasaga, Samoa"
    },
    {
      "lat": -13.832876609621783,
      "lon": -171.76744885980676,
      "geoinfo": {
        "display_name": "Caritas Community Hall, Convent Street, Mulivai, Tuamasaga, Samoa",
        "road": "Convent Street",
        "house_number": null,
        "neighbourhood": null,
        "suburb": null,
        "city_district": null,
        "city": "Mulivai",
        "state": "Tuamasaga",
        "postcode": null,
        "country": "Samoa",
        "country_code": "ws"
      },
      "address": "148, Convent Street, Apia, 15551 Tuamasaga, Samoa"
    },
    {
      "lat": -13.833433513069219,
      "lon": -171.7668910663072,
      "geoinfo": {
        "display_name": "Marist Brothers Primary School, Convent Street, Mulivai, Tuamasaga, Samoa",
        "road": "Convent Street",
        "house_number": null,
        "neighbourhood": null,
        "suburb": null,
        "city_district": null,
        "city": "Mulivai",
        "state": "Tuamasaga",
        "postcode": null,
        "country": "Samoa",
        "country_code": "ws"
      },
      "address": "031, Convent Street, Apia, 11741 Tuamasaga, Samoa"
    },
    {
      "lat": -13.832688384969035,
      "lon": -171.7663424924081,
      "geoinfo": {
        "display_name": "Apia Supermarket, Convent Street, Mulivai, Tuamasaga, Samoa",
        "road": "Convent Street",
        "house_number": null,
        "neighbourhood": null,
        "suburb": null,
        "city_district": null,
        "city": "Mulivai",
        "state": "Tuamasaga",
        "postcode": null,
        "country": "Samoa",
        "country_code": "ws"
      },
      "address": "429, Convent Street, Apia, 80299 Tuamasaga, Samoa"
    },
    {
      "lat": -13.83368505964298,
      "lon": -171.76616194399293,
      "geoinfo": {
        "display_name": "Convent Street, Mulivai, Tuamasaga, Samoa",
        "road": "Convent Street",
        "house_number": null,
        "neighbourhood": null,
        "suburb": null,
        "city_district": null,
        "city": "Mulivai",
        "state": "Tuamasaga",
        "postcode": null,
        "country": "Samoa",
        "country_code": "ws"
      },
      "address": "631, Convent Street, Apia, 17515 Tuamasaga, Samoa"
    },
    {
      "lat": -13.833751788176823,
      "lon": -171.7668676473825,
      "geoinfo": {
        "display_name": "Convent Street, Mulivai, Tuamasaga, Samoa",
        "road": "Convent Street",
        "house_number": null,
        "neighbourhood": null,
        "suburb": null,
        "city_district": null,
        "city": "Mulivai",
        "state": "Tuamasaga",
        "postcode": null,
        "country": "Samoa",
        "country_code": "ws"
      },
      "address": "516, Convent Street, Apia, 39485 Tuamasaga, Samoa"
    },
    {
      "lat": -13.83382660940969,
      "lon": -171.7666814253114,
      "geoinfo": {
        "display_name": "Convent Street, Mulivai, Tuamasaga, Samoa",
        "road": "Convent Street",
        "house_number": null,
        "neighbourhood": null,
        "suburb": null,
        "city_district": null,
        "city": "Mulivai",
        "state": "Tuamasaga",
        "postcode": null,
        "country": "Samoa",
        "country_code": "ws"
      },
      "address": "942, Convent Street, Apia, 18133 Tuamasaga, Samoa"
    },
    {
      "lat": -13.83400934788173,
      "lon": -171.7665864667423,
      "geoinfo": {
        "display_name": "Convent Street, Mulivai, Tuamasaga, Samoa",
        "road": "Convent Street",
        "house_number": null,
        "neighbourhood": null,
        "suburb": null,
        "city_district": null,
        "city": "Mulivai",
        "state": "Tuamasaga",
        "postcode": null,
        "country": "Samoa",
        "country_code": "ws"
      },
      "address": "333, Convent Street, Apia, 92164 Tuamasaga, Samoa"
    },
    {
      "lat": -13.834053841186238,
      "lon": -171.76717116810113,
      "geoinfo": {
        "display_name": "Marist Brothers Primary School, Convent Street, Mulivai, Tuamasaga, Samoa",
        "road": "Convent Street",
        "house_number": null,
        "neighbourhood": null,
        "suburb": null,
        "city_district": null,
        "city": "Mulivai",
        "state": "Tuamasaga",
        "postcode": null,
        "country": "Samoa",
        "country_code": "ws"
      },
      "address": "081, Convent Street, Apia, 54912 Tuamasaga, Samoa"
    },
    {
      "lat": -13.833292546947682,
      "lon": -171.7671462083098,
      "geoinfo": {
        "display_name": "Marist Brothers Primary School, Convent Street, Mulivai, Tuamasaga, Samoa",
        "road": "Convent Street",
        "house_number": null,
        "neighbourhood": null,
        "suburb": null,
        "city_district": null,
        "city": "Mulivai",
        "state": "Tuamasaga",
        "postcode": null,
        "country": "Samoa",
        "country_code": "ws"
      },
      "address": "092, Convent Street, Apia, 92605 Tuamasaga, Samoa"
    },
    {
      "lat": -13.832787113692534,
      "lon": -171.7661232370182,
      "geoinfo": {
        "display_name": "Liquor Planet, Convent Street, Mulivai, Tuamasaga, Samoa",
        "road": "Convent Street",
        "house_number": null,
        "neighbourhood": null,
        "suburb": null,
        "city_district": null,
        "city": "Mulivai",
        "state": "Tuamasaga",
        "postcode": null,
        "country": "Samoa",
        "country_code": "ws"
      },
      "address": "502, Convent Street, Apia, 63456 Tuamasaga, Samoa"
    },
    {
      "lat": -13.834096234048777,
      "lon": -171.7662243676748,
      "geoinfo": {
        "display_name": "Convent Street, Mulivai, Tuamasaga, Samoa",
        "road": "Convent Street",
        "house_number": null,
        "neighbourhood": null,
        "suburb": null,
        "city_district": null,
        "city": "Mulivai",
        "state": "Tuamasaga",
        "postcode": null,
        "country": "Samoa",
        "country_code": "ws"
      },
      "address": "528, Convent Street, Apia, 94129 Tuamasaga, Samoa"
    },
    {
      "lat": -13.83373362960273,
      "lon": -171.76733841065436,
      "geoinfo": {
        "display_name": "Marist Brothers Primary School, Convent Street, Mulivai, Tuamasaga, Samoa",
        "road": "Convent Street",
        "house_number": null,
        "neighbourhood": null,
        "suburb": null,
        "city_district": null,
        "city": "Mulivai",
        "state": "Tuamasaga",
        "postcode": null,
        "country": "Samoa",
        "country_code": "ws"
      },
      "address": "606, Convent Street, Apia, 28639 Tuamasaga, Samoa"
    },
    {
      "lat": -13.833856651343995,
      "lon": -171.76710371712664,
      "geoinfo": {
        "display_name": "Convent Street, Mulivai, Tuamasaga, Samoa",
        "road": "Convent Street",
        "house_number": null,
        "neighbourhood": null,
        "suburb": null,
        "city_district": null,
        "city": "Mulivai",
        "state": "Tuamasaga",
        "postcode": null,
        "country": "Samoa",
        "country_code": "ws"
      },
      "address": "936, Convent Street, Apia, 17382 Tuamasaga, Samoa"
    },
    {
      "lat": -13.832966208524194,
      "lon": -171.76679951325886,
      "geoinfo": {
        "display_name": "Marist Brothers Primary School, Convent Street, Mulivai, Tuamasaga, Samoa",
        "road": "Convent Street",
        "house_number": null,
        "neighbourhood": null,
        "suburb": null,
        "city_district": null,
        "city": "Mulivai",
        "state": "Tuamasaga",
        "postcode": null,
        "country": "Samoa",
        "country_code": "ws"
      },
      "address": "731, Convent Street, Apia, 04651 Tuamasaga, Samoa"
    },
    {
      "lat": -13.833785694299152,
      "lon": -171.7671215849555,
      "geoinfo": {
        "display_name": "Convent Street, Mulivai, Tuamasaga, Samoa",
        "road": "Convent Street",
        "house_number": null,
        "neighbourhood": null,
        "suburb": null,
        "city_district": null,
        "city": "Mulivai",
        "state": "Tuamasaga",
        "postcode": null,
        "country": "Samoa",
        "country_code": "ws"
      },
      "address": "202, Convent Street, Apia, 53307 Tuamasaga, Samoa"
    },
    {
      "lat": -13.83333948611631,
      "lon": -171.76576597948733,
      "geoinfo": {
        "display_name": "Convent Street, Tauese, Tuamasaga, Samoa",
        "road": "Convent Street",
        "house_number": null,
        "neighbourhood": null,
        "suburb": null,
        "city_district": null,
        "city": "Tauese",
        "state": "Tuamasaga",
        "postcode": null,
        "country": "Samoa",
        "country_code": "ws"
      },
      "address": "302, Convent Street, Apia, 27198 Tuamasaga, Samoa"
    },
    {
      "lat": -13.833320613145316,
      "lon": -171.76621704091195,
      "geoinfo": {
        "display_name": "Marist Brothers Primary School, Convent Street, Mulivai, Tuamasaga, Samoa",
        "road": "Convent Street",
        "house_number": null,
        "neighbourhood": null,
        "suburb": null,
        "city_district": null,
        "city": "Mulivai",
        "state": "Tuamasaga",
        "postcode": null,
        "country": "Samoa",
        "country_code": "ws"
      },
      "address": "705, Convent Street, Apia, 83027 Tuamasaga, Samoa"
    },
    {
      "lat": -13.833896242866924,
      "lon": -171.76656676164063,
      "geoinfo": {
        "display_name": "Convent Street, Mulivai, Tuamasaga, Samoa",
        "road": "Convent Street",
        "house_number": null,
        "neighbourhood": null,
        "suburb": null,
        "city_district": null,
        "city": "Mulivai",
        "state": "Tuamasaga",
        "postcode": null,
        "country": "Samoa",
        "country_code": "ws"
      },
      "address": "213, Convent Street, Apia, 44927 Tuamasaga, Samoa"
    },
    {
      "lat": -13.833747219641031,
      "lon": -171.7658509230095,
      "geoinfo": {
        "display_name": "Convent Street, Mulivai, Tuamasaga, Samoa",
        "road": "Convent Street",
        "house_number": null,
        "neighbourhood": null,
        "suburb": null,
        "city_district": null,
        "city": "Mulivai",
        "state": "Tuamasaga",
        "postcode": null,
        "country": "Samoa",
        "country_code": "ws"
      },
      "address": "368, Convent Street, Apia, 23446 Tuamasaga, Samoa"
    },
    {
      "lat": -13.833375294263915,
      "lon": -171.76578120947232,
      "geoinfo": {
        "display_name": "Convent Street, Tauese, Tuamasaga, Samoa",
        "road": "Convent Street",
        "house_number": null,
        "neighbourhood": null,
        "suburb": null,
        "city_district": null,
        "city": "Tauese",
        "state": "Tuamasaga",
        "postcode": null,
        "country": "Samoa",
        "country_code": "ws"
      },
      "address": "818, Convent Street, Apia, 18601 Tuamasaga, Samoa"
    },
    {
      "lat": -13.833921983346942,
      "lon": -171.766250004103,
      "geoinfo": {
        "display_name": "Convent Street, Mulivai, Tuamasaga, Samoa",
        "road": "Convent Street",
        "house_number": null,
        "neighbourhood": null,
        "suburb": null,
        "city_district": null,
        "city": "Mulivai",
        "state": "Tuamasaga",
        "postcode": null,
        "country": "Samoa",
        "country_code": "ws"
      },
      "address": "898, Convent Street, Apia, 13159 Tuamasaga, Samoa"
    },
    {
      "lat": -13.832897428564593,
      "lon": -171.76652600366108,
      "geoinfo": {
        "display_name": "Convent Street, Mulivai, Tuamasaga, Samoa",
        "road": "Convent Street",
        "house_number": null,
        "neighbourhood": null,
        "suburb": null,
        "city_district": null,
        "city": "Mulivai",
        "state": "Tuamasaga",
        "postcode": null,
        "country": "Samoa",
        "country_code": "ws"
      },
      "address": "880, Convent Street, Apia, 59775 Tuamasaga, Samoa"
    },
    {
      "lat": -13.83336320924903,
      "lon": -171.76593074631606,
      "geoinfo": {
        "display_name": "Convent Street, Mulivai, Tuamasaga, Samoa",
        "road": "Convent Street",
        "house_number": null,
        "neighbourhood": null,
        "suburb": null,
        "city_district": null,
        "city": "Mulivai",
        "state": "Tuamasaga",
        "postcode": null,
        "country": "Samoa",
        "country_code": "ws"
      },
      "address": "240, Convent Street, Apia, 17482 Tuamasaga, Samoa"
    },
    {
      "lat": -13.833771180485794,
      "lon": -171.76693958253622,
      "geoinfo": {
        "display_name": "Convent Street, Mulivai, Tuamasaga, Samoa",
        "road": "Convent Street",
        "house_number": null,
        "neighbourhood": null,
        "suburb": null,
        "city_district": null,
        "city": "Mulivai",
        "state": "Tuamasaga",
        "postcode": null,
        "country": "Samoa",
        "country_code": "ws"
      },
      "address": "135, Convent Street, Apia, 11773 Tuamasaga, Samoa"
    },
    {
      "lat": -13.83330801327627,
      "lon": -171.76599760613126,
      "geoinfo": {
        "display_name": "Convent Street, Mulivai, Tuamasaga, Samoa",
        "road": "Convent Street",
        "house_number": null,
        "neighbourhood": null,
        "suburb": null,
        "city_district": null,
        "city": "Mulivai",
        "state": "Tuamasaga",
        "postcode": null,
        "country": "Samoa",
        "country_code": "ws"
      },
      "address": "211, Convent Street, Apia, 85103 Tuamasaga, Samoa"
    },
    {
      "lat": -13.83310304011366,
      "lon": -171.76633959502544,
      "geoinfo": {
        "display_name": "Convent Street, Mulivai, Tuamasaga, Samoa",
        "road": "Convent Street",
        "house_number": null,
        "neighbourhood": null,
        "suburb": null,
        "city_district": null,
        "city": "Mulivai",
        "state": "Tuamasaga",
        "postcode": null,
        "country": "Samoa",
        "country_code": "ws"
      },
      "address": "812, Convent Street, Apia, 84757 Tuamasaga, Samoa"
    },
    {
      "lat": -13.832958721079228,
      "lon": -171.7665005419008,
      "geoinfo": {
        "display_name": "Convent Street, Mulivai, Tuamasaga, Samoa",
        "road": "Convent Street",
        "house_number": null,
        "neighbourhood": null,
        "suburb": null,
        "city_district": null,
        "city": "Mulivai",
        "state": "Tuamasaga",
        "postcode": null,
        "country": "Samoa",
        "country_code": "ws"
      },
      "address": "097, Convent Street, Apia, 10653 Tuamasaga, Samoa"
    },
    {
      "lat": -13.833279942164577,
      "lon": -171.7663887109285,
      "geoinfo": {
        "display_name": "Marist Brothers Primary School, Convent Street, Mulivai, Tuamasaga, Samoa",
        "road": "Convent Street",
        "house_number": null,
        "neighbourhood": null,
        "suburb": null,
        "city_district": null,
        "city": "Mulivai",
        "state": "Tuamasaga",
        "postcode": null,
        "country": "Samoa",
        "country_code": "ws"
      },
      "address": "344, Convent Street, Apia, 04686 Tuamasaga, Samoa"
    },
    {
      "lat": -13.833888524313961,
      "lon": -171.76640793544846,
      "geoinfo": {
        "display_name": "Marist Brothers Primary School, Convent Street, Mulivai, Tuamasaga, Samoa",
        "road": "Convent Street",
        "house_number": null,
        "neighbourhood": null,
        "suburb": null,
        "city_district": null,
        "city": "Mulivai",
        "state": "Tuamasaga",
        "postcode": null,
        "country": "Samoa",
        "country_code": "ws"
      },
      "address": "170, Convent Street, Apia, 81418 Tuamasaga, Samoa"
    },
    {
      "lat": -13.83393535798437,
      "lon": -171.76718142543265,
      "geoinfo": {
        "display_name": "Convent Street, Mulivai, Tuamasaga, Samoa",
        "road": "Convent Street",
        "house_number": null,
        "neighbourhood": null,
        "suburb": null,
        "city_district": null,
        "city": "Mulivai",
        "state": "Tuamasaga",
        "postcode": null,
        "country": "Samoa",
        "country_code": "ws"
      },
      "address": "626, Convent Street, Apia, 61927 Tuamasaga, Samoa"
    },
    {
      "lat": -13.833032863332607,
      "lon": -171.76585624519794,
      "geoinfo": {
        "display_name": "JPs Fitness Centre, Convent Street, Mulivai, Tuamasaga, Samoa",
        "road": "Convent Street",
        "house_number": null,
        "neighbourhood": null,
        "suburb": null,
        "city_district": null,
        "city": "Mulivai",
        "state": "Tuamasaga",
        "postcode": null,
        "country": "Samoa",
        "country_code": "ws"
      },
      "address": "824, Convent Street, Apia, 81943 Tuamasaga, Samoa"
    },
    {
      "lat": -13.833514746271932,
      "lon": -171.76605931463612,
      "geoinfo": {
        "display_name": "Marist Brothers Primary School, Convent Street, Mulivai, Tuamasaga, Samoa",
        "road": "Convent Street",
        "house_number": null,
        "neighbourhood": null,
        "suburb": null,
        "city_district": null,
        "city": "Mulivai",
        "state": "Tuamasaga",
        "postcode": null,
        "country": "Samoa",
        "country_code": "ws"
      },
      "address": "647, Convent Street, Apia, 43491 Tuamasaga, Samoa"
    },
    {
      "lat": -13.832905618491075,
      "lon": -171.76742299906675,
      "geoinfo": {
        "display_name": "Caritas Community Hall, Convent Street, Mulivai, Tuamasaga, Samoa",
        "road": "Convent Street",
        "house_number": null,
        "neighbourhood": null,
        "suburb": null,
        "city_district": null,
        "city": "Mulivai",
        "state": "Tuamasaga",
        "postcode": null,
        "country": "Samoa",
        "country_code": "ws"
      },
      "address": "358, Convent Street, Apia, 27871 Tuamasaga, Samoa"
    },
    {
      "lat": -13.832980316772717,
      "lon": -171.76739304390415,
      "geoinfo": {
        "display_name": "Caritas Community Hall, Convent Street, Mulivai, Tuamasaga, Samoa",
        "road": "Convent Street",
        "house_number": null,
        "neighbourhood": null,
        "suburb": null,
        "city_district": null,
        "city": "Mulivai",
        "state": "Tuamasaga",
        "postcode": null,
        "country": "Samoa",
        "country_code": "ws"
      },
      "address": "791, Convent Street, Apia, 15268 Tuamasaga, Samoa"
    },
    {
      "lat": -13.833168710460214,
      "lon": -171.76636564100303,
      "geoinfo": {
        "display_name": "Marist Brothers Primary School, Convent Street, Mulivai, Tuamasaga, Samoa",
        "road": "Convent Street",
        "house_number": null,
        "neighbourhood": null,
        "suburb": null,
        "city_district": null,
        "city": "Mulivai",
        "state": "Tuamasaga",
        "postcode": null,
        "country": "Samoa",
        "country_code": "ws"
      },
      "address": "990, Convent Street, Apia, 65476 Tuamasaga, Samoa"
    },
    {
      "lat": -13.833853344198541,
      "lon": -171.76680363526827,
      "geoinfo": {
        "display_name": "Convent Street, Mulivai, Tuamasaga, Samoa",
        "road": "Convent Street",
        "house_number": null,
        "neighbourhood": null,
        "suburb": null,
        "city_district": null,
        "city": "Mulivai",
        "state": "Tuamasaga",
        "postcode": null,
        "country": "Samoa",
        "country_code": "ws"
      },
      "address": "479, Convent Street, Apia, 47831 Tuamasaga, Samoa"
    },
    {
      "lat": -13.83267047782985,
      "lon": -171.7667070830005,
      "geoinfo": {
        "display_name": "Apia Catholic Church, Main Beach Road, Mulivai, Tuamasaga, Samoa",
        "road": "Main Beach Road",
        "house_number": null,
        "neighbourhood": null,
        "suburb": null,
        "city_district": null,
        "city": "Mulivai",
        "state": "Tuamasaga",
        "postcode": null,
        "country": "Samoa",
        "country_code": "ws"
      },
      "address": "452, Main Beach Road, Apia, 43557 Tuamasaga, Samoa"
    },
    {
      "lat": -13.834071672701565,
      "lon": -171.76661467872836,
      "geoinfo": {
        "display_name": "Marist Brothers Primary School, Convent Street, Mulivai, Tuamasaga, Samoa",
        "road": "Convent Street",
        "house_number": null,
        "neighbourhood": null,
        "suburb": null,
        "city_district": null,
        "city": "Mulivai",
        "state": "Tuamasaga",
        "postcode": null,
        "country": "Samoa",
        "country_code": "ws"
      },
      "address": "377, Convent Street, Apia, 99386 Tuamasaga, Samoa"
    },
    {
      "lat": -13.832873776395624,
      "lon": -171.7664238467392,
      "geoinfo": {
        "display_name": "Convent Street, Mulivai, Tuamasaga, Samoa",
        "road": "Convent Street",
        "house_number": null,
        "neighbourhood": null,
        "suburb": null,
        "city_district": null,
        "city": "Mulivai",
        "state": "Tuamasaga",
        "postcode": null,
        "country": "Samoa",
        "country_code": "ws"
      },
      "address": "700, Convent Street, Apia, 82264 Tuamasaga, Samoa"
    },
    {
      "lat": -13.833562287622609,
      "lon": -171.7666323811346,
      "geoinfo": {
        "display_name": "Marist Brothers Primary School, Convent Street, Mulivai, Tuamasaga, Samoa",
        "road": "Convent Street",
        "house_number": null,
        "neighbourhood": null,
        "suburb": null,
        "city_district": null,
        "city": "Mulivai",
        "state": "Tuamasaga",
        "postcode": null,
        "country": "Samoa",
        "country_code": "ws"
      },
      "address": "518, Convent Street, Apia, 22217 Tuamasaga, Samoa"
    },
    {
      "lat": -13.833720747360038,
      "lon": -171.76741332108344,
      "geoinfo": {
        "display_name": "Marist Brothers Primary School, Convent Street, Mulivai, Tuamasaga, Samoa",
        "road": "Convent Street",
        "house_number": null,
        "neighbourhood": null,
        "suburb": null,
        "city_district": null,
        "city": "Mulivai",
        "state": "Tuamasaga",
        "postcode": null,
        "country": "Samoa",
        "country_code": "ws"
      },
      "address": "664, Convent Street, Apia, 58769 Tuamasaga, Samoa"
    },
    {
      "lat": -13.833477207768384,
      "lon": -171.7657813272311,
      "geoinfo": {
        "display_name": "Marist Brothers Primary School, Convent Street, Mulivai, Tuamasaga, Samoa",
        "road": "Convent Street",
        "house_number": null,
        "neighbourhood": null,
        "suburb": null,
        "city_district": null,
        "city": "Mulivai",
        "state": "Tuamasaga",
        "postcode": null,
        "country": "Samoa",
        "country_code": "ws"
      },
      "address": "287, Convent Street, Apia, 85472 Tuamasaga, Samoa"
    },
    {
      "lat": -13.833940056105407,
      "lon": -171.76687439376454,
      "geoinfo": {
        "display_name": "Convent Street, Mulivai, Tuamasaga, Samoa",
        "road": "Convent Street",
        "house_number": null,
        "neighbourhood": null,
        "suburb": null,
        "city_district": null,
        "city": "Mulivai",
        "state": "Tuamasaga",
        "postcode": null,
        "country": "Samoa",
        "country_code": "ws"
      },
      "address": "671, Convent Street, Apia, 42473 Tuamasaga, Samoa"
    }
  ],
  "updated_at": "2025-10-21T23:30:08.895345+00:00",
  "_kind": "geo_samples"
}