{
  "country_code": "LK",
  "country": "Sri Lanka",
  "city": "Badulla",
  "geonameid": 1250615,
  "target_addresses": 2,
  "samples": [
    {
      "lat": 6.954981777911853,
      "lon": 81.08477403979695,
      "geoinfo": {
        "display_name": "Pallegama, Kandana, Badulla District, Uva Province, 90000, Sri Lanka",
        "road": null,
        "house_number": null,
        "neighbourhood": null,
        "suburb": null,
        "city_district": null,
        "city": "Kandana",
        "state": "Uva Province",
        "postcode": "90000",
        "country": "Sri Lanka",
        "country_code": "lk"
      },
      "address": "Badulla, Uva Province, Sri Lanka"
    },
    {
      "lat": 7.003277125301606,
      "lon": 81.08362245188437,
      "geoinfo": {
        "display_name": "Nelumgama - Damanwara Road, Nelumgama, Badulla, Badulla District, Uva Province, 90000, Sri Lanka",
        "road": "Nelumgama - Damanwara Road",
        "house_number": null,
        "neighbourhood": null,
        "suburb": null,
        "city_district": null,
        "city": "Badulla",
        "state": "Uva Province",
        "postcode": "90000",
        "country": "Sri Lanka",
        "country_code": "lk"
      },
      "address": "Nelumgama - Damanwara Road, Badulla, Uva Province, Sri Lanka"
    },
    {
      "lat": 6.998251012727292,
      "lon": 81.08663859296189,
      "geoinfo": {
        "display_name": "Sirimalgoda, Badulla, Badulla District, Uva Province, 90000, Sri Lanka",
        "road": null,
        "house_number": null,
        "neighbourhood": null,
        "suburb": null,
        "city_district": null,
        "city": "Badulla",
        "state": "Uva Province",
        "postcode": "90000",
        "country": "Sri Lanka",
        "country_code": "lk"
      },
      "address": "986, Sirimalgoda, Badulla, Badulla District, Uva Province, 90000, Sri Lanka"
    },
    {
      "lat": 7.0051178673729595,
      "lon": 81.06499967404832,
      "geoinfo": {
        "display_name": "Badulla, Badulla District, Uva Province, 33810, Sri Lanka",
        "road": null,
        "house_number": null,
        "neighbourhood": null,
        "suburb": null,
        "city_district": null,
        "city": "Badulla",
        "state": "Uva Province",
        "postcode": "33810",
        "country": "Sri Lanka",
        "country_code": "lk"
      },
      "address": "031, Badulla, Badulla District, Uva Province, 33810, Sri Lanka"
    }
  ],
  "updated_at": "2025-10-19T05:47:11.511176+00:00",
  "_kind": "geo_samples"
}