{
  "country_code": "LK",
  "country": "Sri Lanka",
  "city": "Bentota",
  "geonameid": 1249978,
  "target_addresses": 2,
  "samples": [
    {
      "lat": 6.385558083503958,
      "lon": 79.9994142414481,
      "geoinfo": {
        "display_name": "Gonagala, Galle District, Southern Province, 80510, Sri Lanka",
        "road": null,
        "house_number": null,
        "neighbourhood": null,
        "suburb": null,
        "city_district": null,
        "city": "Gonagala",
        "state": "Southern Province",
        "postcode": "80510",
        "country": "Sri Lanka",
        "country_code": "lk"
      },
      "address": "Bentota, Southern Province, Sri Lanka"
    },
    {
      "lat": 6.454850629532712,
      "lon": 80.01888669356495,
      "geoinfo": {
        "display_name": "Dharga Town, Beruwala DS Division, Kalutara District, Western Province, 12090, Sri Lanka",
        "road": null,
        "house_number": null,
        "neighbourhood": null,
        "suburb": null,
        "city_district": null,
        "city": "Dharga Town",
        "state": "Western Province",
        "postcode": "12090",
        "country": "Sri Lanka",
        "country_code": "lk"
      },
      "address": "Bentota, Western Province, Sri Lanka"
    },
    {
      "lat": 6.458629988139776,
      "lon": 80.00650040333933,
      "geoinfo": {
        "display_name": "Dharga Town, Beruwala DS Division, Kalutara District, Western Province, 12090, Sri Lanka",
        "road": null,
        "house_number": null,
        "neighbourhood": null,
        "suburb": null,
        "city_district": null,
        "city": "Dharga Town",
        "state": "Western Province",
        "postcode": "12090",
        "country": "Sri Lanka",
        "country_code": "lk"
      },
      "address": "607, Dharga Town, Beruwala DS Division, Kalutara District, Western Province, 12090, Sri Lanka"
    },
    {
      "lat": 6.4025044964320985,
      "lon": 79.99564002622905,
      "geoinfo": {
        "display_name": "Bentota, Galle District, Southern Province, 12080, Sri Lanka",
        "road": null,
        "house_number": null,
        "neighbourhood": null,
        "suburb": null,
        "city_district": null,
        "city": "Bentota",
        "state": "Southern Province",
        "postcode": "12080",
        "country": "Sri Lanka",
        "country_code": "lk"
      },
      "address": "137, Bentota, Galle District, Southern Province, 12080, Sri Lanka"
    }
  ],
  "updated_at": "2025-10-19T05:23:22.558726+00:00",
  "_kind": "geo_samples"
}