{
  "country_code": "LK",
  "country": "Sri Lanka",
  "city": "Gampola",
  "geonameid": 1246000,
  "target_addresses": 10,
  "samples": [
    {
      "lat": 7.1652224967778295,
      "lon": 80.60329312835897,
      "geoinfo": {
        "display_name": "Orayan, Thundeniya, Kandy District, Central Province, 20418, Sri Lanka",
        "road": null,
        "house_number": null,
        "neighbourhood": null,
        "suburb": null,
        "city_district": null,
        "city": "Thundeniya",
        "state": "Central Province",
        "postcode": "20418",
        "country": "Sri Lanka",
        "country_code": "lk"
      },
      "address": "Gampola, Central Province, Sri Lanka"
    },
    {
      "lat": 7.161002611641244,
      "lon": 80.59956208322669,
      "geoinfo": {
        "display_name": "Legundeniya Road, Kahawaththa, Thundeniya, Kandy District, Central Province, 20500, Sri Lanka",
        "road": "Legundeniya Road",
        "house_number": null,
        "neighbourhood": null,
        "suburb": null,
        "city_district": null,
        "city": "Thundeniya",
        "state": "Central Province",
        "postcode": "20500",
        "country": "Sri Lanka",
        "country_code": "lk"
      },
      "address": "Legundeniya Road, Gampola, Central Province, Sri Lanka"
    },
    {
      "lat": 7.137793601636805,
      "lon": 80.53925380162346,
      "geoinfo": {
        "display_name": "Gampola - Dolosbage Road, Pallepitiya, Kurunduwatte, Kandy District, Central Province, 20500, Sri Lanka",
        "road": "Gampola - Dolosbage Road",
        "house_number": null,
        "neighbourhood": null,
        "suburb": null,
        "city_district": null,
        "city": "Kurunduwatte",
        "state": "Central Province",
        "postcode": "20500",
        "country": "Sri Lanka",
        "country_code": "lk"
      },
      "address": "Gampola - Dolosbage Road, Pallepitiya, Kurunduwatte, Kandy District, Central Province, 20500, Sri Lanka"
    },
    {
      "lat": 7.157467798688481,
      "lon": 80.61347574903834,
      "geoinfo": {
        "display_name": "Castle Milk, Millagahamula, Kandy District, Central Province, 20544, Sri Lanka",
        "road": null,
        "house_number": null,
        "neighbourhood": null,
        "suburb": null,
        "city_district": null,
        "city": "Millagahamula",
        "state": "Central Province",
        "postcode": "20544",
        "country": "Sri Lanka",
        "country_code": "lk"
      },
      "address": "200, Castle Milk, Millagahamula, Kandy District, Central Province, 20544, Sri Lanka"
    },
    {
      "lat": 7.128834673617561,
      "lon": 80.58114451016348,
      "geoinfo": {
        "display_name": "Store Field, Angammana, Kandy District, Central Province, 20500, Sri Lanka",
        "road": null,
        "house_number": null,
        "neighbourhood": null,
        "suburb": null,
        "city_district": null,
        "city": "Angammana",
        "state": "Central Province",
        "postcode": "20500",
        "country": "Sri Lanka",
        "country_code": "lk"
      },
      "address": "784, Store Field, Angammana, Kandy District, Central Province, 20500, Sri Lanka"
    },
    {
      "lat": 7.204267226190701,
      "lon": 80.5678003267273,
      "geoinfo": {
        "display_name": "Gamhatha, Kandy District, Central Province, 20526, Sri Lanka",
        "road": null,
        "house_number": null,
        "neighbourhood": null,
        "suburb": null,
        "city_district": null,
        "city": "Gamhatha",
        "state": "Central Province",
        "postcode": "20526",
        "country": "Sri Lanka",
        "country_code": "lk"
      },
      "address": "851, Gamhatha, Kandy District, Central Province, 20526, Sri Lanka"
    },
    {
      "lat": 7.177283807871871,
      "lon": 80.60886840776625,
      "geoinfo": {
        "display_name": "Uda Inguruwatta, Weligalla, Kandy District, Central Province, 20418, Sri Lanka",
        "road": null,
        "house_number": null,
        "neighbourhood": null,
        "suburb": null,
        "city_district": null,
        "city": "Weligalla",
        "state": "Central Province",
        "postcode": "20418",
        "country": "Sri Lanka",
        "country_code": "lk"
      },
      "address": "512, Uda Inguruwatta, Weligalla, Kandy District, Central Province, 20418, Sri Lanka"
    },
    {
      "lat": 7.187527631667761,
      "lon": 80.55127639782383,
      "geoinfo": {
        "display_name": "Kadugannawa - Gampola Road, Welamboda, Kandy District, Central Province, 20500, Sri Lanka",
        "road": "Kadugannawa - Gampola Road",
        "house_number": null,
        "neighbourhood": null,
        "suburb": null,
        "city_district": null,
        "city": "Welamboda",
        "state": "Central Province",
        "postcode": "20500",
        "country": "Sri Lanka",
        "country_code": "lk"
      },
      "address": "370, Kadugannawa - Gampola Road, Welamboda, Kandy District, Central Province, 20500, Sri Lanka"
    },
    {
      "lat": 7.17516857310415,
      "lon": 80.5990752013288,
      "geoinfo": {
        "display_name": "Orayan, Wewathenna, Kandy District, Central Province, 20526, Sri Lanka",
        "road": null,
        "house_number": null,
        "neighbourhood": null,
        "suburb": null,
        "city_district": null,
        "city": "Wewathenna",
        "state": "Central Province",
        "postcode": "20526",
        "country": "Sri Lanka",
        "country_code": "lk"
      },
      "address": "043, Orayan, Wewathenna, Kandy District, Central Province, 20526, Sri Lanka"
    },
    {
      "lat": 7.171302671221365,
      "lon": 80.60504127725449,
      "geoinfo": {
        "display_name": "Orayan, Wewathenna, Kandy District, Central Province, 20418, Sri Lanka",
        "road": null,
        "house_number": null,
        "neighbourhood": null,
        "suburb": null,
        "city_district": null,
        "city": "Wewathenna",
        "state": "Central Province",
        "postcode": "20418",
        "country": "Sri Lanka",
        "country_code": "lk"
      },
      "address": "394, Orayan, Wewathenna, Kandy District, Central Province, 20418, Sri Lanka"
    }
  ],
  "updated_at": "2025-10-19T05:35:09.514933+00:00",
  "_kind": "geo_samples"
}