{
  "country_code": "LK",
  "country": "Sri Lanka",
  "city": "Jaffna",
  "geonameid": 1242833,
  "target_addresses": 2,
  "samples": [
    {
      "lat": 9.676688665482349,
      "lon": 79.9656965298506,
      "geoinfo": {
        "display_name": "Kallundai, Jaffna District, Northern Province, 40000, Sri Lanka",
        "road": null,
        "house_number": null,
        "neighbourhood": null,
        "suburb": null,
        "city_district": null,
        "city": "Kallundai",
        "state": "Northern Province",
        "postcode": "40000",
        "country": "Sri Lanka",
        "country_code": "lk"
      },
      "address": "Jaffna, Northern Province, Sri Lanka"
    },
    {
      "lat": 9.66608417349214,
      "lon": 80.01186499008165,
      "geoinfo": {
        "display_name": "Muneswaram Road, Mixed retail residential, Jaffna, Jaffna District, Northern Province, Sri Lanka",
        "road": "Muneswaram Road",
        "house_number": null,
        "neighbourhood": null,
        "suburb": null,
        "city_district": null,
        "city": "Jaffna",
        "state": "Northern Province",
        "postcode": null,
        "country": "Sri Lanka",
        "country_code": "lk"
      },
      "address": "Muneswaram Road, Jaffna, Northern Province, Sri Lanka"
    },
    {
      "lat": 9.679654872975352,
      "lon": 80.02752651385218,
      "geoinfo": {
        "display_name": "Thirunelvely, Nallur, Jaffna District, Northern Province, 40000, Sri Lanka",
        "road": null,
        "house_number": null,
        "neighbourhood": null,
        "suburb": "Thirunelvely",
        "city_district": null,
        "city": "Nallur",
        "state": "Northern Province",
        "postcode": "40000",
        "country": "Sri Lanka",
        "country_code": "lk"
      },
      "address": "635, Thirunelvely, Nallur, Jaffna District, Northern Province, 40000, Sri Lanka"
    },
    {
      "lat": 9.656713622772083,
      "lon": 80.03778068438575,
      "geoinfo": {
        "display_name": "Pungankulam Road, Mixed retail residential, Passaiyoor, Jaffna District, Northern Province, Sri Lanka",
        "road": "Pungankulam Road",
        "house_number": null,
        "neighbourhood": null,
        "suburb": null,
        "city_district": null,
        "city": "Passaiyoor",
        "state": "Northern Province",
        "postcode": null,
        "country": "Sri Lanka",
        "country_code": "lk"
      },
      "address": "046, Pungankulam Road, Mixed retail residential, Passaiyoor, Jaffna District, 56951 Northern Province, Sri Lanka"
    }
  ],
  "updated_at": "2025-10-19T03:44:04.927454+00:00",
  "_kind": "geo_samples"
}