{
  "country_code": "LK",
  "country": "Sri Lanka",
  "city": "Kurunegala",
  "geonameid": 1237980,
  "target_addresses": 10,
  "samples": [
    {
      "lat": 7.472378436849874,
      "lon": 80.33902342837142,
      "geoinfo": {
        "display_name": "Parana Malkaduwawa, Malkaduwawa, Kurunegala District, North Western Province, 60028, Sri Lanka",
        "road": null,
        "house_number": null,
        "neighbourhood": null,
        "suburb": null,
        "city_district": null,
        "city": "Malkaduwawa",
        "state": "North Western Province",
        "postcode": "60028",
        "country": "Sri Lanka",
        "country_code": "lk"
      },
      "address": "Kurunegala, North Western Province, Sri Lanka"
    },
    {
      "lat": 7.492878585248835,
      "lon": 80.37082009039547,
      "geoinfo": {
        "display_name": "Sir John Kothalawala Vidyalaya, Kurunegala - Dambulla Road, Kurunagala, Kurunegala, Kurunegala District, North Western Province, 60000, Sri Lanka",
        "road": "Kurunegala - Dambulla Road",
        "house_number": null,
        "neighbourhood": null,
        "suburb": null,
        "city_district": null,
        "city": "Kurunegala",
        "state": "North Western Province",
        "postcode": "60000",
        "country": "Sri Lanka",
        "country_code": "lk"
      },
      "address": "Kurunegala - Dambulla Road, Kurunegala, North Western Province, Sri Lanka"
    },
    {
      "lat": 7.510234063336614,
      "lon": 80.36956885144431,
      "geoinfo": {
        "display_name": "Kurunegala, Kurunegala District, North Western Province, 60000, Sri Lanka",
        "road": null,
        "house_number": null,
        "neighbourhood": null,
        "suburb": null,
        "city_district": null,
        "city": "Kurunegala",
        "state": "North Western Province",
        "postcode": "60000",
        "country": "Sri Lanka",
        "country_code": "lk"
      },
      "address": "Kurunegala, Kurunegala District, North Western Province, 60000, Sri Lanka"
    },
    {
      "lat": 7.4717007284870185,
      "lon": 80.37518533075156,
      "geoinfo": {
        "display_name": "Kurunegala M.C. Limit, Kurunegala District, North Western Province, 60028, Sri Lanka",
        "road": null,
        "house_number": null,
        "neighbourhood": null,
        "suburb": null,
        "city_district": null,
        "city": "Kurunegala M.C. Limit",
        "state": "North Western Province",
        "postcode": "60028",
        "country": "Sri Lanka",
        "country_code": "lk"
      },
      "address": "343, Kurunegala M.C. Limit, Kurunegala District, North Western Province, 60028, Sri Lanka"
    },
    {
      "lat": 7.484905990982045,
      "lon": 80.36906867214647,
      "geoinfo": {
        "display_name": "Athugala Road, Kurunegala East, Kurunegala M.C. Limit, Kurunegala District, North Western Province, 60000, Sri Lanka",
        "road": "Athugala Road",
        "house_number": null,
        "neighbourhood": "Kurunegala East",
        "suburb": null,
        "city_district": null,
        "city": "Kurunegala M.C. Limit",
        "state": "North Western Province",
        "postcode": "60000",
        "country": "Sri Lanka",
        "country_code": "lk"
      },
      "address": "216, Athugala Road, Kurunegala East, Kurunegala M.C. Limit, Kurunegala District, North Western Province, 60000, Sri Lanka"
    },
    {
      "lat": 7.500053779073011,
      "lon": 80.39393021529862,
      "geoinfo": {
        "display_name": "Badagamuwa, Yaggepitiya, Kurunegala District, North Western Province, Sri Lanka",
        "road": null,
        "house_number": null,
        "neighbourhood": null,
        "suburb": null,
        "city_district": null,
        "city": "Yaggepitiya",
        "state": "North Western Province",
        "postcode": null,
        "country": "Sri Lanka",
        "country_code": "lk"
      },
      "address": "629, Badagamuwa, Yaggepitiya, Kurunegala District, 55178 North Western Province, Sri Lanka"
    },
    {
      "lat": 7.4634130025778695,
      "lon": 80.38150127034811,
      "geoinfo": {
        "display_name": "Kurunegala, Kurunegala District, North Western Province, 60028, Sri Lanka",
        "road": null,
        "house_number": null,
        "neighbourhood": null,
        "suburb": null,
        "city_district": null,
        "city": "Kurunegala",
        "state": "North Western Province",
        "postcode": "60028",
        "country": "Sri Lanka",
        "country_code": "lk"
      },
      "address": "151, Kurunegala, Kurunegala District, North Western Province, 60028, Sri Lanka"
    },
    {
      "lat": 7.459904962151044,
      "lon": 80.3904572367321,
      "geoinfo": {
        "display_name": "Idulgoda Doratiyawa Road, Mallawapitiya, Kurunegala District, North Western Province, 60028, Sri Lanka",
        "road": "Idulgoda Doratiyawa Road",
        "house_number": null,
        "neighbourhood": null,
        "suburb": null,
        "city_district": null,
        "city": "Mallawapitiya",
        "state": "North Western Province",
        "postcode": "60028",
        "country": "Sri Lanka",
        "country_code": "lk"
      },
      "address": "867, Idulgoda Doratiyawa Road, Mallawapitiya, Kurunegala District, North Western Province, 60028, Sri Lanka"
    },
    {
      "lat": 7.458154228285549,
      "lon": 80.35913805713031,
      "geoinfo": {
        "display_name": "Kurunegala, Kurunegala District, North Western Province, 60028, Sri Lanka",
        "road": null,
        "house_number": null,
        "neighbourhood": null,
        "suburb": null,
        "city_district": null,
        "city": "Kurunegala",
        "state": "North Western Province",
        "postcode": "60028",
        "country": "Sri Lanka",
        "country_code": "lk"
      },
      "address": "900, Kurunegala, Kurunegala District, North Western Province, 60028, Sri Lanka"
    },
    {
      "lat": 7.476299546982564,
      "lon": 80.3516443523182,
      "geoinfo": {
        "display_name": "Wilgoda, Kurunegala M.C. Limit, Kurunegala District, North Western Province, 60000, Sri Lanka",
        "road": null,
        "house_number": null,
        "neighbourhood": "Wilgoda",
        "suburb": null,
        "city_district": null,
        "city": "Kurunegala M.C. Limit",
        "state": "North Western Province",
        "postcode": "60000",
        "country": "Sri Lanka",
        "country_code": "lk"
      },
      "address": "726, Wilgoda, Kurunegala M.C. Limit, Kurunegala District, North Western Province, 60000, Sri Lanka"
    }
  ],
  "updated_at": "2025-10-19T05:34:39.691460+00:00",
  "_kind": "geo_samples"
}