{
  "country_code": "LK",
  "country": "Sri Lanka",
  "city": "Matara",
  "geonameid": 1235846,
  "target_addresses": 2,
  "samples": [
    {
      "lat": 5.981183889213384,
      "lon": 80.52010289085642,
      "geoinfo": {
        "display_name": "Matara-Akuressa Road, Palatuwa Interchange, Matara District, Southern Province, 81050, Sri Lanka",
        "road": "Matara-Akuressa Road",
        "house_number": null,
        "neighbourhood": "Palatuwa Interchange",
        "suburb": null,
        "city_district": null,
        "city": null,
        "state": "Southern Province",
        "postcode": "81050",
        "country": "Sri Lanka",
        "country_code": "lk"
      },
      "address": "Matara-Akuressa Road, Matara, Southern Province, Sri Lanka"
    },
    {
      "lat": 5.975602159700544,
      "lon": 80.5107807387071,
      "geoinfo": {
        "display_name": "Kalatiyawala, Matara District, Southern Province, 81050, Sri Lanka",
        "road": null,
        "house_number": null,
        "neighbourhood": null,
        "suburb": null,
        "city_district": null,
        "city": "Kalatiyawala",
        "state": "Southern Province",
        "postcode": "81050",
        "country": "Sri Lanka",
        "country_code": "lk"
      },
      "address": "Matara, Southern Province, Sri Lanka"
    },
    {
      "lat": 5.942641661742913,
      "lon": 80.51018454915713,
      "geoinfo": {
        "display_name": "Walgama, Matara District, Southern Province, 81750, Sri Lanka",
        "road": null,
        "house_number": null,
        "neighbourhood": null,
        "suburb": null,
        "city_district": null,
        "city": "Walgama",
        "state": "Southern Province",
        "postcode": "81750",
        "country": "Sri Lanka",
        "country_code": "lk"
      },
      "address": "389, Walgama, Matara District, Southern Province, 81750, Sri Lanka"
    },
    {
      "lat": 5.962676874438965,
      "lon": 80.56117355976916,
      "geoinfo": {
        "display_name": "Walpola, Weliweriya (SP), Nawimana, Matara District, Southern Province, 81000, Sri Lanka",
        "road": null,
        "house_number": null,
        "neighbourhood": null,
        "suburb": "Walpola",
        "city_district": null,
        "city": "Weliweriya (SP)",
        "state": "Southern Province",
        "postcode": "81000",
        "country": "Sri Lanka",
        "country_code": "lk"
      },
      "address": "471, Walpola, Matara, 81000 Southern Province, Sri Lanka"
    }
  ],
  "updated_at": "2025-10-19T05:43:28.112563+00:00",
  "_kind": "geo_samples"
}