{
  "country_code": "LK",
  "country": "Sri Lanka",
  "city": "Nuwara Eliya",
  "geonameid": 1232783,
  "target_addresses": 2,
  "samples": [
    {
      "lat": 6.984087223806705,
      "lon": 80.82278879825166,
      "geoinfo": {
        "display_name": "Hethersett, Kandapola, Nuwara Eliya District, Central Province, 22200, Sri Lanka",
        "road": null,
        "house_number": null,
        "neighbourhood": null,
        "suburb": null,
        "city_district": null,
        "city": "Kandapola",
        "state": "Central Province",
        "postcode": "22200",
        "country": "Sri Lanka",
        "country_code": "lk"
      },
      "address": "Nuwara Eliya, Central Province, Sri Lanka"
    },
    {
      "lat": 6.9707331804498835,
      "lon": 80.80079124124802,
      "geoinfo": {
        "display_name": "Nuwara Eliya - Udapussellawa Road, Hawaeliya, Boralanda, Nuwara Eliya District, Central Province, 22200, Sri Lanka",
        "road": "Nuwara Eliya - Udapussellawa Road",
        "house_number": null,
        "neighbourhood": null,
        "suburb": "Hawaeliya",
        "city_district": null,
        "city": "Boralanda",
        "state": "Central Province",
        "postcode": "22200",
        "country": "Sri Lanka",
        "country_code": "lk"
      },
      "address": "Nuwara Eliya - Udapussellawa Road, Nuwara Eliya, Central Province, Sri Lanka"
    },
    {
      "lat": 6.965044291860696,
      "lon": 80.80896960227713,
      "geoinfo": {
        "display_name": "Nuwara Eliya, Nuwara Eliya District, Central Province, 22200, Sri Lanka",
        "road": null,
        "house_number": null,
        "neighbourhood": null,
        "suburb": null,
        "city_district": null,
        "city": "Nuwara Eliya",
        "state": "Central Province",
        "postcode": "22200",
        "country": "Sri Lanka",
        "country_code": "lk"
      },
      "address": "857, Nuwara Eliya, Nuwara Eliya District, Central Province, 22200, Sri Lanka"
    },
    {
      "lat": 6.937477531482372,
      "lon": 80.75462733827534,
      "geoinfo": {
        "display_name": "Nanu Oya, Nuwara Eliya District, Central Province, Sri Lanka",
        "road": null,
        "house_number": null,
        "neighbourhood": null,
        "suburb": null,
        "city_district": null,
        "city": "Nanu Oya",
        "state": "Central Province",
        "postcode": null,
        "country": "Sri Lanka",
        "country_code": "lk"
      },
      "address": "140, Nanu Oya, Nuwara Eliya District, 27163 Central Province, Sri Lanka"
    }
  ],
  "updated_at": "2025-10-19T03:43:32.301693+00:00",
  "_kind": "geo_samples"
}