{
  "country_code": "LK",
  "country": "Sri Lanka",
  "city": "Ratnapura",
  "geonameid": 1228730,
  "target_addresses": 10,
  "samples": [
    {
      "lat": 6.6591118052162175,
      "lon": 80.39983518057068,
      "geoinfo": {
        "display_name": "Ratnapura, Ratnapura District, Sabaragamuwa Province, 70000, Sri Lanka",
        "road": null,
        "house_number": null,
        "neighbourhood": null,
        "suburb": null,
        "city_district": null,
        "city": "Ratnapura",
        "state": "Sabaragamuwa Province",
        "postcode": "70000",
        "country": "Sri Lanka",
        "country_code": "lk"
      },
      "address": "Ratnapura, Sabaragamuwa Province, Sri Lanka"
    },
    {
      "lat": 6.6999301658125905,
      "lon": 80.36654919580616,
      "geoinfo": {
        "display_name": "Horana - Ratnapura Road, Dimiyawa Junction, Dodampe, Gorakela, Ratnapura District, Sabaragamuwa Province, Sri Lanka",
        "road": "Horana - Ratnapura Road",
        "house_number": null,
        "neighbourhood": "Dimiyawa Junction",
        "suburb": null,
        "city_district": null,
        "city": "Gorakela",
        "state": "Sabaragamuwa Province",
        "postcode": null,
        "country": "Sri Lanka",
        "country_code": "lk"
      },
      "address": "Horana - Ratnapura Road, Ratnapura, Sabaragamuwa Province, Sri Lanka"
    },
    {
      "lat": 6.697895292179379,
      "lon": 80.3764154703124,
      "geoinfo": {
        "display_name": "Ketaliyanpalla Road, Ketaliyanpalla, Ratnapura District, Sabaragamuwa Province, 70000, Sri Lanka",
        "road": "Ketaliyanpalla Road",
        "house_number": null,
        "neighbourhood": null,
        "suburb": null,
        "city_district": null,
        "city": "Ketaliyanpalla",
        "state": "Sabaragamuwa Province",
        "postcode": "70000",
        "country": "Sri Lanka",
        "country_code": "lk"
      },
      "address": "Ketaliyanpalla Road, Ketaliyanpalla, Ratnapura District, Sabaragamuwa Province, 70000, Sri Lanka"
    },
    {
      "lat": 6.698572764488254,
      "lon": 80.43912148719353,
      "geoinfo": {
        "display_name": "Egoda Malwala, Ratnapura, Ratnapura District, Sabaragamuwa Province, 70000, Sri Lanka",
        "road": null,
        "house_number": null,
        "neighbourhood": null,
        "suburb": null,
        "city_district": null,
        "city": "Ratnapura",
        "state": "Sabaragamuwa Province",
        "postcode": "70000",
        "country": "Sri Lanka",
        "country_code": "lk"
      },
      "address": "215, Egoda Malwala, Ratnapura, Ratnapura District, Sabaragamuwa Province, 70000, Sri Lanka"
    },
    {
      "lat": 6.688227343892373,
      "lon": 80.3872716252177,
      "geoinfo": {
        "display_name": "Ratnapura, Ratnapura District, Sabaragamuwa Province, 70000, Sri Lanka",
        "road": null,
        "house_number": null,
        "neighbourhood": null,
        "suburb": null,
        "city_district": null,
        "city": "Ratnapura",
        "state": "Sabaragamuwa Province",
        "postcode": "70000",
        "country": "Sri Lanka",
        "country_code": "lk"
      },
      "address": "221, Ratnapura, Ratnapura District, Sabaragamuwa Province, 70000, Sri Lanka"
    },
    {
      "lat": 6.686430277300087,
      "lon": 80.3885688973398,
      "geoinfo": {
        "display_name": "Horana - Ratnapura Road, Dewalegama, Ratnapura District, Sabaragamuwa Province, 70000, Sri Lanka",
        "road": "Horana - Ratnapura Road",
        "house_number": null,
        "neighbourhood": null,
        "suburb": null,
        "city_district": null,
        "city": "Dewalegama",
        "state": "Sabaragamuwa Province",
        "postcode": "70000",
        "country": "Sri Lanka",
        "country_code": "lk"
      },
      "address": "109, Horana - Ratnapura Road, Dewalegama, Ratnapura District, Sabaragamuwa Province, 70000, Sri Lanka"
    },
    {
      "lat": 6.669198240633676,
      "lon": 80.41292425453886,
      "geoinfo": {
        "display_name": "Ambagahayata, Ratnapura, Ratnapura District, Sabaragamuwa Province, 70000, Sri Lanka",
        "road": null,
        "house_number": null,
        "neighbourhood": null,
        "suburb": null,
        "city_district": null,
        "city": "Ratnapura",
        "state": "Sabaragamuwa Province",
        "postcode": "70000",
        "country": "Sri Lanka",
        "country_code": "lk"
      },
      "address": "243, Ambagahayata, Ratnapura, Ratnapura District, Sabaragamuwa Province, 70000, Sri Lanka"
    },
    {
      "lat": 6.680254731747534,
      "lon": 80.43277412374971,
      "geoinfo": {
        "display_name": "Angammana, Ratnapura, Ratnapura District, Sabaragamuwa Province, 70000, Sri Lanka",
        "road": null,
        "house_number": null,
        "neighbourhood": null,
        "suburb": null,
        "city_district": null,
        "city": "Ratnapura",
        "state": "Sabaragamuwa Province",
        "postcode": "70000",
        "country": "Sri Lanka",
        "country_code": "lk"
      },
      "address": "891, Angammana, Ratnapura, Ratnapura District, Sabaragamuwa Province, 70000, Sri Lanka"
    },
    {
      "lat": 6.707537736423237,
      "lon": 80.39062401675123,
      "geoinfo": {
        "display_name": "Old Railway Road, Palm Garden, Ratnapura District, Sabaragamuwa Province, 70000, Sri Lanka",
        "road": "Old Railway Road",
        "house_number": null,
        "neighbourhood": null,
        "suburb": null,
        "city_district": null,
        "city": "Palm Garden",
        "state": "Sabaragamuwa Province",
        "postcode": "70000",
        "country": "Sri Lanka",
        "country_code": "lk"
      },
      "address": "721, Old Railway Road, Palm Garden, Ratnapura District, Sabaragamuwa Province, 70000, Sri Lanka"
    },
    {
      "lat": 6.689344005881821,
      "lon": 80.43684462719249,
      "geoinfo": {
        "display_name": "Egoda Malwala, Ratnapura, Ratnapura District, Sabaragamuwa Province, 70000, Sri Lanka",
        "road": null,
        "house_number": null,
        "neighbourhood": null,
        "suburb": null,
        "city_district": null,
        "city": "Ratnapura",
        "state": "Sabaragamuwa Province",
        "postcode": "70000",
        "country": "Sri Lanka",
        "country_code": "lk"
      },
      "address": "374, Egoda Malwala, Ratnapura, Ratnapura District, Sabaragamuwa Province, 70000, Sri Lanka"
    }
  ],
  "updated_at": "2025-10-19T05:34:18.695407+00:00",
  "_kind": "geo_samples"
}