{
  "country_code": "AO",
  "country": "Angola",
  "city": "Huambo",
  "geonameid": 3348313,
  "target_addresses": 2,
  "samples": [
    {
      "lat": -12.784435329388014,
      "lon": 15.738305527921632,
      "geoinfo": {
        "display_name": "Complexo Escolar São Jose de Cluny, Rua Alexandre Herculano, Bairro de Fátima, Huambo, Huambo Province, Angola",
        "road": "Rua Alexandre Herculano",
        "house_number": null,
        "neighbourhood": null,
        "suburb": "Bairro de Fátima",
        "city_district": null,
        "city": "Huambo",
        "state": "Huambo Province",
        "postcode": null,
        "country": "Angola",
        "country_code": "ao"
      },
      "address": "Rua Alexandre Herculano, Huambo, Huambo Province, Angola"
    },
    {
      "lat": -12.771552791225103,
      "lon": 15.737992762075281,
      "geoinfo": {
        "display_name": "Avenida da Independência, Cidade Baixa, Huambo, Huambo Province, Angola",
        "road": "Avenida da Independência",
        "house_number": null,
        "neighbourhood": null,
        "suburb": "Cidade Baixa",
        "city_district": null,
        "city": "Huambo",
        "state": "Huambo Province",
        "postcode": null,
        "country": "Angola",
        "country_code": "ao"
      },
      "address": "Avenida da Independência, Huambo, Huambo Province, Angola"
    },
    {
      "lat": -12.784740421983416,
      "lon": 15.72540723804898,
      "geoinfo": {
        "display_name": "Avenida Nuno Alves, São António, Aviação, Huambo, Huambo Province, Angola",
        "road": "Avenida Nuno Alves",
        "house_number": null,
        "neighbourhood": "São António",
        "suburb": "Aviação",
        "city_district": null,
        "city": "Huambo",
        "state": "Huambo Province",
        "postcode": null,
        "country": "Angola",
        "country_code": "ao"
      },
      "address": "682, Avenida Nuno Alves, São António, Aviação, Huambo, 90375 Huambo Province, Angola"
    },
    {
      "lat": -12.742662154073178,
      "lon": 15.758597089554314,
      "geoinfo": {
        "display_name": "Xipuli, Huambo, Huambo Province, Angola",
        "road": null,
        "house_number": null,
        "neighbourhood": null,
        "suburb": "Xipuli",
        "city_district": null,
        "city": "Huambo",
        "state": "Huambo Province",
        "postcode": null,
        "country": "Angola",
        "country_code": "ao"
      },
      "address": "141, Xipuli, Huambo, 27387 Huambo Province, Angola"
    }
  ],
  "updated_at": "2025-10-19T00:50:35.879568+00:00",
  "_kind": "geo_samples"
}