{
  "country_code": "AO",
  "country": "Angola",
  "city": "Luanda",
  "geonameid": 2240449,
  "target_addresses": 2,
  "samples": [
    {
      "lat": -8.834326698157472,
      "lon": 13.211067703084602,
      "geoinfo": {
        "display_name": "Samba Urban District, Luanda, Municipality of Luanda, Luanda Province, Angola",
        "road": null,
        "house_number": null,
        "neighbourhood": null,
        "suburb": "Samba Urban District",
        "city_district": null,
        "city": "Luanda",
        "state": "Luanda Province",
        "postcode": null,
        "country": "Angola",
        "country_code": "ao"
      },
      "address": "Samba Urban District, Luanda, Luanda Province, Angola"
    },
    {
      "lat": -8.83049042974662,
      "lon": 13.215961457507012,
      "geoinfo": {
        "display_name": "Areia Branca, Samba Urban District, Luanda, Municipality of Luanda, Luanda Province, Angola",
        "road": null,
        "house_number": null,
        "neighbourhood": "Areia Branca",
        "suburb": "Samba Urban District",
        "city_district": null,
        "city": "Luanda",
        "state": "Luanda Province",
        "postcode": null,
        "country": "Angola",
        "country_code": "ao"
      },
      "address": "Areia Branca, Luanda, Luanda Province, Angola"
    },
    {
      "lat": -8.797564295099564,
      "lon": 13.213297601126193,
      "geoinfo": {
        "display_name": "Largo do Baleizão, Coqueiros, Kinanga, Luanda, Municipality of Luanda, Luanda Province, Angola",
        "road": null,
        "house_number": null,
        "neighbourhood": "Coqueiros",
        "suburb": "Kinanga",
        "city_district": null,
        "city": "Luanda",
        "state": "Luanda Province",
        "postcode": null,
        "country": "Angola",
        "country_code": "ao"
      },
      "address": "867, Largo do Baleizão, Coqueiros, Kinanga, Luanda, Municipality of Luanda, 22086 Luanda Province, Angola"
    },
    {
      "lat": -8.85268690992061,
      "lon": 13.1971196368637,
      "geoinfo": {
        "display_name": "Mabunda, Samba Urban District, Luanda, Municipality of Luanda, Luanda Province, Angola",
        "road": null,
        "house_number": null,
        "neighbourhood": null,
        "suburb": "Mabunda",
        "city_district": null,
        "city": "Luanda",
        "state": "Luanda Province",
        "postcode": null,
        "country": "Angola",
        "country_code": "ao"
      },
      "address": "278, Mabunda, Samba Urban District, Luanda, Municipality of Luanda, 89134 Luanda Province, Angola"
    }
  ],
  "updated_at": "2025-10-19T02:43:14.288454+00:00",
  "_kind": "geo_samples"
}