{
  "country_code": "AO",
  "country": "Angola",
  "city": "Mbanza Kongo",
  "geonameid": 2239520,
  "target_addresses": 6,
  "samples": [
    {
      "lat": -6.256612457909605,
      "lon": 14.26115544623804,
      "geoinfo": {
        "display_name": "Mbanza Magina, Zaire Province, Angola",
        "road": null,
        "house_number": null,
        "neighbourhood": null,
        "suburb": null,
        "city_district": null,
        "city": "Mbanza Magina",
        "state": "Zaire Province",
        "postcode": null,
        "country": "Angola",
        "country_code": "ao"
      },
      "address": "Mbanza Kongo, Zaire Province, Angola"
    },
    {
      "lat": -6.283675460160295,
      "lon": 14.22292482966546,
      "geoinfo": {
        "display_name": "Rua Tomboco, M'banza Congo, Zaire Province, Angola",
        "road": "Rua Tomboco",
        "house_number": null,
        "neighbourhood": null,
        "suburb": null,
        "city_district": null,
        "city": "M'banza Congo",
        "state": "Zaire Province",
        "postcode": null,
        "country": "Angola",
        "country_code": "ao"
      },
      "address": "Rua Tomboco, Mbanza Kongo, Zaire Province, Angola"
    },
    {
      "lat": -6.258066593106793,
      "lon": 14.258944007262295,
      "geoinfo": {
        "display_name": "Mbanza Magina, Zaire Province, Angola",
        "road": null,
        "house_number": null,
        "neighbourhood": null,
        "suburb": null,
        "city_district": null,
        "city": "Mbanza Magina",
        "state": "Zaire Province",
        "postcode": null,
        "country": "Angola",
        "country_code": "ao"
      },
      "address": "604, Mbanza Magina, 40858 Zaire Province, Angola"
    },
    {
      "lat": -6.287122981041913,
      "lon": 14.270545348651869,
      "geoinfo": {
        "display_name": "Mbanza Magina, Zaire Province, Angola",
        "road": null,
        "house_number": null,
        "neighbourhood": null,
        "suburb": null,
        "city_district": null,
        "city": "Mbanza Magina",
        "state": "Zaire Province",
        "postcode": null,
        "country": "Angola",
        "country_code": "ao"
      },
      "address": "857, Mbanza Magina, 41782 Zaire Province, Angola"
    },
    {
      "lat": -6.266001286709109,
      "lon": 14.272255625115585,
      "geoinfo": {
        "display_name": "EN 120, Guembe, Mbanza Magina, Zaire Province, Angola",
        "road": "EN 120",
        "house_number": null,
        "neighbourhood": null,
        "suburb": null,
        "city_district": null,
        "city": "Mbanza Magina",
        "state": "Zaire Province",
        "postcode": null,
        "country": "Angola",
        "country_code": "ao"
      },
      "address": "EN 120, Guembe, Mbanza Magina, 73933 Zaire Province, Angola"
    },
    {
      "lat": -6.275522892433511,
      "lon": 14.194492051204072,
      "geoinfo": {
        "display_name": "M'banza Congo, Zaire Province, Angola",
        "road": null,
        "house_number": null,
        "neighbourhood": null,
        "suburb": null,
        "city_district": null,
        "city": "M'banza Congo",
        "state": "Zaire Province",
        "postcode": null,
        "country": "Angola",
        "country_code": "ao"
      },
      "address": "670, Mbanza Kongo, 28385 Zaire Province, Angola"
    }
  ],
  "updated_at": "2025-10-19T03:10:04.414600+00:00",
  "_kind": "geo_samples"
}