{
  "country_code": "BB",
  "country": "Barbados",
  "city": "Bridgetown",
  "geonameid": 3374036,
  "target_addresses": 100,
  "samples": [
    {
      "lat": 13.115834547560075,
      "lon": -59.62899178834588,
      "geoinfo": {
        "display_name": "Rascals Water Park, Mighty Grynner Highway, Brighton, Bridgetown, Saint Michael, BB11007, Barbados",
        "road": "Mighty Grynner Highway",
        "house_number": null,
        "neighbourhood": null,
        "suburb": "Brighton",
        "city_district": null,
        "city": "Bridgetown",
        "state": null,
        "postcode": "BB11007",
        "country": "Barbados",
        "country_code": "bb"
      },
      "address": "Mighty Grynner Highway, Bridgetown, Barbados"
    },
    {
      "lat": 13.1228784502178,
      "lon": -59.59950856496128,
      "geoinfo": {
        "display_name": "National Botanical Gardens, Highway 3, Waterford, Saint Michael, BB11042, Barbados",
        "road": "Highway 3",
        "house_number": null,
        "neighbourhood": null,
        "suburb": "Waterford",
        "city_district": null,
        "city": null,
        "state": null,
        "postcode": "BB11042",
        "country": "Barbados",
        "country_code": "bb"
      },
      "address": "Highway 3, Bridgetown, Barbados"
    },
    {
      "lat": 13.109606066923781,
      "lon": -59.65693403589813,
      "geoinfo": {
        "display_name": "Brighton, Saint Michael, BB23026, Barbados",
        "road": null,
        "house_number": null,
        "neighbourhood": null,
        "suburb": "Brighton",
        "city_district": null,
        "city": null,
        "state": null,
        "postcode": "BB23026",
        "country": "Barbados",
        "country_code": "bb"
      },
      "address": "Brighton, Bridgetown, Barbados"
    },
    {
      "lat": 13.073959833466098,
      "lon": -59.64402299318513,
      "geoinfo": {
        "display_name": "Barbados",
        "road": null,
        "house_number": null,
        "neighbourhood": null,
        "suburb": null,
        "city_district": null,
        "city": null,
        "state": null,
        "postcode": null,
        "country": "Barbados",
        "country_code": "bb"
      },
      "address": "Bridgetown, Barbados"
    },
    {
      "lat": 13.074325644323741,
      "lon": -59.63035330537617,
      "geoinfo": {
        "display_name": "Dalkeith, Saint Michael, BB14038, Barbados",
        "road": null,
        "house_number": null,
        "neighbourhood": null,
        "suburb": "Dalkeith",
        "city_district": null,
        "city": null,
        "state": null,
        "postcode": "BB14038",
        "country": "Barbados",
        "country_code": "bb"
      },
      "address": "Dalkeith, Bridgetown, Barbados"
    },
    {
      "lat": 13.116320111589818,
      "lon": -59.604391368499044,
      "geoinfo": {
        "display_name": "Bush Hall, Saint Michael, BB11042, Barbados",
        "road": null,
        "house_number": null,
        "neighbourhood": null,
        "suburb": "Bush Hall",
        "city_district": null,
        "city": null,
        "state": null,
        "postcode": "BB11042",
        "country": "Barbados",
        "country_code": "bb"
      },
      "address": "Bush Hall, Bridgetown, Barbados"
    },
    {
      "lat": 13.115792453076274,
      "lon": -59.616630960807946,
      "geoinfo": {
        "display_name": "Tudor Bridge, Saint Michael, BB11028, Barbados",
        "road": null,
        "house_number": null,
        "neighbourhood": null,
        "suburb": "Tudor Bridge",
        "city_district": null,
        "city": null,
        "state": null,
        "postcode": "BB11028",
        "country": "Barbados",
        "country_code": "bb"
      },
      "address": "Tudor Bridge, Bridgetown, Barbados"
    },
    {
      "lat": 13.082272892700765,
      "lon": -59.59420949930037,
      "geoinfo": {
        "display_name": "Dayrells Road, Christ Church, BB15149, Barbados",
        "road": null,
        "house_number": null,
        "neighbourhood": null,
        "suburb": "Dayrells Road",
        "city_district": null,
        "city": null,
        "state": null,
        "postcode": "BB15149",
        "country": "Barbados",
        "country_code": "bb"
      },
      "address": "Dayrells Road, Bridgetown, Barbados"
    },
    {
      "lat": 13.094571648025054,
      "lon": -59.61791120703321,
      "geoinfo": {
        "display_name": "Bridgetown Heliport, Cowell Street, Bridgetown, Saint Michael, BB11009, Barbados",
        "road": "Cowell Street",
        "house_number": null,
        "neighbourhood": null,
        "suburb": null,
        "city_district": null,
        "city": "Bridgetown",
        "state": null,
        "postcode": "BB11009",
        "country": "Barbados",
        "country_code": "bb"
      },
      "address": "Cowell Street, Bridgetown, Barbados"
    },
    {
      "lat": 13.074402678419029,
      "lon": -59.615214446469366,
      "geoinfo": {
        "display_name": "Fort Charles, Drill Hall Beach Road, Bridgetown, Saint Michael, BB14203, Barbados",
        "road": "Drill Hall Beach Road",
        "house_number": null,
        "neighbourhood": null,
        "suburb": null,
        "city_district": null,
        "city": "Bridgetown",
        "state": null,
        "postcode": "BB14203",
        "country": "Barbados",
        "country_code": "bb"
      },
      "address": "Drill Hall Beach Road, Bridgetown, Barbados"
    },
    {
      "lat": 13.066203503167287,
      "lon": -59.61628488535824,
      "geoinfo": {
        "display_name": "Hastings, Christ Church, BB15156, Barbados",
        "road": null,
        "house_number": null,
        "neighbourhood": null,
        "suburb": "Hastings",
        "city_district": null,
        "city": null,
        "state": null,
        "postcode": "BB15156",
        "country": "Barbados",
        "country_code": "bb"
      },
      "address": "Hastings, Bridgetown, Barbados"
    },
    {
      "lat": 13.080887629865728,
      "lon": -59.62230875233754,
      "geoinfo": {
        "display_name": "Lower Collymore Rock, Saint Michael, BB11114, Barbados",
        "road": null,
        "house_number": null,
        "neighbourhood": null,
        "suburb": "Lower Collymore Rock",
        "city_district": null,
        "city": null,
        "state": null,
        "postcode": "BB11114",
        "country": "Barbados",
        "country_code": "bb"
      },
      "address": "Lower Collymore Rock, Bridgetown, Barbados"
    },
    {
      "lat": 13.092033486576865,
      "lon": -59.65105398525249,
      "geoinfo": {
        "display_name": "Westbury, Saint Michael, BB11007, Barbados",
        "road": null,
        "house_number": null,
        "neighbourhood": null,
        "suburb": "Westbury",
        "city_district": null,
        "city": null,
        "state": null,
        "postcode": "BB11007",
        "country": "Barbados",
        "country_code": "bb"
      },
      "address": "Westbury, Bridgetown, Barbados"
    },
    {
      "lat": 13.10253389661086,
      "lon": -59.59253769966742,
      "geoinfo": {
        "display_name": "Aaron House, Government Hill, Saint Michael, BB14004, Barbados",
        "road": "Government Hill",
        "house_number": null,
        "neighbourhood": null,
        "suburb": "Government Hill",
        "city_district": null,
        "city": null,
        "state": null,
        "postcode": "BB14004",
        "country": "Barbados",
        "country_code": "bb"
      },
      "address": "Government Hill, Bridgetown, Barbados"
    },
    {
      "lat": 13.08397950491228,
      "lon": -59.58381041531062,
      "geoinfo": {
        "display_name": "Rendezvous, Christ Church, BB15149, Barbados",
        "road": null,
        "house_number": null,
        "neighbourhood": null,
        "suburb": "Rendezvous",
        "city_district": null,
        "city": null,
        "state": null,
        "postcode": "BB15149",
        "country": "Barbados",
        "country_code": "bb"
      },
      "address": "Rendezvous, Bridgetown, Barbados"
    },
    {
      "lat": 13.086479835864345,
      "lon": -59.6081842311615,
      "geoinfo": {
        "display_name": "Government Headquarters, Bay Street, Bridgetown, Saint Michael, BB11000, Barbados",
        "road": "Bay Street",
        "house_number": null,
        "neighbourhood": null,
        "suburb": null,
        "city_district": null,
        "city": "Bridgetown",
        "state": null,
        "postcode": "BB11000",
        "country": "Barbados",
        "country_code": "bb"
      },
      "address": "Bay Street, Bridgetown, Barbados"
    },
    {
      "lat": 13.074483678449095,
      "lon": -59.602618094586795,
      "geoinfo": {
        "display_name": "Coconut Court Beach Hotel, Hastings Road, Hastings, Christ Church, BB15156, Barbados",
        "road": "Hastings Road",
        "house_number": null,
        "neighbourhood": null,
        "suburb": "Hastings",
        "city_district": null,
        "city": null,
        "state": null,
        "postcode": "BB15156",
        "country": "Barbados",
        "country_code": "bb"
      },
      "address": "Hastings Road, Bridgetown, Barbados"
    },
    {
      "lat": 13.082717264604652,
      "lon": -59.60605987545357,
      "geoinfo": {
        "display_name": "Light and Power Employees Co-op Credit Union Ltd, Garrison Road, Bridgetown, Saint Michael, BB14038, Barbados",
        "road": "Garrison Road",
        "house_number": null,
        "neighbourhood": null,
        "suburb": null,
        "city_district": null,
        "city": "Bridgetown",
        "state": null,
        "postcode": "BB14038",
        "country": "Barbados",
        "country_code": "bb"
      },
      "address": "Garrison Road, Bridgetown, Barbados"
    },
    {
      "lat": 13.093837617150342,
      "lon": -59.591235542876014,
      "geoinfo": {
        "display_name": "Wildey Road, Wildey Industrial Park, Collymore Rock, Saint Michael, BB11093, Barbados",
        "road": "Wildey Road",
        "house_number": null,
        "neighbourhood": null,
        "suburb": "Collymore Rock",
        "city_district": null,
        "city": null,
        "state": null,
        "postcode": "BB11093",
        "country": "Barbados",
        "country_code": "bb"
      },
      "address": "Wildey Road, Bridgetown, Barbados"
    },
    {
      "lat": 13.097427348769743,
      "lon": -59.6170401336785,
      "geoinfo": {
        "display_name": "Lower Broad Street, Bridgetown, Saint Michael, BB11009, Barbados",
        "road": "Lower Broad Street",
        "house_number": null,
        "neighbourhood": null,
        "suburb": null,
        "city_district": null,
        "city": "Bridgetown",
        "state": null,
        "postcode": "BB11009",
        "country": "Barbados",
        "country_code": "bb"
      },
      "address": "Lower Broad Street, Bridgetown, Barbados"
    },
    {
      "lat": 13.136446806942994,
      "lon": -59.59275492517926,
      "geoinfo": {
        "display_name": "Highway E, Lears Court, Jackmans, Saint Michael, BB11005, Barbados",
        "road": "Highway E",
        "house_number": null,
        "neighbourhood": "Lears Court",
        "suburb": "Jackmans",
        "city_district": null,
        "city": null,
        "state": null,
        "postcode": "BB11005",
        "country": "Barbados",
        "country_code": "bb"
      },
      "address": "Highway E, Bridgetown, Barbados"
    },
    {
      "lat": 13.133256402924966,
      "lon": -59.641068972506055,
      "geoinfo": {
        "display_name": "Highway 1, Lazaretto, Saint Michael, BB23026, Barbados",
        "road": "Highway 1",
        "house_number": null,
        "neighbourhood": null,
        "suburb": "Lazaretto",
        "city_district": null,
        "city": null,
        "state": null,
        "postcode": "BB23026",
        "country": "Barbados",
        "country_code": "bb"
      },
      "address": "Highway 1, Bridgetown, Barbados"
    },
    {
      "lat": 13.113415918241536,
      "lon": -59.60998785762494,
      "geoinfo": {
        "display_name": "Hill Road, Bank Hall, Saint Michael, BB11028, Barbados",
        "road": "Hill Road",
        "house_number": null,
        "neighbourhood": null,
        "suburb": "Bank Hall",
        "city_district": null,
        "city": null,
        "state": null,
        "postcode": "BB11028",
        "country": "Barbados",
        "country_code": "bb"
      },
      "address": "Hill Road, Bridgetown, Barbados"
    },
    {
      "lat": 13.083775680148312,
      "lon": -59.60312119501618,
      "geoinfo": {
        "display_name": "Chelsea Road, Dalkeith, Saint Michael, BB14038, Barbados",
        "road": "Chelsea Road",
        "house_number": null,
        "neighbourhood": null,
        "suburb": "Dalkeith",
        "city_district": null,
        "city": null,
        "state": null,
        "postcode": "BB14038",
        "country": "Barbados",
        "country_code": "bb"
      },
      "address": "Chelsea Road, Bridgetown, Barbados"
    },
    {
      "lat": 13.09831566349837,
      "lon": -59.61529977141145,
      "geoinfo": {
        "display_name": "Whites Alley, Bridgetown, Saint Michael, BB11015, Barbados",
        "road": "Whites Alley",
        "house_number": null,
        "neighbourhood": null,
        "suburb": null,
        "city_district": null,
        "city": "Bridgetown",
        "state": null,
        "postcode": "BB11015",
        "country": "Barbados",
        "country_code": "bb"
      },
      "address": "Whites Alley, Bridgetown, Barbados"
    },
    {
      "lat": 13.080373483945186,
      "lon": -59.604153924739336,
      "geoinfo": {
        "display_name": "Barbados Turf Club Racecourse, Bridgetown, Saint Michael, BB14038, Barbados",
        "road": "Barbados Turf Club Racecourse",
        "house_number": null,
        "neighbourhood": null,
        "suburb": null,
        "city_district": null,
        "city": "Bridgetown",
        "state": null,
        "postcode": "BB14038",
        "country": "Barbados",
        "country_code": "bb"
      },
      "address": "Barbados Turf Club Racecourse, Bridgetown, Barbados"
    },
    {
      "lat": 13.117064908142003,
      "lon": -59.577659198679285,
      "geoinfo": {
        "display_name": "Highway 4, Neils, Saint Michael, BB11042, Barbados",
        "road": "Highway 4",
        "house_number": null,
        "neighbourhood": null,
        "suburb": "Neils",
        "city_district": null,
        "city": null,
        "state": null,
        "postcode": "BB11042",
        "country": "Barbados",
        "country_code": "bb"
      },
      "address": "Highway 4, Bridgetown, Barbados"
    },
    {
      "lat": 13.097840161651094,
      "lon": -59.58419421221537,
      "geoinfo": {
        "display_name": "Wildey, Saint Michael, BB11093, Barbados",
        "road": null,
        "house_number": null,
        "neighbourhood": null,
        "suburb": "Wildey",
        "city_district": null,
        "city": null,
        "state": null,
        "postcode": "BB11093",
        "country": "Barbados",
        "country_code": "bb"
      },
      "address": "Wildey, Bridgetown, Barbados"
    },
    {
      "lat": 13.126566399500815,
      "lon": -59.619474677057234,
      "geoinfo": {
        "display_name": "Fairfield, Saint Michael, BB23021, Barbados",
        "road": null,
        "house_number": null,
        "neighbourhood": null,
        "suburb": "Fairfield",
        "city_district": null,
        "city": null,
        "state": null,
        "postcode": "BB23021",
        "country": "Barbados",
        "country_code": "bb"
      },
      "address": "Fairfield, Bridgetown, Barbados"
    },
    {
      "lat": 13.131666032543826,
      "lon": -59.61764688135441,
      "geoinfo": {
        "display_name": "White Hall, Saint Michael, BB23021, Barbados",
        "road": null,
        "house_number": null,
        "neighbourhood": null,
        "suburb": "White Hall",
        "city_district": null,
        "city": null,
        "state": null,
        "postcode": "BB23021",
        "country": "Barbados",
        "country_code": "bb"
      },
      "address": "White Hall, Bridgetown, Barbados"
    },
    {
      "lat": 13.102550671692182,
      "lon": -59.63141587311696,
      "geoinfo": {
        "display_name": "Bridgetown Cruise Terminal, Harbour View 2, Bridgetown, Saint Michael, BB11007, Barbados",
        "road": "Harbour View 2",
        "house_number": null,
        "neighbourhood": null,
        "suburb": null,
        "city_district": null,
        "city": "Bridgetown",
        "state": null,
        "postcode": "BB11007",
        "country": "Barbados",
        "country_code": "bb"
      },
      "address": "Harbour View 2, Bridgetown, Barbados"
    },
    {
      "lat": 13.108488629866558,
      "lon": -59.62045317380044,
      "geoinfo": {
        "display_name": "Sots Outlet, President Kennedy Drive, Eagle Hall, Bridgetown, Saint Michael, BB11028, Barbados",
        "road": "President Kennedy Drive",
        "house_number": null,
        "neighbourhood": null,
        "suburb": "Eagle Hall",
        "city_district": null,
        "city": "Bridgetown",
        "state": null,
        "postcode": "BB11028",
        "country": "Barbados",
        "country_code": "bb"
      },
      "address": "President Kennedy Drive, Bridgetown, Barbados"
    },
    {
      "lat": 13.146047804219188,
      "lon": -59.632903345072,
      "geoinfo": {
        "display_name": "3rd Avenue, West Terrace, Saint James, BB23018, Barbados",
        "road": "3rd Avenue",
        "house_number": null,
        "neighbourhood": null,
        "suburb": "West Terrace",
        "city_district": null,
        "city": null,
        "state": null,
        "postcode": "BB23018",
        "country": "Barbados",
        "country_code": "bb"
      },
      "address": "3rd Avenue, Bridgetown, Barbados"
    },
    {
      "lat": 13.10160851313006,
      "lon": -59.62658638140969,
      "geoinfo": {
        "display_name": "Harbour Industrial Estate - Building 6, 6, Harbour View 2, Bridgetown, Saint Michael, BB11007, Barbados",
        "road": "Harbour View 2",
        "house_number": "6",
        "neighbourhood": null,
        "suburb": null,
        "city_district": null,
        "city": "Bridgetown",
        "state": null,
        "postcode": "BB11007",
        "country": "Barbados",
        "country_code": "bb"
      },
      "address": "6 Harbour View 2, Bridgetown, Barbados"
    },
    {
      "lat": 13.113021122046243,
      "lon": -59.61779522830001,
      "geoinfo": {
        "display_name": "Eagle Hall, Saint Michael, BB11028, Barbados",
        "road": null,
        "house_number": null,
        "neighbourhood": null,
        "suburb": "Eagle Hall",
        "city_district": null,
        "city": null,
        "state": null,
        "postcode": "BB11028",
        "country": "Barbados",
        "country_code": "bb"
      },
      "address": "Eagle Hall, Bridgetown, Barbados"
    },
    {
      "lat": 13.105662120000433,
      "lon": -59.62337251125692,
      "geoinfo": {
        "display_name": "Kensington Oval, Hanchell Inniss Road, Bridgetown, Saint Michael, BB11007, Barbados",
        "road": "Hanchell Inniss Road",
        "house_number": null,
        "neighbourhood": null,
        "suburb": null,
        "city_district": null,
        "city": "Bridgetown",
        "state": null,
        "postcode": "BB11007",
        "country": "Barbados",
        "country_code": "bb"
      },
      "address": "Hanchell Inniss Road, Bridgetown, Barbados"
    },
    {
      "lat": 13.098909340706467,
      "lon": -59.61857487045201,
      "geoinfo": {
        "display_name": "St. Marys Row, Bridgetown, Saint Michael, BB11028, Barbados",
        "road": "St. Marys Row",
        "house_number": null,
        "neighbourhood": null,
        "suburb": null,
        "city_district": null,
        "city": "Bridgetown",
        "state": null,
        "postcode": "BB11028",
        "country": "Barbados",
        "country_code": "bb"
      },
      "address": "St. Marys Row, Bridgetown, Barbados"
    },
    {
      "lat": 13.130390984326937,
      "lon": -59.627789673267316,
      "geoinfo": {
        "display_name": "4th, Black Rock, Saint Michael, BB23026, Barbados",
        "road": "4th",
        "house_number": null,
        "neighbourhood": null,
        "suburb": "Black Rock",
        "city_district": null,
        "city": null,
        "state": null,
        "postcode": "BB23026",
        "country": "Barbados",
        "country_code": "bb"
      },
      "address": "4th, Bridgetown, Barbados"
    },
    {
      "lat": 13.1100405969144,
      "lon": -59.59272086880808,
      "geoinfo": {
        "display_name": "Belmont, Saint Michael, BB11042, Barbados",
        "road": null,
        "house_number": null,
        "neighbourhood": null,
        "suburb": "Belmont",
        "city_district": null,
        "city": null,
        "state": null,
        "postcode": "BB11042",
        "country": "Barbados",
        "country_code": "bb"
      },
      "address": "Belmont, Bridgetown, Barbados"
    },
    {
      "lat": 13.09920622525035,
      "lon": -59.63306824653214,
      "geoinfo": {
        "display_name": "Barbados Port Inc. - Esso Jetty, Princess Alice Highway, Bridgetown, Saint Michael, BB11007, Barbados",
        "road": "Princess Alice Highway",
        "house_number": null,
        "neighbourhood": null,
        "suburb": null,
        "city_district": null,
        "city": "Bridgetown",
        "state": null,
        "postcode": "BB11007",
        "country": "Barbados",
        "country_code": "bb"
      },
      "address": "Princess Alice Highway, Bridgetown, Barbados"
    },
    {
      "lat": 13.093927825857,
      "lon": -59.586881610637995,
      "geoinfo": {
        "display_name": "Automotive Art, Wildey Industrial Park, Wildey, Saint Michael, BB14004, Barbados",
        "road": "Wildey Industrial Park",
        "house_number": null,
        "neighbourhood": null,
        "suburb": "Wildey",
        "city_district": null,
        "city": null,
        "state": null,
        "postcode": "BB14004",
        "country": "Barbados",
        "country_code": "bb"
      },
      "address": "Wildey Industrial Park, Bridgetown, Barbados"
    },
    {
      "lat": 13.081461702006097,
      "lon": -59.58744910103056,
      "geoinfo": {
        "display_name": "Rockley, Christ Church, BB15149, Barbados",
        "road": null,
        "house_number": null,
        "neighbourhood": null,
        "suburb": "Rockley",
        "city_district": null,
        "city": null,
        "state": null,
        "postcode": "BB15149",
        "country": "Barbados",
        "country_code": "bb"
      },
      "address": "Rockley, Bridgetown, Barbados"
    },
    {
      "lat": 13.149796175138496,
      "lon": -59.611737286664486,
      "geoinfo": {
        "display_name": "Highway 2A, Welches, Saint Thomas, BB22025, Barbados",
        "road": "Highway 2A",
        "house_number": null,
        "neighbourhood": null,
        "suburb": null,
        "city_district": null,
        "city": "Welches",
        "state": null,
        "postcode": "BB22025",
        "country": "Barbados",
        "country_code": "bb"
      },
      "address": "Highway 2A, Bridgetown, Barbados"
    },
    {
      "lat": 13.104268748889004,
      "lon": -59.607707791715484,
      "geoinfo": {
        "display_name": "BWU Solidarity House, Harmony Hall, Hamony Hall, Bank Hall, Saint Michael, BB11137, Barbados",
        "road": "Harmony Hall",
        "house_number": null,
        "neighbourhood": "Hamony Hall",
        "suburb": "Bank Hall",
        "city_district": null,
        "city": null,
        "state": null,
        "postcode": "BB11137",
        "country": "Barbados",
        "country_code": "bb"
      },
      "address": "Harmony Hall, Bridgetown, Barbados"
    },
    {
      "lat": 13.105808426206128,
      "lon": -59.577573893598796,
      "geoinfo": {
        "display_name": "Mapp Hill, Haggat Hall, Saint Michael, BB11093, Barbados",
        "road": "Mapp Hill",
        "house_number": null,
        "neighbourhood": null,
        "suburb": "Haggat Hall",
        "city_district": null,
        "city": null,
        "state": null,
        "postcode": "BB11093",
        "country": "Barbados",
        "country_code": "bb"
      },
      "address": "Mapp Hill, Bridgetown, Barbados"
    },
    {
      "lat": 13.088759443257262,
      "lon": -59.60260503274223,
      "geoinfo": {
        "display_name": "Bay Primary School, Bay Gardens, Bayland, Saint Michael, BB11114, Barbados",
        "road": "Bay Gardens",
        "house_number": null,
        "neighbourhood": null,
        "suburb": "Bayland",
        "city_district": null,
        "city": null,
        "state": null,
        "postcode": "BB11114",
        "country": "Barbados",
        "country_code": "bb"
      },
      "address": "Bay Gardens, Bridgetown, Barbados"
    },
    {
      "lat": 13.116590276635229,
      "lon": -59.621210989460586,
      "geoinfo": {
        "display_name": "Deacons, Saint Michael, BB11028, Barbados",
        "road": null,
        "house_number": null,
        "neighbourhood": null,
        "suburb": "Deacons",
        "city_district": null,
        "city": null,
        "state": null,
        "postcode": "BB11028",
        "country": "Barbados",
        "country_code": "bb"
      },
      "address": "Deacons, Bridgetown, Barbados"
    },
    {
      "lat": 13.105050006236127,
      "lon": -59.59805409186825,
      "geoinfo": {
        "display_name": "Ivy, Saint Michael, BB11137, Barbados",
        "road": null,
        "house_number": null,
        "neighbourhood": null,
        "suburb": "Ivy",
        "city_district": null,
        "city": null,
        "state": null,
        "postcode": "BB11137",
        "country": "Barbados",
        "country_code": "bb"
      },
      "address": "Ivy, Bridgetown, Barbados"
    },
    {
      "lat": 13.105601529228334,
      "lon": -59.616136034934534,
      "geoinfo": {
        "display_name": "Passage Road Ground, Passage Road, Bridgetown, Saint Michael, BB11028, Barbados",
        "road": "Passage Road",
        "house_number": null,
        "neighbourhood": null,
        "suburb": null,
        "city_district": null,
        "city": "Bridgetown",
        "state": null,
        "postcode": "BB11028",
        "country": "Barbados",
        "country_code": "bb"
      },
      "address": "Passage Road, Bridgetown, Barbados"
    },
    {
      "lat": 13.087373024574726,
      "lon": -59.60725606461527,
      "geoinfo": {
        "display_name": "Geriatric Hospital, Beckles Road, Bayland, Saint Michael, BB11000, Barbados",
        "road": "Beckles Road",
        "house_number": null,
        "neighbourhood": null,
        "suburb": "Bayland",
        "city_district": null,
        "city": null,
        "state": null,
        "postcode": "BB11000",
        "country": "Barbados",
        "country_code": "bb"
      },
      "address": "Beckles Road, Bridgetown, Barbados"
    },
    {
      "lat": 13.088958744238258,
      "lon": -59.59012381147377,
      "geoinfo": {
        "display_name": "Brittons Hill, Saint Michael, BB14004, Barbados",
        "road": null,
        "house_number": null,
        "neighbourhood": null,
        "suburb": "Brittons Hill",
        "city_district": null,
        "city": null,
        "state": null,
        "postcode": "BB14004",
        "country": "Barbados",
        "country_code": "bb"
      },
      "address": "Brittons Hill, Bridgetown, Barbados"
    },
    {
      "lat": 13.10445628031749,
      "lon": -59.62889739200843,
      "geoinfo": {
        "display_name": "University Row, Bridgetown, Saint Michael, BB11007, Barbados",
        "road": "University Row",
        "house_number": null,
        "neighbourhood": null,
        "suburb": null,
        "city_district": null,
        "city": "Bridgetown",
        "state": null,
        "postcode": "BB11007",
        "country": "Barbados",
        "country_code": "bb"
      },
      "address": "University Row, Bridgetown, Barbados"
    },
    {
      "lat": 13.09825079213672,
      "lon": -59.620988950550256,
      "geoinfo": {
        "display_name": "General Post Office, Cheapside Road, Bridgetown, Saint Michael, BB11000, Barbados",
        "road": "Cheapside Road",
        "house_number": null,
        "neighbourhood": null,
        "suburb": null,
        "city_district": null,
        "city": "Bridgetown",
        "state": null,
        "postcode": "BB11000",
        "country": "Barbados",
        "country_code": "bb"
      },
      "address": "Cheapside Road, Bridgetown, Barbados"
    },
    {
      "lat": 13.107374258395529,
      "lon": -59.582787130661345,
      "geoinfo": {
        "display_name": "2nd Avenue, Haggat Hall, Saint Michael, BB11093, Barbados",
        "road": "2nd Avenue",
        "house_number": null,
        "neighbourhood": null,
        "suburb": "Haggat Hall",
        "city_district": null,
        "city": null,
        "state": null,
        "postcode": "BB11093",
        "country": "Barbados",
        "country_code": "bb"
      },
      "address": "2nd Avenue, Bridgetown, Barbados"
    },
    {
      "lat": 13.103608043089494,
      "lon": -59.61949894005369,
      "geoinfo": {
        "display_name": "7th Avenue New Orleans, New Orleans, Saint Michael, BB11028, Barbados",
        "road": "7th Avenue New Orleans",
        "house_number": null,
        "neighbourhood": null,
        "suburb": "New Orleans",
        "city_district": null,
        "city": null,
        "state": null,
        "postcode": "BB11028",
        "country": "Barbados",
        "country_code": "bb"
      },
      "address": "7th Avenue New Orleans, Bridgetown, Barbados"
    },
    {
      "lat": 13.102612810960846,
      "lon": -59.60454420603711,
      "geoinfo": {
        "display_name": "Tweedside Road, Carrington Village, Saint Michael, BB11137, Barbados",
        "road": "Tweedside Road",
        "house_number": null,
        "neighbourhood": null,
        "suburb": "Carrington Village",
        "city_district": null,
        "city": null,
        "state": null,
        "postcode": "BB11137",
        "country": "Barbados",
        "country_code": "bb"
      },
      "address": "Tweedside Road, Bridgetown, Barbados"
    },
    {
      "lat": 13.14354925719367,
      "lon": -59.606404708787544,
      "geoinfo": {
        "display_name": "Highway 2, Arthur Seat, Saint Thomas, BB22022, Barbados",
        "road": "Highway 2",
        "house_number": null,
        "neighbourhood": null,
        "suburb": null,
        "city_district": null,
        "city": "Arthur Seat",
        "state": null,
        "postcode": "BB22022",
        "country": "Barbados",
        "country_code": "bb"
      },
      "address": "Highway 2, Bridgetown, Barbados"
    },
    {
      "lat": 13.092315747314148,
      "lon": -59.608337142583004,
      "geoinfo": {
        "display_name": "Ladymeade Gardens, Bridgetown, Saint Michael, BB11000, Barbados",
        "road": "Ladymeade Gardens",
        "house_number": null,
        "neighbourhood": null,
        "suburb": null,
        "city_district": null,
        "city": "Bridgetown",
        "state": null,
        "postcode": "BB11000",
        "country": "Barbados",
        "country_code": "bb"
      },
      "address": "Ladymeade Gardens, Bridgetown, Barbados"
    },
    {
      "lat": 13.112897531739234,
      "lon": -59.601355211524535,
      "geoinfo": {
        "display_name": "Station Hill, Saint Michael, BB11042, Barbados",
        "road": null,
        "house_number": null,
        "neighbourhood": null,
        "suburb": "Station Hill",
        "city_district": null,
        "city": null,
        "state": null,
        "postcode": "BB11042",
        "country": "Barbados",
        "country_code": "bb"
      },
      "address": "Station Hill, Bridgetown, Barbados"
    },
    {
      "lat": 13.126750016791732,
      "lon": -59.625661856370385,
      "geoinfo": {
        "display_name": "Black Rock, Saint Michael, BB23026, Barbados",
        "road": null,
        "house_number": null,
        "neighbourhood": null,
        "suburb": "Black Rock",
        "city_district": null,
        "city": null,
        "state": null,
        "postcode": "BB23026",
        "country": "Barbados",
        "country_code": "bb"
      },
      "address": "Black Rock, Bridgetown, Barbados"
    },
    {
      "lat": 13.125823018003695,
      "lon": -59.62619344018011,
      "geoinfo": {
        "display_name": "St. Stephen's Nursery School, Black Rock Road, Black Rock, Saint Michael, BB23026, Barbados",
        "road": "Black Rock Road",
        "house_number": null,
        "neighbourhood": null,
        "suburb": "Black Rock",
        "city_district": null,
        "city": null,
        "state": null,
        "postcode": "BB23026",
        "country": "Barbados",
        "country_code": "bb"
      },
      "address": "Black Rock Road, Bridgetown, Barbados"
    },
    {
      "lat": 13.096495782277687,
      "lon": -59.6097812141054,
      "geoinfo": {
        "display_name": "River Road, Bridgetown, Saint Michael, BB11015, Barbados",
        "road": "River Road",
        "house_number": null,
        "neighbourhood": null,
        "suburb": null,
        "city_district": null,
        "city": "Bridgetown",
        "state": null,
        "postcode": "BB11015",
        "country": "Barbados",
        "country_code": "bb"
      },
      "address": "River Road, Bridgetown, Barbados"
    },
    {
      "lat": 13.1161146191018,
      "lon": -59.605124612080886,
      "geoinfo": {
        "display_name": "Bank Hall Road, Waterford, Saint Michael, BB11042, Barbados",
        "road": "Bank Hall Road",
        "house_number": null,
        "neighbourhood": null,
        "suburb": "Waterford",
        "city_district": null,
        "city": null,
        "state": null,
        "postcode": "BB11042",
        "country": "Barbados",
        "country_code": "bb"
      },
      "address": "Bank Hall Road, Bridgetown, Barbados"
    },
    {
      "lat": 13.149131775882822,
      "lon": -59.63264032149417,
      "geoinfo": {
        "display_name": "9th Avenue, West Terrace, Saint James, BB23018, Barbados",
        "road": "9th Avenue",
        "house_number": null,
        "neighbourhood": null,
        "suburb": "West Terrace",
        "city_district": null,
        "city": null,
        "state": null,
        "postcode": "BB23018",
        "country": "Barbados",
        "country_code": "bb"
      },
      "address": "9th Avenue, Bridgetown, Barbados"
    },
    {
      "lat": 13.141021655390512,
      "lon": -59.623587874713984,
      "geoinfo": {
        "display_name": "53, Husbands Heights, Wanstead, Husbands, Saint James, BB23021, Barbados",
        "road": "Husbands Heights",
        "house_number": "53",
        "neighbourhood": "Husbands Heights",
        "suburb": "Wanstead",
        "city_district": null,
        "city": "Husbands",
        "state": null,
        "postcode": "BB23021",
        "country": "Barbados",
        "country_code": "bb"
      },
      "address": "53 Husbands Heights, Bridgetown, Barbados"
    },
    {
      "lat": 13.082724830554787,
      "lon": -59.60250529610103,
      "geoinfo": {
        "display_name": "Block A, Garrison Road, Bridgetown, Saint Michael, BB14038, Barbados",
        "road": "Garrison Road",
        "house_number": "Block A",
        "neighbourhood": null,
        "suburb": null,
        "city_district": null,
        "city": "Bridgetown",
        "state": null,
        "postcode": "BB14038",
        "country": "Barbados",
        "country_code": "bb"
      },
      "address": "Block A Garrison Road, Bridgetown, Barbados"
    },
    {
      "lat": 13.118050909098967,
      "lon": -59.620364151317865,
      "geoinfo": {
        "display_name": "Deacons Road, Deacons, Saint Michael, BB11028, Barbados",
        "road": "Deacons Road",
        "house_number": null,
        "neighbourhood": null,
        "suburb": "Deacons",
        "city_district": null,
        "city": null,
        "state": null,
        "postcode": "BB11028",
        "country": "Barbados",
        "country_code": "bb"
      },
      "address": "Deacons Road, Bridgetown, Barbados"
    },
    {
      "lat": 13.124254645379652,
      "lon": -59.619700582459956,
      "geoinfo": {
        "display_name": "Fairfield Road, Fairfield, Saint Michael, BB23026, Barbados",
        "road": "Fairfield Road",
        "house_number": null,
        "neighbourhood": null,
        "suburb": "Fairfield",
        "city_district": null,
        "city": null,
        "state": null,
        "postcode": "BB23026",
        "country": "Barbados",
        "country_code": "bb"
      },
      "address": "Fairfield Road, Bridgetown, Barbados"
    },
    {
      "lat": 13.075620966214744,
      "lon": -59.587599489565996,
      "geoinfo": {
        "display_name": "Blue Waters, Rockley, St. Lawrence, Christ Church, BB15149, Barbados",
        "road": "Blue Waters",
        "house_number": null,
        "neighbourhood": null,
        "suburb": "Rockley",
        "city_district": null,
        "city": "St. Lawrence",
        "state": null,
        "postcode": "BB15149",
        "country": "Barbados",
        "country_code": "bb"
      },
      "address": "Blue Waters, Bridgetown, Barbados"
    },
    {
      "lat": 13.108576737034,
      "lon": -59.613372350421876,
      "geoinfo": {
        "display_name": "Bank Hall, Saint Michael, BB11028, Barbados",
        "road": null,
        "house_number": null,
        "neighbourhood": null,
        "suburb": "Bank Hall",
        "city_district": null,
        "city": null,
        "state": null,
        "postcode": "BB11028",
        "country": "Barbados",
        "country_code": "bb"
      },
      "address": "Bank Hall, Bridgetown, Barbados"
    },
    {
      "lat": 13.101975523792476,
      "lon": -59.61037935558852,
      "geoinfo": {
        "display_name": "Transport Board - Headquarters, Roebuck Street, Weymouth, Bridgetown, Saint Michael, BB11015, Barbados",
        "road": "Roebuck Street",
        "house_number": null,
        "neighbourhood": null,
        "suburb": "Weymouth",
        "city_district": null,
        "city": "Bridgetown",
        "state": null,
        "postcode": "BB11015",
        "country": "Barbados",
        "country_code": "bb"
      },
      "address": "Roebuck Street, Bridgetown, Barbados"
    },
    {
      "lat": 13.145880870939346,
      "lon": -59.64275103366761,
      "geoinfo": {
        "display_name": "iL tempio, Highway 1, Appleby Gardens, Fitts Village, Saint James, BB23018, Barbados",
        "road": "Highway 1",
        "house_number": null,
        "neighbourhood": "Appleby Gardens",
        "suburb": "Fitts Village",
        "city_district": null,
        "city": null,
        "state": null,
        "postcode": "BB23018",
        "country": "Barbados",
        "country_code": "bb"
      },
      "address": "Highway 1, BB23018 Bridgetown, Barbados"
    },
    {
      "lat": 13.118817186266366,
      "lon": -59.61019825844914,
      "geoinfo": {
        "display_name": "Accomodation Road, Tudor Bridge, Saint Michael, BB11028, Barbados",
        "road": "Accomodation Road",
        "house_number": null,
        "neighbourhood": null,
        "suburb": "Tudor Bridge",
        "city_district": null,
        "city": null,
        "state": null,
        "postcode": "BB11028",
        "country": "Barbados",
        "country_code": "bb"
      },
      "address": "194, Accomodation Road, Tudor Bridge, Saint Michael, BB11028, Barbados"
    },
    {
      "lat": 13.065937876090711,
      "lon": -59.614397048818354,
      "geoinfo": {
        "display_name": "Hastings, Christ Church, BB15156, Barbados",
        "road": null,
        "house_number": null,
        "neighbourhood": null,
        "suburb": "Hastings",
        "city_district": null,
        "city": null,
        "state": null,
        "postcode": "BB15156",
        "country": "Barbados",
        "country_code": "bb"
      },
      "address": "394, Hastings, BB15156 Bridgetown, Barbados"
    },
    {
      "lat": 13.071085082049091,
      "lon": -59.60916735596535,
      "geoinfo": {
        "display_name": "Hastings, Christ Church, BB15156, Barbados",
        "road": null,
        "house_number": null,
        "neighbourhood": null,
        "suburb": "Hastings",
        "city_district": null,
        "city": null,
        "state": null,
        "postcode": "BB15156",
        "country": "Barbados",
        "country_code": "bb"
      },
      "address": "709, Hastings, BB15156 Bridgetown, Barbados"
    },
    {
      "lat": 13.064320834618961,
      "lon": -59.620972348437945,
      "geoinfo": {
        "display_name": "Hastings, Christ Church, BB15156, Barbados",
        "road": null,
        "house_number": null,
        "neighbourhood": null,
        "suburb": "Hastings",
        "city_district": null,
        "city": null,
        "state": null,
        "postcode": "BB15156",
        "country": "Barbados",
        "country_code": "bb"
      },
      "address": "736, Hastings, BB15156 Bridgetown, Barbados"
    },
    {
      "lat": 13.078065584502953,
      "lon": -59.618252392591415,
      "geoinfo": {
        "display_name": "Fort Charles, Drill Hall Beach Road, Bridgetown, Saint Michael, BB14203, Barbados",
        "road": "Drill Hall Beach Road",
        "house_number": null,
        "neighbourhood": null,
        "suburb": null,
        "city_district": null,
        "city": "Bridgetown",
        "state": null,
        "postcode": "BB14203",
        "country": "Barbados",
        "country_code": "bb"
      },
      "address": "181, Drill Hall Beach Road, BB14203 Bridgetown, Barbados"
    },
    {
      "lat": 13.071809689118252,
      "lon": -59.6268580745471,
      "geoinfo": {
        "display_name": "Hastings, Christ Church, BB15156, Barbados",
        "road": null,
        "house_number": null,
        "neighbourhood": null,
        "suburb": "Hastings",
        "city_district": null,
        "city": null,
        "state": null,
        "postcode": "BB15156",
        "country": "Barbados",
        "country_code": "bb"
      },
      "address": "694, Hastings, BB15156 Bridgetown, Barbados"
    },
    {
      "lat": 13.071379398608087,
      "lon": -59.630635725349066,
      "geoinfo": {
        "display_name": "Hastings, Christ Church, BB15156, Barbados",
        "road": null,
        "house_number": null,
        "neighbourhood": null,
        "suburb": "Hastings",
        "city_district": null,
        "city": null,
        "state": null,
        "postcode": "BB15156",
        "country": "Barbados",
        "country_code": "bb"
      },
      "address": "728, Hastings, BB15156 Bridgetown, Barbados"
    },
    {
      "lat": 13.107010259906094,
      "lon": -59.62162794557669,
      "geoinfo": {
        "display_name": "President Kennedy Drive, Westbury, Saint Michael, BB11028, Barbados",
        "road": "President Kennedy Drive",
        "house_number": null,
        "neighbourhood": null,
        "suburb": "Westbury",
        "city_district": null,
        "city": null,
        "state": null,
        "postcode": "BB11028",
        "country": "Barbados",
        "country_code": "bb"
      },
      "address": "516, President Kennedy Drive, BB11028 Bridgetown, Barbados"
    },
    {
      "lat": 13.079835282217246,
      "lon": -59.64312059253229,
      "geoinfo": {
        "display_name": "Westbury, Saint Michael, BB11007, Barbados",
        "road": null,
        "house_number": null,
        "neighbourhood": null,
        "suburb": "Westbury",
        "city_district": null,
        "city": null,
        "state": null,
        "postcode": "BB11007",
        "country": "Barbados",
        "country_code": "bb"
      },
      "address": "395, Westbury, BB11007 Bridgetown, Barbados"
    },
    {
      "lat": 13.130210977971617,
      "lon": -59.59050650076077,
      "geoinfo": {
        "display_name": "Highway 3, Hothersal Turning, Saint Michael, BB19025, Barbados",
        "road": "Highway 3",
        "house_number": null,
        "neighbourhood": null,
        "suburb": "Hothersal Turning",
        "city_district": null,
        "city": null,
        "state": null,
        "postcode": "BB19025",
        "country": "Barbados",
        "country_code": "bb"
      },
      "address": "Highway 3, BB19025 Bridgetown, Barbados"
    },
    {
      "lat": 13.078633437132344,
      "lon": -59.617181524675075,
      "geoinfo": {
        "display_name": "Fort Charles, Drill Hall Beach Road, Bridgetown, Saint Michael, BB14203, Barbados",
        "road": "Drill Hall Beach Road",
        "house_number": null,
        "neighbourhood": null,
        "suburb": null,
        "city_district": null,
        "city": "Bridgetown",
        "state": null,
        "postcode": "BB14203",
        "country": "Barbados",
        "country_code": "bb"
      },
      "address": "755, Drill Hall Beach Road, BB14203 Bridgetown, Barbados"
    },
    {
      "lat": 13.103234215165411,
      "lon": -59.64813163929798,
      "geoinfo": {
        "display_name": "Westbury, Saint Michael, BB11007, Barbados",
        "road": null,
        "house_number": null,
        "neighbourhood": null,
        "suburb": "Westbury",
        "city_district": null,
        "city": null,
        "state": null,
        "postcode": "BB11007",
        "country": "Barbados",
        "country_code": "bb"
      },
      "address": "228, Westbury, BB11007 Bridgetown, Barbados"
    },
    {
      "lat": 13.074679381828883,
      "lon": -59.5973088872195,
      "geoinfo": {
        "display_name": "Skyway Shopping Plaza, Hastings Road, Hastings, Christ Church, BB15156, Barbados",
        "road": "Hastings Road",
        "house_number": null,
        "neighbourhood": null,
        "suburb": "Hastings",
        "city_district": null,
        "city": null,
        "state": null,
        "postcode": "BB15156",
        "country": "Barbados",
        "country_code": "bb"
      },
      "address": "569, Hastings Road, BB15156 Bridgetown, Barbados"
    },
    {
      "lat": 13.103000929189351,
      "lon": -59.61605822497462,
      "geoinfo": {
        "display_name": "Chapman Street, Bridgetown, Saint Michael, BB11028, Barbados",
        "road": "Chapman Street",
        "house_number": null,
        "neighbourhood": null,
        "suburb": null,
        "city_district": null,
        "city": "Bridgetown",
        "state": null,
        "postcode": "BB11028",
        "country": "Barbados",
        "country_code": "bb"
      },
      "address": "169, Chapman Street, Bridgetown, Saint Michael, BB11028, Barbados"
    },
    {
      "lat": 13.107818031413396,
      "lon": -59.64162496792037,
      "geoinfo": {
        "display_name": "Westbury, Saint Michael, BB11007, Barbados",
        "road": null,
        "house_number": null,
        "neighbourhood": null,
        "suburb": "Westbury",
        "city_district": null,
        "city": null,
        "state": null,
        "postcode": "BB11007",
        "country": "Barbados",
        "country_code": "bb"
      },
      "address": "353, Westbury, BB11007 Bridgetown, Barbados"
    },
    {
      "lat": 13.089273652785662,
      "lon": -59.650717290966696,
      "geoinfo": {
        "display_name": "Westbury, Saint Michael, BB11007, Barbados",
        "road": null,
        "house_number": null,
        "neighbourhood": null,
        "suburb": "Westbury",
        "city_district": null,
        "city": null,
        "state": null,
        "postcode": "BB11007",
        "country": "Barbados",
        "country_code": "bb"
      },
      "address": "755, Westbury, BB11007 Bridgetown, Barbados"
    },
    {
      "lat": 13.103711487646711,
      "lon": -59.60773700623475,
      "geoinfo": {
        "display_name": "Hamony Hall, Bank Hall, Saint Michael, BB11137, Barbados",
        "road": null,
        "house_number": null,
        "neighbourhood": "Hamony Hall",
        "suburb": "Bank Hall",
        "city_district": null,
        "city": null,
        "state": null,
        "postcode": "BB11137",
        "country": "Barbados",
        "country_code": "bb"
      },
      "address": "344, Hamony Hall, BB11137 Bridgetown, Barbados"
    },
    {
      "lat": 13.092296067776944,
      "lon": -59.624501272487144,
      "geoinfo": {
        "display_name": "Princess Alice Highway, Bridgetown, Saint Michael, BB11007, Barbados",
        "road": "Princess Alice Highway",
        "house_number": null,
        "neighbourhood": null,
        "suburb": null,
        "city_district": null,
        "city": "Bridgetown",
        "state": null,
        "postcode": "BB11007",
        "country": "Barbados",
        "country_code": "bb"
      },
      "address": "209, Princess Alice Highway, Bridgetown, Saint Michael, BB11007, Barbados"
    },
    {
      "lat": 13.072659401826352,
      "lon": -59.627025042593814,
      "geoinfo": {
        "display_name": "Hastings, Christ Church, BB15156, Barbados",
        "road": null,
        "house_number": null,
        "neighbourhood": null,
        "suburb": "Hastings",
        "city_district": null,
        "city": null,
        "state": null,
        "postcode": "BB15156",
        "country": "Barbados",
        "country_code": "bb"
      },
      "address": "020, Hastings, BB15156 Bridgetown, Barbados"
    },
    {
      "lat": 13.07998083126169,
      "lon": -59.60535605221029,
      "geoinfo": {
        "display_name": "Garrison Footpath, Bridgetown, Saint Michael, BB14038, Barbados",
        "road": "Garrison Footpath",
        "house_number": null,
        "neighbourhood": null,
        "suburb": null,
        "city_district": null,
        "city": "Bridgetown",
        "state": null,
        "postcode": "BB14038",
        "country": "Barbados",
        "country_code": "bb"
      },
      "address": "001, Garrison Footpath, Bridgetown, Saint Michael, BB14038, Barbados"
    },
    {
      "lat": 13.069192670804066,
      "lon": -59.61750009321063,
      "geoinfo": {
        "display_name": "Hastings, Christ Church, BB15156, Barbados",
        "road": null,
        "house_number": null,
        "neighbourhood": null,
        "suburb": "Hastings",
        "city_district": null,
        "city": null,
        "state": null,
        "postcode": "BB15156",
        "country": "Barbados",
        "country_code": "bb"
      },
      "address": "231, Hastings, BB15156 Bridgetown, Barbados"
    },
    {
      "lat": 13.087390830462176,
      "lon": -59.64409657012023,
      "geoinfo": {
        "display_name": "Westbury, Saint Michael, BB11007, Barbados",
        "road": null,
        "house_number": null,
        "neighbourhood": null,
        "suburb": "Westbury",
        "city_district": null,
        "city": null,
        "state": null,
        "postcode": "BB11007",
        "country": "Barbados",
        "country_code": "bb"
      },
      "address": "003, Westbury, BB11007 Bridgetown, Barbados"
    },
    {
      "lat": 13.070468151561688,
      "lon": -59.61012401261769,
      "geoinfo": {
        "display_name": "Hastings, Christ Church, BB15156, Barbados",
        "road": null,
        "house_number": null,
        "neighbourhood": null,
        "suburb": "Hastings",
        "city_district": null,
        "city": null,
        "state": null,
        "postcode": "BB15156",
        "country": "Barbados",
        "country_code": "bb"
      },
      "address": "191, Hastings, BB15156 Bridgetown, Barbados"
    },
    {
      "lat": 13.071452237161209,
      "lon": -59.61554066686048,
      "geoinfo": {
        "display_name": "Hastings, Christ Church, BB15156, Barbados",
        "road": null,
        "house_number": null,
        "neighbourhood": null,
        "suburb": "Hastings",
        "city_district": null,
        "city": null,
        "state": null,
        "postcode": "BB15156",
        "country": "Barbados",
        "country_code": "bb"
      },
      "address": "495, Hastings, BB15156 Bridgetown, Barbados"
    },
    {
      "lat": 13.10376895267162,
      "lon": -59.6529625204825,
      "geoinfo": {
        "display_name": "Westbury, Saint Michael, BB11007, Barbados",
        "road": null,
        "house_number": null,
        "neighbourhood": null,
        "suburb": "Westbury",
        "city_district": null,
        "city": null,
        "state": null,
        "postcode": "BB11007",
        "country": "Barbados",
        "country_code": "bb"
      },
      "address": "593, Westbury, BB11007 Bridgetown, Barbados"
    },
    {
      "lat": 13.072888058710316,
      "lon": -59.63023523412024,
      "geoinfo": {
        "display_name": "Hastings, Christ Church, BB15156, Barbados",
        "road": null,
        "house_number": null,
        "neighbourhood": null,
        "suburb": "Hastings",
        "city_district": null,
        "city": null,
        "state": null,
        "postcode": "BB15156",
        "country": "Barbados",
        "country_code": "bb"
      },
      "address": "346, Hastings, BB15156 Bridgetown, Barbados"
    },
    {
      "lat": 13.088751645446942,
      "lon": -59.602081584139746,
      "geoinfo": {
        "display_name": "Bay Primary School, Bay Gardens, Bayland, Saint Michael, BB11114, Barbados",
        "road": "Bay Gardens",
        "house_number": null,
        "neighbourhood": null,
        "suburb": "Bayland",
        "city_district": null,
        "city": null,
        "state": null,
        "postcode": "BB11114",
        "country": "Barbados",
        "country_code": "bb"
      },
      "address": "800, Bay Gardens, BB11114 Bridgetown, Barbados"
    },
    {
      "lat": 13.082984513398998,
      "lon": -59.5889012810371,
      "geoinfo": {
        "display_name": "Dayrells Road, Christ Church, BB15149, Barbados",
        "road": null,
        "house_number": null,
        "neighbourhood": null,
        "suburb": "Dayrells Road",
        "city_district": null,
        "city": null,
        "state": null,
        "postcode": "BB15149",
        "country": "Barbados",
        "country_code": "bb"
      },
      "address": "973, Dayrells Road, BB15149 Bridgetown, Barbados"
    },
    {
      "lat": 13.091864473762719,
      "lon": -59.62096828890548,
      "geoinfo": {
        "display_name": "Princess Alice Highway, Bridgetown, Saint Michael, BB11007, Barbados",
        "road": "Princess Alice Highway",
        "house_number": null,
        "neighbourhood": null,
        "suburb": null,
        "city_district": null,
        "city": "Bridgetown",
        "state": null,
        "postcode": "BB11007",
        "country": "Barbados",
        "country_code": "bb"
      },
      "address": "574, Princess Alice Highway, Bridgetown, Saint Michael, BB11007, Barbados"
    },
    {
      "lat": 13.095831748020206,
      "lon": -59.606458373480784,
      "geoinfo": {
        "display_name": "Queen Elizabeth Hospital, Martindales Road, Bridgetown, Saint Michael, BB11137, Barbados",
        "road": "Martindales Road",
        "house_number": null,
        "neighbourhood": null,
        "suburb": null,
        "city_district": null,
        "city": "Bridgetown",
        "state": null,
        "postcode": "BB11137",
        "country": "Barbados",
        "country_code": "bb"
      },
      "address": "291, Martindales Road, BB11137 Bridgetown, Barbados"
    },
    {
      "lat": 13.141816487969775,
      "lon": -59.5941411958726,
      "geoinfo": {
        "display_name": "The Derrick Smith School & Vocational Centre, Highway E, ChefFoods Manufacturing Inc., Rugby, Arthur Seat, Saint Michael, BB22022, Barbados",
        "road": "Highway E",
        "house_number": null,
        "neighbourhood": null,
        "suburb": null,
        "city_district": null,
        "city": "Arthur Seat",
        "state": null,
        "postcode": "BB22022",
        "country": "Barbados",
        "country_code": "bb"
      },
      "address": "915, Highway E, BB22022 Bridgetown, Barbados"
    },
    {
      "lat": 13.083531435299037,
      "lon": -59.64104155774672,
      "geoinfo": {
        "display_name": "Westbury, Saint Michael, BB11007, Barbados",
        "road": null,
        "house_number": null,
        "neighbourhood": null,
        "suburb": "Westbury",
        "city_district": null,
        "city": null,
        "state": null,
        "postcode": "BB11007",
        "country": "Barbados",
        "country_code": "bb"
      },
      "address": "406, Westbury, BB11007 Bridgetown, Barbados"
    },
    {
      "lat": 13.09127499501794,
      "lon": -59.602239956785866,
      "geoinfo": {
        "display_name": "Flodden, Francis Godson Drive, Lower Collymore Rock, Saint Michael, BB11114, Barbados",
        "road": "Francis Godson Drive",
        "house_number": "Flodden",
        "neighbourhood": null,
        "suburb": "Lower Collymore Rock",
        "city_district": null,
        "city": null,
        "state": null,
        "postcode": "BB11114",
        "country": "Barbados",
        "country_code": "bb"
      },
      "address": "Flodden, Francis Godson Drive, BB11114 Bridgetown, Barbados"
    },
    {
      "lat": 13.118774384264608,
      "lon": -59.61100953440125,
      "geoinfo": {
        "display_name": "Accomodation Road, Tudor Bridge, Saint Michael, BB11028, Barbados",
        "road": "Accomodation Road",
        "house_number": null,
        "neighbourhood": null,
        "suburb": "Tudor Bridge",
        "city_district": null,
        "city": null,
        "state": null,
        "postcode": "BB11028",
        "country": "Barbados",
        "country_code": "bb"
      },
      "address": "277, Accomodation Road, Tudor Bridge, Saint Michael, BB11028, Barbados"
    },
    {
      "lat": 13.103038217288864,
      "lon": -59.64850362867726,
      "geoinfo": {
        "display_name": "Westbury, Saint Michael, BB11007, Barbados",
        "road": null,
        "house_number": null,
        "neighbourhood": null,
        "suburb": "Westbury",
        "city_district": null,
        "city": null,
        "state": null,
        "postcode": "BB11007",
        "country": "Barbados",
        "country_code": "bb"
      },
      "address": "790, Westbury, BB11007 Bridgetown, Barbados"
    },
    {
      "lat": 13.064949467227121,
      "lon": -59.615250191531686,
      "geoinfo": {
        "display_name": "Hastings, Christ Church, BB15156, Barbados",
        "road": null,
        "house_number": null,
        "neighbourhood": null,
        "suburb": "Hastings",
        "city_district": null,
        "city": null,
        "state": null,
        "postcode": "BB15156",
        "country": "Barbados",
        "country_code": "bb"
      },
      "address": "786, Hastings, BB15156 Bridgetown, Barbados"
    },
    {
      "lat": 13.099258770731145,
      "lon": -59.630288574526354,
      "geoinfo": {
        "display_name": "Barbados Port Inc. - Esso Jetty, Princess Alice Highway, Bridgetown, Saint Michael, BB11007, Barbados",
        "road": "Princess Alice Highway",
        "house_number": null,
        "neighbourhood": null,
        "suburb": null,
        "city_district": null,
        "city": "Bridgetown",
        "state": null,
        "postcode": "BB11007",
        "country": "Barbados",
        "country_code": "bb"
      },
      "address": "671, Princess Alice Highway, BB11007 Bridgetown, Barbados"
    },
    {
      "lat": 13.083265984084246,
      "lon": -59.63909148964171,
      "geoinfo": {
        "display_name": "Westbury, Saint Michael, BB11007, Barbados",
        "road": null,
        "house_number": null,
        "neighbourhood": null,
        "suburb": "Westbury",
        "city_district": null,
        "city": null,
        "state": null,
        "postcode": "BB11007",
        "country": "Barbados",
        "country_code": "bb"
      },
      "address": "441, Westbury, BB11007 Bridgetown, Barbados"
    }
  ],
  "updated_at": "2025-10-19T02:42:14.251366+00:00",
  "_kind": "geo_samples"
}