{
  "country_code": "SV",
  "country": "El Salvador",
  "city": "Ahuachapán",
  "geonameid": 3587426,
  "target_addresses": 3,
  "samples": [
    {
      "lat": 13.886473912689864,
      "lon": -89.84716904490561,
      "geoinfo": {
        "display_name": "Ruta de Las Flores, Colonia Suncuan, Los Guatales, Concepción de Ataco, Ahuachapán Centro, Ahuachapán, 2101, El Salvador",
        "road": "Ruta de Las Flores",
        "house_number": null,
        "neighbourhood": "Colonia Suncuan",
        "suburb": null,
        "city_district": null,
        "city": "Concepción de Ataco",
        "state": "Ahuachapán",
        "postcode": "2101",
        "country": "El Salvador",
        "country_code": "sv"
      },
      "address": "Ruta de Las Flores, Ahuachapán, Ahuachapán, El Salvador"
    },
    {
      "lat": 13.942486665426443,
      "lon": -89.84163628134378,
      "geoinfo": {
        "display_name": "RN13AW, Lotificación Altos de San Francisco, Ahuachapán, Ahuachapán Centro, Ahuachapán, 2101, El Salvador",
        "road": "RN13AW",
        "house_number": null,
        "neighbourhood": "Lotificación Altos de San Francisco",
        "suburb": null,
        "city_district": null,
        "city": "Ahuachapán",
        "state": "Ahuachapán",
        "postcode": "2101",
        "country": "El Salvador",
        "country_code": "sv"
      },
      "address": "RN13AW, Ahuachapán, Ahuachapán, El Salvador"
    },
    {
      "lat": 13.935333173029003,
      "lon": -89.85144322910942,
      "geoinfo": {
        "display_name": "By-pass Ahuachapán, Lotificación Altos de San Francisco, Ahuachapán, Ahuachapán Centro, Ahuachapán, 2101, El Salvador",
        "road": "By-pass Ahuachapán",
        "house_number": null,
        "neighbourhood": "Lotificación Altos de San Francisco",
        "suburb": null,
        "city_district": null,
        "city": "Ahuachapán",
        "state": "Ahuachapán",
        "postcode": "2101",
        "country": "El Salvador",
        "country_code": "sv"
      },
      "address": "By-pass Ahuachapán, Ahuachapán, Ahuachapán, El Salvador"
    },
    {
      "lat": 13.909648948358226,
      "lon": -89.83714139467403,
      "geoinfo": {
        "display_name": "Colonia Santa Isabel, Los Guatales, Ahuachapán, Ahuachapán Centro, Ahuachapán, 2101, El Salvador",
        "road": null,
        "house_number": null,
        "neighbourhood": "Colonia Santa Isabel",
        "suburb": null,
        "city_district": null,
        "city": "Ahuachapán",
        "state": "Ahuachapán",
        "postcode": "2101",
        "country": "El Salvador",
        "country_code": "sv"
      },
      "address": "807, Colonia Santa Isabel, Ahuachapán, 2101 Ahuachapán, El Salvador"
    },
    {
      "lat": 13.919287660061077,
      "lon": -89.8085531644745,
      "geoinfo": {
        "display_name": "Los Amates, Chipilapa, Ahuachapán, Ahuachapán Centro, Ahuachapán, 2101, El Salvador",
        "road": null,
        "house_number": null,
        "neighbourhood": null,
        "suburb": null,
        "city_district": null,
        "city": "Ahuachapán",
        "state": "Ahuachapán",
        "postcode": "2101",
        "country": "El Salvador",
        "country_code": "sv"
      },
      "address": "885, Los Amates, Chipilapa, Ahuachapán, Ahuachapán Centro, Ahuachapán, 2101, El Salvador"
    },
    {
      "lat": 13.948519613473547,
      "lon": -89.87945634325276,
      "geoinfo": {
        "display_name": "Avenida Durán, Atehuencias, Palo Pique, Ahuachapán, Ahuachapán Centro, Ahuachapán, 2101, El Salvador",
        "road": "Avenida Durán",
        "house_number": null,
        "neighbourhood": null,
        "suburb": null,
        "city_district": null,
        "city": "Ahuachapán",
        "state": "Ahuachapán",
        "postcode": "2101",
        "country": "El Salvador",
        "country_code": "sv"
      },
      "address": "995, Avenida Durán, Atehuencias, Palo Pique, Ahuachapán, Ahuachapán Centro, Ahuachapán, 2101, El Salvador"
    }
  ],
  "updated_at": "2025-10-19T07:03:25.608148+00:00",
  "_kind": "geo_samples"
}