{
  "country_code": "SV",
  "country": "El Salvador",
  "city": "Ilopango",
  "geonameid": 3585484,
  "target_addresses": 3,
  "samples": [
    {
      "lat": 13.684663200086941,
      "lon": -89.10370509696659,
      "geoinfo": {
        "display_name": "Ilopango, San Salvador Este, San Salvador, 1117, El Salvador",
        "road": null,
        "house_number": null,
        "neighbourhood": null,
        "suburb": null,
        "city_district": null,
        "city": "Ilopango",
        "state": "San Salvador",
        "postcode": "1117",
        "country": "El Salvador",
        "country_code": "sv"
      },
      "address": "Ilopango, San Salvador, El Salvador"
    },
    {
      "lat": 13.70415261124072,
      "lon": -89.09217804723647,
      "geoinfo": {
        "display_name": "San Bartolo, Amatitán, Ilopango, San Salvador Este, San Salvador, 1117, El Salvador",
        "road": null,
        "house_number": null,
        "neighbourhood": null,
        "suburb": "San Bartolo",
        "city_district": null,
        "city": "Ilopango",
        "state": "San Salvador",
        "postcode": "1117",
        "country": "El Salvador",
        "country_code": "sv"
      },
      "address": "San Bartolo, Ilopango, San Salvador, El Salvador"
    },
    {
      "lat": 13.71085807773251,
      "lon": -89.06636762226526,
      "geoinfo": {
        "display_name": "SAL23N, Lotificación Apacingo, El Sauce, San Martín, San Salvador Este, San Salvador, 1129, El Salvador",
        "road": "SAL23N",
        "house_number": null,
        "neighbourhood": "Lotificación Apacingo",
        "suburb": null,
        "city_district": null,
        "city": "San Martín",
        "state": "San Salvador",
        "postcode": "1129",
        "country": "El Salvador",
        "country_code": "sv"
      },
      "address": "SAL23N, Ilopango, San Salvador, El Salvador"
    },
    {
      "lat": 13.707328930870638,
      "lon": -89.11485092257016,
      "geoinfo": {
        "display_name": "Jardines de San Bartolo, Ilopango, San Salvador Este, San Salvador, 1117, El Salvador",
        "road": null,
        "house_number": null,
        "neighbourhood": null,
        "suburb": "Jardines de San Bartolo",
        "city_district": null,
        "city": "Ilopango",
        "state": "San Salvador",
        "postcode": "1117",
        "country": "El Salvador",
        "country_code": "sv"
      },
      "address": "249, Jardines de San Bartolo, Ilopango, San Salvador Este, San Salvador, 1117, El Salvador"
    },
    {
      "lat": 13.714046768826085,
      "lon": -89.11096575774904,
      "geoinfo": {
        "display_name": "Pasaje 2, San Bartolo, Urbanización Altavista, Ilopango, San Salvador Este, San Salvador, 1117, El Salvador",
        "road": "Pasaje 2",
        "house_number": null,
        "neighbourhood": null,
        "suburb": "San Bartolo",
        "city_district": null,
        "city": "Ilopango",
        "state": "San Salvador",
        "postcode": "1117",
        "country": "El Salvador",
        "country_code": "sv"
      },
      "address": "Pasaje 2, San Bartolo, Urbanización Altavista, Ilopango, San Salvador Este, San Salvador, 1117, El Salvador"
    },
    {
      "lat": 13.672298864389823,
      "lon": -89.11007381163618,
      "geoinfo": {
        "display_name": "Carretera Santo Tomás - Ilopango, Santiago Texacuangos, San Salvador Sur, San Salvador, 1117, El Salvador",
        "road": "Carretera Santo Tomás - Ilopango",
        "house_number": null,
        "neighbourhood": null,
        "suburb": null,
        "city_district": null,
        "city": "Santiago Texacuangos",
        "state": "San Salvador",
        "postcode": "1117",
        "country": "El Salvador",
        "country_code": "sv"
      },
      "address": "656, Carretera Santo Tomás - Ilopango, Santiago Texacuangos, San Salvador Sur, San Salvador, 1117, El Salvador"
    }
  ],
  "updated_at": "2025-10-19T05:37:48.427718+00:00",
  "_kind": "geo_samples"
}