{
  "country_code": "SV",
  "country": "El Salvador",
  "city": "San Rafael Oriente",
  "geonameid": 3583379,
  "target_addresses": 3,
  "samples": [
    {
      "lat": 13.384523617917122,
      "lon": -88.32852145997597,
      "geoinfo": {
        "display_name": "San Rafael Oriente, San Miguel, El Salvador",
        "road": null,
        "house_number": null,
        "neighbourhood": null,
        "suburb": null,
        "city_district": null,
        "city": "San Rafael Oriente",
        "state": "San Miguel",
        "postcode": null,
        "country": "El Salvador",
        "country_code": "sv"
      },
      "address": "San Rafael Oriente, San Miguel, El Salvador"
    },
    {
      "lat": 13.35333601066609,
      "lon": -88.36711878608399,
      "geoinfo": {
        "display_name": "Ereguayquín, Usulután, El Salvador",
        "road": null,
        "house_number": null,
        "neighbourhood": null,
        "suburb": null,
        "city_district": null,
        "city": "Ereguayquín",
        "state": "Usulután",
        "postcode": null,
        "country": "El Salvador",
        "country_code": "sv"
      },
      "address": "San Rafael Oriente, Usulután, El Salvador"
    },
    {
      "lat": 13.354789731894922,
      "lon": -88.34473850756832,
      "geoinfo": {
        "display_name": "2a Calle Oriente, Barrio La Cruz, El Tránsito, San Miguel, El Salvador",
        "road": "2a Calle Oriente",
        "house_number": null,
        "neighbourhood": "Barrio La Cruz",
        "suburb": null,
        "city_district": null,
        "city": "El Tránsito",
        "state": "San Miguel",
        "postcode": null,
        "country": "El Salvador",
        "country_code": "sv"
      },
      "address": "2a Calle Oriente, San Rafael Oriente, San Miguel, El Salvador"
    },
    {
      "lat": 13.354608225917303,
      "lon": -88.3409526938278,
      "geoinfo": {
        "display_name": "Calle 14 de Diciembre, Barrio La Cruz, El Tránsito, San Miguel, El Salvador",
        "road": "Calle 14 de Diciembre",
        "house_number": null,
        "neighbourhood": "Barrio La Cruz",
        "suburb": null,
        "city_district": null,
        "city": "El Tránsito",
        "state": "San Miguel",
        "postcode": null,
        "country": "El Salvador",
        "country_code": "sv"
      },
      "address": "Calle 14 de Diciembre, Barrio La Cruz, El Tránsito, 67158 San Miguel, El Salvador"
    },
    {
      "lat": 13.394982046284918,
      "lon": -88.38617483292066,
      "geoinfo": {
        "display_name": "Santa Elena, Usulután, El Salvador",
        "road": null,
        "house_number": null,
        "neighbourhood": null,
        "suburb": null,
        "city_district": null,
        "city": "Santa Elena",
        "state": "Usulután",
        "postcode": null,
        "country": "El Salvador",
        "country_code": "sv"
      },
      "address": "252, Santa Elena, 56321 Usulután, El Salvador"
    },
    {
      "lat": 13.359292303821716,
      "lon": -88.38792309788083,
      "geoinfo": {
        "display_name": "Ereguayquín, Usulután, El Salvador",
        "road": null,
        "house_number": null,
        "neighbourhood": null,
        "suburb": null,
        "city_district": null,
        "city": "Ereguayquín",
        "state": "Usulután",
        "postcode": null,
        "country": "El Salvador",
        "country_code": "sv"
      },
      "address": "718, Ereguayquín, 46052 Usulután, El Salvador"
    }
  ],
  "updated_at": "2025-10-19T07:05:49.098799+00:00",
  "_kind": "geo_samples"
}