{
  "country_code": "SV",
  "country": "El Salvador",
  "city": "Sonzacate",
  "geonameid": 3583098,
  "target_addresses": 3,
  "samples": [
    {
      "lat": 13.731254432055671,
      "lon": -89.74099339195949,
      "geoinfo": {
        "display_name": "Lotificacion Santa Elena, San Ramon, San Antonio del Monte, Sonsonate Centro, Sonsonate, 2301, El Salvador",
        "road": null,
        "house_number": null,
        "neighbourhood": null,
        "suburb": null,
        "city_district": null,
        "city": "San Antonio del Monte",
        "state": "Sonsonate",
        "postcode": "2301",
        "country": "El Salvador",
        "country_code": "sv"
      },
      "address": "Sonzacate, Sonsonate, El Salvador"
    },
    {
      "lat": 13.703654406468337,
      "lon": -89.71361668678693,
      "geoinfo": {
        "display_name": "4a Avenida Sur, Nahulingo, Sonsonate Centro, Sonsonate, 9601, El Salvador",
        "road": "4a Avenida Sur",
        "house_number": null,
        "neighbourhood": null,
        "suburb": null,
        "city_district": null,
        "city": "Nahulingo",
        "state": "Sonsonate",
        "postcode": "9601",
        "country": "El Salvador",
        "country_code": "sv"
      },
      "address": "4a Avenida Sur, Sonzacate, Sonsonate, El Salvador"
    },
    {
      "lat": 13.715062567481326,
      "lon": -89.71270360937832,
      "geoinfo": {
        "display_name": "32 Avenida Norte, LOTIFICACION EL CARMEN ORIENTE, Sonsonate, Sonsonate Centro, Sonsonate, 9601, El Salvador",
        "road": "32 Avenida Norte",
        "house_number": null,
        "neighbourhood": null,
        "suburb": null,
        "city_district": null,
        "city": "Sonsonate",
        "state": "Sonsonate",
        "postcode": "9601",
        "country": "El Salvador",
        "country_code": "sv"
      },
      "address": "32 Avenida Norte, Sonzacate, Sonsonate, El Salvador"
    },
    {
      "lat": 13.715569729687001,
      "lon": -89.72230650741035,
      "geoinfo": {
        "display_name": "Terminal Vieja de Sonsonate, Paseo 15 de Septiembre, Colonia Angelica, Sonsonate, Sonsonate Centro, Sonsonate, 9601, El Salvador",
        "road": "Paseo 15 de Septiembre",
        "house_number": null,
        "neighbourhood": null,
        "suburb": null,
        "city_district": null,
        "city": "Sonsonate",
        "state": "Sonsonate",
        "postcode": "9601",
        "country": "El Salvador",
        "country_code": "sv"
      },
      "address": "Terminal Vieja de Sonsonate, Paseo 15 de Septiembre, Colonia Angelica, Sonsonate, Sonsonate Centro, Sonsonate, 9601, El Salvador"
    },
    {
      "lat": 13.72037218239625,
      "lon": -89.6740578587419,
      "geoinfo": {
        "display_name": "Calle a Caluco, Tecuma, Caluco, Sonsonate Este, Sonsonate, 9601, El Salvador",
        "road": "Calle a Caluco",
        "house_number": null,
        "neighbourhood": null,
        "suburb": null,
        "city_district": null,
        "city": "Caluco",
        "state": "Sonsonate",
        "postcode": "9601",
        "country": "El Salvador",
        "country_code": "sv"
      },
      "address": "799, Calle a Caluco, Tecuma, Caluco, Sonsonate Este, Sonsonate, 9601, El Salvador"
    },
    {
      "lat": 13.769164667409521,
      "lon": -89.70935931007959,
      "geoinfo": {
        "display_name": "La Escuelita, El Nance, Los Almendros, Sonzacate, Sonsonate Centro, Sonsonate, 9601, El Salvador",
        "road": null,
        "house_number": null,
        "neighbourhood": null,
        "suburb": null,
        "city_district": null,
        "city": "Los Almendros",
        "state": "Sonsonate",
        "postcode": "9601",
        "country": "El Salvador",
        "country_code": "sv"
      },
      "address": "340, La Escuelita, El Nance, Los Almendros, Sonzacate, Sonsonate Centro, Sonsonate, 9601, El Salvador"
    }
  ],
  "updated_at": "2025-10-19T06:38:30.988416+00:00",
  "_kind": "geo_samples"
}