{
  "country_code": "SV",
  "country": "El Salvador",
  "city": "Soyapango",
  "geonameid": 3583096,
  "target_addresses": 3,
  "samples": [
    {
      "lat": 13.714737608969681,
      "lon": -89.14995877751639,
      "geoinfo": {
        "display_name": "Anden J, Urb. Las Margaritas, Soyapango, San Salvador Este, San Salvador, 1116, El Salvador",
        "road": "Anden J",
        "house_number": null,
        "neighbourhood": null,
        "suburb": "Urb. Las Margaritas",
        "city_district": null,
        "city": "Soyapango",
        "state": "San Salvador",
        "postcode": "1116",
        "country": "El Salvador",
        "country_code": "sv"
      },
      "address": "Anden J, Soyapango, San Salvador, El Salvador"
    },
    {
      "lat": 13.699347502085907,
      "lon": -89.17144908447236,
      "geoinfo": {
        "display_name": "3ª Calle Oriente, Comunidad Quiñonez Privado, Distrito Municipal 6, San Salvador, San Salvador Centro, San Salvador, 1011, El Salvador",
        "road": "3ª Calle Oriente",
        "house_number": null,
        "neighbourhood": "Comunidad Quiñonez Privado",
        "suburb": null,
        "city_district": "Distrito Municipal 6",
        "city": "San Salvador",
        "state": "San Salvador",
        "postcode": "1011",
        "country": "El Salvador",
        "country_code": "sv"
      },
      "address": "3ª Calle Oriente, Soyapango, San Salvador, El Salvador"
    },
    {
      "lat": 13.722168688701451,
      "lon": -89.147999076236,
      "geoinfo": {
        "display_name": "Pasaje de la O, Ciudad Delgado, San Salvador Centro, San Salvador, 1116, El Salvador",
        "road": "Pasaje de la O",
        "house_number": null,
        "neighbourhood": null,
        "suburb": null,
        "city_district": null,
        "city": "Ciudad Delgado",
        "state": "San Salvador",
        "postcode": "1116",
        "country": "El Salvador",
        "country_code": "sv"
      },
      "address": "Pasaje de la O, Soyapango, San Salvador, El Salvador"
    },
    {
      "lat": 13.688492167529603,
      "lon": -89.12632173186861,
      "geoinfo": {
        "display_name": "Ilopango, San Salvador Este, San Salvador, 1117, El Salvador",
        "road": null,
        "house_number": null,
        "neighbourhood": null,
        "suburb": null,
        "city_district": null,
        "city": "Ilopango",
        "state": "San Salvador",
        "postcode": "1117",
        "country": "El Salvador",
        "country_code": "sv"
      },
      "address": "108, Ilopango, San Salvador Este, San Salvador, 1117, El Salvador"
    },
    {
      "lat": 13.719591349961782,
      "lon": -89.10803449655289,
      "geoinfo": {
        "display_name": "San Bartolo, Urbanización Altavista, Ilopango, San Salvador Este, San Salvador, 1117, El Salvador",
        "road": null,
        "house_number": null,
        "neighbourhood": null,
        "suburb": "San Bartolo",
        "city_district": null,
        "city": "Ilopango",
        "state": "San Salvador",
        "postcode": "1117",
        "country": "El Salvador",
        "country_code": "sv"
      },
      "address": "618, San Bartolo, Urbanización Altavista, Ilopango, San Salvador Este, San Salvador, 1117, El Salvador"
    },
    {
      "lat": 13.722454986194494,
      "lon": -89.18121575524606,
      "geoinfo": {
        "display_name": "Cuscatancingo, San Salvador Centro, San Salvador, 1010, El Salvador",
        "road": null,
        "house_number": null,
        "neighbourhood": null,
        "suburb": null,
        "city_district": null,
        "city": "Cuscatancingo",
        "state": "San Salvador",
        "postcode": "1010",
        "country": "El Salvador",
        "country_code": "sv"
      },
      "address": "380, Cuscatancingo, San Salvador Centro, San Salvador, 1010, El Salvador"
    }
  ],
  "updated_at": "2025-10-19T07:02:44.434907+00:00",
  "_kind": "geo_samples"
}