{
  "country_code": "PG",
  "country": "Papua New Guinea",
  "city": "Daru",
  "geonameid": 2098329,
  "target_addresses": 8,
  "samples": [
    {
      "lat": -9.053761122256756,
      "lon": 143.21467492589846,
      "geoinfo": {
        "display_name": "Daru, Western, Southern Region, 331, Papua New Guinea",
        "road": null,
        "house_number": null,
        "neighbourhood": null,
        "suburb": null,
        "city_district": null,
        "city": "Daru",
        "state": "Western",
        "postcode": "331",
        "country": "Papua New Guinea",
        "country_code": "pg"
      },
      "address": "Daru, Western, Papua New Guinea"
    },
    {
      "lat": -9.088304121332186,
      "lon": 143.21689670887716,
      "geoinfo": {
        "display_name": "Barra Lodge, Barramundi Hatchery, Daru, Western, Southern Region, Papua New Guinea",
        "road": "Barramundi Hatchery",
        "house_number": null,
        "neighbourhood": null,
        "suburb": null,
        "city_district": null,
        "city": "Daru",
        "state": "Western",
        "postcode": null,
        "country": "Papua New Guinea",
        "country_code": "pg"
      },
      "address": "Barramundi Hatchery, Daru, Western, Papua New Guinea"
    },
    {
      "lat": -9.06782129216438,
      "lon": 143.21225778460908,
      "geoinfo": {
        "display_name": "Leon Trading 1, Murray (Mangopari) Road, Daru, Western, Southern Region, Papua New Guinea",
        "road": "Murray (Mangopari) Road",
        "house_number": null,
        "neighbourhood": null,
        "suburb": null,
        "city_district": null,
        "city": "Daru",
        "state": "Western",
        "postcode": null,
        "country": "Papua New Guinea",
        "country_code": "pg"
      },
      "address": "Leon Trading 1, Murray (Mangopari) Road, Daru, Western, 16176 Southern Region, Papua New Guinea"
    },
    {
      "lat": -9.097764426220886,
      "lon": 143.22250854822008,
      "geoinfo": {
        "display_name": "Daru, Western, Southern Region, 331, Papua New Guinea",
        "road": null,
        "house_number": null,
        "neighbourhood": null,
        "suburb": null,
        "city_district": null,
        "city": "Daru",
        "state": "Western",
        "postcode": "331",
        "country": "Papua New Guinea",
        "country_code": "pg"
      },
      "address": "256, Daru, Western, Southern Region, 331, Papua New Guinea"
    },
    {
      "lat": -9.070983664683268,
      "lon": 143.18445117073355,
      "geoinfo": {
        "display_name": "Daru, Western, Southern Region, 331, Papua New Guinea",
        "road": null,
        "house_number": null,
        "neighbourhood": null,
        "suburb": null,
        "city_district": null,
        "city": "Daru",
        "state": "Western",
        "postcode": "331",
        "country": "Papua New Guinea",
        "country_code": "pg"
      },
      "address": "098, Daru, Western, Southern Region, 331, Papua New Guinea"
    },
    {
      "lat": -9.08297603494364,
      "lon": 143.24781776713488,
      "geoinfo": {
        "display_name": "Daru, Western, Southern Region, 331, Papua New Guinea",
        "road": null,
        "house_number": null,
        "neighbourhood": null,
        "suburb": null,
        "city_district": null,
        "city": "Daru",
        "state": "Western",
        "postcode": "331",
        "country": "Papua New Guinea",
        "country_code": "pg"
      },
      "address": "754, Daru, Western, Southern Region, 331, Papua New Guinea"
    },
    {
      "lat": -9.08672677854327,
      "lon": 143.24017276967092,
      "geoinfo": {
        "display_name": "Daru, Western, Southern Region, 331, Papua New Guinea",
        "road": null,
        "house_number": null,
        "neighbourhood": null,
        "suburb": null,
        "city_district": null,
        "city": "Daru",
        "state": "Western",
        "postcode": "331",
        "country": "Papua New Guinea",
        "country_code": "pg"
      },
      "address": "355, Daru, Western, Southern Region, 331, Papua New Guinea"
    },
    {
      "lat": -9.07448111879852,
      "lon": 143.21644787086362,
      "geoinfo": {
        "display_name": "Hospital Compound, Daru, Western, Southern Region, Papua New Guinea",
        "road": null,
        "house_number": null,
        "neighbourhood": null,
        "suburb": null,
        "city_district": null,
        "city": "Daru",
        "state": "Western",
        "postcode": null,
        "country": "Papua New Guinea",
        "country_code": "pg"
      },
      "address": "105, Hospital Compound, Daru, Western, 61897 Southern Region, Papua New Guinea"
    },
    {
      "lat": -9.11429274899381,
      "lon": 143.20739701713,
      "geoinfo": {
        "display_name": "Daru, Western, Southern Region, 331, Papua New Guinea",
        "road": null,
        "house_number": null,
        "neighbourhood": null,
        "suburb": null,
        "city_district": null,
        "city": "Daru",
        "state": "Western",
        "postcode": "331",
        "country": "Papua New Guinea",
        "country_code": "pg"
      },
      "address": "220, Daru, Western, Southern Region, 331, Papua New Guinea"
    },
    {
      "lat": -9.107347119960984,
      "lon": 143.2281136700011,
      "geoinfo": {
        "display_name": "Daru, Western, Southern Region, 331, Papua New Guinea",
        "road": null,
        "house_number": null,
        "neighbourhood": null,
        "suburb": null,
        "city_district": null,
        "city": "Daru",
        "state": "Western",
        "postcode": "331",
        "country": "Papua New Guinea",
        "country_code": "pg"
      },
      "address": "399, Daru, Western, Southern Region, 331, Papua New Guinea"
    }
  ],
  "updated_at": "2025-10-19T06:33:26.684313+00:00",
  "_kind": "geo_samples"
}