{
  "country_code": "PG",
  "country": "Papua New Guinea",
  "city": "Kimbe",
  "geonameid": 2093967,
  "target_addresses": 8,
  "samples": [
    {
      "lat": -5.577453676624357,
      "lon": 150.14319177681108,
      "geoinfo": {
        "display_name": "Kisere, Kimbe, Talasea District, West New Britain, Islands Region, Papua New Guinea",
        "road": null,
        "house_number": null,
        "neighbourhood": null,
        "suburb": "Kisere",
        "city_district": null,
        "city": "Kimbe",
        "state": "West New Britain",
        "postcode": null,
        "country": "Papua New Guinea",
        "country_code": "pg"
      },
      "address": "Kisere, Kimbe, West New Britain, Papua New Guinea"
    },
    {
      "lat": -5.543567782699503,
      "lon": 150.09738011155176,
      "geoinfo": {
        "display_name": "Tili Plantation, Kimbe, Talasea District, West New Britain, Islands Region, Papua New Guinea",
        "road": null,
        "house_number": null,
        "neighbourhood": null,
        "suburb": null,
        "city_district": null,
        "city": "Kimbe",
        "state": "West New Britain",
        "postcode": null,
        "country": "Papua New Guinea",
        "country_code": "pg"
      },
      "address": "Kimbe, West New Britain, Papua New Guinea"
    },
    {
      "lat": -5.531889740887191,
      "lon": 150.13007153342787,
      "geoinfo": {
        "display_name": "West New Britain Highway, Laleki Settlement, Wandoro, Kimbe, Talasea District, West New Britain, Islands Region, Papua New Guinea",
        "road": "West New Britain Highway",
        "house_number": null,
        "neighbourhood": "Laleki Settlement",
        "suburb": null,
        "city_district": null,
        "city": "Kimbe",
        "state": "West New Britain",
        "postcode": null,
        "country": "Papua New Guinea",
        "country_code": "pg"
      },
      "address": "West New Britain Highway, Kimbe, West New Britain, Papua New Guinea"
    },
    {
      "lat": -5.54746108707409,
      "lon": 150.1518703099525,
      "geoinfo": {
        "display_name": "Wharf Road, Kisere, Kimbe, Talasea District, West New Britain, Islands Region, Papua New Guinea",
        "road": "Wharf Road",
        "house_number": null,
        "neighbourhood": null,
        "suburb": "Kisere",
        "city_district": null,
        "city": "Kimbe",
        "state": "West New Britain",
        "postcode": null,
        "country": "Papua New Guinea",
        "country_code": "pg"
      },
      "address": "Wharf Road, Kimbe, West New Britain, Papua New Guinea"
    },
    {
      "lat": -5.54897720312266,
      "lon": 150.1283252491086,
      "geoinfo": {
        "display_name": "Laleki Settlement, Kimbe, Talasea District, West New Britain, Islands Region, Papua New Guinea",
        "road": null,
        "house_number": null,
        "neighbourhood": "Laleki Settlement",
        "suburb": null,
        "city_district": null,
        "city": "Kimbe",
        "state": "West New Britain",
        "postcode": null,
        "country": "Papua New Guinea",
        "country_code": "pg"
      },
      "address": "Laleki Settlement, Kimbe, West New Britain, Papua New Guinea"
    },
    {
      "lat": -5.546851379434841,
      "lon": 150.14281695502643,
      "geoinfo": {
        "display_name": "All Power Services Ltd., Sikai Street, Kisere, Kimbe, Talasea District, West New Britain, Islands Region, Papua New Guinea",
        "road": "Sikai Street",
        "house_number": null,
        "neighbourhood": null,
        "suburb": "Kisere",
        "city_district": null,
        "city": "Kimbe",
        "state": "West New Britain",
        "postcode": null,
        "country": "Papua New Guinea",
        "country_code": "pg"
      },
      "address": "Sikai Street, Kimbe, West New Britain, Papua New Guinea"
    },
    {
      "lat": -5.541127582356576,
      "lon": 150.12759871394866,
      "geoinfo": {
        "display_name": "Laleki Settlement, Kimbe, Talasea District, West New Britain, Islands Region, Papua New Guinea",
        "road": null,
        "house_number": null,
        "neighbourhood": "Laleki Settlement",
        "suburb": null,
        "city_district": null,
        "city": "Kimbe",
        "state": "West New Britain",
        "postcode": null,
        "country": "Papua New Guinea",
        "country_code": "pg"
      },
      "address": "836, Laleki Settlement, Kimbe, Talasea District, West New Britain, 89015 Islands Region, Papua New Guinea"
    },
    {
      "lat": -5.527245493263334,
      "lon": 150.10021804214543,
      "geoinfo": {
        "display_name": "West New Britain Highway, Laleki Settlement, Wandoro, Kimbe, Talasea District, West New Britain, Islands Region, Papua New Guinea",
        "road": "West New Britain Highway",
        "house_number": null,
        "neighbourhood": "Laleki Settlement",
        "suburb": null,
        "city_district": null,
        "city": "Kimbe",
        "state": "West New Britain",
        "postcode": null,
        "country": "Papua New Guinea",
        "country_code": "pg"
      },
      "address": "507, West New Britain Highway, Laleki Settlement, Wandoro, Kimbe, Talasea District, West New Britain, 49623 Islands Region, Papua New Guinea"
    },
    {
      "lat": -5.5848912608729115,
      "lon": 150.1094069078497,
      "geoinfo": {
        "display_name": "Kimbe, Talasea District, West New Britain, Islands Region, Papua New Guinea",
        "road": null,
        "house_number": null,
        "neighbourhood": null,
        "suburb": null,
        "city_district": null,
        "city": "Kimbe",
        "state": "West New Britain",
        "postcode": null,
        "country": "Papua New Guinea",
        "country_code": "pg"
      },
      "address": "965, Kimbe, Talasea District, West New Britain, 16103 Islands Region, Papua New Guinea"
    },
    {
      "lat": -5.534313115070703,
      "lon": 150.102879160757,
      "geoinfo": {
        "display_name": "West New Britain Highway, Laleki Settlement, Wandoro, Kimbe, Talasea District, West New Britain, Islands Region, Papua New Guinea",
        "road": "West New Britain Highway",
        "house_number": null,
        "neighbourhood": "Laleki Settlement",
        "suburb": null,
        "city_district": null,
        "city": "Kimbe",
        "state": "West New Britain",
        "postcode": null,
        "country": "Papua New Guinea",
        "country_code": "pg"
      },
      "address": "917, West New Britain Highway, Laleki Settlement, Wandoro, Kimbe, Talasea District, West New Britain, 13900 Islands Region, Papua New Guinea"
    },
    {
      "lat": -5.570166109302312,
      "lon": 150.15575348182801,
      "geoinfo": {
        "display_name": "Kisere, Kimbe, Talasea District, West New Britain, Islands Region, Papua New Guinea",
        "road": null,
        "house_number": null,
        "neighbourhood": null,
        "suburb": "Kisere",
        "city_district": null,
        "city": "Kimbe",
        "state": "West New Britain",
        "postcode": null,
        "country": "Papua New Guinea",
        "country_code": "pg"
      },
      "address": "212, Kisere, Kimbe, Talasea District, West New Britain, 26997 Islands Region, Papua New Guinea"
    },
    {
      "lat": -5.561249130374637,
      "lon": 150.15725127735502,
      "geoinfo": {
        "display_name": "First Street, Kisere, Kimbe, Talasea District, West New Britain, Islands Region, Papua New Guinea",
        "road": "First Street",
        "house_number": null,
        "neighbourhood": null,
        "suburb": "Kisere",
        "city_district": null,
        "city": "Kimbe",
        "state": "West New Britain",
        "postcode": null,
        "country": "Papua New Guinea",
        "country_code": "pg"
      },
      "address": "059, First Street, Kisere, Kimbe, Talasea District, West New Britain, 56920 Islands Region, Papua New Guinea"
    },
    {
      "lat": -5.538034212134973,
      "lon": 150.1072975716908,
      "geoinfo": {
        "display_name": "West New Britain Highway, Laleki Settlement, Wandoro, Kimbe, Talasea District, West New Britain, Islands Region, Papua New Guinea",
        "road": "West New Britain Highway",
        "house_number": null,
        "neighbourhood": "Laleki Settlement",
        "suburb": null,
        "city_district": null,
        "city": "Kimbe",
        "state": "West New Britain",
        "postcode": null,
        "country": "Papua New Guinea",
        "country_code": "pg"
      },
      "address": "075, West New Britain Highway, Laleki Settlement, Wandoro, Kimbe, Talasea District, West New Britain, 61107 Islands Region, Papua New Guinea"
    },
    {
      "lat": -5.540628374153034,
      "lon": 150.17430091575648,
      "geoinfo": {
        "display_name": "Ruango, Talasea District, West New Britain, Islands Region, Papua New Guinea",
        "road": null,
        "house_number": null,
        "neighbourhood": null,
        "suburb": null,
        "city_district": null,
        "city": "Ruango",
        "state": "West New Britain",
        "postcode": null,
        "country": "Papua New Guinea",
        "country_code": "pg"
      },
      "address": "531, Kimbe, 23373 West New Britain, Papua New Guinea"
    }
  ],
  "updated_at": "2025-10-19T09:00:55.262509+00:00",
  "_kind": "geo_samples"
}