{
  "country_code": "PG",
  "country": "Papua New Guinea",
  "city": "Port Moresby",
  "geonameid": 2088122,
  "target_addresses": 8,
  "samples": [
    {
      "lat": -9.461467641858508,
      "lon": 147.15095887459458,
      "geoinfo": {
        "display_name": "Nese, Port Moresby, National Capital District, Southern Region, 000, Papua New Guinea",
        "road": null,
        "house_number": null,
        "neighbourhood": null,
        "suburb": "Nese",
        "city_district": null,
        "city": "Port Moresby",
        "state": "National Capital District",
        "postcode": "000",
        "country": "Papua New Guinea",
        "country_code": "pg"
      },
      "address": "663, Nese, Port Moresby, National Capital District, Southern Region, 000, Papua New Guinea"
    },
    {
      "lat": -9.486125799495529,
      "lon": 147.16532726597762,
      "geoinfo": {
        "display_name": "Healy Parade, Koki Market Settlement, Koki, Port Moresby, National Capital District, Southern Region, 111, Papua New Guinea",
        "road": "Healy Parade",
        "house_number": null,
        "neighbourhood": "Koki Market Settlement",
        "suburb": "Koki",
        "city_district": null,
        "city": "Port Moresby",
        "state": "National Capital District",
        "postcode": "111",
        "country": "Papua New Guinea",
        "country_code": "pg"
      },
      "address": "678, Healy Parade, Koki Market Settlement, Koki, Port Moresby, National Capital District, Southern Region, 111, Papua New Guinea"
    },
    {
      "lat": -9.454523793882062,
      "lon": 147.13980035745772,
      "geoinfo": {
        "display_name": "Gabi, Port Moresby, National Capital District, Southern Region, 000, Papua New Guinea",
        "road": null,
        "house_number": null,
        "neighbourhood": null,
        "suburb": null,
        "city_district": null,
        "city": "Port Moresby",
        "state": "National Capital District",
        "postcode": "000",
        "country": "Papua New Guinea",
        "country_code": "pg"
      },
      "address": "918, Gabi, Port Moresby, National Capital District, Southern Region, 000, Papua New Guinea"
    },
    {
      "lat": -9.464342427927393,
      "lon": 147.13124727936483,
      "geoinfo": {
        "display_name": "Elevala, Port Moresby, National Capital District, Southern Region, 000, Papua New Guinea",
        "road": null,
        "house_number": null,
        "neighbourhood": null,
        "suburb": null,
        "city_district": null,
        "city": "Port Moresby",
        "state": "National Capital District",
        "postcode": "000",
        "country": "Papua New Guinea",
        "country_code": "pg"
      },
      "address": "482, Elevala, Port Moresby, National Capital District, Southern Region, 000, Papua New Guinea"
    },
    {
      "lat": -9.462057481041795,
      "lon": 147.12811167975366,
      "geoinfo": {
        "display_name": "Elevala, Port Moresby, National Capital District, Southern Region, 000, Papua New Guinea",
        "road": null,
        "house_number": null,
        "neighbourhood": null,
        "suburb": null,
        "city_district": null,
        "city": "Port Moresby",
        "state": "National Capital District",
        "postcode": "000",
        "country": "Papua New Guinea",
        "country_code": "pg"
      },
      "address": "536, Elevala, Port Moresby, National Capital District, Southern Region, 000, Papua New Guinea"
    },
    {
      "lat": -9.463601763013187,
      "lon": 147.19041911948,
      "geoinfo": {
        "display_name": "Four Mile, Port Moresby, National Capital District, Southern Region, 111, Papua New Guinea",
        "road": null,
        "house_number": null,
        "neighbourhood": null,
        "suburb": "Four Mile",
        "city_district": null,
        "city": "Port Moresby",
        "state": "National Capital District",
        "postcode": "111",
        "country": "Papua New Guinea",
        "country_code": "pg"
      },
      "address": "553, Four Mile, Port Moresby, National Capital District, Southern Region, 111, Papua New Guinea"
    },
    {
      "lat": -9.450031061651083,
      "lon": 147.18686781689178,
      "geoinfo": {
        "display_name": "Ahuia Street, Gordons, Port Moresby, National Capital District, Southern Region, 121, Papua New Guinea",
        "road": "Ahuia Street",
        "house_number": null,
        "neighbourhood": null,
        "suburb": "Gordons",
        "city_district": null,
        "city": "Port Moresby",
        "state": "National Capital District",
        "postcode": "121",
        "country": "Papua New Guinea",
        "country_code": "pg"
      },
      "address": "333, Ahuia Street, Gordons, Port Moresby, National Capital District, Southern Region, 121, Papua New Guinea"
    },
    {
      "lat": -9.461444869609268,
      "lon": 147.14091968097458,
      "geoinfo": {
        "display_name": "Elevala, Port Moresby, National Capital District, Southern Region, 000, Papua New Guinea",
        "road": null,
        "house_number": null,
        "neighbourhood": null,
        "suburb": null,
        "city_district": null,
        "city": "Port Moresby",
        "state": "National Capital District",
        "postcode": "000",
        "country": "Papua New Guinea",
        "country_code": "pg"
      },
      "address": "905, Elevala, Port Moresby, National Capital District, Southern Region, 000, Papua New Guinea"
    }
  ],
  "updated_at": "2025-10-19T05:31:54.754159+00:00",
  "_kind": "geo_samples"
}