{
  "country_code": "GR",
  "country": "Greece",
  "city": "Aígio",
  "geonameid": 265500,
  "target_addresses": 4,
  "samples": [
    {
      "lat": 38.28636904922092,
      "lon": 22.096887491134176,
      "geoinfo": {
        "display_name": "Σταφιδάλωνα, κ. Αιγίου, Municipal Unit of Aegio, Municipality of Aigialeia, Achaia Regional Unit, Western Greece, Peloponnese, Western Greece and the Ionian, Greece",
        "road": null,
        "house_number": null,
        "neighbourhood": null,
        "suburb": "Σταφιδάλωνα",
        "city_district": "κ. Αιγίου",
        "city": "Municipal Unit of Aegio",
        "state": "Peloponnese, Western Greece and the Ionian",
        "postcode": null,
        "country": "Greece",
        "country_code": "gr"
      },
      "address": "Σταφιδάλωνα, Aígio, Peloponnese, Western Greece and the Ionian, Greece"
    },
    {
      "lat": 38.26993337589112,
      "lon": 22.055434993012895,
      "geoinfo": {
        "display_name": "Ρήγα Φεραίου, κ. Ροδοδάφνης, Άβυθος, Municipal Unit of Sympolitia, Municipality of Aigialeia, Achaia Regional Unit, Western Greece, Peloponnese, Western Greece and the Ionian, 251 00, Greece",
        "road": "Ρήγα Φεραίου",
        "house_number": null,
        "neighbourhood": null,
        "suburb": "κ. Ροδοδάφνης",
        "city_district": null,
        "city": "Municipal Unit of Sympolitia",
        "state": "Peloponnese, Western Greece and the Ionian",
        "postcode": "251 00",
        "country": "Greece",
        "country_code": "gr"
      },
      "address": "Ρήγα Φεραίου, κ. Ροδοδάφνης, Άβυθος, Municipal Unit of Sympolitia, Municipality of Aigialeia, Achaia Regional Unit, Western Greece, Peloponnese, Western Greece and the Ionian, 251 00, Greece"
    },
    {
      "lat": 38.28751634085843,
      "lon": 22.108644026805756,
      "geoinfo": {
        "display_name": "Σταφιδάλωνα, κ. Αιγίου, Municipal Unit of Aegio, Municipality of Aigialeia, Achaia Regional Unit, Western Greece, Peloponnese, Western Greece and the Ionian, Greece",
        "road": null,
        "house_number": null,
        "neighbourhood": null,
        "suburb": "Σταφιδάλωνα",
        "city_district": "κ. Αιγίου",
        "city": "Municipal Unit of Aegio",
        "state": "Peloponnese, Western Greece and the Ionian",
        "postcode": null,
        "country": "Greece",
        "country_code": "gr"
      },
      "address": "325, Σταφιδάλωνα, κ. Αιγίου, Municipal Unit of Aegio, Municipality of Aigialeia, Achaia Regional Unit, Western Greece, Peloponnese, 60068 Western Greece and the Ionian, Greece"
    },
    {
      "lat": 38.27040285025391,
      "lon": 22.12907295359683,
      "geoinfo": {
        "display_name": "Diyeliotika, Municipal Unit of Aegio, Municipality of Aigialeia, Achaia Regional Unit, Western Greece, Peloponnese, Western Greece and the Ionian, 251 00, Greece",
        "road": null,
        "house_number": null,
        "neighbourhood": null,
        "suburb": null,
        "city_district": null,
        "city": "Municipal Unit of Aegio",
        "state": "Peloponnese, Western Greece and the Ionian",
        "postcode": "251 00",
        "country": "Greece",
        "country_code": "gr"
      },
      "address": "Diyeliotika, Municipal Unit of Aegio, Municipality of Aigialeia, Achaia Regional Unit, Western Greece, Peloponnese, Western Greece and the Ionian, 251 00, Greece"
    }
  ],
  "updated_at": "2025-10-19T04:38:04.077905+00:00",
  "_kind": "geo_samples"
}