{
  "country_code": "GR",
  "country": "Greece",
  "city": "Stavroúpoli",
  "geonameid": 734150,
  "target_addresses": 4,
  "samples": [
    {
      "lat": 40.671319756273974,
      "lon": 22.910842700894893,
      "geoinfo": {
        "display_name": "Αλκιβιάδου, Nea Politeia, Evosmos, Evosmos Community, Evosmos Municipal Unit, Kordelio - Evosmos Municipality, Thessaloniki Regional Unit, Central Macedonia, Macedonia and Thrace, 562 26, Greece",
        "road": "Αλκιβιάδου",
        "house_number": null,
        "neighbourhood": null,
        "suburb": "Evosmos",
        "city_district": "Evosmos Community",
        "city": "Evosmos Municipal Unit",
        "state": "Macedonia and Thrace",
        "postcode": "562 26",
        "country": "Greece",
        "country_code": "gr"
      },
      "address": "Αλκιβιάδου, Stavroúpoli, Macedonia and Thrace, Greece"
    },
    {
      "lat": 40.6886849115233,
      "lon": 22.905220847727062,
      "geoinfo": {
        "display_name": "Μαιάνδρου, Βιομηχανική Περιοχή Ευόσμου, Ano Evosmos, Evosmos Community, Evosmos Municipal Unit, Kordelio - Evosmos Municipality, Thessaloniki Regional Unit, Central Macedonia, Macedonia and Thrace, 56238, Greece",
        "road": "Μαιάνδρου",
        "house_number": null,
        "neighbourhood": "Βιομηχανική Περιοχή Ευόσμου",
        "suburb": "Ano Evosmos",
        "city_district": "Evosmos Community",
        "city": "Evosmos Municipal Unit",
        "state": "Macedonia and Thrace",
        "postcode": "56238",
        "country": "Greece",
        "country_code": "gr"
      },
      "address": "589, Μαιάνδρου, Βιομηχανική Περιοχή Ευόσμου, Ano Evosmos, Evosmos Community, Evosmos Municipal Unit, Kordelio - Evosmos Municipality, Thessaloniki Regional Unit, Central Macedonia, Macedonia and Thrace, 56238, Greece"
    },
    {
      "lat": 40.66284256279139,
      "lon": 22.893480183856596,
      "geoinfo": {
        "display_name": "Eleftheria, Διαλογή, Eleftherio - Kordelio Community, Eleftherio - Kordelio Municipal Unit, Kordelio - Evosmos Municipality, Thessaloniki Regional Unit, Central Macedonia, Macedonia and Thrace, 563 34, Greece",
        "road": null,
        "house_number": null,
        "neighbourhood": null,
        "suburb": null,
        "city_district": "Eleftherio - Kordelio Community",
        "city": "Eleftherio - Kordelio Municipal Unit",
        "state": "Macedonia and Thrace",
        "postcode": "563 34",
        "country": "Greece",
        "country_code": "gr"
      },
      "address": "Eleftheria, Διαλογή, Eleftherio - Kordelio Community, Eleftherio - Kordelio Municipal Unit, Kordelio - Evosmos Municipality, Thessaloniki Regional Unit, Central Macedonia, Macedonia and Thrace, 563 34, Greece"
    },
    {
      "lat": 40.66596133045971,
      "lon": 22.92778516457504,
      "geoinfo": {
        "display_name": "Σκρα, Evosmos, Evosmos Community, Evosmos Municipal Unit, Kordelio - Evosmos Municipality, Thessaloniki Regional Unit, Central Macedonia, Macedonia and Thrace, 562 25, Greece",
        "road": "Σκρα",
        "house_number": null,
        "neighbourhood": null,
        "suburb": "Evosmos",
        "city_district": "Evosmos Community",
        "city": "Evosmos Municipal Unit",
        "state": "Macedonia and Thrace",
        "postcode": "562 25",
        "country": "Greece",
        "country_code": "gr"
      },
      "address": "Σκρα, Evosmos, Evosmos Community, Evosmos Municipal Unit, Kordelio - Evosmos Municipality, Thessaloniki Regional Unit, Central Macedonia, Macedonia and Thrace, 562 25, Greece"
    }
  ],
  "updated_at": "2025-10-19T04:38:28.111182+00:00",
  "_kind": "geo_samples"
}