{
  "country_code": "GH",
  "country": "Ghana",
  "city": "Aburi",
  "geonameid": 2306119,
  "target_addresses": 2,
  "samples": [
    {
      "lat": 5.825564396376574,
      "lon": -0.14155624496717983,
      "geoinfo": {
        "display_name": "Aburi, Kpone-Katamanso Municipal District, Greater Accra Region, Ghana",
        "road": null,
        "house_number": null,
        "neighbourhood": null,
        "suburb": null,
        "city_district": null,
        "city": "Aburi",
        "state": "Greater Accra Region",
        "postcode": null,
        "country": "Ghana",
        "country_code": "gh"
      },
      "address": "Aburi, Greater Accra Region, Ghana"
    },
    {
      "lat": 5.839925304620054,
      "lon": -0.19546031086585033,
      "geoinfo": {
        "display_name": "Nkumkurom, Akuapim South District, Eastern Region, Ghana",
        "road": null,
        "house_number": null,
        "neighbourhood": null,
        "suburb": null,
        "city_district": null,
        "city": "Nkumkurom",
        "state": "Eastern Region",
        "postcode": null,
        "country": "Ghana",
        "country_code": "gh"
      },
      "address": "Aburi, Eastern Region, Ghana"
    },
    {
      "lat": 5.861585213088584,
      "lon": -0.16587117767607198,
      "geoinfo": {
        "display_name": "Ahwerase, Akuapim South District, Eastern Region, Ghana",
        "road": null,
        "house_number": null,
        "neighbourhood": null,
        "suburb": null,
        "city_district": null,
        "city": "Ahwerase",
        "state": "Eastern Region",
        "postcode": null,
        "country": "Ghana",
        "country_code": "gh"
      },
      "address": "855, Aburi, 32508 Eastern Region, Ghana"
    },
    {
      "lat": 5.8383159699066685,
      "lon": -0.21146827630612067,
      "geoinfo": {
        "display_name": "Kokoben, Nkumkurom, Akuapim South District, Eastern Region, Ghana",
        "road": null,
        "house_number": null,
        "neighbourhood": null,
        "suburb": null,
        "city_district": null,
        "city": "Nkumkurom",
        "state": "Eastern Region",
        "postcode": null,
        "country": "Ghana",
        "country_code": "gh"
      },
      "address": "326, Aburi, 93427 Eastern Region, Ghana"
    }
  ],
  "updated_at": "2025-10-19T04:24:26.117085+00:00",
  "_kind": "geo_samples"
}