{
  "country_code": "GH",
  "country": "Ghana",
  "city": "Accra",
  "geonameid": 2306104,
  "target_addresses": 2,
  "samples": [
    {
      "lat": 5.589744634888788,
      "lon": -0.19317524776148043,
      "geoinfo": {
        "display_name": "Baba Alhamdu Street, Ladidi, Maamobi, Accra, Ayawaso North Municipal District, Greater Accra Region, GA-254-4987, Ghana",
        "road": "Baba Alhamdu Street",
        "house_number": null,
        "neighbourhood": "Ladidi",
        "suburb": "Maamobi",
        "city_district": null,
        "city": "Accra",
        "state": "Greater Accra Region",
        "postcode": "GA-254-4987",
        "country": "Ghana",
        "country_code": "gh"
      },
      "address": "Baba Alhamdu Street, Accra, Greater Accra Region, Ghana"
    },
    {
      "lat": 5.562257206857549,
      "lon": -0.24091740881379609,
      "geoinfo": {
        "display_name": "Mataheko, Accra, Ablekuma Central Municipal District, Greater Accra Region, Ghana",
        "road": null,
        "house_number": null,
        "neighbourhood": null,
        "suburb": "Mataheko",
        "city_district": null,
        "city": "Accra",
        "state": "Greater Accra Region",
        "postcode": null,
        "country": "Ghana",
        "country_code": "gh"
      },
      "address": "Mataheko, Accra, Greater Accra Region, Ghana"
    },
    {
      "lat": 5.537656664793955,
      "lon": -0.20853950422782902,
      "geoinfo": {
        "display_name": "Nii Takie Tawfah Street, Bukom, James Town, Accra, Accra Metropolitan District, Greater Accra Region, Ghana",
        "road": "Nii Takie Tawfah Street",
        "house_number": null,
        "neighbourhood": null,
        "suburb": "Bukom",
        "city_district": null,
        "city": "Accra",
        "state": "Greater Accra Region",
        "postcode": null,
        "country": "Ghana",
        "country_code": "gh"
      },
      "address": "271, Nii Takie Tawfah Street, Bukom, James Town, Accra, Accra Metropolitan District, 45348 Greater Accra Region, Ghana"
    },
    {
      "lat": 5.568793200064095,
      "lon": -0.17317946548259236,
      "geoinfo": {
        "display_name": "Orphan Crescent, Labone, La, Accra, La-Dade-Kotopon Municipal District, Greater Accra Region, Ghana",
        "road": "Orphan Crescent",
        "house_number": null,
        "neighbourhood": null,
        "suburb": "Labone",
        "city_district": null,
        "city": "Accra",
        "state": "Greater Accra Region",
        "postcode": null,
        "country": "Ghana",
        "country_code": "gh"
      },
      "address": "484, Orphan Crescent, Labone, La, Accra, La-Dade-Kotopon Municipal District, 57855 Greater Accra Region, Ghana"
    }
  ],
  "updated_at": "2025-10-19T02:47:31.602613+00:00",
  "_kind": "geo_samples"
}