{
  "country_code": "GH",
  "country": "Ghana",
  "city": "Bibiani",
  "geonameid": 2303060,
  "target_addresses": 6,
  "samples": [
    {
      "lat": 6.48041705761736,
      "lon": -2.3338568487617217,
      "geoinfo": {
        "display_name": "Bibiani, Bibiani Anhwiaso Bekwai Municipal District, Western North Region, Ghana",
        "road": null,
        "house_number": null,
        "neighbourhood": null,
        "suburb": null,
        "city_district": null,
        "city": "Bibiani",
        "state": "Western North Region",
        "postcode": null,
        "country": "Ghana",
        "country_code": "gh"
      },
      "address": "Bibiani, Western North Region, Ghana"
    },
    {
      "lat": 6.462655317768524,
      "lon": -2.2930595464815764,
      "geoinfo": {
        "display_name": "Bibiani - Nyinahin - Kumasi Road, Yaw Barimakrom, Agogoso, Bibiani Anhwiaso Bekwai Municipal District, Western North Region, Ghana",
        "road": "Bibiani - Nyinahin - Kumasi Road",
        "house_number": null,
        "neighbourhood": null,
        "suburb": null,
        "city_district": null,
        "city": "Agogoso",
        "state": "Western North Region",
        "postcode": null,
        "country": "Ghana",
        "country_code": "gh"
      },
      "address": "Bibiani - Nyinahin - Kumasi Road, Bibiani, Western North Region, Ghana"
    },
    {
      "lat": 6.470338460500551,
      "lon": -2.2935330817985804,
      "geoinfo": {
        "display_name": "Gold Mine Road, Bibiani, Bibiani Anhwiaso Bekwai Municipal District, Western North Region, Ghana",
        "road": "Gold Mine Road",
        "house_number": null,
        "neighbourhood": null,
        "suburb": null,
        "city_district": null,
        "city": "Bibiani",
        "state": "Western North Region",
        "postcode": null,
        "country": "Ghana",
        "country_code": "gh"
      },
      "address": "880, Gold Mine Road, Bibiani, Bibiani Anhwiaso Bekwai Municipal District, 08470 Western North Region, Ghana"
    },
    {
      "lat": 6.488778497236435,
      "lon": -2.317917252107306,
      "geoinfo": {
        "display_name": "Atwima-Mponua District, Ashanti Region, Ghana",
        "road": null,
        "house_number": null,
        "neighbourhood": null,
        "suburb": null,
        "city_district": null,
        "city": null,
        "state": "Ashanti Region",
        "postcode": null,
        "country": "Ghana",
        "country_code": "gh"
      },
      "address": "041, Bibiani, 28703 Ashanti Region, Ghana"
    },
    {
      "lat": 6.452539526994916,
      "lon": -2.3252149250670704,
      "geoinfo": {
        "display_name": "Bibiani, Bibiani Anhwiaso Bekwai Municipal District, Western North Region, Ghana",
        "road": null,
        "house_number": null,
        "neighbourhood": null,
        "suburb": null,
        "city_district": null,
        "city": "Bibiani",
        "state": "Western North Region",
        "postcode": null,
        "country": "Ghana",
        "country_code": "gh"
      },
      "address": "002, Bibiani, Bibiani Anhwiaso Bekwai Municipal District, 47302 Western North Region, Ghana"
    },
    {
      "lat": 6.429314937146832,
      "lon": -2.3439785931167836,
      "geoinfo": {
        "display_name": "Bibiani, Bibiani Anhwiaso Bekwai Municipal District, Western North Region, Ghana",
        "road": null,
        "house_number": null,
        "neighbourhood": null,
        "suburb": null,
        "city_district": null,
        "city": "Bibiani",
        "state": "Western North Region",
        "postcode": null,
        "country": "Ghana",
        "country_code": "gh"
      },
      "address": "079, Bibiani, Bibiani Anhwiaso Bekwai Municipal District, 67506 Western North Region, Ghana"
    }
  ],
  "updated_at": "2025-10-19T04:34:54.806525+00:00",
  "_kind": "geo_samples"
}