{
  "country_code": "GH",
  "country": "Ghana",
  "city": "Dunkwa",
  "geonameid": 2301400,
  "target_addresses": 5,
  "samples": [
    {
      "lat": 5.957191773245546,
      "lon": -1.7539687019781012,
      "geoinfo": {
        "display_name": "Twifo Praso-Dunkwa Road, Badoa No.1, Upper Denkyira East Municipal District, Central Region, Ghana",
        "road": "Twifo Praso-Dunkwa Road",
        "house_number": null,
        "neighbourhood": null,
        "suburb": null,
        "city_district": null,
        "city": "Badoa No.1",
        "state": "Central Region",
        "postcode": null,
        "country": "Ghana",
        "country_code": "gh"
      },
      "address": "Twifo Praso-Dunkwa Road, Dunkwa, Central Region, Ghana"
    },
    {
      "lat": 5.946950599347291,
      "lon": -1.7445021488867478,
      "geoinfo": {
        "display_name": "Buabinso, Upper Denkyira East Municipal District, Central Region, Ghana",
        "road": null,
        "house_number": null,
        "neighbourhood": null,
        "suburb": null,
        "city_district": null,
        "city": "Buabinso",
        "state": "Central Region",
        "postcode": null,
        "country": "Ghana",
        "country_code": "gh"
      },
      "address": "Dunkwa, Central Region, Ghana"
    },
    {
      "lat": 5.963548841136001,
      "lon": -1.7762627222859875,
      "geoinfo": {
        "display_name": "Dunkwa-on-Offin, Upper Denkyira East Municipal District, Central Region, Ghana",
        "road": null,
        "house_number": null,
        "neighbourhood": null,
        "suburb": null,
        "city_district": null,
        "city": "Dunkwa-on-Offin",
        "state": "Central Region",
        "postcode": null,
        "country": "Ghana",
        "country_code": "gh"
      },
      "address": "145, Dunkwa, 95844 Central Region, Ghana"
    },
    {
      "lat": 5.995240429313253,
      "lon": -1.7765988988413415,
      "geoinfo": {
        "display_name": "Akrofuom District, Ashanti Region, Ghana",
        "road": null,
        "house_number": null,
        "neighbourhood": null,
        "suburb": null,
        "city_district": null,
        "city": null,
        "state": "Ashanti Region",
        "postcode": null,
        "country": "Ghana",
        "country_code": "gh"
      },
      "address": "191, Dunkwa, 08908 Ashanti Region, Ghana"
    },
    {
      "lat": 5.9495492773254774,
      "lon": -1.7379672806775124,
      "geoinfo": {
        "display_name": "Buabinso, Upper Denkyira East Municipal District, Central Region, Ghana",
        "road": null,
        "house_number": null,
        "neighbourhood": null,
        "suburb": null,
        "city_district": null,
        "city": "Buabinso",
        "state": "Central Region",
        "postcode": null,
        "country": "Ghana",
        "country_code": "gh"
      },
      "address": "159, Dunkwa, 02017 Central Region, Ghana"
    },
    {
      "lat": 5.944729851560413,
      "lon": -1.7683896622877795,
      "geoinfo": {
        "display_name": "Mmradan, Upper Denkyira East Municipal District, Central Region, Ghana",
        "road": null,
        "house_number": null,
        "neighbourhood": null,
        "suburb": null,
        "city_district": null,
        "city": "Mmradan",
        "state": "Central Region",
        "postcode": null,
        "country": "Ghana",
        "country_code": "gh"
      },
      "address": "945, Dunkwa, 44063 Central Region, Ghana"
    }
  ],
  "updated_at": "2025-10-19T04:34:46.693789+00:00",
  "_kind": "geo_samples"
}