{
  "country_code": "GH",
  "country": "Ghana",
  "city": "Goaso",
  "geonameid": 2300749,
  "target_addresses": 2,
  "samples": [
    {
      "lat": 6.815588974732659,
      "lon": -2.551107790926515,
      "geoinfo": {
        "display_name": "Asuadee, Asunafo North Municipal District, Ahafo Region, BU-0003-8544, Ghana",
        "road": null,
        "house_number": null,
        "neighbourhood": null,
        "suburb": null,
        "city_district": null,
        "city": "Asuadee",
        "state": "Ahafo Region",
        "postcode": "BU-0003-8544",
        "country": "Ghana",
        "country_code": "gh"
      },
      "address": "Goaso, Ahafo Region, Ghana"
    },
    {
      "lat": 6.796346775277264,
      "lon": -2.50970537585941,
      "geoinfo": {
        "display_name": "Agape Evangelical Church, C.A.C Avenue, Green View, Goaso, Asunafo North Municipal District, Ahafo Region, BU-0003-8544, Ghana",
        "road": "C.A.C Avenue",
        "house_number": null,
        "neighbourhood": null,
        "suburb": "Green View",
        "city_district": null,
        "city": "Goaso",
        "state": "Ahafo Region",
        "postcode": "BU-0003-8544",
        "country": "Ghana",
        "country_code": "gh"
      },
      "address": "C.A.C Avenue, Goaso, Ahafo Region, Ghana"
    },
    {
      "lat": 6.823503244429906,
      "lon": -2.5202690694303485,
      "geoinfo": {
        "display_name": "Goaso, Asutifi South District, Ahafo Region, BU-0003-8544, Ghana",
        "road": null,
        "house_number": null,
        "neighbourhood": null,
        "suburb": null,
        "city_district": null,
        "city": "Goaso",
        "state": "Ahafo Region",
        "postcode": "BU-0003-8544",
        "country": "Ghana",
        "country_code": "gh"
      },
      "address": "Goaso, Asutifi South District, Ahafo Region, BU-0003-8544, Ghana"
    },
    {
      "lat": 6.841526706243451,
      "lon": -2.5132923591885414,
      "geoinfo": {
        "display_name": "Tettehkrom, Asutifi South District, Ahafo Region, BU-0003-8544, Ghana",
        "road": null,
        "house_number": null,
        "neighbourhood": null,
        "suburb": null,
        "city_district": null,
        "city": "Tettehkrom",
        "state": "Ahafo Region",
        "postcode": "BU-0003-8544",
        "country": "Ghana",
        "country_code": "gh"
      },
      "address": "120, Goaso, BU-0003-8544 Ahafo Region, Ghana"
    }
  ],
  "updated_at": "2025-10-19T04:23:36.669403+00:00",
  "_kind": "geo_samples"
}