{
  "country_code": "GH",
  "country": "Ghana",
  "city": "Kumasi",
  "geonameid": 2298890,
  "target_addresses": 6,
  "samples": [
    {
      "lat": 6.6681818816210106,
      "lon": -1.6339893846393203,
      "geoinfo": {
        "display_name": "Atta Poku Street, Dakodwom, Kumasi, Kumasi Metropolitan District, Ashanti Region, Ghana",
        "road": "Atta Poku Street",
        "house_number": null,
        "neighbourhood": null,
        "suburb": "Dakodwom",
        "city_district": null,
        "city": "Kumasi",
        "state": "Ashanti Region",
        "postcode": null,
        "country": "Ghana",
        "country_code": "gh"
      },
      "address": "Atta Poku Street, Kumasi, Ashanti Region, Ghana"
    },
    {
      "lat": 6.68740375751421,
      "lon": -1.6521152550743026,
      "geoinfo": {
        "display_name": "Kwadaso Estate, Edwenase, Kwadaso Municipal District, Ashanti Region, Ghana",
        "road": null,
        "house_number": null,
        "neighbourhood": "Kwadaso Estate",
        "suburb": "Edwenase",
        "city_district": null,
        "city": null,
        "state": "Ashanti Region",
        "postcode": null,
        "country": "Ghana",
        "country_code": "gh"
      },
      "address": "Kwadaso Estate, Kumasi, Ashanti Region, Ghana"
    },
    {
      "lat": 6.6554519738925935,
      "lon": -1.630196994600224,
      "geoinfo": {
        "display_name": "Adiembra, Kumasi, Kumasi Metropolitan District, Ashanti Region, Ghana",
        "road": null,
        "house_number": null,
        "neighbourhood": null,
        "suburb": "Adiembra",
        "city_district": null,
        "city": "Kumasi",
        "state": "Ashanti Region",
        "postcode": null,
        "country": "Ghana",
        "country_code": "gh"
      },
      "address": "135, Adiembra, Kumasi, Kumasi Metropolitan District, 00821 Ashanti Region, Ghana"
    },
    {
      "lat": 6.718455060988048,
      "lon": -1.6121692807691164,
      "geoinfo": {
        "display_name": "Tafo, Old Tafo Municipal District, Ashanti Region, Ghana",
        "road": null,
        "house_number": null,
        "neighbourhood": null,
        "suburb": "Tafo",
        "city_district": null,
        "city": null,
        "state": "Ashanti Region",
        "postcode": null,
        "country": "Ghana",
        "country_code": "gh"
      },
      "address": "909, Tafo, Old Tafo Municipal District, 88755 Ashanti Region, Ghana"
    },
    {
      "lat": 6.705350485068285,
      "lon": -1.6196468155340669,
      "geoinfo": {
        "display_name": "Ashtown, Kumasi, Kumasi Metropolitan District, Ashanti Region, Ghana",
        "road": null,
        "house_number": null,
        "neighbourhood": null,
        "suburb": "Ashtown",
        "city_district": null,
        "city": "Kumasi",
        "state": "Ashanti Region",
        "postcode": null,
        "country": "Ghana",
        "country_code": "gh"
      },
      "address": "228, Ashtown, Kumasi, Kumasi Metropolitan District, 82146 Ashanti Region, Ghana"
    },
    {
      "lat": 6.678777572449809,
      "lon": -1.5972620685924557,
      "geoinfo": {
        "display_name": "Asokwa, Asokwa Municipal District, Ashanti Region, Ghana",
        "road": null,
        "house_number": null,
        "neighbourhood": null,
        "suburb": "Asokwa",
        "city_district": null,
        "city": null,
        "state": "Ashanti Region",
        "postcode": null,
        "country": "Ghana",
        "country_code": "gh"
      },
      "address": "398, Asokwa, Kumasi, 25391 Ashanti Region, Ghana"
    }
  ],
  "updated_at": "2025-10-19T04:34:30.599797+00:00",
  "_kind": "geo_samples"
}