{
  "country_code": "GH",
  "country": "Ghana",
  "city": "Nsoatre",
  "geonameid": 2297126,
  "target_addresses": 2,
  "samples": [
    {
      "lat": 7.417877397105029,
      "lon": -2.474625279396135,
      "geoinfo": {
        "display_name": "Sacred Heart Senior High School, Sunyani, Nsoatre, Sunyani West District, Bono Region, Ghana",
        "road": null,
        "house_number": null,
        "neighbourhood": null,
        "suburb": null,
        "city_district": null,
        "city": "Sunyani",
        "state": "Bono Region",
        "postcode": null,
        "country": "Ghana",
        "country_code": "gh"
      },
      "address": "Nsoatre, Bono Region, Ghana"
    },
    {
      "lat": 7.381470918858395,
      "lon": -2.440382375328634,
      "geoinfo": {
        "display_name": "Twumasikrom, Sunyani West District, Bono Region, Ghana",
        "road": null,
        "house_number": null,
        "neighbourhood": null,
        "suburb": null,
        "city_district": null,
        "city": "Twumasikrom",
        "state": "Bono Region",
        "postcode": null,
        "country": "Ghana",
        "country_code": "gh"
      },
      "address": "719, Twumasikrom, Sunyani West District, 77681 Bono Region, Ghana"
    },
    {
      "lat": 7.44187531837069,
      "lon": -2.4783685257522325,
      "geoinfo": {
        "display_name": "Nsoatre Amanfoso, Sunyani West District, Bono Region, Ghana",
        "road": null,
        "house_number": null,
        "neighbourhood": null,
        "suburb": null,
        "city_district": null,
        "city": "Nsoatre Amanfoso",
        "state": "Bono Region",
        "postcode": null,
        "country": "Ghana",
        "country_code": "gh"
      },
      "address": "145, Nsoatre Amanfoso, Sunyani West District, 22731 Bono Region, Ghana"
    }
  ],
  "updated_at": "2025-10-19T04:25:33.284154+00:00",
  "_kind": "geo_samples"
}