{
  "country_code": "GH",
  "country": "Ghana",
  "city": "Tema New Town",
  "geonameid": 11205476,
  "target_addresses": 2,
  "samples": [
    {
      "lat": 5.6857968722724745,
      "lon": 0.014541571237432136,
      "geoinfo": {
        "display_name": "Heavy Industrial Area, Kpone-Katamanso Municipal District, Greater Accra Region, Ghana",
        "road": null,
        "house_number": null,
        "neighbourhood": null,
        "suburb": null,
        "city_district": null,
        "city": null,
        "state": "Greater Accra Region",
        "postcode": null,
        "country": "Ghana",
        "country_code": "gh"
      },
      "address": "Tema New Town, Greater Accra Region, Ghana"
    },
    {
      "lat": 5.66804354413543,
      "lon": -0.006210819275922291,
      "geoinfo": {
        "display_name": "Tema Technical Institute, Harbour Road, Community 8, Tema, Tema Metropolitan District, Greater Accra Region, Ghana",
        "road": "Harbour Road",
        "house_number": null,
        "neighbourhood": null,
        "suburb": "Community 8",
        "city_district": null,
        "city": "Tema",
        "state": "Greater Accra Region",
        "postcode": null,
        "country": "Ghana",
        "country_code": "gh"
      },
      "address": "Harbour Road, Tema New Town, Greater Accra Region, Ghana"
    },
    {
      "lat": 5.643548450956854,
      "lon": 0.031100934876699925,
      "geoinfo": {
        "display_name": "1st Street, Ayigbe Town, Tema Newtown, Tema, Tema Metropolitan District, Greater Accra Region, Ghana",
        "road": "1st Street",
        "house_number": null,
        "neighbourhood": "Ayigbe Town",
        "suburb": "Tema Newtown",
        "city_district": null,
        "city": "Tema",
        "state": "Greater Accra Region",
        "postcode": null,
        "country": "Ghana",
        "country_code": "gh"
      },
      "address": "1st Street, Ayigbe Town, Tema Newtown, Tema, Tema Metropolitan District, 22728 Greater Accra Region, Ghana"
    },
    {
      "lat": 5.623948657518025,
      "lon": 0.02382087472120756,
      "geoinfo": {
        "display_name": "Ports & Harbour, Tema, Tema Metropolitan District, Greater Accra Region, Ghana",
        "road": null,
        "house_number": null,
        "neighbourhood": null,
        "suburb": "Ports & Harbour",
        "city_district": null,
        "city": "Tema",
        "state": "Greater Accra Region",
        "postcode": null,
        "country": "Ghana",
        "country_code": "gh"
      },
      "address": "585, Ports & Harbour, Tema, Tema Metropolitan District, 52299 Greater Accra Region, Ghana"
    }
  ],
  "updated_at": "2025-10-19T04:26:37.320626+00:00",
  "_kind": "geo_samples"
}