{
  "country_code": "GH",
  "country": "Ghana",
  "city": "Wa",
  "geonameid": 2294206,
  "target_addresses": 2,
  "samples": [
    {
      "lat": 10.029741709822849,
      "lon": -2.5113989635920078,
      "geoinfo": {
        "display_name": "Wa, Wa Municipal District, Upper West Region, Ghana",
        "road": null,
        "house_number": null,
        "neighbourhood": null,
        "suburb": null,
        "city_district": null,
        "city": "Wa",
        "state": "Upper West Region",
        "postcode": null,
        "country": "Ghana",
        "country_code": "gh"
      },
      "address": "Wa, Upper West Region, Ghana"
    },
    {
      "lat": 10.070107433830877,
      "lon": -2.4918156306412467,
      "geoinfo": {
        "display_name": "Wa -Tumu Road, Zongo, Kperisi, Wa Municipal District, Upper West Region, Ghana",
        "road": "Wa -Tumu Road",
        "house_number": null,
        "neighbourhood": null,
        "suburb": "Zongo",
        "city_district": null,
        "city": "Kperisi",
        "state": "Upper West Region",
        "postcode": null,
        "country": "Ghana",
        "country_code": "gh"
      },
      "address": "Wa -Tumu Road, Wa, Upper West Region, Ghana"
    },
    {
      "lat": 10.06179521047489,
      "lon": -2.510931623807564,
      "geoinfo": {
        "display_name": "Zongo, Wa, Wa Municipal District, Upper West Region, Ghana",
        "road": null,
        "house_number": null,
        "neighbourhood": null,
        "suburb": "Zongo",
        "city_district": null,
        "city": "Wa",
        "state": "Upper West Region",
        "postcode": null,
        "country": "Ghana",
        "country_code": "gh"
      },
      "address": "319, Zongo, Wa, Wa Municipal District, 70882 Upper West Region, Ghana"
    },
    {
      "lat": 10.036502228158314,
      "lon": -2.5121066959559704,
      "geoinfo": {
        "display_name": "Kpaguri, Wa, Wa Municipal District, Upper West Region, Ghana",
        "road": null,
        "house_number": null,
        "neighbourhood": null,
        "suburb": "Kpaguri",
        "city_district": null,
        "city": "Wa",
        "state": "Upper West Region",
        "postcode": null,
        "country": "Ghana",
        "country_code": "gh"
      },
      "address": "744, Kpaguri, Wa, Wa Municipal District, 73847 Upper West Region, Ghana"
    }
  ],
  "updated_at": "2025-10-19T04:25:07.830380+00:00",
  "_kind": "geo_samples"
}