{
  "country_code": "GH",
  "country": "Ghana",
  "city": "Winneba",
  "geonameid": 2294034,
  "target_addresses": 2,
  "samples": [
    {
      "lat": 5.35970333292437,
      "lon": -0.5880234848945644,
      "geoinfo": {
        "display_name": "Nsuakyire, Effutu Municipal District, Central Region, Ghana",
        "road": null,
        "house_number": null,
        "neighbourhood": null,
        "suburb": null,
        "city_district": null,
        "city": "Nsuakyire",
        "state": "Central Region",
        "postcode": null,
        "country": "Ghana",
        "country_code": "gh"
      },
      "address": "Winneba, Central Region, Ghana"
    },
    {
      "lat": 5.3652437462101235,
      "lon": -0.5972398076138085,
      "geoinfo": {
        "display_name": "Nsuakyire - Winneba Road, Sankor, Winneba, Effutu Municipal District, Central Region, Ghana",
        "road": "Nsuakyire - Winneba Road",
        "house_number": null,
        "neighbourhood": null,
        "suburb": "Sankor",
        "city_district": null,
        "city": "Winneba",
        "state": "Central Region",
        "postcode": null,
        "country": "Ghana",
        "country_code": "gh"
      },
      "address": "Nsuakyire - Winneba Road, Winneba, Central Region, Ghana"
    },
    {
      "lat": 5.363465830701703,
      "lon": -0.6524825739821881,
      "geoinfo": {
        "display_name": "Effutu Municipal District, Central Region, Ghana",
        "road": null,
        "house_number": null,
        "neighbourhood": null,
        "suburb": null,
        "city_district": null,
        "city": null,
        "state": "Central Region",
        "postcode": null,
        "country": "Ghana",
        "country_code": "gh"
      },
      "address": "381, Winneba, 11777 Central Region, Ghana"
    },
    {
      "lat": 5.3880686226290155,
      "lon": -0.648416576227651,
      "geoinfo": {
        "display_name": "Ansaful, Gomoa East District, Central Region, Ghana",
        "road": null,
        "house_number": null,
        "neighbourhood": null,
        "suburb": null,
        "city_district": null,
        "city": "Ansaful",
        "state": "Central Region",
        "postcode": null,
        "country": "Ghana",
        "country_code": "gh"
      },
      "address": "186, Winneba, 10003 Central Region, Ghana"
    }
  ],
  "updated_at": "2025-10-19T02:46:24.710984+00:00",
  "_kind": "geo_samples"
}