{
  "country_code": "HT",
  "country": "Haiti",
  "city": "Carrefour",
  "geonameid": 3728338,
  "target_addresses": 4,
  "samples": [
    {
      "lat": 18.54281482336459,
      "lon": -72.41287748808553,
      "geoinfo": {
        "display_name": "Ruelle Cannes-à-Sucre, Nan Coucou, 3e Taïfer, Kafou, Port-au-Prince Arrondissement, West, 6135, Haiti",
        "road": "Ruelle Cannes-à-Sucre",
        "house_number": null,
        "neighbourhood": null,
        "suburb": "Nan Coucou",
        "city_district": "Kafou",
        "city": "Port-au-Prince Arrondissement",
        "state": "West",
        "postcode": "6135",
        "country": "Haiti",
        "country_code": "ht"
      },
      "address": "Ruelle Cannes-à-Sucre, Carrefour, West, Haiti"
    },
    {
      "lat": 18.52319360680788,
      "lon": -72.43113523275495,
      "geoinfo": {
        "display_name": "Clocher, 3e Taïfer, Kafou, Port-au-Prince Arrondissement, West, 6135, Haiti",
        "road": null,
        "house_number": null,
        "neighbourhood": null,
        "suburb": "Clocher",
        "city_district": "Kafou",
        "city": "Port-au-Prince Arrondissement",
        "state": "West",
        "postcode": "6135",
        "country": "Haiti",
        "country_code": "ht"
      },
      "address": "Clocher, Carrefour, West, Haiti"
    },
    {
      "lat": 18.55686514373544,
      "lon": -72.43253001738874,
      "geoinfo": {
        "display_name": "Mariani, 3e Taïfer, Kafou, Port-au-Prince Arrondissement, West, 6135, Haiti",
        "road": null,
        "house_number": null,
        "neighbourhood": null,
        "suburb": "Mariani",
        "city_district": "Kafou",
        "city": "Port-au-Prince Arrondissement",
        "state": "West",
        "postcode": "6135",
        "country": "Haiti",
        "country_code": "ht"
      },
      "address": "Mariani, Carrefour, West, Haiti"
    },
    {
      "lat": 18.52031954238554,
      "lon": -72.37528448185073,
      "geoinfo": {
        "display_name": "Cité Charité 2, 1re Morne-Chandelle, Kafou, Port-au-Prince Arrondissement, West, 6132, Haiti",
        "road": null,
        "house_number": null,
        "neighbourhood": null,
        "suburb": "1re Morne-Chandelle",
        "city_district": "Kafou",
        "city": "Port-au-Prince Arrondissement",
        "state": "West",
        "postcode": "6132",
        "country": "Haiti",
        "country_code": "ht"
      },
      "address": "1re Morne-Chandelle, Carrefour, West, Haiti"
    },
    {
      "lat": 18.545589961212524,
      "lon": -72.44480938200002,
      "geoinfo": {
        "display_name": "Route Nationale # 2, 3e Taïfer, Kafou, Port-au-Prince Arrondissement, West, 6160, Haiti",
        "road": "Route Nationale # 2",
        "house_number": null,
        "neighbourhood": null,
        "suburb": "3e Taïfer",
        "city_district": "Kafou",
        "city": "Port-au-Prince Arrondissement",
        "state": "West",
        "postcode": "6160",
        "country": "Haiti",
        "country_code": "ht"
      },
      "address": "Route Nationale # 2, 3e Taïfer, Kafou, Port-au-Prince Arrondissement, West, 6160, Haiti"
    },
    {
      "lat": 18.528435224181706,
      "lon": -72.40249243447305,
      "geoinfo": {
        "display_name": "Impasse de Termont, Mahothière, 2e Platon Dufréné, Kafou, Port-au-Prince Arrondissement, West, 6135, Haiti",
        "road": "Impasse de Termont",
        "house_number": null,
        "neighbourhood": null,
        "suburb": "Mahothière",
        "city_district": "Kafou",
        "city": "Port-au-Prince Arrondissement",
        "state": "West",
        "postcode": "6135",
        "country": "Haiti",
        "country_code": "ht"
      },
      "address": "Impasse de Termont, Mahothière, 2e Platon Dufréné, Kafou, Port-au-Prince Arrondissement, West, 6135, Haiti"
    },
    {
      "lat": 18.51555040240352,
      "lon": -72.43364641010893,
      "geoinfo": {
        "display_name": "Dufour, 3e Taïfer, Kafou, Port-au-Prince Arrondissement, West, 6135, Haiti",
        "road": null,
        "house_number": null,
        "neighbourhood": null,
        "suburb": "Dufour",
        "city_district": "Kafou",
        "city": "Port-au-Prince Arrondissement",
        "state": "West",
        "postcode": "6135",
        "country": "Haiti",
        "country_code": "ht"
      },
      "address": "Dufour, 3e Taïfer, Kafou, Port-au-Prince Arrondissement, West, 6135, Haiti"
    },
    {
      "lat": 18.53555613407706,
      "lon": -72.44353755746373,
      "geoinfo": {
        "display_name": "Rue Malcolm, Mariani, 3e Taïfer, Kafou, Port-au-Prince Arrondissement, West, 6160, Haiti",
        "road": "Rue Malcolm",
        "house_number": null,
        "neighbourhood": null,
        "suburb": "Mariani",
        "city_district": "Kafou",
        "city": "Port-au-Prince Arrondissement",
        "state": "West",
        "postcode": "6160",
        "country": "Haiti",
        "country_code": "ht"
      },
      "address": "Rue Malcolm, Mariani, 3e Taïfer, Kafou, Port-au-Prince Arrondissement, West, 6160, Haiti"
    }
  ],
  "updated_at": "2025-10-19T04:18:41.673834+00:00",
  "_kind": "geo_samples"
}