{
  "country_code": "HT",
  "country": "Haiti",
  "city": "Delmas",
  "geonameid": 3726786,
  "target_addresses": 4,
  "samples": [
    {
      "lat": 18.569738254059605,
      "lon": -72.336258680222,
      "geoinfo": {
        "display_name": "Boulevard des Américains, Boston, 1re Varreux, Commune Cité Soleil, Port-au-Prince Arrondissement, West, 6130, Haiti",
        "road": "Boulevard des Américains",
        "house_number": null,
        "neighbourhood": null,
        "suburb": "1re Varreux",
        "city_district": "Commune Cité Soleil",
        "city": "Port-au-Prince Arrondissement",
        "state": "West",
        "postcode": "6130",
        "country": "Haiti",
        "country_code": "ht"
      },
      "address": "Boulevard des Américains, Delmas, West, Haiti"
    },
    {
      "lat": 18.57051846158783,
      "lon": -72.29644838943489,
      "geoinfo": {
        "display_name": "Rue Mitchelson Marcelo, Gérald Bataille, 1re Saint-Martin, Delmas, Ouest, Port-au-Prince Arrondissement, West, 6123, Haiti",
        "road": "Rue Mitchelson Marcelo",
        "house_number": null,
        "neighbourhood": null,
        "suburb": "Gérald Bataille",
        "city_district": null,
        "city": "Delmas, Ouest",
        "state": "West",
        "postcode": "6123",
        "country": "Haiti",
        "country_code": "ht"
      },
      "address": "Rue Mitchelson Marcelo, Delmas, West, Haiti"
    },
    {
      "lat": 18.538676556102384,
      "lon": -72.30212921741773,
      "geoinfo": {
        "display_name": "Rue Laurier, 6e Turgeau, Pòtoprens, Port-au-Prince Arrondissement, West, 6120, Haiti",
        "road": "Rue Laurier",
        "house_number": null,
        "neighbourhood": null,
        "suburb": "6e Turgeau",
        "city_district": "Pòtoprens",
        "city": "Port-au-Prince Arrondissement",
        "state": "West",
        "postcode": "6120",
        "country": "Haiti",
        "country_code": "ht"
      },
      "address": "Rue Laurier, Delmas, West, Haiti"
    },
    {
      "lat": 18.555826021382426,
      "lon": -72.2814544069018,
      "geoinfo": {
        "display_name": "Le Bon Berger Dry Cleaning, Rue de la Grâce, Zone Predailler, 1re Saint-Martin, Delmas, Ouest, Port-au-Prince Arrondissement, West, 6123, Haiti",
        "road": "Rue de la Grâce",
        "house_number": null,
        "neighbourhood": null,
        "suburb": "Zone Predailler",
        "city_district": null,
        "city": "Delmas, Ouest",
        "state": "West",
        "postcode": "6123",
        "country": "Haiti",
        "country_code": "ht"
      },
      "address": "Rue de la Grâce, Delmas, West, Haiti"
    },
    {
      "lat": 18.536175533730276,
      "lon": -72.25888912951574,
      "geoinfo": {
        "display_name": "Impasse Théocratie, Vivy Mitchell, 7e Bellevue Chardonnières, Petyonvil, Port-au-Prince Arrondissement, West, 6141, Haiti",
        "road": "Impasse Théocratie",
        "house_number": null,
        "neighbourhood": null,
        "suburb": "Vivy Mitchell",
        "city_district": "Petyonvil",
        "city": "Port-au-Prince Arrondissement",
        "state": "West",
        "postcode": "6141",
        "country": "Haiti",
        "country_code": "ht"
      },
      "address": "Impasse Théocratie, Vivy Mitchell, 7e Bellevue Chardonnières, Petyonvil, Port-au-Prince Arrondissement, West, 6141, Haiti"
    },
    {
      "lat": 18.503179626357493,
      "lon": -72.3097037383095,
      "geoinfo": {
        "display_name": "Laboule 10, Pèlerin, 2e aux Cadets, Petyonvil, Port-au-Prince Arrondissement, West, 6142, Haiti",
        "road": "Laboule 10",
        "house_number": null,
        "neighbourhood": null,
        "suburb": "Pèlerin",
        "city_district": "Petyonvil",
        "city": "Port-au-Prince Arrondissement",
        "state": "West",
        "postcode": "6142",
        "country": "Haiti",
        "country_code": "ht"
      },
      "address": "Laboule 10, Pèlerin, 2e aux Cadets, Petyonvil, Port-au-Prince Arrondissement, West, 6142, Haiti"
    },
    {
      "lat": 18.54492170549426,
      "lon": -72.32378611871512,
      "geoinfo": {
        "display_name": "Claire Marie de la Fine, Avenue J. Poupelard, Covington, 6e Turgeau, Pòtoprens, Port-au-Prince Arrondissement, West, 6110, Haiti",
        "road": "Avenue J. Poupelard",
        "house_number": null,
        "neighbourhood": null,
        "suburb": "6e Turgeau",
        "city_district": "Pòtoprens",
        "city": "Port-au-Prince Arrondissement",
        "state": "West",
        "postcode": "6110",
        "country": "Haiti",
        "country_code": "ht"
      },
      "address": "Claire Marie de la Fine, Avenue J. Poupelard, Covington, 6e Turgeau, Pòtoprens, Port-au-Prince Arrondissement, West, 6110, Haiti"
    },
    {
      "lat": 18.56001604693044,
      "lon": -72.3251789937925,
      "geoinfo": {
        "display_name": "Avenue Haile Selassie, Cité 1, 1re Saint-Martin, Delmas, Ouest, Port-au-Prince Arrondissement, West, 6130, Haiti",
        "road": "Avenue Haile Selassie",
        "house_number": null,
        "neighbourhood": null,
        "suburb": "Cité 1",
        "city_district": null,
        "city": "Delmas, Ouest",
        "state": "West",
        "postcode": "6130",
        "country": "Haiti",
        "country_code": "ht"
      },
      "address": "Avenue Haile Selassie, Cité 1, 1re Saint-Martin, Delmas, Ouest, Port-au-Prince Arrondissement, West, 6130, Haiti"
    }
  ],
  "updated_at": "2025-10-19T04:39:43.455278+00:00",
  "_kind": "geo_samples"
}