{
  "country_code": "HT",
  "country": "Haiti",
  "city": "Fond Parisien",
  "geonameid": 3725276,
  "target_addresses": 4,
  "samples": [
    {
      "lat": 18.4883649582502,
      "lon": -71.96813937041834,
      "geoinfo": {
        "display_name": "3e Fonds Parisien, La Source, Commune Ganthier, Arrondissement de Croix-des-Bouquets, West, Haiti",
        "road": null,
        "house_number": null,
        "neighbourhood": null,
        "suburb": "3e Fonds Parisien",
        "city_district": null,
        "city": "Commune Ganthier",
        "state": "West",
        "postcode": null,
        "country": "Haiti",
        "country_code": "ht"
      },
      "address": "3e Fonds Parisien, Fond Parisien, West, Haiti"
    },
    {
      "lat": 18.472160152646875,
      "lon": -71.98526210786397,
      "geoinfo": {
        "display_name": "CENTRE DE SANTE STE-ELISABETH, Route Départementale 102 / 112, 4e Pays Pourri, La Source, Commune Ganthier, Arrondissement de Croix-des-Bouquets, West, Haiti",
        "road": "Route Départementale 102 / 112",
        "house_number": null,
        "neighbourhood": null,
        "suburb": "4e Pays Pourri",
        "city_district": null,
        "city": "Commune Ganthier",
        "state": "West",
        "postcode": null,
        "country": "Haiti",
        "country_code": "ht"
      },
      "address": "Route Départementale 102 / 112, Fond Parisien, West, Haiti"
    },
    {
      "lat": 18.524168477962668,
      "lon": -71.99871521356624,
      "geoinfo": {
        "display_name": "Route Nationale 8, Love a Child, 3e Fonds Parisien, Ganthier, Commune Ganthier, Arrondissement de Croix-des-Bouquets, West, Haiti",
        "road": "Route Nationale 8",
        "house_number": null,
        "neighbourhood": null,
        "suburb": "3e Fonds Parisien",
        "city_district": null,
        "city": "Commune Ganthier",
        "state": "West",
        "postcode": null,
        "country": "Haiti",
        "country_code": "ht"
      },
      "address": "Route Nationale 8, Fond Parisien, West, Haiti"
    },
    {
      "lat": 18.465294479522964,
      "lon": -71.97832024647991,
      "geoinfo": {
        "display_name": "CENTRE DE SANTE STE-ELISABETH, Route Départementale 102 / 112, 4e Pays Pourri, La Source, Commune Ganthier, Arrondissement de Croix-des-Bouquets, West, Haiti",
        "road": "Route Départementale 102 / 112",
        "house_number": null,
        "neighbourhood": null,
        "suburb": "4e Pays Pourri",
        "city_district": null,
        "city": "Commune Ganthier",
        "state": "West",
        "postcode": null,
        "country": "Haiti",
        "country_code": "ht"
      },
      "address": "CENTRE DE SANTE STE-ELISABETH, Route Départementale 102 / 112, 4e Pays Pourri, La Source, Commune Ganthier, Arrondissement de Croix-des-Bouquets, West, Haiti"
    },
    {
      "lat": 18.54539093413188,
      "lon": -71.99137341661144,
      "geoinfo": {
        "display_name": "2e Balan, Commune Ganthier, Arrondissement de Croix-des-Bouquets, West, Haiti",
        "road": null,
        "house_number": null,
        "neighbourhood": null,
        "suburb": "2e Balan",
        "city_district": null,
        "city": "Commune Ganthier",
        "state": "West",
        "postcode": null,
        "country": "Haiti",
        "country_code": "ht"
      },
      "address": "2e Balan, Commune Ganthier, Arrondissement de Croix-des-Bouquets, 37111 West, Haiti"
    },
    {
      "lat": 18.492858152585736,
      "lon": -71.9559816959274,
      "geoinfo": {
        "display_name": "3e Fonds Parisien, La Source, Commune Ganthier, Arrondissement de Croix-des-Bouquets, West, Haiti",
        "road": null,
        "house_number": null,
        "neighbourhood": null,
        "suburb": "3e Fonds Parisien",
        "city_district": null,
        "city": "Commune Ganthier",
        "state": "West",
        "postcode": null,
        "country": "Haiti",
        "country_code": "ht"
      },
      "address": "3e Fonds Parisien, La Source, Commune Ganthier, Arrondissement de Croix-des-Bouquets, 81213 West, Haiti"
    },
    {
      "lat": 18.524062028338843,
      "lon": -72.02307902796058,
      "geoinfo": {
        "display_name": "Route Nationale 8, Love a Child, 3e Fonds Parisien, Ganthier, Commune Ganthier, Arrondissement de Croix-des-Bouquets, West, Haiti",
        "road": "Route Nationale 8",
        "house_number": null,
        "neighbourhood": null,
        "suburb": "3e Fonds Parisien",
        "city_district": null,
        "city": "Commune Ganthier",
        "state": "West",
        "postcode": null,
        "country": "Haiti",
        "country_code": "ht"
      },
      "address": "Route Nationale 8, Love a Child, 3e Fonds Parisien, Ganthier, Commune Ganthier, Arrondissement de Croix-des-Bouquets, West, Haiti"
    }
  ],
  "updated_at": "2025-10-19T04:39:29.179398+00:00",
  "_kind": "geo_samples"
}