{
  "country_code": "HT",
  "country": "Haiti",
  "city": "Hinche",
  "geonameid": 3723841,
  "target_addresses": 4,
  "samples": [
    {
      "lat": 19.161360236929266,
      "lon": -71.99358641437514,
      "geoinfo": {
        "display_name": "Rodé, 4e Aguahedionde, Hinche, Commune Hinche, Arrondissement de Hinche, Centre Department, 5111, Haiti",
        "road": null,
        "house_number": null,
        "neighbourhood": null,
        "suburb": "4e Aguahedionde",
        "city_district": null,
        "city": "Hinche",
        "state": "Centre Department",
        "postcode": "5111",
        "country": "Haiti",
        "country_code": "ht"
      },
      "address": "4e Aguahedionde, Hinche, Centre Department, Haiti"
    },
    {
      "lat": 19.139185173296443,
      "lon": -72.04018256953061,
      "geoinfo": {
        "display_name": "1re Juanaria, Hinche, Commune Hinche, Arrondissement de Hinche, Centre Department, 5110, Haiti",
        "road": null,
        "house_number": null,
        "neighbourhood": null,
        "suburb": "1re Juanaria",
        "city_district": null,
        "city": "Hinche",
        "state": "Centre Department",
        "postcode": "5110",
        "country": "Haiti",
        "country_code": "ht"
      },
      "address": "1re Juanaria, Hinche, Centre Department, Haiti"
    },
    {
      "lat": 19.15089742843816,
      "lon": -71.96895428185339,
      "geoinfo": {
        "display_name": "Route Départementale 302, 3e Aguahedionde, Los Palis, Commune Hinche, Arrondissement de Hinche, Centre Department, 5111, Haiti",
        "road": "Route Départementale 302",
        "house_number": null,
        "neighbourhood": null,
        "suburb": "3e Aguahedionde",
        "city_district": null,
        "city": "Commune Hinche",
        "state": "Centre Department",
        "postcode": "5111",
        "country": "Haiti",
        "country_code": "ht"
      },
      "address": "Route Départementale 302, Hinche, Centre Department, Haiti"
    },
    {
      "lat": 19.137879605506686,
      "lon": -71.9699900740251,
      "geoinfo": {
        "display_name": "3e Aguahedionde, Commune Hinche, Arrondissement de Hinche, Centre Department, 5111, Haiti",
        "road": null,
        "house_number": null,
        "neighbourhood": null,
        "suburb": "3e Aguahedionde",
        "city_district": null,
        "city": "Commune Hinche",
        "state": "Centre Department",
        "postcode": "5111",
        "country": "Haiti",
        "country_code": "ht"
      },
      "address": "3e Aguahedionde, Hinche, Centre Department, Haiti"
    }
  ],
  "updated_at": "2025-10-16T15:10:05.311987+00:00",
  "_kind": "geo_samples"
}