{
  "country_code": "HT",
  "country": "Haiti",
  "city": "Kenscoff",
  "geonameid": 3723440,
  "target_addresses": 21,
  "samples": [
    {
      "lat": 18.47863860636114,
      "lon": -72.30082172067496,
      "geoinfo": {
        "display_name": "2e Bongars, Commune Kenscoff, Port-au-Prince Arrondissement, West, 6142, Haiti",
        "road": null,
        "house_number": null,
        "neighbourhood": null,
        "suburb": "2e Bongars",
        "city_district": "Commune Kenscoff",
        "city": "Port-au-Prince Arrondissement",
        "state": "West",
        "postcode": "6142",
        "country": "Haiti",
        "country_code": "ht"
      },
      "address": "2e Bongars, Kenscoff, West, Haiti"
    },
    {
      "lat": 18.457341624442215,
      "lon": -72.25260705395316,
      "geoinfo": {
        "display_name": "3e Sourcailles, Commune Kenscoff, Port-au-Prince Arrondissement, West, 6150, Haiti",
        "road": null,
        "house_number": null,
        "neighbourhood": null,
        "suburb": "3e Sourcailles",
        "city_district": "Commune Kenscoff",
        "city": "Port-au-Prince Arrondissement",
        "state": "West",
        "postcode": "6150",
        "country": "Haiti",
        "country_code": "ht"
      },
      "address": "3e Sourcailles, Kenscoff, West, Haiti"
    },
    {
      "lat": 18.474005499868444,
      "lon": -72.2962445561656,
      "geoinfo": {
        "display_name": "Route de Cazeau, 2e Bongars, Commune Kenscoff, Port-au-Prince Arrondissement, West, 6142, Haiti",
        "road": "Route de Cazeau",
        "house_number": null,
        "neighbourhood": null,
        "suburb": "2e Bongars",
        "city_district": "Commune Kenscoff",
        "city": "Port-au-Prince Arrondissement",
        "state": "West",
        "postcode": "6142",
        "country": "Haiti",
        "country_code": "ht"
      },
      "address": "Route de Cazeau, Kenscoff, West, Haiti"
    },
    {
      "lat": 18.419253593790803,
      "lon": -72.28243992441236,
      "geoinfo": {
        "display_name": "Route Départementale 108, 2e Bongars, Commune Kenscoff, Port-au-Prince Arrondissement, West, 6150, Haiti",
        "road": "Route Départementale 108",
        "house_number": null,
        "neighbourhood": null,
        "suburb": "2e Bongars",
        "city_district": "Commune Kenscoff",
        "city": "Port-au-Prince Arrondissement",
        "state": "West",
        "postcode": "6150",
        "country": "Haiti",
        "country_code": "ht"
      },
      "address": "Route Départementale 108, Kenscoff, West, Haiti"
    },
    {
      "lat": 18.408556049221477,
      "lon": -72.29517079625263,
      "geoinfo": {
        "display_name": "Route Départementale 108, 2e Bongars, Commune Kenscoff, Port-au-Prince Arrondissement, West, Haiti",
        "road": "Route Départementale 108",
        "house_number": null,
        "neighbourhood": null,
        "suburb": "2e Bongars",
        "city_district": "Commune Kenscoff",
        "city": "Port-au-Prince Arrondissement",
        "state": "West",
        "postcode": null,
        "country": "Haiti",
        "country_code": "ht"
      },
      "address": "Route Départementale 108, Kenscoff, 76317 West, Haiti"
    },
    {
      "lat": 18.41477830928495,
      "lon": -72.25699426731481,
      "geoinfo": {
        "display_name": "3e Sourcailles, Commune Kenscoff, Port-au-Prince Arrondissement, West, Haiti",
        "road": null,
        "house_number": null,
        "neighbourhood": null,
        "suburb": "3e Sourcailles",
        "city_district": "Commune Kenscoff",
        "city": "Port-au-Prince Arrondissement",
        "state": "West",
        "postcode": null,
        "country": "Haiti",
        "country_code": "ht"
      },
      "address": "3e Sourcailles, Commune Kenscoff, Port-au-Prince Arrondissement, West, Haiti"
    },
    {
      "lat": 18.428197604152622,
      "lon": -72.28555357418071,
      "geoinfo": {
        "display_name": "Route Départementale 108, 2e Bongars, Commune Kenscoff, Port-au-Prince Arrondissement, West, 6150, Haiti",
        "road": "Route Départementale 108",
        "house_number": null,
        "neighbourhood": null,
        "suburb": "2e Bongars",
        "city_district": "Commune Kenscoff",
        "city": "Port-au-Prince Arrondissement",
        "state": "West",
        "postcode": "6150",
        "country": "Haiti",
        "country_code": "ht"
      },
      "address": "Route Départementale 108, 2e Bongars, Commune Kenscoff, Port-au-Prince Arrondissement, West, 6150, Haiti"
    },
    {
      "lat": 18.456647087487433,
      "lon": -72.28654102620949,
      "geoinfo": {
        "display_name": "2e Bongars, Commune Kenscoff, Port-au-Prince Arrondissement, West, 6150, Haiti",
        "road": null,
        "house_number": null,
        "neighbourhood": null,
        "suburb": "2e Bongars",
        "city_district": "Commune Kenscoff",
        "city": "Port-au-Prince Arrondissement",
        "state": "West",
        "postcode": "6150",
        "country": "Haiti",
        "country_code": "ht"
      },
      "address": "2e Bongars, Commune Kenscoff, Port-au-Prince Arrondissement, West, 6150, Haiti"
    },
    {
      "lat": 18.441171235508477,
      "lon": -72.29733729505986,
      "geoinfo": {
        "display_name": "2e Bongars, Commune Kenscoff, Port-au-Prince Arrondissement, West, 6150, Haiti",
        "road": null,
        "house_number": null,
        "neighbourhood": null,
        "suburb": "2e Bongars",
        "city_district": "Commune Kenscoff",
        "city": "Port-au-Prince Arrondissement",
        "state": "West",
        "postcode": "6150",
        "country": "Haiti",
        "country_code": "ht"
      },
      "address": "2e Bongars, Kenscoff, 6150 West, Haiti"
    },
    {
      "lat": 18.445601845270936,
      "lon": -72.28409404732712,
      "geoinfo": {
        "display_name": "Rue St Nicolas, Corail, 2e Bongars, Commune Kenscoff, Port-au-Prince Arrondissement, West, 6150, Haiti",
        "road": "Rue St Nicolas",
        "house_number": null,
        "neighbourhood": null,
        "suburb": "2e Bongars",
        "city_district": "Commune Kenscoff",
        "city": "Port-au-Prince Arrondissement",
        "state": "West",
        "postcode": "6150",
        "country": "Haiti",
        "country_code": "ht"
      },
      "address": "Rue St Nicolas, Corail, 2e Bongars, Commune Kenscoff, Port-au-Prince Arrondissement, West, 6150, Haiti"
    },
    {
      "lat": 18.440098420826544,
      "lon": -72.30849383476335,
      "geoinfo": {
        "display_name": "5e Grand-Fond, Commune Kenscoff, Port-au-Prince Arrondissement, West, 6142, Haiti",
        "road": null,
        "house_number": null,
        "neighbourhood": null,
        "suburb": "5e Grand-Fond",
        "city_district": "Commune Kenscoff",
        "city": "Port-au-Prince Arrondissement",
        "state": "West",
        "postcode": "6142",
        "country": "Haiti",
        "country_code": "ht"
      },
      "address": "5e Grand-Fond, Commune Kenscoff, Port-au-Prince Arrondissement, West, 6142, Haiti"
    },
    {
      "lat": 18.41011087612132,
      "lon": -72.27125803387166,
      "geoinfo": {
        "display_name": "2e Bongars, Commune Kenscoff, Port-au-Prince Arrondissement, West, Haiti",
        "road": null,
        "house_number": null,
        "neighbourhood": null,
        "suburb": "2e Bongars",
        "city_district": "Commune Kenscoff",
        "city": "Port-au-Prince Arrondissement",
        "state": "West",
        "postcode": null,
        "country": "Haiti",
        "country_code": "ht"
      },
      "address": "2e Bongars, Commune Kenscoff, Port-au-Prince Arrondissement, 21797 West, Haiti"
    },
    {
      "lat": 18.438913204207438,
      "lon": -72.31124917053997,
      "geoinfo": {
        "display_name": "5e Grand-Fond, Commune Kenscoff, Port-au-Prince Arrondissement, West, 6142, Haiti",
        "road": null,
        "house_number": null,
        "neighbourhood": null,
        "suburb": "5e Grand-Fond",
        "city_district": "Commune Kenscoff",
        "city": "Port-au-Prince Arrondissement",
        "state": "West",
        "postcode": "6142",
        "country": "Haiti",
        "country_code": "ht"
      },
      "address": "5e Grand-Fond, Kenscoff, 6142 West, Haiti"
    },
    {
      "lat": 18.485767225888058,
      "lon": -72.28220757063423,
      "geoinfo": {
        "display_name": "3e Étang-du-Jong, Petyonvil, Port-au-Prince Arrondissement, West, 6140, Haiti",
        "road": null,
        "house_number": null,
        "neighbourhood": null,
        "suburb": "3e Étang-du-Jong",
        "city_district": "Petyonvil",
        "city": "Port-au-Prince Arrondissement",
        "state": "West",
        "postcode": "6140",
        "country": "Haiti",
        "country_code": "ht"
      },
      "address": "3e Étang-du-Jong, Petyonvil, Port-au-Prince Arrondissement, West, 6140, Haiti"
    },
    {
      "lat": 18.461325368872284,
      "lon": -72.27724120949051,
      "geoinfo": {
        "display_name": "3e Sourcailles, Commune Kenscoff, Port-au-Prince Arrondissement, West, 6150, Haiti",
        "road": null,
        "house_number": null,
        "neighbourhood": null,
        "suburb": "3e Sourcailles",
        "city_district": "Commune Kenscoff",
        "city": "Port-au-Prince Arrondissement",
        "state": "West",
        "postcode": "6150",
        "country": "Haiti",
        "country_code": "ht"
      },
      "address": "3e Sourcailles, Kenscoff, 6150 West, Haiti"
    },
    {
      "lat": 18.415063220805358,
      "lon": -72.2790487702447,
      "geoinfo": {
        "display_name": "2e Bongars, Commune Kenscoff, Port-au-Prince Arrondissement, West, Haiti",
        "road": null,
        "house_number": null,
        "neighbourhood": null,
        "suburb": "2e Bongars",
        "city_district": "Commune Kenscoff",
        "city": "Port-au-Prince Arrondissement",
        "state": "West",
        "postcode": null,
        "country": "Haiti",
        "country_code": "ht"
      },
      "address": "2e Bongars, Commune Kenscoff, Port-au-Prince Arrondissement, 57445 West, Haiti"
    },
    {
      "lat": 18.417374380058316,
      "lon": -72.26475123991914,
      "geoinfo": {
        "display_name": "3e Sourcailles, Commune Kenscoff, Port-au-Prince Arrondissement, West, Haiti",
        "road": null,
        "house_number": null,
        "neighbourhood": null,
        "suburb": "3e Sourcailles",
        "city_district": "Commune Kenscoff",
        "city": "Port-au-Prince Arrondissement",
        "state": "West",
        "postcode": null,
        "country": "Haiti",
        "country_code": "ht"
      },
      "address": "3e Sourcailles, Commune Kenscoff, Port-au-Prince Arrondissement, 27568 West, Haiti"
    },
    {
      "lat": 18.414696812444795,
      "lon": -72.29841469075856,
      "geoinfo": {
        "display_name": "2e Bongars, Commune Kenscoff, Port-au-Prince Arrondissement, West, Haiti",
        "road": null,
        "house_number": null,
        "neighbourhood": null,
        "suburb": "2e Bongars",
        "city_district": "Commune Kenscoff",
        "city": "Port-au-Prince Arrondissement",
        "state": "West",
        "postcode": null,
        "country": "Haiti",
        "country_code": "ht"
      },
      "address": "2e Bongars, Commune Kenscoff, Port-au-Prince Arrondissement, 17356 West, Haiti"
    },
    {
      "lat": 18.431824208058863,
      "lon": -72.24607883305704,
      "geoinfo": {
        "display_name": "Grand Place, 3e Sourcailles, Commune Kenscoff, Port-au-Prince Arrondissement, West, 6150, Haiti",
        "road": null,
        "house_number": null,
        "neighbourhood": null,
        "suburb": "3e Sourcailles",
        "city_district": "Commune Kenscoff",
        "city": "Port-au-Prince Arrondissement",
        "state": "West",
        "postcode": "6150",
        "country": "Haiti",
        "country_code": "ht"
      },
      "address": "Grand Place, 3e Sourcailles, Commune Kenscoff, Port-au-Prince Arrondissement, West, 6150, Haiti"
    },
    {
      "lat": 18.450858912777605,
      "lon": -72.25776089739432,
      "geoinfo": {
        "display_name": "De Moulin, 3e Sourcailles, Commune Kenscoff, Port-au-Prince Arrondissement, West, 6150, Haiti",
        "road": null,
        "house_number": null,
        "neighbourhood": null,
        "suburb": "3e Sourcailles",
        "city_district": "Commune Kenscoff",
        "city": "Port-au-Prince Arrondissement",
        "state": "West",
        "postcode": "6150",
        "country": "Haiti",
        "country_code": "ht"
      },
      "address": "De Moulin, 3e Sourcailles, Commune Kenscoff, Port-au-Prince Arrondissement, West, 6150, Haiti"
    },
    {
      "lat": 18.412934200448813,
      "lon": -72.25688746485388,
      "geoinfo": {
        "display_name": "3e Sourcailles, Commune Kenscoff, Port-au-Prince Arrondissement, West, Haiti",
        "road": null,
        "house_number": null,
        "neighbourhood": null,
        "suburb": "3e Sourcailles",
        "city_district": "Commune Kenscoff",
        "city": "Port-au-Prince Arrondissement",
        "state": "West",
        "postcode": null,
        "country": "Haiti",
        "country_code": "ht"
      },
      "address": "3e Sourcailles, Commune Kenscoff, Port-au-Prince Arrondissement, 89164 West, Haiti"
    }
  ],
  "updated_at": "2025-10-19T04:45:59.874995+00:00",
  "_kind": "geo_samples"
}