{
  "country_code": "HT",
  "country": "Haiti",
  "city": "Léogâne",
  "geonameid": 3722286,
  "target_addresses": 4,
  "samples": [
    {
      "lat": 18.483011767113318,
      "lon": -72.6234238602151,
      "geoinfo": {
        "display_name": "Morel, 1re Dessources, Morel, Commune Léogâne, Arrondissement de Léogâne, West, Haiti",
        "road": null,
        "house_number": null,
        "neighbourhood": null,
        "suburb": "1re Dessources",
        "city_district": null,
        "city": "Commune Léogâne",
        "state": "West",
        "postcode": null,
        "country": "Haiti",
        "country_code": "ht"
      },
      "address": "1re Dessources, Léogâne, West, Haiti"
    },
    {
      "lat": 18.52690476941211,
      "lon": -72.67645881977083,
      "geoinfo": {
        "display_name": "Port Léogâne, Commune Léogâne, Arrondissement de Léogâne, West, Haiti",
        "road": null,
        "house_number": null,
        "neighbourhood": null,
        "suburb": null,
        "city_district": null,
        "city": "Commune Léogâne",
        "state": "West",
        "postcode": null,
        "country": "Haiti",
        "country_code": "ht"
      },
      "address": "Léogâne, West, Haiti"
    },
    {
      "lat": 18.543562035084573,
      "lon": -72.64008817143406,
      "geoinfo": {
        "display_name": "2e Petite-Rivière, Pity, Commune Léogâne, Arrondissement de Léogâne, West, Haiti",
        "road": null,
        "house_number": null,
        "neighbourhood": null,
        "suburb": "2e Petite-Rivière",
        "city_district": null,
        "city": "Commune Léogâne",
        "state": "West",
        "postcode": null,
        "country": "Haiti",
        "country_code": "ht"
      },
      "address": "2e Petite-Rivière, Léogâne, West, Haiti"
    },
    {
      "lat": 18.493334389357855,
      "lon": -72.60211850178143,
      "geoinfo": {
        "display_name": "refugee camp, Rue Sabouce 1, 3e Grande Rivière, Sabouce, Commune Léogâne, Arrondissement de Léogâne, West, Haiti",
        "road": "Rue Sabouce 1",
        "house_number": null,
        "neighbourhood": null,
        "suburb": "3e Grande Rivière",
        "city_district": null,
        "city": "Commune Léogâne",
        "state": "West",
        "postcode": null,
        "country": "Haiti",
        "country_code": "ht"
      },
      "address": "Rue Sabouce 1, Léogâne, West, Haiti"
    },
    {
      "lat": 18.51007158282151,
      "lon": -72.65261712687791,
      "geoinfo": {
        "display_name": "1re Dessources, Léogâne, Commune Léogâne, Arrondissement de Léogâne, West, 7410, Haiti",
        "road": null,
        "house_number": null,
        "neighbourhood": null,
        "suburb": "1re Dessources",
        "city_district": null,
        "city": "Léogâne",
        "state": "West",
        "postcode": "7410",
        "country": "Haiti",
        "country_code": "ht"
      },
      "address": "1re Dessources, Léogâne, Commune Léogâne, Arrondissement de Léogâne, West, 7410, Haiti"
    },
    {
      "lat": 18.47862230396675,
      "lon": -72.6269751140696,
      "geoinfo": {
        "display_name": "Route Lon pré, Petit Paradis, 1re Dessources, Binot, Commune Léogâne, Arrondissement de Léogâne, West, Haiti",
        "road": "Route Lon pré",
        "house_number": null,
        "neighbourhood": null,
        "suburb": "1re Dessources",
        "city_district": null,
        "city": "Commune Léogâne",
        "state": "West",
        "postcode": null,
        "country": "Haiti",
        "country_code": "ht"
      },
      "address": "757, Route Lon pré, Petit Paradis, 1re Dessources, Binot, Commune Léogâne, Arrondissement de Léogâne, West, Haiti"
    },
    {
      "lat": 18.51099480636744,
      "lon": -72.62404770013242,
      "geoinfo": {
        "display_name": "1e Impasse Durandisse, 2e Petite-Rivière, Léogâne, Commune Léogâne, Arrondissement de Léogâne, West, Haiti",
        "road": "1e Impasse Durandisse",
        "house_number": null,
        "neighbourhood": null,
        "suburb": "2e Petite-Rivière",
        "city_district": null,
        "city": "Léogâne",
        "state": "West",
        "postcode": null,
        "country": "Haiti",
        "country_code": "ht"
      },
      "address": "1e Impasse Durandisse, 2e Petite-Rivière, Léogâne, Commune Léogâne, Arrondissement de Léogâne, West, Haiti"
    },
    {
      "lat": 18.532485719757773,
      "lon": -72.66772536454488,
      "geoinfo": {
        "display_name": "Port Léogâne, Commune Léogâne, Arrondissement de Léogâne, West, Haiti",
        "road": null,
        "house_number": null,
        "neighbourhood": null,
        "suburb": null,
        "city_district": null,
        "city": "Commune Léogâne",
        "state": "West",
        "postcode": null,
        "country": "Haiti",
        "country_code": "ht"
      },
      "address": "833, Port Léogâne, Commune Léogâne, Arrondissement de Léogâne, 13444 West, Haiti"
    }
  ],
  "updated_at": "2025-10-19T04:39:05.179525+00:00",
  "_kind": "geo_samples"
}