{
  "country_code": "HT",
  "country": "Haiti",
  "city": "Port-au-Prince",
  "geonameid": 3718426,
  "target_addresses": 4,
  "samples": [
    {
      "lat": 18.541062393512746,
      "lon": -72.31652089192713,
      "geoinfo": {
        "display_name": "Ruelle de Nemours, Bourdon, 6e Turgeau, Pòtoprens, Port-au-Prince Arrondissement, West, 6113, Haiti",
        "road": "Ruelle de Nemours",
        "house_number": null,
        "neighbourhood": null,
        "suburb": "Bourdon",
        "city_district": "Pòtoprens",
        "city": "Port-au-Prince Arrondissement",
        "state": "West",
        "postcode": "6113",
        "country": "Haiti",
        "country_code": "ht"
      },
      "address": "Ruelle de Nemours, Port-au-Prince, West, Haiti"
    },
    {
      "lat": 18.578535434555448,
      "lon": -72.34560894657736,
      "geoinfo": {
        "display_name": "Route de la Hasco, Terminal Pétrolier WINECO West Indies Energy Co., 1re Varreux, Commune Cité Soleil, Port-au-Prince Arrondissement, West, 6114, Haiti",
        "road": "Route de la Hasco",
        "house_number": null,
        "neighbourhood": null,
        "suburb": "1re Varreux",
        "city_district": "Commune Cité Soleil",
        "city": "Port-au-Prince Arrondissement",
        "state": "West",
        "postcode": "6114",
        "country": "Haiti",
        "country_code": "ht"
      },
      "address": "Route de la Hasco, Port-au-Prince, West, Haiti"
    },
    {
      "lat": 18.537421124470495,
      "lon": -72.36171885686028,
      "geoinfo": {
        "display_name": "Impasse Bon Berger, Cité l'Éternel, 8e Martissant, Pòtoprens, Port-au-Prince Arrondissement, West, 6114, Haiti",
        "road": "Impasse Bon Berger",
        "house_number": null,
        "neighbourhood": null,
        "suburb": "Cité l'Éternel",
        "city_district": "Pòtoprens",
        "city": "Port-au-Prince Arrondissement",
        "state": "West",
        "postcode": "6114",
        "country": "Haiti",
        "country_code": "ht"
      },
      "address": "Impasse Bon Berger, Port-au-Prince, West, Haiti"
    },
    {
      "lat": 18.557777336607018,
      "lon": -72.3652750455683,
      "geoinfo": {
        "display_name": "Route de Waaf Jérémie, Waaf Jérémie, 1re Varreux, Commune Cité Soleil, Port-au-Prince Arrondissement, West, 6114, Haiti",
        "road": "Route de Waaf Jérémie",
        "house_number": null,
        "neighbourhood": null,
        "suburb": "Waaf Jérémie",
        "city_district": "Commune Cité Soleil",
        "city": "Port-au-Prince Arrondissement",
        "state": "West",
        "postcode": "6114",
        "country": "Haiti",
        "country_code": "ht"
      },
      "address": "Route de Waaf Jérémie, Port-au-Prince, West, Haiti"
    },
    {
      "lat": 18.58354924418803,
      "lon": -72.34585019793055,
      "geoinfo": {
        "display_name": "wharf gabotage de cite soleil, Avenue du Soleil, Waaf, 1re Varreux, Commune Cité Soleil, Port-au-Prince Arrondissement, West, 6114, Haiti",
        "road": "Avenue du Soleil",
        "house_number": null,
        "neighbourhood": null,
        "suburb": "1re Varreux",
        "city_district": "Commune Cité Soleil",
        "city": "Port-au-Prince Arrondissement",
        "state": "West",
        "postcode": "6114",
        "country": "Haiti",
        "country_code": "ht"
      },
      "address": "wharf gabotage de cite soleil, Avenue du Soleil, Waaf, 1re Varreux, Commune Cité Soleil, Port-au-Prince Arrondissement, West, 6114, Haiti"
    },
    {
      "lat": 18.55820980751151,
      "lon": -72.38345849829042,
      "geoinfo": {
        "display_name": "Point Thor, Mon Repos, 2e Platon Dufréné, Kafou, Port-au-Prince Arrondissement, West, 6135, Haiti",
        "road": null,
        "house_number": null,
        "neighbourhood": null,
        "suburb": "Mon Repos",
        "city_district": "Kafou",
        "city": "Port-au-Prince Arrondissement",
        "state": "West",
        "postcode": "6135",
        "country": "Haiti",
        "country_code": "ht"
      },
      "address": "Point Thor, Mon Repos, 2e Platon Dufréné, Kafou, Port-au-Prince Arrondissement, West, 6135, Haiti"
    },
    {
      "lat": 18.564415021072765,
      "lon": -72.3028291827347,
      "geoinfo": {
        "display_name": "Rue B. de Lanarge, Village W. Lamothe, 1re Saint-Martin, Delmas, Ouest, Port-au-Prince Arrondissement, West, 6123, Haiti",
        "road": "Rue B. de Lanarge",
        "house_number": null,
        "neighbourhood": null,
        "suburb": "Village W. Lamothe",
        "city_district": null,
        "city": "Delmas, Ouest",
        "state": "West",
        "postcode": "6123",
        "country": "Haiti",
        "country_code": "ht"
      },
      "address": "Rue B. de Lanarge, Village W. Lamothe, 1re Saint-Martin, Delmas, Ouest, Port-au-Prince Arrondissement, West, 6123, Haiti"
    },
    {
      "lat": 18.555363053387023,
      "lon": -72.31486693046953,
      "geoinfo": {
        "display_name": "Sun Shop, Delmas 13, Carrefour de l'Aéroport, Cité Saint-Georges, 1re Saint-Martin, Delmas, Ouest, Port-au-Prince Arrondissement, West, 6130, Haiti",
        "road": "Delmas 13",
        "house_number": null,
        "neighbourhood": "Carrefour de l'Aéroport",
        "suburb": "Cité Saint-Georges",
        "city_district": null,
        "city": "Delmas, Ouest",
        "state": "West",
        "postcode": "6130",
        "country": "Haiti",
        "country_code": "ht"
      },
      "address": "Sun Shop, Delmas 13, Carrefour de l'Aéroport, Cité Saint-Georges, 1re Saint-Martin, Delmas, Ouest, Port-au-Prince Arrondissement, West, 6130, Haiti"
    }
  ],
  "updated_at": "2025-10-19T04:38:50.274332+00:00",
  "_kind": "geo_samples"
}