{
  "country_code": "HT",
  "country": "Haiti",
  "city": "Verrettes",
  "geonameid": 3716044,
  "target_addresses": 4,
  "samples": [
    {
      "lat": 19.08168907007152,
      "lon": -72.48729773181356,
      "geoinfo": {
        "display_name": "2e Bélanger, Deschapelles, Commune de Verrettes, Arrondissement de Saint-Marc, Artibonite Department, Haiti",
        "road": null,
        "house_number": null,
        "neighbourhood": null,
        "suburb": "2e Bélanger",
        "city_district": null,
        "city": "Commune de Verrettes",
        "state": "Artibonite Department",
        "postcode": null,
        "country": "Haiti",
        "country_code": "ht"
      },
      "address": "2e Bélanger, Verrettes, Artibonite Department, Haiti"
    },
    {
      "lat": 19.012008030808797,
      "lon": -72.44184487861855,
      "geoinfo": {
        "display_name": "4e Désarmes, Commune de Verrettes, Arrondissement de Saint-Marc, Artibonite Department, Haiti",
        "road": null,
        "house_number": null,
        "neighbourhood": null,
        "suburb": "4e Désarmes",
        "city_district": null,
        "city": "Commune de Verrettes",
        "state": "Artibonite Department",
        "postcode": null,
        "country": "Haiti",
        "country_code": "ht"
      },
      "address": "4e Désarmes, Verrettes, Artibonite Department, Haiti"
    },
    {
      "lat": 19.03774927387711,
      "lon": -72.42926644989355,
      "geoinfo": {
        "display_name": "3ème Guillaume Mogé, Commune de Verrettes, Arrondissement de Saint-Marc, Artibonite Department, Haiti",
        "road": null,
        "house_number": null,
        "neighbourhood": null,
        "suburb": "3ème Guillaume Mogé",
        "city_district": null,
        "city": "Commune de Verrettes",
        "state": "Artibonite Department",
        "postcode": null,
        "country": "Haiti",
        "country_code": "ht"
      },
      "address": "3ème Guillaume Mogé, Verrettes, Artibonite Department, Haiti"
    },
    {
      "lat": 19.027876562616783,
      "lon": -72.48258478009876,
      "geoinfo": {
        "display_name": "5e Bastien, Commune de Verrettes, Arrondissement de Saint-Marc, Artibonite Department, Haiti",
        "road": null,
        "house_number": null,
        "neighbourhood": null,
        "suburb": "5e Bastien",
        "city_district": null,
        "city": "Commune de Verrettes",
        "state": "Artibonite Department",
        "postcode": null,
        "country": "Haiti",
        "country_code": "ht"
      },
      "address": "5e Bastien, Verrettes, Artibonite Department, Haiti"
    },
    {
      "lat": 19.07733833978604,
      "lon": -72.47014398333766,
      "geoinfo": {
        "display_name": "3e Labady, Commune Petite Rivière de l'Artibonite, Arrondissement de Dessalines, Artibonite Department, Haiti",
        "road": null,
        "house_number": null,
        "neighbourhood": null,
        "suburb": "3e Labady",
        "city_district": null,
        "city": "Commune Petite Rivière de l'Artibonite",
        "state": "Artibonite Department",
        "postcode": null,
        "country": "Haiti",
        "country_code": "ht"
      },
      "address": "3e Labady, Commune Petite Rivière de l'Artibonite, Arrondissement de Dessalines, 27755 Artibonite Department, Haiti"
    },
    {
      "lat": 19.04621197447234,
      "lon": -72.47490683985387,
      "geoinfo": {
        "display_name": "5e Bastien, Verrettes, Commune de Verrettes, Arrondissement de Saint-Marc, Artibonite Department, Haiti",
        "road": null,
        "house_number": null,
        "neighbourhood": null,
        "suburb": "5e Bastien",
        "city_district": null,
        "city": "Commune de Verrettes",
        "state": "Artibonite Department",
        "postcode": null,
        "country": "Haiti",
        "country_code": "ht"
      },
      "address": "5e Bastien, Verrettes, Commune de Verrettes, Arrondissement de Saint-Marc, 31126 Artibonite Department, Haiti"
    },
    {
      "lat": 19.056209920733906,
      "lon": -72.42947517915512,
      "geoinfo": {
        "display_name": "Route du Canal, La Borde, 3e Labady, Oreste, Commune Petite Rivière de l'Artibonite, Arrondissement de Dessalines, Artibonite Department, Haiti",
        "road": "Route du Canal",
        "house_number": null,
        "neighbourhood": null,
        "suburb": "3e Labady",
        "city_district": null,
        "city": "Commune Petite Rivière de l'Artibonite",
        "state": "Artibonite Department",
        "postcode": null,
        "country": "Haiti",
        "country_code": "ht"
      },
      "address": "121, Route du Canal, La Borde, 3e Labady, Oreste, Commune Petite Rivière de l'Artibonite, Arrondissement de Dessalines, Artibonite Department, Haiti"
    },
    {
      "lat": 19.009581070409666,
      "lon": -72.45018881779384,
      "geoinfo": {
        "display_name": "4e Désarmes, Commune de Verrettes, Arrondissement de Saint-Marc, Artibonite Department, Haiti",
        "road": null,
        "house_number": null,
        "neighbourhood": null,
        "suburb": "4e Désarmes",
        "city_district": null,
        "city": "Commune de Verrettes",
        "state": "Artibonite Department",
        "postcode": null,
        "country": "Haiti",
        "country_code": "ht"
      },
      "address": "4e Désarmes, Commune de Verrettes, Arrondissement de Saint-Marc, 61793 Artibonite Department, Haiti"
    }
  ],
  "updated_at": "2025-10-19T02:57:34.846325+00:00",
  "_kind": "geo_samples"
}