{
  "country_code": "SZ",
  "country": "Eswatini",
  "city": "Mbabane",
  "geonameid": 934985,
  "target_addresses": 34,
  "samples": [
    {
      "lat": -26.314804674228114,
      "lon": 31.104965836264213,
      "geoinfo": {
        "display_name": "Mbabane, Inkhundla Mbabane, Hhohho Region, H100, Eswatini",
        "road": null,
        "house_number": null,
        "neighbourhood": null,
        "suburb": null,
        "city_district": null,
        "city": "Mbabane",
        "state": "Hhohho Region",
        "postcode": "H100",
        "country": "Eswatini",
        "country_code": "sz"
      },
      "address": "Mbabane, Hhohho Region, Eswatini"
    },
    {
      "lat": -26.315936523761604,
      "lon": 31.137009864288384,
      "geoinfo": {
        "display_name": "Mbovane Street, Dalriach West, Mbabane, Inkhundla Mbabane, Hhohho Region, H100, Eswatini",
        "road": "Mbovane Street",
        "house_number": null,
        "neighbourhood": "Dalriach West",
        "suburb": null,
        "city_district": null,
        "city": "Mbabane",
        "state": "Hhohho Region",
        "postcode": "H100",
        "country": "Eswatini",
        "country_code": "sz"
      },
      "address": "Mbovane Street, Mbabane, Hhohho Region, Eswatini"
    },
    {
      "lat": -26.303394952991777,
      "lon": 31.12695771437102,
      "geoinfo": {
        "display_name": "Ncoboza Street, Sidwashini South, Mbabane, Inkhundla Mbabane, Hhohho Region, H100, Eswatini",
        "road": "Ncoboza Street",
        "house_number": null,
        "neighbourhood": "Sidwashini South",
        "suburb": null,
        "city_district": null,
        "city": "Mbabane",
        "state": "Hhohho Region",
        "postcode": "H100",
        "country": "Eswatini",
        "country_code": "sz"
      },
      "address": "Ncoboza Street, Mbabane, Hhohho Region, Eswatini"
    },
    {
      "lat": -26.314162703043227,
      "lon": 31.15649701456481,
      "geoinfo": {
        "display_name": "Fonteyn, Mbabane, Inkhundla Mbabane, Hhohho Region, H100, Eswatini",
        "road": null,
        "house_number": null,
        "neighbourhood": "Fonteyn",
        "suburb": null,
        "city_district": null,
        "city": "Mbabane",
        "state": "Hhohho Region",
        "postcode": "H100",
        "country": "Eswatini",
        "country_code": "sz"
      },
      "address": "Fonteyn, Mbabane, Hhohho Region, Eswatini"
    },
    {
      "lat": -26.343782568757454,
      "lon": 31.130422076030374,
      "geoinfo": {
        "display_name": "Mangwaneni, Mbabane, Inkhundla Mbabane, Hhohho Region, H100, Eswatini",
        "road": null,
        "house_number": null,
        "neighbourhood": "Mangwaneni",
        "suburb": null,
        "city_district": null,
        "city": "Mbabane",
        "state": "Hhohho Region",
        "postcode": "H100",
        "country": "Eswatini",
        "country_code": "sz"
      },
      "address": "Mangwaneni, Mbabane, Hhohho Region, Eswatini"
    },
    {
      "lat": -26.286139372023573,
      "lon": 31.119670641228623,
      "geoinfo": {
        "display_name": "Woodlands, Mbabane, Inkhundla Mbabane, Hhohho Region, H100, Eswatini",
        "road": null,
        "house_number": null,
        "neighbourhood": "Woodlands",
        "suburb": null,
        "city_district": null,
        "city": "Mbabane",
        "state": "Hhohho Region",
        "postcode": "H100",
        "country": "Eswatini",
        "country_code": "sz"
      },
      "address": "Woodlands, Mbabane, Hhohho Region, Eswatini"
    },
    {
      "lat": -26.32951299338175,
      "lon": 31.149796095344335,
      "geoinfo": {
        "display_name": "Extension 3, Mbabane, Inkhundla Mbabane, Hhohho Region, H100, Eswatini",
        "road": null,
        "house_number": null,
        "neighbourhood": "Extension 3",
        "suburb": null,
        "city_district": null,
        "city": "Mbabane",
        "state": "Hhohho Region",
        "postcode": "H100",
        "country": "Eswatini",
        "country_code": "sz"
      },
      "address": "Extension 3, Mbabane, Hhohho Region, Eswatini"
    },
    {
      "lat": -26.35271991805788,
      "lon": 31.10852095173124,
      "geoinfo": {
        "display_name": "MR19, Mbabane, Inkhundla Mbabane, Hhohho Region, Eswatini",
        "road": "MR19",
        "house_number": null,
        "neighbourhood": null,
        "suburb": null,
        "city_district": null,
        "city": "Mbabane",
        "state": "Hhohho Region",
        "postcode": null,
        "country": "Eswatini",
        "country_code": "sz"
      },
      "address": "MR19, Mbabane, Hhohho Region, Eswatini"
    },
    {
      "lat": -26.298385348214477,
      "lon": 31.09688795921597,
      "geoinfo": {
        "display_name": "Kamhlaba Road, Sidwashini North, Mbabane, Inkhundla Mbabane, Hhohho Region, H100, Eswatini",
        "road": "Kamhlaba Road",
        "house_number": null,
        "neighbourhood": "Sidwashini North",
        "suburb": null,
        "city_district": null,
        "city": "Mbabane",
        "state": "Hhohho Region",
        "postcode": "H100",
        "country": "Eswatini",
        "country_code": "sz"
      },
      "address": "Kamhlaba Road, Mbabane, Hhohho Region, Eswatini"
    },
    {
      "lat": -26.29885391212093,
      "lon": 31.131945514942288,
      "geoinfo": {
        "display_name": "Eveni, Mbabane, Inkhundla Mbabane, Hhohho Region, H100, Eswatini",
        "road": null,
        "house_number": null,
        "neighbourhood": "Eveni",
        "suburb": null,
        "city_district": null,
        "city": "Mbabane",
        "state": "Hhohho Region",
        "postcode": "H100",
        "country": "Eswatini",
        "country_code": "sz"
      },
      "address": "Eveni, Mbabane, Hhohho Region, Eswatini"
    },
    {
      "lat": -26.34536326397355,
      "lon": 31.15786526936255,
      "geoinfo": {
        "display_name": "Mountain Inn, Mbabane, Inkhundla Mbabane, Hhohho Region, H100, Eswatini",
        "road": null,
        "house_number": null,
        "neighbourhood": "Mountain Inn",
        "suburb": null,
        "city_district": null,
        "city": "Mbabane",
        "state": "Hhohho Region",
        "postcode": "H100",
        "country": "Eswatini",
        "country_code": "sz"
      },
      "address": "Mountain Inn, Mbabane, Hhohho Region, Eswatini"
    },
    {
      "lat": -26.31610824406525,
      "lon": 31.124448364584012,
      "geoinfo": {
        "display_name": "Inyanga Lane, Sandla, Mbabane, Inkhundla Mbabane, Hhohho Region, H100, Eswatini",
        "road": "Inyanga Lane",
        "house_number": null,
        "neighbourhood": "Sandla",
        "suburb": null,
        "city_district": null,
        "city": "Mbabane",
        "state": "Hhohho Region",
        "postcode": "H100",
        "country": "Eswatini",
        "country_code": "sz"
      },
      "address": "Inyanga Lane, Mbabane, Hhohho Region, Eswatini"
    },
    {
      "lat": -26.285729647462066,
      "lon": 31.104451554712544,
      "geoinfo": {
        "display_name": "Makholokholo, Mbabane, Inkhundla Mbabane, Hhohho Region, Eswatini",
        "road": null,
        "house_number": null,
        "neighbourhood": "Makholokholo",
        "suburb": null,
        "city_district": null,
        "city": "Mbabane",
        "state": "Hhohho Region",
        "postcode": null,
        "country": "Eswatini",
        "country_code": "sz"
      },
      "address": "Makholokholo, Mbabane, Hhohho Region, Eswatini"
    },
    {
      "lat": -26.296496170365014,
      "lon": 31.1303228405578,
      "geoinfo": {
        "display_name": "Thembelihle, Mbabane, Inkhundla Mbabane, Hhohho Region, H100, Eswatini",
        "road": null,
        "house_number": null,
        "neighbourhood": "Thembelihle",
        "suburb": null,
        "city_district": null,
        "city": "Mbabane",
        "state": "Hhohho Region",
        "postcode": "H100",
        "country": "Eswatini",
        "country_code": "sz"
      },
      "address": "Thembelihle, Mbabane, Hhohho Region, Eswatini"
    },
    {
      "lat": -26.293850527753122,
      "lon": 31.14976233300615,
      "geoinfo": {
        "display_name": "Dalriach East, Mbabane, Inkhundla Mbabane, Hhohho Region, H100, Eswatini",
        "road": null,
        "house_number": null,
        "neighbourhood": "Dalriach East",
        "suburb": null,
        "city_district": null,
        "city": "Mbabane",
        "state": "Hhohho Region",
        "postcode": "H100",
        "country": "Eswatini",
        "country_code": "sz"
      },
      "address": "Dalriach East, Mbabane, Hhohho Region, Eswatini"
    },
    {
      "lat": -26.307623317290915,
      "lon": 31.12724299338513,
      "geoinfo": {
        "display_name": "Nhlalakahle Road, Dalriach West, Mbabane, Inkhundla Mbabane, Hhohho Region, H100, Eswatini",
        "road": "Nhlalakahle Road",
        "house_number": null,
        "neighbourhood": "Dalriach West",
        "suburb": null,
        "city_district": null,
        "city": "Mbabane",
        "state": "Hhohho Region",
        "postcode": "H100",
        "country": "Eswatini",
        "country_code": "sz"
      },
      "address": "Nhlalakahle Road, Mbabane, Hhohho Region, Eswatini"
    },
    {
      "lat": -26.28621058556663,
      "lon": 31.10710907731814,
      "geoinfo": {
        "display_name": "Nkhosie Yeluhlaza Street, Makholokholo, Mbabane, Inkhundla Mbabane, Hhohho Region, Eswatini",
        "road": "Nkhosie Yeluhlaza Street",
        "house_number": null,
        "neighbourhood": "Makholokholo",
        "suburb": null,
        "city_district": null,
        "city": "Mbabane",
        "state": "Hhohho Region",
        "postcode": null,
        "country": "Eswatini",
        "country_code": "sz"
      },
      "address": "Nkhosie Yeluhlaza Street, Mbabane, Hhohho Region, Eswatini"
    },
    {
      "lat": -26.320537377795905,
      "lon": 31.132955702953144,
      "geoinfo": {
        "display_name": "Queensgate, Mbabane, Inkhundla Mbabane, Hhohho Region, H100, Eswatini",
        "road": null,
        "house_number": null,
        "neighbourhood": "Queensgate",
        "suburb": null,
        "city_district": null,
        "city": "Mbabane",
        "state": "Hhohho Region",
        "postcode": "H100",
        "country": "Eswatini",
        "country_code": "sz"
      },
      "address": "Queensgate, Mbabane, Hhohho Region, Eswatini"
    },
    {
      "lat": -26.30263933097784,
      "lon": 31.118104506809598,
      "geoinfo": {
        "display_name": "Sidwashini South, Mbabane, Inkhundla Mbabane, Hhohho Region, H100, Eswatini",
        "road": null,
        "house_number": null,
        "neighbourhood": "Sidwashini South",
        "suburb": null,
        "city_district": null,
        "city": "Mbabane",
        "state": "Hhohho Region",
        "postcode": "H100",
        "country": "Eswatini",
        "country_code": "sz"
      },
      "address": "Sidwashini South, Mbabane, Hhohho Region, Eswatini"
    },
    {
      "lat": -26.324902619526895,
      "lon": 31.141253863444646,
      "geoinfo": {
        "display_name": "Libandla Street, Queensgate, Mbabane, Inkhundla Mbabane, Hhohho Region, H100, Eswatini",
        "road": "Libandla Street",
        "house_number": null,
        "neighbourhood": "Queensgate",
        "suburb": null,
        "city_district": null,
        "city": "Mbabane",
        "state": "Hhohho Region",
        "postcode": "H100",
        "country": "Eswatini",
        "country_code": "sz"
      },
      "address": "Libandla Street, Mbabane, Hhohho Region, Eswatini"
    },
    {
      "lat": -26.317067050581336,
      "lon": 31.114468120661268,
      "geoinfo": {
        "display_name": "Manzana, Mbabane, Inkhundla Mbabane, Hhohho Region, H100, Eswatini",
        "road": null,
        "house_number": null,
        "neighbourhood": "Manzana",
        "suburb": null,
        "city_district": null,
        "city": "Mbabane",
        "state": "Hhohho Region",
        "postcode": "H100",
        "country": "Eswatini",
        "country_code": "sz"
      },
      "address": "Manzana, Mbabane, Hhohho Region, Eswatini"
    },
    {
      "lat": -26.31757605123763,
      "lon": 31.12496762060016,
      "geoinfo": {
        "display_name": "Luphondvo Lane, Sandla, Mbabane, Inkhundla Mbabane, Hhohho Region, H100, Eswatini",
        "road": "Luphondvo Lane",
        "house_number": null,
        "neighbourhood": "Sandla",
        "suburb": null,
        "city_district": null,
        "city": "Mbabane",
        "state": "Hhohho Region",
        "postcode": "H100",
        "country": "Eswatini",
        "country_code": "sz"
      },
      "address": "Luphondvo Lane, Mbabane, Hhohho Region, Eswatini"
    },
    {
      "lat": -26.284542219117988,
      "lon": 31.101586085669542,
      "geoinfo": {
        "display_name": "MR3, Inkhundla Mbabane, Hhohho Region, Eswatini",
        "road": "MR3",
        "house_number": null,
        "neighbourhood": null,
        "suburb": null,
        "city_district": null,
        "city": null,
        "state": "Hhohho Region",
        "postcode": null,
        "country": "Eswatini",
        "country_code": "sz"
      },
      "address": "MR3, Mbabane, Hhohho Region, Eswatini"
    },
    {
      "lat": -26.303474945544295,
      "lon": 31.123046981523437,
      "geoinfo": {
        "display_name": "Indingilizi Road, Sidwashini South, Mbabane, Inkhundla Mbabane, Hhohho Region, H100, Eswatini",
        "road": "Indingilizi Road",
        "house_number": null,
        "neighbourhood": "Sidwashini South",
        "suburb": null,
        "city_district": null,
        "city": "Mbabane",
        "state": "Hhohho Region",
        "postcode": "H100",
        "country": "Eswatini",
        "country_code": "sz"
      },
      "address": "Indingilizi Road, Mbabane, Hhohho Region, Eswatini"
    },
    {
      "lat": -26.275297012265174,
      "lon": 31.135317211148248,
      "geoinfo": {
        "display_name": "Mantsholo Road, Mbabane, Inkhundla Mbabane, Hhohho Region, Eswatini",
        "road": "Mantsholo Road",
        "house_number": null,
        "neighbourhood": null,
        "suburb": null,
        "city_district": null,
        "city": "Mbabane",
        "state": "Hhohho Region",
        "postcode": null,
        "country": "Eswatini",
        "country_code": "sz"
      },
      "address": "Mantsholo Road, Mbabane, Hhohho Region, Eswatini"
    },
    {
      "lat": -26.282975994034434,
      "lon": 31.141891651288343,
      "geoinfo": {
        "display_name": "Pine Valley, Mbabane, Inkhundla Mbabane, Hhohho Region, H100, Eswatini",
        "road": null,
        "house_number": null,
        "neighbourhood": "Pine Valley",
        "suburb": null,
        "city_district": null,
        "city": "Mbabane",
        "state": "Hhohho Region",
        "postcode": "H100",
        "country": "Eswatini",
        "country_code": "sz"
      },
      "address": "Pine Valley, Mbabane, Hhohho Region, Eswatini"
    },
    {
      "lat": -26.290330262424593,
      "lon": 31.15664369626103,
      "geoinfo": {
        "display_name": "Pine Valley Road, Inkhundla Mbabane, Hhohho Region, H100, Eswatini",
        "road": "Pine Valley Road",
        "house_number": null,
        "neighbourhood": null,
        "suburb": null,
        "city_district": null,
        "city": null,
        "state": "Hhohho Region",
        "postcode": "H100",
        "country": "Eswatini",
        "country_code": "sz"
      },
      "address": "Pine Valley Road, Mbabane, Hhohho Region, Eswatini"
    },
    {
      "lat": -26.323032382844865,
      "lon": 31.125864677364675,
      "geoinfo": {
        "display_name": "Checkers, Mbabane, Inkhundla Mbabane, Hhohho Region, H100, Eswatini",
        "road": null,
        "house_number": null,
        "neighbourhood": "Checkers",
        "suburb": null,
        "city_district": null,
        "city": "Mbabane",
        "state": "Hhohho Region",
        "postcode": "H100",
        "country": "Eswatini",
        "country_code": "sz"
      },
      "address": "Checkers, Mbabane, Hhohho Region, Eswatini"
    },
    {
      "lat": -26.308133190793715,
      "lon": 31.121620746349766,
      "geoinfo": {
        "display_name": "Swaziland College of Technology, Somhlolo Road, Sandla, Mbabane, Inkhundla Mbabane, Hhohho Region, H100, Eswatini",
        "road": "Somhlolo Road",
        "house_number": null,
        "neighbourhood": "Sandla",
        "suburb": null,
        "city_district": null,
        "city": "Mbabane",
        "state": "Hhohho Region",
        "postcode": "H100",
        "country": "Eswatini",
        "country_code": "sz"
      },
      "address": "Somhlolo Road, Mbabane, Hhohho Region, Eswatini"
    },
    {
      "lat": -26.29651728737767,
      "lon": 31.13160948106367,
      "geoinfo": {
        "display_name": "Gilson Road, Thembelihle, Mbabane, Inkhundla Mbabane, Hhohho Region, H100, Eswatini",
        "road": "Gilson Road",
        "house_number": null,
        "neighbourhood": "Thembelihle",
        "suburb": null,
        "city_district": null,
        "city": "Mbabane",
        "state": "Hhohho Region",
        "postcode": "H100",
        "country": "Eswatini",
        "country_code": "sz"
      },
      "address": "Gilson Road, Mbabane, Hhohho Region, Eswatini"
    },
    {
      "lat": -26.296197503722954,
      "lon": 31.11354571900344,
      "geoinfo": {
        "display_name": "Sidwashini North, Mbabane, Inkhundla Mbabane, Hhohho Region, H100, Eswatini",
        "road": null,
        "house_number": null,
        "neighbourhood": "Sidwashini North",
        "suburb": null,
        "city_district": null,
        "city": "Mbabane",
        "state": "Hhohho Region",
        "postcode": "H100",
        "country": "Eswatini",
        "country_code": "sz"
      },
      "address": "Sidwashini North, Mbabane, Hhohho Region, Eswatini"
    },
    {
      "lat": -26.291239214058017,
      "lon": 31.141024096291176,
      "geoinfo": {
        "display_name": "Msuka Street, Thembelihle, Mbabane, Inkhundla Mbabane, Hhohho Region, H100, Eswatini",
        "road": "Msuka Street",
        "house_number": null,
        "neighbourhood": "Thembelihle",
        "suburb": null,
        "city_district": null,
        "city": "Mbabane",
        "state": "Hhohho Region",
        "postcode": "H100",
        "country": "Eswatini",
        "country_code": "sz"
      },
      "address": "Msuka Street, Mbabane, Hhohho Region, Eswatini"
    },
    {
      "lat": -26.335152607703144,
      "lon": 31.14610254816026,
      "geoinfo": {
        "display_name": "Univeristy of Eswatini (Mbabane Campus), Television Road, Mangwaneni, Mbabane, Inkhundla Mbabane, Hhohho Region, H100, Eswatini",
        "road": "Television Road",
        "house_number": null,
        "neighbourhood": "Mangwaneni",
        "suburb": null,
        "city_district": null,
        "city": "Mbabane",
        "state": "Hhohho Region",
        "postcode": "H100",
        "country": "Eswatini",
        "country_code": "sz"
      },
      "address": "Television Road, Mbabane, Hhohho Region, Eswatini"
    },
    {
      "lat": -26.312529751377443,
      "lon": 31.116728991109134,
      "geoinfo": {
        "display_name": "Sandla, Mbabane, Inkhundla Mbabane, Hhohho Region, H100, Eswatini",
        "road": null,
        "house_number": null,
        "neighbourhood": "Sandla",
        "suburb": null,
        "city_district": null,
        "city": "Mbabane",
        "state": "Hhohho Region",
        "postcode": "H100",
        "country": "Eswatini",
        "country_code": "sz"
      },
      "address": "Sandla, Mbabane, Hhohho Region, Eswatini"
    },
    {
      "lat": -26.309946418115462,
      "lon": 31.114229951343585,
      "geoinfo": {
        "display_name": "Sidwashini South, Mbabane, Inkhundla Mbabane, Hhohho Region, H100, Eswatini",
        "road": null,
        "house_number": null,
        "neighbourhood": "Sidwashini South",
        "suburb": null,
        "city_district": null,
        "city": "Mbabane",
        "state": "Hhohho Region",
        "postcode": "H100",
        "country": "Eswatini",
        "country_code": "sz"
      },
      "address": "540, Sidwashini South, Mbabane, Inkhundla Mbabane, Hhohho Region, H100, Eswatini"
    },
    {
      "lat": -26.32183196725691,
      "lon": 31.147013928512905,
      "geoinfo": {
        "display_name": "Polinjane Street, Mbabane, Inkhundla Mbabane, Hhohho Region, H100, Eswatini",
        "road": "Polinjane Street",
        "house_number": null,
        "neighbourhood": null,
        "suburb": null,
        "city_district": null,
        "city": "Mbabane",
        "state": "Hhohho Region",
        "postcode": "H100",
        "country": "Eswatini",
        "country_code": "sz"
      },
      "address": "386, Polinjane Street, Mbabane, Inkhundla Mbabane, Hhohho Region, H100, Eswatini"
    },
    {
      "lat": -26.29720949045418,
      "lon": 31.095306441335183,
      "geoinfo": {
        "display_name": "Mbabane, Inkhundla Mbabane, Hhohho Region, Eswatini",
        "road": null,
        "house_number": null,
        "neighbourhood": null,
        "suburb": null,
        "city_district": null,
        "city": "Mbabane",
        "state": "Hhohho Region",
        "postcode": null,
        "country": "Eswatini",
        "country_code": "sz"
      },
      "address": "902, Mbabane, Inkhundla Mbabane, 13499 Hhohho Region, Eswatini"
    },
    {
      "lat": -26.30770261492828,
      "lon": 31.164530634069155,
      "geoinfo": {
        "display_name": "Fonteyn, Mbabane, Inkhundla Mbabane, Hhohho Region, H100, Eswatini",
        "road": null,
        "house_number": null,
        "neighbourhood": "Fonteyn",
        "suburb": null,
        "city_district": null,
        "city": "Mbabane",
        "state": "Hhohho Region",
        "postcode": "H100",
        "country": "Eswatini",
        "country_code": "sz"
      },
      "address": "639, Fonteyn, Mbabane, Inkhundla Mbabane, Hhohho Region, H100, Eswatini"
    },
    {
      "lat": -26.294818397078792,
      "lon": 31.145526610314448,
      "geoinfo": {
        "display_name": "Pine Valley Road, Inkhundla Mbabane, Hhohho Region, Eswatini",
        "road": "Pine Valley Road",
        "house_number": null,
        "neighbourhood": null,
        "suburb": null,
        "city_district": null,
        "city": null,
        "state": "Hhohho Region",
        "postcode": null,
        "country": "Eswatini",
        "country_code": "sz"
      },
      "address": "824, Pine Valley Road, Inkhundla Mbabane, 82723 Hhohho Region, Eswatini"
    },
    {
      "lat": -26.282935498843294,
      "lon": 31.126766797533623,
      "geoinfo": {
        "display_name": "Thembelihle, Mbabane, Inkhundla Mbabane, Hhohho Region, H100, Eswatini",
        "road": null,
        "house_number": null,
        "neighbourhood": "Thembelihle",
        "suburb": null,
        "city_district": null,
        "city": "Mbabane",
        "state": "Hhohho Region",
        "postcode": "H100",
        "country": "Eswatini",
        "country_code": "sz"
      },
      "address": "753, Thembelihle, Mbabane, Inkhundla Mbabane, Hhohho Region, H100, Eswatini"
    },
    {
      "lat": -26.28791594048391,
      "lon": 31.126440864988204,
      "geoinfo": {
        "display_name": "Thembelihle, Mbabane, Inkhundla Mbabane, Hhohho Region, H100, Eswatini",
        "road": null,
        "house_number": null,
        "neighbourhood": "Thembelihle",
        "suburb": null,
        "city_district": null,
        "city": "Mbabane",
        "state": "Hhohho Region",
        "postcode": "H100",
        "country": "Eswatini",
        "country_code": "sz"
      },
      "address": "772, Thembelihle, Mbabane, Inkhundla Mbabane, Hhohho Region, H100, Eswatini"
    },
    {
      "lat": -26.294897346112897,
      "lon": 31.095517877596865,
      "geoinfo": {
        "display_name": "Mbabane, Inkhundla Mbabane, Hhohho Region, Eswatini",
        "road": null,
        "house_number": null,
        "neighbourhood": null,
        "suburb": null,
        "city_district": null,
        "city": "Mbabane",
        "state": "Hhohho Region",
        "postcode": null,
        "country": "Eswatini",
        "country_code": "sz"
      },
      "address": "919, Mbabane, Inkhundla Mbabane, 94836 Hhohho Region, Eswatini"
    },
    {
      "lat": -26.33392871345813,
      "lon": 31.13972463009554,
      "geoinfo": {
        "display_name": "Lusutfu Road, Mangwaneni, Mbabane, Inkhundla Mbabane, Hhohho Region, H100, Eswatini",
        "road": "Lusutfu Road",
        "house_number": null,
        "neighbourhood": "Mangwaneni",
        "suburb": null,
        "city_district": null,
        "city": "Mbabane",
        "state": "Hhohho Region",
        "postcode": "H100",
        "country": "Eswatini",
        "country_code": "sz"
      },
      "address": "083, Lusutfu Road, Mangwaneni, Mbabane, Inkhundla Mbabane, Hhohho Region, H100, Eswatini"
    },
    {
      "lat": -26.351104289101073,
      "lon": 31.16490463243091,
      "geoinfo": {
        "display_name": "Inkhundla Hhukwini, Hhohho Region, Eswatini",
        "road": null,
        "house_number": null,
        "neighbourhood": null,
        "suburb": null,
        "city_district": null,
        "city": null,
        "state": "Hhohho Region",
        "postcode": null,
        "country": "Eswatini",
        "country_code": "sz"
      },
      "address": "184, Mbabane, 95655 Hhohho Region, Eswatini"
    },
    {
      "lat": -26.31566826206507,
      "lon": 31.10083233245863,
      "geoinfo": {
        "display_name": "Mbabane, Inkhundla Mbabane, Hhohho Region, H100, Eswatini",
        "road": null,
        "house_number": null,
        "neighbourhood": null,
        "suburb": null,
        "city_district": null,
        "city": "Mbabane",
        "state": "Hhohho Region",
        "postcode": "H100",
        "country": "Eswatini",
        "country_code": "sz"
      },
      "address": "277, Mbabane, Inkhundla Mbabane, Hhohho Region, H100, Eswatini"
    },
    {
      "lat": -26.311084176514957,
      "lon": 31.139614466779292,
      "geoinfo": {
        "display_name": "Lugalo Crose, Queensgate, Mbabane, Inkhundla Mbabane, Hhohho Region, H100, Eswatini",
        "road": "Lugalo Crose",
        "house_number": null,
        "neighbourhood": "Queensgate",
        "suburb": null,
        "city_district": null,
        "city": "Mbabane",
        "state": "Hhohho Region",
        "postcode": "H100",
        "country": "Eswatini",
        "country_code": "sz"
      },
      "address": "434, Lugalo Crose, Queensgate, Mbabane, Inkhundla Mbabane, Hhohho Region, H100, Eswatini"
    },
    {
      "lat": -26.30191952178555,
      "lon": 31.12676954940363,
      "geoinfo": {
        "display_name": "Beverly Hills, Mbabane, Inkhundla Mbabane, Hhohho Region, H100, Eswatini",
        "road": null,
        "house_number": null,
        "neighbourhood": "Beverly Hills",
        "suburb": null,
        "city_district": null,
        "city": "Mbabane",
        "state": "Hhohho Region",
        "postcode": "H100",
        "country": "Eswatini",
        "country_code": "sz"
      },
      "address": "946, Beverly Hills, Mbabane, Inkhundla Mbabane, Hhohho Region, H100, Eswatini"
    },
    {
      "lat": -26.296519998348476,
      "lon": 31.104868553511007,
      "geoinfo": {
        "display_name": "Sidwashini North, Mbabane, Inkhundla Mbabane, Hhohho Region, H100, Eswatini",
        "road": null,
        "house_number": null,
        "neighbourhood": "Sidwashini North",
        "suburb": null,
        "city_district": null,
        "city": "Mbabane",
        "state": "Hhohho Region",
        "postcode": "H100",
        "country": "Eswatini",
        "country_code": "sz"
      },
      "address": "901, Sidwashini North, Mbabane, Inkhundla Mbabane, Hhohho Region, H100, Eswatini"
    },
    {
      "lat": -26.353598682504114,
      "lon": 31.15298915796729,
      "geoinfo": {
        "display_name": "Mbabane, Inkhundla Mbabane, Hhohho Region, H100, Eswatini",
        "road": null,
        "house_number": null,
        "neighbourhood": null,
        "suburb": null,
        "city_district": null,
        "city": "Mbabane",
        "state": "Hhohho Region",
        "postcode": "H100",
        "country": "Eswatini",
        "country_code": "sz"
      },
      "address": "445, Mbabane, Inkhundla Mbabane, Hhohho Region, H100, Eswatini"
    },
    {
      "lat": -26.346417631415424,
      "lon": 31.09800877389453,
      "geoinfo": {
        "display_name": "Mbabane, Inkhundla Mbabane, Hhohho Region, H100, Eswatini",
        "road": null,
        "house_number": null,
        "neighbourhood": null,
        "suburb": null,
        "city_district": null,
        "city": "Mbabane",
        "state": "Hhohho Region",
        "postcode": "H100",
        "country": "Eswatini",
        "country_code": "sz"
      },
      "address": "026, Mbabane, Inkhundla Mbabane, Hhohho Region, H100, Eswatini"
    },
    {
      "lat": -26.32317132782585,
      "lon": 31.147264787985723,
      "geoinfo": {
        "display_name": "Polinjane Street, Extension 3, Mbabane, Inkhundla Mbabane, Hhohho Region, H100, Eswatini",
        "road": "Polinjane Street",
        "house_number": null,
        "neighbourhood": "Extension 3",
        "suburb": null,
        "city_district": null,
        "city": "Mbabane",
        "state": "Hhohho Region",
        "postcode": "H100",
        "country": "Eswatini",
        "country_code": "sz"
      },
      "address": "Polinjane Street, Extension 3, Mbabane, Inkhundla Mbabane, Hhohho Region, H100, Eswatini"
    },
    {
      "lat": -26.321508177244542,
      "lon": 31.156698742610043,
      "geoinfo": {
        "display_name": "Mbabane, Inkhundla Mbabane, Hhohho Region, H100, Eswatini",
        "road": null,
        "house_number": null,
        "neighbourhood": null,
        "suburb": null,
        "city_district": null,
        "city": "Mbabane",
        "state": "Hhohho Region",
        "postcode": "H100",
        "country": "Eswatini",
        "country_code": "sz"
      },
      "address": "027, Mbabane, Inkhundla Mbabane, Hhohho Region, H100, Eswatini"
    },
    {
      "lat": -26.34504790959329,
      "lon": 31.15587296352114,
      "geoinfo": {
        "display_name": "Mountain Inn, Mbabane, Inkhundla Mbabane, Hhohho Region, H100, Eswatini",
        "road": null,
        "house_number": null,
        "neighbourhood": "Mountain Inn",
        "suburb": null,
        "city_district": null,
        "city": "Mbabane",
        "state": "Hhohho Region",
        "postcode": "H100",
        "country": "Eswatini",
        "country_code": "sz"
      },
      "address": "494, Mountain Inn, Mbabane, Inkhundla Mbabane, Hhohho Region, H100, Eswatini"
    },
    {
      "lat": -26.299093708034015,
      "lon": 31.160619784747013,
      "geoinfo": {
        "display_name": "Fonteyn, Mbabane, Inkhundla Mbabane, Hhohho Region, H100, Eswatini",
        "road": null,
        "house_number": null,
        "neighbourhood": "Fonteyn",
        "suburb": null,
        "city_district": null,
        "city": "Mbabane",
        "state": "Hhohho Region",
        "postcode": "H100",
        "country": "Eswatini",
        "country_code": "sz"
      },
      "address": "783, Fonteyn, Mbabane, Inkhundla Mbabane, Hhohho Region, H100, Eswatini"
    },
    {
      "lat": -26.33484034716631,
      "lon": 31.122290383964934,
      "geoinfo": {
        "display_name": "Mbabane, Inkhundla Mbabane, Hhohho Region, H100, Eswatini",
        "road": null,
        "house_number": null,
        "neighbourhood": null,
        "suburb": null,
        "city_district": null,
        "city": "Mbabane",
        "state": "Hhohho Region",
        "postcode": "H100",
        "country": "Eswatini",
        "country_code": "sz"
      },
      "address": "677, Mbabane, Inkhundla Mbabane, Hhohho Region, H100, Eswatini"
    },
    {
      "lat": -26.324197757343075,
      "lon": 31.119548496909463,
      "geoinfo": {
        "display_name": "MR3, Manzana, Mbabane, Inkhundla Mbabane, Hhohho Region, H100, Eswatini",
        "road": "MR3",
        "house_number": null,
        "neighbourhood": "Manzana",
        "suburb": null,
        "city_district": null,
        "city": "Mbabane",
        "state": "Hhohho Region",
        "postcode": "H100",
        "country": "Eswatini",
        "country_code": "sz"
      },
      "address": "MR3, Manzana, Mbabane, Inkhundla Mbabane, Hhohho Region, H100, Eswatini"
    },
    {
      "lat": -26.323058867297604,
      "lon": 31.151139528810553,
      "geoinfo": {
        "display_name": "Mbabane, Inkhundla Mbabane, Hhohho Region, H100, Eswatini",
        "road": null,
        "house_number": null,
        "neighbourhood": null,
        "suburb": null,
        "city_district": null,
        "city": "Mbabane",
        "state": "Hhohho Region",
        "postcode": "H100",
        "country": "Eswatini",
        "country_code": "sz"
      },
      "address": "895, Mbabane, Inkhundla Mbabane, Hhohho Region, H100, Eswatini"
    },
    {
      "lat": -26.304924389608978,
      "lon": 31.17870436535051,
      "geoinfo": {
        "display_name": "Mbabane, Inkhundla Mbabane, Hhohho Region, H100, Eswatini",
        "road": null,
        "house_number": null,
        "neighbourhood": null,
        "suburb": null,
        "city_district": null,
        "city": "Mbabane",
        "state": "Hhohho Region",
        "postcode": "H100",
        "country": "Eswatini",
        "country_code": "sz"
      },
      "address": "757, Mbabane, Inkhundla Mbabane, Hhohho Region, H100, Eswatini"
    },
    {
      "lat": -26.276852225594503,
      "lon": 31.127616948865576,
      "geoinfo": {
        "display_name": "Inkhundla Nkhaba, Hhohho Region, Eswatini",
        "road": null,
        "house_number": null,
        "neighbourhood": null,
        "suburb": null,
        "city_district": null,
        "city": null,
        "state": "Hhohho Region",
        "postcode": null,
        "country": "Eswatini",
        "country_code": "sz"
      },
      "address": "525, Mbabane, 79465 Hhohho Region, Eswatini"
    },
    {
      "lat": -26.346587048653895,
      "lon": 31.12837275003017,
      "geoinfo": {
        "display_name": "Mbabane, Inkhundla Mbabane, Hhohho Region, H100, Eswatini",
        "road": null,
        "house_number": null,
        "neighbourhood": null,
        "suburb": null,
        "city_district": null,
        "city": "Mbabane",
        "state": "Hhohho Region",
        "postcode": "H100",
        "country": "Eswatini",
        "country_code": "sz"
      },
      "address": "217, Mbabane, Inkhundla Mbabane, Hhohho Region, H100, Eswatini"
    },
    {
      "lat": -26.339607038733742,
      "lon": 31.12084280651895,
      "geoinfo": {
        "display_name": "Mbabane, Inkhundla Mbabane, Hhohho Region, H100, Eswatini",
        "road": null,
        "house_number": null,
        "neighbourhood": null,
        "suburb": null,
        "city_district": null,
        "city": "Mbabane",
        "state": "Hhohho Region",
        "postcode": "H100",
        "country": "Eswatini",
        "country_code": "sz"
      },
      "address": "343, Mbabane, Inkhundla Mbabane, Hhohho Region, H100, Eswatini"
    },
    {
      "lat": -26.287250097487803,
      "lon": 31.101888642078375,
      "geoinfo": {
        "display_name": "MR3, Sidwashini North, Mbabane, Inkhundla Mbabane, Hhohho Region, Eswatini",
        "road": "MR3",
        "house_number": null,
        "neighbourhood": "Sidwashini North",
        "suburb": null,
        "city_district": null,
        "city": "Mbabane",
        "state": "Hhohho Region",
        "postcode": null,
        "country": "Eswatini",
        "country_code": "sz"
      },
      "address": "MR3, Sidwashini North, Mbabane, Inkhundla Mbabane, 87444 Hhohho Region, Eswatini"
    },
    {
      "lat": -26.311822801590328,
      "lon": 31.084324224040603,
      "geoinfo": {
        "display_name": "Inkhundla Motjane, Hhohho Region, Eswatini",
        "road": null,
        "house_number": null,
        "neighbourhood": null,
        "suburb": null,
        "city_district": null,
        "city": null,
        "state": "Hhohho Region",
        "postcode": null,
        "country": "Eswatini",
        "country_code": "sz"
      },
      "address": "308, Mbabane, 07684 Hhohho Region, Eswatini"
    },
    {
      "lat": -26.312383799421706,
      "lon": 31.08599632456226,
      "geoinfo": {
        "display_name": "Inkhundla Motjane, Hhohho Region, Eswatini",
        "road": null,
        "house_number": null,
        "neighbourhood": null,
        "suburb": null,
        "city_district": null,
        "city": null,
        "state": "Hhohho Region",
        "postcode": null,
        "country": "Eswatini",
        "country_code": "sz"
      },
      "address": "243, Mbabane, 80678 Hhohho Region, Eswatini"
    },
    {
      "lat": -26.332211202812267,
      "lon": 31.169140333841973,
      "geoinfo": {
        "display_name": "Mbabane, Inkhundla Mbabane, Hhohho Region, H100, Eswatini",
        "road": null,
        "house_number": null,
        "neighbourhood": null,
        "suburb": null,
        "city_district": null,
        "city": "Mbabane",
        "state": "Hhohho Region",
        "postcode": "H100",
        "country": "Eswatini",
        "country_code": "sz"
      },
      "address": "865, Mbabane, Inkhundla Mbabane, Hhohho Region, H100, Eswatini"
    },
    {
      "lat": -26.337186899544964,
      "lon": 31.097029615893938,
      "geoinfo": {
        "display_name": "Mbabane, Inkhundla Mbabane, Hhohho Region, H100, Eswatini",
        "road": null,
        "house_number": null,
        "neighbourhood": null,
        "suburb": null,
        "city_district": null,
        "city": "Mbabane",
        "state": "Hhohho Region",
        "postcode": "H100",
        "country": "Eswatini",
        "country_code": "sz"
      },
      "address": "781, Mbabane, Inkhundla Mbabane, Hhohho Region, H100, Eswatini"
    },
    {
      "lat": -26.358886062731926,
      "lon": 31.124324998086706,
      "geoinfo": {
        "display_name": "Mbabane, Inkhundla Mbabane, Hhohho Region, H100, Eswatini",
        "road": null,
        "house_number": null,
        "neighbourhood": null,
        "suburb": null,
        "city_district": null,
        "city": "Mbabane",
        "state": "Hhohho Region",
        "postcode": "H100",
        "country": "Eswatini",
        "country_code": "sz"
      },
      "address": "883, Mbabane, Inkhundla Mbabane, Hhohho Region, H100, Eswatini"
    },
    {
      "lat": -26.3427355834459,
      "lon": 31.166538915865484,
      "geoinfo": {
        "display_name": "Mbabane, Inkhundla Mbabane, Hhohho Region, H100, Eswatini",
        "road": null,
        "house_number": null,
        "neighbourhood": null,
        "suburb": null,
        "city_district": null,
        "city": "Mbabane",
        "state": "Hhohho Region",
        "postcode": "H100",
        "country": "Eswatini",
        "country_code": "sz"
      },
      "address": "083, Mbabane, Inkhundla Mbabane, Hhohho Region, H100, Eswatini"
    }
  ],
  "updated_at": "2025-10-19T07:10:24.972448+00:00",
  "_kind": "geo_samples"
}