{
  "country_code": "AZ",
  "country": "Azerbaijan",
  "city": "Ganja",
  "geonameid": 586523,
  "target_addresses": 2,
  "samples": [
    {
      "lat": 40.67119607807079,
      "lon": 46.3214586751707,
      "geoinfo": {
        "display_name": "2nd microdistrict, Kapaz Raion, Ganja City, 2024, Azerbaijan",
        "road": null,
        "house_number": null,
        "neighbourhood": "2nd microdistrict",
        "suburb": null,
        "city_district": "Kapaz Raion",
        "city": "Ganja City",
        "state": null,
        "postcode": "2024",
        "country": "Azerbaijan",
        "country_code": "az"
      },
      "address": "2nd microdistrict, Ganja, Azerbaijan"
    },
    {
      "lat": 40.67129404281278,
      "lon": 46.38469205471871,
      "geoinfo": {
        "display_name": "Cavadxan, Nizami Raion, Ganja City, 2011, Azerbaijan",
        "road": null,
        "house_number": null,
        "neighbourhood": null,
        "suburb": "Cavadxan",
        "city_district": "Nizami Raion",
        "city": "Ganja City",
        "state": null,
        "postcode": "2011",
        "country": "Azerbaijan",
        "country_code": "az"
      },
      "address": "Cavadxan, Ganja, Azerbaijan"
    },
    {
      "lat": 40.65241071216821,
      "lon": 46.3773768113352,
      "geoinfo": {
        "display_name": "Daşqın inşaat, Cümhuriyyət, Cavadxan, Nizami Raion, Ganja City, 2002, Azerbaijan",
        "road": "Cümhuriyyət",
        "house_number": null,
        "neighbourhood": null,
        "suburb": "Cavadxan",
        "city_district": "Nizami Raion",
        "city": "Ganja City",
        "state": null,
        "postcode": "2002",
        "country": "Azerbaijan",
        "country_code": "az"
      },
      "address": "946, Cümhuriyyət, 2002 Ganja, Azerbaijan"
    },
    {
      "lat": 40.66201067339322,
      "lon": 46.30819218682364,
      "geoinfo": {
        "display_name": "Kapaz Raion, Ganja City, 2024, Azerbaijan",
        "road": null,
        "house_number": null,
        "neighbourhood": null,
        "suburb": null,
        "city_district": "Kapaz Raion",
        "city": "Ganja City",
        "state": null,
        "postcode": "2024",
        "country": "Azerbaijan",
        "country_code": "az"
      },
      "address": "718, Kapaz Raion, Ganja City, 2024, Azerbaijan"
    }
  ],
  "updated_at": "2025-10-19T00:57:35.346467+00:00",
  "_kind": "geo_samples"
}