{
  "country_code": "AZ",
  "country": "Azerbaijan",
  "city": "Göyçay",
  "geonameid": 586427,
  "target_addresses": 2,
  "samples": [
    {
      "lat": 40.62619275058079,
      "lon": 47.69362842260871,
      "geoinfo": {
        "display_name": "Qarabağlar, Goychay District, Azerbaijan",
        "road": null,
        "house_number": null,
        "neighbourhood": null,
        "suburb": null,
        "city_district": null,
        "city": "Qarabağlar",
        "state": null,
        "postcode": null,
        "country": "Azerbaijan",
        "country_code": "az"
      },
      "address": "Göyçay, Azerbaijan"
    },
    {
      "lat": 40.665006880932594,
      "lon": 47.74594238564317,
      "geoinfo": {
        "display_name": "Rauf İsayev küç., Goychay, Goychay District, 2300, Azerbaijan",
        "road": "Rauf İsayev küç.",
        "house_number": null,
        "neighbourhood": null,
        "suburb": null,
        "city_district": null,
        "city": "Goychay",
        "state": null,
        "postcode": "2300",
        "country": "Azerbaijan",
        "country_code": "az"
      },
      "address": "Rauf İsayev küç., Göyçay, Azerbaijan"
    },
    {
      "lat": 40.66096451578331,
      "lon": 47.741297724945206,
      "geoinfo": {
        "display_name": "Şəhriyar küç., Goychay, Goychay District, 2300, Azerbaijan",
        "road": "Şəhriyar küç.",
        "house_number": null,
        "neighbourhood": null,
        "suburb": null,
        "city_district": null,
        "city": "Goychay",
        "state": null,
        "postcode": "2300",
        "country": "Azerbaijan",
        "country_code": "az"
      },
      "address": "605, Şəhriyar küç., 2300 Göyçay, Azerbaijan"
    },
    {
      "lat": 40.661779808147465,
      "lon": 47.73720960953255,
      "geoinfo": {
        "display_name": "Zakir Nəcəfov küç., Birincii Ərəbcəbirli, Goychay District, 2303, Azerbaijan",
        "road": "Zakir Nəcəfov küç.",
        "house_number": null,
        "neighbourhood": null,
        "suburb": null,
        "city_district": null,
        "city": "Birincii Ərəbcəbirli",
        "state": null,
        "postcode": "2303",
        "country": "Azerbaijan",
        "country_code": "az"
      },
      "address": "461, Zakir Nəcəfov küç., 2303 Göyçay, Azerbaijan"
    }
  ],
  "updated_at": "2025-10-19T02:33:46.006559+00:00",
  "_kind": "geo_samples"
}