{
  "country_code": "AZ",
  "country": "Azerbaijan",
  "city": "Lokbatan",
  "geonameid": 585630,
  "target_addresses": 10,
  "samples": [
    {
      "lat": 40.29416223150971,
      "lon": 49.76497735172904,
      "geoinfo": {
        "display_name": "M2, Sabail Raion, Baku City, Azerbaijan",
        "road": "M2",
        "house_number": null,
        "neighbourhood": null,
        "suburb": null,
        "city_district": "Sabail Raion",
        "city": "Baku City",
        "state": null,
        "postcode": null,
        "country": "Azerbaijan",
        "country_code": "az"
      },
      "address": "M2, Lokbatan, Azerbaijan"
    },
    {
      "lat": 40.31362677673261,
      "lon": 49.729174905241806,
      "geoinfo": {
        "display_name": "Lökbatan-Puta, Karadag Raion, Baku City, Azerbaijan",
        "road": "Lökbatan-Puta",
        "house_number": null,
        "neighbourhood": null,
        "suburb": null,
        "city_district": "Karadag Raion",
        "city": "Baku City",
        "state": null,
        "postcode": null,
        "country": "Azerbaijan",
        "country_code": "az"
      },
      "address": "Lökbatan-Puta, Lokbatan, Azerbaijan"
    },
    {
      "lat": 40.33148954957375,
      "lon": 49.747305249397485,
      "geoinfo": {
        "display_name": "Bilal Niftəliyev 21, 21, Alim Şəbiyev küç., Karadag Raion, Lokbatan, 1063, Azerbaijan",
        "road": "Alim Şəbiyev küç.",
        "house_number": "21",
        "neighbourhood": null,
        "suburb": null,
        "city_district": "Karadag Raion",
        "city": "Lokbatan",
        "state": null,
        "postcode": "1063",
        "country": "Azerbaijan",
        "country_code": "az"
      },
      "address": "21 Alim Şəbiyev küç., Lokbatan, Azerbaijan"
    },
    {
      "lat": 40.28587462966587,
      "lon": 49.73600683979112,
      "geoinfo": {
        "display_name": "Parkinq, Bakı-Ələt-Qazax-Gürcüstan yolu, Karadag Raion, Baku City, Azerbaijan",
        "road": "Bakı-Ələt-Qazax-Gürcüstan yolu",
        "house_number": null,
        "neighbourhood": null,
        "suburb": null,
        "city_district": "Karadag Raion",
        "city": "Baku City",
        "state": null,
        "postcode": null,
        "country": "Azerbaijan",
        "country_code": "az"
      },
      "address": "Parkinq, Bakı-Ələt-Qazax-Gürcüstan yolu, Karadag Raion, 80891 Baku City, Azerbaijan"
    },
    {
      "lat": 40.35275016775864,
      "lon": 49.751476841081214,
      "geoinfo": {
        "display_name": "19, Lökbatan - Qobu Highway, Karadag Raion, Baku City, Absheron District, Azerbaijan",
        "road": "Lökbatan - Qobu Highway",
        "house_number": "19",
        "neighbourhood": null,
        "suburb": null,
        "city_district": "Karadag Raion",
        "city": "Baku City",
        "state": null,
        "postcode": null,
        "country": "Azerbaijan",
        "country_code": "az"
      },
      "address": "19, Lökbatan - Qobu Highway, Karadag Raion, Baku City, 91457 Absheron District, Azerbaijan"
    },
    {
      "lat": 40.29884398044879,
      "lon": 49.748321435602676,
      "geoinfo": {
        "display_name": "Binə Bazarı \\ Lökbatan, Karadag Raion, Baku City, Azerbaijan",
        "road": null,
        "house_number": null,
        "neighbourhood": null,
        "suburb": null,
        "city_district": "Karadag Raion",
        "city": "Baku City",
        "state": null,
        "postcode": null,
        "country": "Azerbaijan",
        "country_code": "az"
      },
      "address": "760, Binə Bazarı \\ Lökbatan, Karadag Raion, 17667 Baku City, Azerbaijan"
    },
    {
      "lat": 40.32318696009239,
      "lon": 49.68839977323372,
      "geoinfo": {
        "display_name": "Karadag Raion, Baku City, Azerbaijan",
        "road": null,
        "house_number": null,
        "neighbourhood": null,
        "suburb": null,
        "city_district": "Karadag Raion",
        "city": "Baku City",
        "state": null,
        "postcode": null,
        "country": "Azerbaijan",
        "country_code": "az"
      },
      "address": "528, Karadag Raion, 87276 Baku City, Azerbaijan"
    },
    {
      "lat": 40.30247289483011,
      "lon": 49.71829666868347,
      "geoinfo": {
        "display_name": "Lökbatan-Puta, Karadag Raion, Baku City, Azerbaijan",
        "road": "Lökbatan-Puta",
        "house_number": null,
        "neighbourhood": null,
        "suburb": null,
        "city_district": "Karadag Raion",
        "city": "Baku City",
        "state": null,
        "postcode": null,
        "country": "Azerbaijan",
        "country_code": "az"
      },
      "address": "940, Lökbatan-Puta, Karadag Raion, 08198 Baku City, Azerbaijan"
    },
    {
      "lat": 40.31607292748519,
      "lon": 49.78496950115583,
      "geoinfo": {
        "display_name": "Şıxov Sədərək, Sabail Raion, Baku City, Azerbaijan",
        "road": null,
        "house_number": null,
        "neighbourhood": null,
        "suburb": null,
        "city_district": "Sabail Raion",
        "city": "Baku City",
        "state": null,
        "postcode": null,
        "country": "Azerbaijan",
        "country_code": "az"
      },
      "address": "297, Şıxov Sədərək, Sabail Raion, 66504 Baku City, Azerbaijan"
    },
    {
      "lat": 40.34453802520631,
      "lon": 49.77899305429229,
      "geoinfo": {
        "display_name": "Şubanı yolu, Şubanı, Karadag Raion, Baku City, 1063, Azerbaijan",
        "road": "Şubanı yolu",
        "house_number": null,
        "neighbourhood": null,
        "suburb": "Şubanı",
        "city_district": "Karadag Raion",
        "city": "Baku City",
        "state": null,
        "postcode": "1063",
        "country": "Azerbaijan",
        "country_code": "az"
      },
      "address": "888, Şubanı yolu, Şubanı, Karadag Raion, Baku City, 1063, Azerbaijan"
    },
    {
      "lat": 40.33728104258766,
      "lon": 49.68298441478137,
      "geoinfo": {
        "display_name": "Karadag Raion, Baku City, Azerbaijan",
        "road": null,
        "house_number": null,
        "neighbourhood": null,
        "suburb": null,
        "city_district": "Karadag Raion",
        "city": "Baku City",
        "state": null,
        "postcode": null,
        "country": "Azerbaijan",
        "country_code": "az"
      },
      "address": "053, Karadag Raion, 05102 Baku City, Azerbaijan"
    }
  ],
  "updated_at": "2025-10-19T03:18:46.202518+00:00",
  "_kind": "geo_samples"
}