{
  "country_code": "AZ",
  "country": "Azerbaijan",
  "city": "Sheki",
  "geonameid": 585170,
  "target_addresses": 11,
  "samples": [
    {
      "lat": 41.22289737564166,
      "lon": 47.141988892351534,
      "geoinfo": {
        "display_name": "Qoxmuq, Sheki District, 5503, Azerbaijan",
        "road": null,
        "house_number": null,
        "neighbourhood": null,
        "suburb": null,
        "city_district": null,
        "city": "Qoxmuq",
        "state": null,
        "postcode": "5503",
        "country": "Azerbaijan",
        "country_code": "az"
      },
      "address": "Sheki, Azerbaijan"
    },
    {
      "lat": 41.19856545100028,
      "lon": 47.21697670521053,
      "geoinfo": {
        "display_name": "Mustafa Bəyin Bağı, Giləhli küç., Shaki, 5500, Azerbaijan",
        "road": "Giləhli küç.",
        "house_number": null,
        "neighbourhood": null,
        "suburb": null,
        "city_district": null,
        "city": "Shaki",
        "state": null,
        "postcode": "5500",
        "country": "Azerbaijan",
        "country_code": "az"
      },
      "address": "Giləhli küç., Sheki, Azerbaijan"
    },
    {
      "lat": 41.19953664771936,
      "lon": 47.16751528363681,
      "geoinfo": {
        "display_name": "Ayiq_surucu_ve_taksi_xidmeti, 72, Sabit Rəhman küç., Shaki, 5503, Azerbaijan",
        "road": "Sabit Rəhman küç.",
        "house_number": "72",
        "neighbourhood": null,
        "suburb": null,
        "city_district": null,
        "city": "Shaki",
        "state": null,
        "postcode": "5503",
        "country": "Azerbaijan",
        "country_code": "az"
      },
      "address": "72 Sabit Rəhman küç., Sheki, Azerbaijan"
    },
    {
      "lat": 41.17330318324255,
      "lon": 47.11637254275568,
      "geoinfo": {
        "display_name": "Çələbixan qaçqın şəhərciyi, Sheki District, 5503, Azerbaijan",
        "road": null,
        "house_number": null,
        "neighbourhood": null,
        "suburb": null,
        "city_district": null,
        "city": "Çələbixan qaçqın şəhərciyi",
        "state": null,
        "postcode": "5503",
        "country": "Azerbaijan",
        "country_code": "az"
      },
      "address": "Çələbixan qaçqın şəhərciyi, Sheki District, 5503, Azerbaijan"
    },
    {
      "lat": 41.162936867178146,
      "lon": 47.129837231434294,
      "geoinfo": {
        "display_name": "Çələbixan qaçqın şəhərciyi, Sheki District, 5503, Azerbaijan",
        "road": null,
        "house_number": null,
        "neighbourhood": null,
        "suburb": null,
        "city_district": null,
        "city": "Çələbixan qaçqın şəhərciyi",
        "state": null,
        "postcode": "5503",
        "country": "Azerbaijan",
        "country_code": "az"
      },
      "address": "398, Çələbixan qaçqın şəhərciyi, Sheki District, 5503, Azerbaijan"
    },
    {
      "lat": 41.21259397220079,
      "lon": 47.18534582956829,
      "geoinfo": {
        "display_name": "Arxüstü küç., Shaki, 5500, Azerbaijan",
        "road": "Arxüstü küç.",
        "house_number": null,
        "neighbourhood": null,
        "suburb": null,
        "city_district": null,
        "city": "Shaki",
        "state": null,
        "postcode": "5500",
        "country": "Azerbaijan",
        "country_code": "az"
      },
      "address": "089, Arxüstü küç., 5500 Sheki, Azerbaijan"
    },
    {
      "lat": 41.200693526804834,
      "lon": 47.16214054113344,
      "geoinfo": {
        "display_name": "Simsim Bazarı \\ Şəki, Salman Mümtaz küç., Shaki, 5506, Azerbaijan",
        "road": "Salman Mümtaz küç.",
        "house_number": null,
        "neighbourhood": null,
        "suburb": null,
        "city_district": null,
        "city": "Shaki",
        "state": null,
        "postcode": "5506",
        "country": "Azerbaijan",
        "country_code": "az"
      },
      "address": "564, Salman Mümtaz küç., 5506 Sheki, Azerbaijan"
    },
    {
      "lat": 41.20364815116759,
      "lon": 47.16786858872329,
      "geoinfo": {
        "display_name": "Sabit Rəhman küç., Şəki, 5503, Azerbaijan",
        "road": "Sabit Rəhman küç.",
        "house_number": null,
        "neighbourhood": null,
        "suburb": null,
        "city_district": null,
        "city": "Şəki",
        "state": null,
        "postcode": "5503",
        "country": "Azerbaijan",
        "country_code": "az"
      },
      "address": "249, Sabit Rəhman küç., 5503 Sheki, Azerbaijan"
    },
    {
      "lat": 41.17548188306882,
      "lon": 47.165611808884556,
      "geoinfo": {
        "display_name": "Nuxavi küç., Shaki, 5506, Azerbaijan",
        "road": "Nuxavi küç.",
        "house_number": null,
        "neighbourhood": null,
        "suburb": null,
        "city_district": null,
        "city": "Shaki",
        "state": null,
        "postcode": "5506",
        "country": "Azerbaijan",
        "country_code": "az"
      },
      "address": "462, Nuxavi küç., 5506 Sheki, Azerbaijan"
    },
    {
      "lat": 41.19681714140321,
      "lon": 47.21437296700542,
      "geoinfo": {
        "display_name": "Mustafa Bəyin Bağı, Giləhli küç., Shaki, 5500, Azerbaijan",
        "road": "Giləhli küç.",
        "house_number": null,
        "neighbourhood": null,
        "suburb": null,
        "city_district": null,
        "city": "Shaki",
        "state": null,
        "postcode": "5500",
        "country": "Azerbaijan",
        "country_code": "az"
      },
      "address": "228, Giləhli küç., 5500 Sheki, Azerbaijan"
    },
    {
      "lat": 41.20723117503939,
      "lon": 47.12528304732743,
      "geoinfo": {
        "display_name": "Niyazi Tağızadə küç., Qoxmuq, Sheki District, 5503, Azerbaijan",
        "road": "Niyazi Tağızadə küç.",
        "house_number": null,
        "neighbourhood": null,
        "suburb": null,
        "city_district": null,
        "city": "Qoxmuq",
        "state": null,
        "postcode": "5503",
        "country": "Azerbaijan",
        "country_code": "az"
      },
      "address": "101, Niyazi Tağızadə küç., Qoxmuq, Sheki District, 5503, Azerbaijan"
    }
  ],
  "updated_at": "2025-10-19T03:17:54.204152+00:00",
  "_kind": "geo_samples"
}