{
  "country_code": "AZ",
  "country": "Azerbaijan",
  "city": "Şirvan",
  "geonameid": 148565,
  "target_addresses": 2,
  "samples": [
    {
      "lat": 39.93255037204128,
      "lon": 48.92992072807813,
      "geoinfo": {
        "display_name": "Shirvan, Shirvan District, 1800, Azerbaijan",
        "road": null,
        "house_number": null,
        "neighbourhood": null,
        "suburb": null,
        "city_district": null,
        "city": "Shirvan",
        "state": null,
        "postcode": "1800",
        "country": "Azerbaijan",
        "country_code": "az"
      },
      "address": "Şirvan, Azerbaijan"
    },
    {
      "lat": 39.937206753614504,
      "lon": 48.95176550045976,
      "geoinfo": {
        "display_name": "Kərpic Zavodu \\ Şirvan ş., Məhəmməd Əsədov küç., Shirvan, Shirvan District, 1800, Azerbaijan",
        "road": "Məhəmməd Əsədov küç.",
        "house_number": null,
        "neighbourhood": null,
        "suburb": null,
        "city_district": null,
        "city": "Shirvan",
        "state": null,
        "postcode": "1800",
        "country": "Azerbaijan",
        "country_code": "az"
      },
      "address": "Məhəmməd Əsədov küç., Şirvan, Azerbaijan"
    },
    {
      "lat": 39.92545545199086,
      "lon": 48.88069276466482,
      "geoinfo": {
        "display_name": "Qaraağac, Sabirabad District, Azerbaijan",
        "road": null,
        "house_number": null,
        "neighbourhood": null,
        "suburb": null,
        "city_district": null,
        "city": "Qaraağac",
        "state": null,
        "postcode": null,
        "country": "Azerbaijan",
        "country_code": "az"
      },
      "address": "826, Qaraağac, 75767 Sabirabad District, Azerbaijan"
    },
    {
      "lat": 39.9464880257671,
      "lon": 48.88288937306833,
      "geoinfo": {
        "display_name": "Minbaşı yolu, Dadaşbəyli, Sabirabad District, Azerbaijan",
        "road": "Minbaşı yolu",
        "house_number": null,
        "neighbourhood": null,
        "suburb": null,
        "city_district": null,
        "city": "Dadaşbəyli",
        "state": null,
        "postcode": null,
        "country": "Azerbaijan",
        "country_code": "az"
      },
      "address": "155, Minbaşı yolu, Dadaşbəyli, 79589 Sabirabad District, Azerbaijan"
    }
  ],
  "updated_at": "2025-10-19T02:32:36.203548+00:00",
  "_kind": "geo_samples"
}