{
  "country_code": "QA",
  "country": "Qatar",
  "city": "Al Ghānim",
  "geonameid": 411803,
  "target_addresses": 5,
  "samples": [
    {
      "lat": 25.291631707141413,
      "lon": 51.57236724706421,
      "geoinfo": {
        "display_name": "Doha, Qatar",
        "road": null,
        "house_number": null,
        "neighbourhood": null,
        "suburb": null,
        "city_district": null,
        "city": "Doha",
        "state": null,
        "postcode": null,
        "country": "Qatar",
        "country_code": "qa"
      },
      "address": "Al Ghānim, Qatar"
    },
    {
      "lat": 25.25859024572334,
      "lon": 51.57552936130984,
      "geoinfo": {
        "display_name": "Doha International Airport, C Ring Road, Umm Ghuwailina, Doha, Qatar",
        "road": "C Ring Road",
        "house_number": null,
        "neighbourhood": null,
        "suburb": "Umm Ghuwailina",
        "city_district": null,
        "city": "Doha",
        "state": null,
        "postcode": null,
        "country": "Qatar",
        "country_code": "qa"
      },
      "address": "C Ring Road, Al Ghānim, Qatar"
    },
    {
      "lat": 25.31178896230239,
      "lon": 51.52565806465246,
      "geoinfo": {
        "display_name": "Al Corniche Street, West Bay, Al Dafna, Doha, Qatar",
        "road": "Al Corniche Street",
        "house_number": null,
        "neighbourhood": null,
        "suburb": "West Bay",
        "city_district": null,
        "city": "Doha",
        "state": null,
        "postcode": null,
        "country": "Qatar",
        "country_code": "qa"
      },
      "address": "403, Al Corniche Street, West Bay, Al Dafna, 96439 Doha, Qatar"
    },
    {
      "lat": 25.25512705212477,
      "lon": 51.5366694560253,
      "geoinfo": {
        "display_name": "Najma Street, Al Hilal, Doha, Qatar",
        "road": "Najma Street",
        "house_number": null,
        "neighbourhood": null,
        "suburb": "Al Hilal",
        "city_district": null,
        "city": "Doha",
        "state": null,
        "postcode": null,
        "country": "Qatar",
        "country_code": "qa"
      },
      "address": "390, Najma Street, Al Hilal, 84717 Doha, Qatar"
    },
    {
      "lat": 25.247965057856227,
      "lon": 51.54186081268088,
      "geoinfo": {
        "display_name": "Musab Bin Mohammed Street, Old Airport, Doha, Qatar",
        "road": "Musab Bin Mohammed Street",
        "house_number": null,
        "neighbourhood": null,
        "suburb": "Old Airport",
        "city_district": null,
        "city": "Doha",
        "state": null,
        "postcode": null,
        "country": "Qatar",
        "country_code": "qa"
      },
      "address": "929, Musab Bin Mohammed Street, Old Airport, 83791 Doha, Qatar"
    },
    {
      "lat": 25.315295822395914,
      "lon": 51.556017545250455,
      "geoinfo": {
        "display_name": "Mina District, Doha Port, Doha, Qatar",
        "road": null,
        "house_number": null,
        "neighbourhood": null,
        "suburb": "Mina District",
        "city_district": null,
        "city": "Doha",
        "state": null,
        "postcode": null,
        "country": "Qatar",
        "country_code": "qa"
      },
      "address": "853, Mina District, Doha Port, 18210 Doha, Qatar"
    },
    {
      "lat": 25.28637899552267,
      "lon": 51.53605157237433,
      "geoinfo": {
        "display_name": "Ali Bin Abdulla Street, Al Souq, Doha, Qatar",
        "road": "Ali Bin Abdulla Street",
        "house_number": null,
        "neighbourhood": null,
        "suburb": "Al Souq",
        "city_district": null,
        "city": "Doha",
        "state": null,
        "postcode": null,
        "country": "Qatar",
        "country_code": "qa"
      },
      "address": "662, Ali Bin Abdulla Street, Al Souq, 17100 Doha, Qatar"
    }
  ],
  "updated_at": "2025-10-19T04:28:20.010498+00:00",
  "_kind": "geo_samples"
}