{
  "country_code": "QA",
  "country": "Qatar",
  "city": "Al Manşūrah",
  "geonameid": 411759,
  "target_addresses": 5,
  "samples": [
    {
      "lat": 25.257043180813927,
      "lon": 51.52956225489034,
      "geoinfo": {
        "display_name": "Omar Bin Haroun Street, Nuaija, Doha, Qatar",
        "road": "Omar Bin Haroun Street",
        "house_number": null,
        "neighbourhood": null,
        "suburb": "Nuaija",
        "city_district": null,
        "city": "Doha",
        "state": null,
        "postcode": null,
        "country": "Qatar",
        "country_code": "qa"
      },
      "address": "582, Omar Bin Haroun Street, Nuaija, 35400 Doha, Qatar"
    },
    {
      "lat": 25.259775212199315,
      "lon": 51.49893987768824,
      "geoinfo": {
        "display_name": "Basheer Bin Saad, Al Asiri, Doha, Qatar",
        "road": "Basheer Bin Saad",
        "house_number": null,
        "neighbourhood": null,
        "suburb": "Al Asiri",
        "city_district": null,
        "city": "Doha",
        "state": null,
        "postcode": null,
        "country": "Qatar",
        "country_code": "qa"
      },
      "address": "583, Basheer Bin Saad, Al Asiri, 16140 Doha, Qatar"
    },
    {
      "lat": 25.24333548656093,
      "lon": 51.50945137029998,
      "geoinfo": {
        "display_name": "Al Edd Al Sharqi Street, Al Rayyan, Qatar",
        "road": "Al Edd Al Sharqi Street",
        "house_number": null,
        "neighbourhood": null,
        "suburb": null,
        "city_district": null,
        "city": "Al Rayyan",
        "state": "Al Rayyan",
        "postcode": null,
        "country": "Qatar",
        "country_code": "qa"
      },
      "address": "224, Al Edd Al Sharqi Street, 45154 Al Rayyan, Qatar"
    },
    {
      "lat": 25.304857310721548,
      "lon": 51.53382619950548,
      "geoinfo": {
        "display_name": "Souq Waqif, Al Jasra, Doha, Qatar",
        "road": null,
        "house_number": null,
        "neighbourhood": "Souq Waqif",
        "suburb": "Al Jasra",
        "city_district": null,
        "city": "Doha",
        "state": null,
        "postcode": null,
        "country": "Qatar",
        "country_code": "qa"
      },
      "address": "374, Souq Waqif, Al Jasra, 56171 Doha, Qatar"
    },
    {
      "lat": 25.30116299391519,
      "lon": 51.51297499466386,
      "geoinfo": {
        "display_name": "Jogging Track, Arumaila, Doha, Qatar",
        "road": "Jogging Track",
        "house_number": null,
        "neighbourhood": null,
        "suburb": "Arumaila",
        "city_district": null,
        "city": "Doha",
        "state": null,
        "postcode": null,
        "country": "Qatar",
        "country_code": "qa"
      },
      "address": "013, Jogging Track, Arumaila, 12737 Doha, Qatar"
    }
  ],
  "updated_at": "2025-10-19T06:46:15.220884+00:00",
  "_kind": "geo_samples"
}