{
  "country_code": "QA",
  "country": "Qatar",
  "city": "Ath Thumāmah Khamsūn",
  "geonameid": 12242646,
  "target_addresses": 5,
  "samples": [
    {
      "lat": 25.181696950424033,
      "lon": 51.53138900796406,
      "geoinfo": {
        "display_name": "Al Zara Al Kabeer Street, Al Wukair, Al Wakrah, Qatar",
        "road": "Al Zara Al Kabeer Street",
        "house_number": null,
        "neighbourhood": null,
        "suburb": null,
        "city_district": null,
        "city": "Al Wukair",
        "state": null,
        "postcode": null,
        "country": "Qatar",
        "country_code": "qa"
      },
      "address": "860, Al Zara Al Kabeer Street, Al Wukair, 85081 Al Wakrah, Qatar"
    },
    {
      "lat": 25.23893316150899,
      "lon": 51.53606498760454,
      "geoinfo": {
        "display_name": "Kumail bin Ziyad Street, Nuaija, Doha, Qatar",
        "road": "Kumail bin Ziyad Street",
        "house_number": null,
        "neighbourhood": null,
        "suburb": "Nuaija",
        "city_district": null,
        "city": "Doha",
        "state": null,
        "postcode": null,
        "country": "Qatar",
        "country_code": "qa"
      },
      "address": "152, Kumail bin Ziyad Street, Nuaija, 51254 Doha, Qatar"
    },
    {
      "lat": 25.20666694960654,
      "lon": 51.51085305604355,
      "geoinfo": {
        "display_name": "Street 1115, Barwa City, Al Rayyan, Qatar",
        "road": "Street 1115",
        "house_number": null,
        "neighbourhood": null,
        "suburb": "Barwa City",
        "city_district": null,
        "city": "Al Rayyan",
        "state": "Al Rayyan",
        "postcode": null,
        "country": "Qatar",
        "country_code": "qa"
      },
      "address": "Street 1115, Barwa City, 98481 Al Rayyan, Qatar"
    },
    {
      "lat": 25.18990715960027,
      "lon": 51.51774071472173,
      "geoinfo": {
        "display_name": "G Ring Road, Al Wakrah, Qatar",
        "road": "G Ring Road",
        "house_number": null,
        "neighbourhood": null,
        "suburb": null,
        "city_district": null,
        "city": "Al Wakrah",
        "state": null,
        "postcode": null,
        "country": "Qatar",
        "country_code": "qa"
      },
      "address": "077, G Ring Road, 29074 Al Wakrah, Qatar"
    },
    {
      "lat": 25.192406958837083,
      "lon": 51.58230768772765,
      "geoinfo": {
        "display_name": "Waab Al Negaiah Street, Al Wakrah, Qatar",
        "road": "Waab Al Negaiah Street",
        "house_number": null,
        "neighbourhood": null,
        "suburb": null,
        "city_district": null,
        "city": "Al Wakrah",
        "state": null,
        "postcode": null,
        "country": "Qatar",
        "country_code": "qa"
      },
      "address": "163, Waab Al Negaiah Street, 55326 Al Wakrah, Qatar"
    }
  ],
  "updated_at": "2025-10-19T06:40:51.638488+00:00",
  "_kind": "geo_samples"
}