{
  "country_code": "QA",
  "country": "Qatar",
  "city": "Ath Thumāmah Sittah wa Arba‘ūn",
  "geonameid": 12242645,
  "target_addresses": 5,
  "samples": [
    {
      "lat": 25.2146503311906,
      "lon": 51.50906288789823,
      "geoinfo": {
        "display_name": "Naslat Al Maa Street, Barwa City, Al Rayyan, Qatar",
        "road": "Naslat Al Maa Street",
        "house_number": null,
        "neighbourhood": null,
        "suburb": "Barwa City",
        "city_district": null,
        "city": "Al Rayyan",
        "state": "Al Rayyan",
        "postcode": null,
        "country": "Qatar",
        "country_code": "qa"
      },
      "address": "610, Naslat Al Maa Street, Barwa City, 08471 Al Rayyan, Qatar"
    },
    {
      "lat": 25.239457260646006,
      "lon": 51.57695114453927,
      "geoinfo": {
        "display_name": "Al Matar Street, Doha International Airport, Doha, Qatar",
        "road": "Al Matar Street",
        "house_number": null,
        "neighbourhood": null,
        "suburb": "Doha International Airport",
        "city_district": null,
        "city": "Doha",
        "state": null,
        "postcode": null,
        "country": "Qatar",
        "country_code": "qa"
      },
      "address": "032, Al Matar Street, Doha International Airport, 41328 Doha, Qatar"
    },
    {
      "lat": 25.208670044323384,
      "lon": 51.53898258669216,
      "geoinfo": {
        "display_name": "Doha Express Highway, Al Rayyan, Qatar",
        "road": "Doha Express Highway",
        "house_number": null,
        "neighbourhood": null,
        "suburb": null,
        "city_district": null,
        "city": "Al Rayyan",
        "state": "Al Rayyan",
        "postcode": null,
        "country": "Qatar",
        "country_code": "qa"
      },
      "address": "504, Doha Express Highway, 73172 Al Rayyan, Qatar"
    },
    {
      "lat": 25.218631104113072,
      "lon": 51.53331101611915,
      "geoinfo": {
        "display_name": "F Ring Cycle Path, Al Rayyan, Qatar",
        "road": "F Ring Cycle Path",
        "house_number": null,
        "neighbourhood": null,
        "suburb": null,
        "city_district": null,
        "city": "Al Rayyan",
        "state": "Al Rayyan",
        "postcode": null,
        "country": "Qatar",
        "country_code": "qa"
      },
      "address": "198, F Ring Cycle Path, 51809 Al Rayyan, Qatar"
    },
    {
      "lat": 25.208384767945105,
      "lon": 51.543595488525355,
      "geoinfo": {
        "display_name": "G Ring Cycle Path, Doha, Qatar",
        "road": "G Ring Cycle Path",
        "house_number": null,
        "neighbourhood": null,
        "suburb": null,
        "city_district": null,
        "city": "Doha",
        "state": null,
        "postcode": null,
        "country": "Qatar",
        "country_code": "qa"
      },
      "address": "944, G Ring Cycle Path, 48224 Doha, Qatar"
    }
  ],
  "updated_at": "2025-10-19T06:43:34.620465+00:00",
  "_kind": "geo_samples"
}