{
  "country_code": "QA",
  "country": "Qatar",
  "city": "Doha",
  "geonameid": 290030,
  "target_addresses": 24,
  "samples": [
    {
      "lat": 25.268279356795674,
      "lon": 51.502599456087076,
      "geoinfo": {
        "display_name": "Qatar Medical Center, Salwa Road, Fereej Al Nasr, Doha, Qatar",
        "road": "Salwa Road",
        "house_number": null,
        "neighbourhood": null,
        "suburb": "Fereej Al Nasr",
        "city_district": null,
        "city": "Doha",
        "state": null,
        "postcode": null,
        "country": "Qatar",
        "country_code": "qa"
      },
      "address": "Salwa Road, Doha, Qatar"
    },
    {
      "lat": 25.30782841422946,
      "lon": 51.509582784857734,
      "geoinfo": {
        "display_name": "Jogging Track, Wadi Al Sail, Doha, Qatar",
        "road": "Jogging Track",
        "house_number": null,
        "neighbourhood": null,
        "suburb": "Wadi Al Sail",
        "city_district": null,
        "city": "Doha",
        "state": null,
        "postcode": null,
        "country": "Qatar",
        "country_code": "qa"
      },
      "address": "Jogging Track, Doha, Qatar"
    },
    {
      "lat": 25.28024983344397,
      "lon": 51.55511553752348,
      "geoinfo": {
        "display_name": "Airport Arrival Parking Lot, C Ring Road, Doha International Airport, Doha, Qatar",
        "road": "C Ring Road",
        "house_number": null,
        "neighbourhood": null,
        "suburb": "Doha International Airport",
        "city_district": null,
        "city": "Doha",
        "state": null,
        "postcode": null,
        "country": "Qatar",
        "country_code": "qa"
      },
      "address": "C Ring Road, Doha, Qatar"
    },
    {
      "lat": 25.299357570218827,
      "lon": 51.494439563173366,
      "geoinfo": {
        "display_name": "Al Aseel Street, Fereej Bin Omran, Doha, Qatar",
        "road": "Al Aseel Street",
        "house_number": null,
        "neighbourhood": null,
        "suburb": "Fereej Bin Omran",
        "city_district": null,
        "city": "Doha",
        "state": null,
        "postcode": null,
        "country": "Qatar",
        "country_code": "qa"
      },
      "address": "Al Aseel Street, Doha, Qatar"
    },
    {
      "lat": 25.292617975059056,
      "lon": 51.5482348302238,
      "geoinfo": {
        "display_name": "Al Meena Street, Mina District, Doha Port, Doha, Qatar",
        "road": "Al Meena Street",
        "house_number": null,
        "neighbourhood": null,
        "suburb": "Mina District",
        "city_district": null,
        "city": "Doha",
        "state": null,
        "postcode": null,
        "country": "Qatar",
        "country_code": "qa"
      },
      "address": "Al Meena Street, Doha, Qatar"
    },
    {
      "lat": 25.262872700984726,
      "lon": 51.54272698257346,
      "geoinfo": {
        "display_name": "Gulf Times, C Ring Road, Al Hilal, Doha, Qatar",
        "road": "C Ring Road",
        "house_number": null,
        "neighbourhood": null,
        "suburb": "Al Hilal",
        "city_district": null,
        "city": "Doha",
        "state": null,
        "postcode": null,
        "country": "Qatar",
        "country_code": "qa"
      },
      "address": "Gulf Times, C Ring Road, Al Hilal, 28676 Doha, Qatar"
    },
    {
      "lat": 25.264531070303487,
      "lon": 51.53302639341782,
      "geoinfo": {
        "display_name": "Al Suhail Street, Al Mansoura, Doha, Qatar",
        "road": "Al Suhail Street",
        "house_number": null,
        "neighbourhood": null,
        "suburb": "Al Mansoura",
        "city_district": null,
        "city": "Doha",
        "state": null,
        "postcode": null,
        "country": "Qatar",
        "country_code": "qa"
      },
      "address": "Al Suhail Street, Al Mansoura, 34093 Doha, Qatar"
    },
    {
      "lat": 25.26914824937197,
      "lon": 51.53904100491627,
      "geoinfo": {
        "display_name": "Sikkat Al Khair Street, Najma, Doha, Qatar",
        "road": "Sikkat Al Khair Street",
        "house_number": null,
        "neighbourhood": null,
        "suburb": "Najma",
        "city_district": null,
        "city": "Doha",
        "state": null,
        "postcode": null,
        "country": "Qatar",
        "country_code": "qa"
      },
      "address": "Sikkat Al Khair Street, Najma, 63830 Doha, Qatar"
    },
    {
      "lat": 25.26242475313789,
      "lon": 51.52127547431424,
      "geoinfo": {
        "display_name": "Al Shaab Street, New Aslata, Doha, Qatar",
        "road": "Al Shaab Street",
        "house_number": null,
        "neighbourhood": null,
        "suburb": "New Aslata",
        "city_district": null,
        "city": "Doha",
        "state": null,
        "postcode": null,
        "country": "Qatar",
        "country_code": "qa"
      },
      "address": "400, Al Shaab Street, New Aslata, 00714 Doha, Qatar"
    },
    {
      "lat": 25.29165966613655,
      "lon": 51.48629682626657,
      "geoinfo": {
        "display_name": "Al Messila P+R Lot, Jasim Bin Hamad Street, Al Sadd, Doha, Qatar",
        "road": "Jasim Bin Hamad Street",
        "house_number": null,
        "neighbourhood": null,
        "suburb": "Al Sadd",
        "city_district": null,
        "city": "Doha",
        "state": null,
        "postcode": null,
        "country": "Qatar",
        "country_code": "qa"
      },
      "address": "438, Jasim Bin Hamad Street, 38288 Doha, Qatar"
    },
    {
      "lat": 25.254995922605147,
      "lon": 51.530170732847026,
      "geoinfo": {
        "display_name": "Mohammed Bin Majah Street, Nuaija, Doha, Qatar",
        "road": "Mohammed Bin Majah Street",
        "house_number": null,
        "neighbourhood": null,
        "suburb": "Nuaija",
        "city_district": null,
        "city": "Doha",
        "state": null,
        "postcode": null,
        "country": "Qatar",
        "country_code": "qa"
      },
      "address": "245, Mohammed Bin Majah Street, Nuaija, 25986 Doha, Qatar"
    },
    {
      "lat": 25.294774713155583,
      "lon": 51.53973755615776,
      "geoinfo": {
        "display_name": "Al Corniche Street, Mina District, Doha Port, Doha, Qatar",
        "road": "Al Corniche Street",
        "house_number": null,
        "neighbourhood": null,
        "suburb": "Mina District",
        "city_district": null,
        "city": "Doha",
        "state": null,
        "postcode": null,
        "country": "Qatar",
        "country_code": "qa"
      },
      "address": "246, Al Corniche Street, Mina District, Doha Port, 54056 Doha, Qatar"
    },
    {
      "lat": 25.285191521448166,
      "lon": 51.53235049882106,
      "geoinfo": {
        "display_name": "Souq Al Najada, Ali Bin Abdulla Street, Barahat Al Jufairi, Doha, Qatar",
        "road": "Ali Bin Abdulla Street",
        "house_number": null,
        "neighbourhood": null,
        "suburb": "Barahat Al Jufairi",
        "city_district": null,
        "city": "Doha",
        "state": null,
        "postcode": null,
        "country": "Qatar",
        "country_code": "qa"
      },
      "address": "124, Ali Bin Abdulla Street, 30414 Doha, Qatar"
    },
    {
      "lat": 25.317583632113106,
      "lon": 51.503183895102346,
      "geoinfo": {
        "display_name": "Street 863, Lejbailat, Doha, Qatar",
        "road": "Street 863",
        "house_number": null,
        "neighbourhood": null,
        "suburb": "Lejbailat",
        "city_district": null,
        "city": "Doha",
        "state": null,
        "postcode": null,
        "country": "Qatar",
        "country_code": "qa"
      },
      "address": "Street 863, Lejbailat, 85812 Doha, Qatar"
    },
    {
      "lat": 25.29661475155827,
      "lon": 51.51547798219327,
      "geoinfo": {
        "display_name": "Jogging Track, Arumaila, Doha, Qatar",
        "road": "Jogging Track",
        "house_number": null,
        "neighbourhood": null,
        "suburb": "Arumaila",
        "city_district": null,
        "city": "Doha",
        "state": null,
        "postcode": null,
        "country": "Qatar",
        "country_code": "qa"
      },
      "address": "107, Jogging Track, Arumaila, 48024 Doha, Qatar"
    },
    {
      "lat": 25.276361776269344,
      "lon": 51.56567850409107,
      "geoinfo": {
        "display_name": "Al Khuwair Street, Doha International Airport, Doha, Qatar",
        "road": "Al Khuwair Street",
        "house_number": null,
        "neighbourhood": null,
        "suburb": "Doha International Airport",
        "city_district": null,
        "city": "Doha",
        "state": null,
        "postcode": null,
        "country": "Qatar",
        "country_code": "qa"
      },
      "address": "511, Al Khuwair Street, Doha International Airport, 34731 Doha, Qatar"
    },
    {
      "lat": 25.306167046476045,
      "lon": 51.54496463562248,
      "geoinfo": {
        "display_name": "Mina District, Doha Port, Doha, Qatar",
        "road": null,
        "house_number": null,
        "neighbourhood": null,
        "suburb": "Mina District",
        "city_district": null,
        "city": "Doha",
        "state": null,
        "postcode": null,
        "country": "Qatar",
        "country_code": "qa"
      },
      "address": "979, Mina District, Doha Port, 19706 Doha, Qatar"
    },
    {
      "lat": 25.28531953412492,
      "lon": 51.55968995514368,
      "geoinfo": {
        "display_name": "Sharq Village and Spa, Ras Bu Abboud Street, (Sharg Zone) - Al Khulaifat, Doha, Qatar",
        "road": "Ras Bu Abboud Street",
        "house_number": null,
        "neighbourhood": null,
        "suburb": "(Sharg Zone) - Al Khulaifat",
        "city_district": null,
        "city": "Doha",
        "state": null,
        "postcode": null,
        "country": "Qatar",
        "country_code": "qa"
      },
      "address": "627, Ras Bu Abboud Street, 16750 Doha, Qatar"
    },
    {
      "lat": 25.29644580359207,
      "lon": 51.521574243583785,
      "geoinfo": {
        "display_name": "Al Corniche Street, Al Bidda, Doha, Qatar",
        "road": "Al Corniche Street",
        "house_number": null,
        "neighbourhood": null,
        "suburb": "Al Bidda",
        "city_district": null,
        "city": "Doha",
        "state": null,
        "postcode": null,
        "country": "Qatar",
        "country_code": "qa"
      },
      "address": "113, Al Corniche Street, Al Bidda, 42195 Doha, Qatar"
    },
    {
      "lat": 25.27273760539794,
      "lon": 51.5352874637276,
      "geoinfo": {
        "display_name": "Fereej Ibn Dirham, Doha, Qatar",
        "road": null,
        "house_number": null,
        "neighbourhood": null,
        "suburb": "Fereej Ibn Dirham",
        "city_district": null,
        "city": "Doha",
        "state": null,
        "postcode": null,
        "country": "Qatar",
        "country_code": "qa"
      },
      "address": "729, Fereej Ibn Dirham, 60483 Doha, Qatar"
    },
    {
      "lat": 25.314419838628712,
      "lon": 51.49304091375013,
      "geoinfo": {
        "display_name": "Al Khabbab Street, Fereej Kulaib, Doha, Qatar",
        "road": "Al Khabbab Street",
        "house_number": null,
        "neighbourhood": null,
        "suburb": "Fereej Kulaib",
        "city_district": null,
        "city": "Doha",
        "state": null,
        "postcode": null,
        "country": "Qatar",
        "country_code": "qa"
      },
      "address": "537, Al Khabbab Street, Fereej Kulaib, 07344 Doha, Qatar"
    },
    {
      "lat": 25.313051142293425,
      "lon": 51.53762247379936,
      "geoinfo": {
        "display_name": "Al Funduq Street, West Bay, Al Dafna, Doha, Qatar",
        "road": "Al Funduq Street",
        "house_number": null,
        "neighbourhood": null,
        "suburb": "West Bay",
        "city_district": null,
        "city": "Doha",
        "state": null,
        "postcode": null,
        "country": "Qatar",
        "country_code": "qa"
      },
      "address": "795, Al Funduq Street, West Bay, Al Dafna, 14344 Doha, Qatar"
    },
    {
      "lat": 25.308568487910218,
      "lon": 51.54729596188938,
      "geoinfo": {
        "display_name": "Al Meena Street, Mina District, Doha Port, Doha, Qatar",
        "road": "Al Meena Street",
        "house_number": null,
        "neighbourhood": null,
        "suburb": "Mina District",
        "city_district": null,
        "city": "Doha",
        "state": null,
        "postcode": null,
        "country": "Qatar",
        "country_code": "qa"
      },
      "address": "828, Al Meena Street, Mina District, Doha Port, 98240 Doha, Qatar"
    },
    {
      "lat": 25.30988777563158,
      "lon": 51.49087840456381,
      "geoinfo": {
        "display_name": "Mukainis Street, Fereej Kulaib, Doha, Qatar",
        "road": "Mukainis Street",
        "house_number": null,
        "neighbourhood": null,
        "suburb": "Fereej Kulaib",
        "city_district": null,
        "city": "Doha",
        "state": null,
        "postcode": null,
        "country": "Qatar",
        "country_code": "qa"
      },
      "address": "248, Mukainis Street, Fereej Kulaib, 50407 Doha, Qatar"
    },
    {
      "lat": 25.267875634489336,
      "lon": 51.5325942695127,
      "geoinfo": {
        "display_name": "Sulaiman Street, Al Mansoura, Doha, Qatar",
        "road": "Sulaiman Street",
        "house_number": null,
        "neighbourhood": null,
        "suburb": "Al Mansoura",
        "city_district": null,
        "city": "Doha",
        "state": null,
        "postcode": null,
        "country": "Qatar",
        "country_code": "qa"
      },
      "address": "110, Sulaiman Street, Al Mansoura, 91489 Doha, Qatar"
    },
    {
      "lat": 25.30274959818378,
      "lon": 51.540872852984776,
      "geoinfo": {
        "display_name": "Al Meena Street, Mina District, Doha Port, Doha, Qatar",
        "road": "Al Meena Street",
        "house_number": null,
        "neighbourhood": null,
        "suburb": "Mina District",
        "city_district": null,
        "city": "Doha",
        "state": null,
        "postcode": null,
        "country": "Qatar",
        "country_code": "qa"
      },
      "address": "877, Al Meena Street, Mina District, Doha Port, 49257 Doha, Qatar"
    },
    {
      "lat": 25.27915273917834,
      "lon": 51.54873690004102,
      "geoinfo": {
        "display_name": "Ibn Aflah, Umm Ghuwailina, Doha, Qatar",
        "road": "Ibn Aflah",
        "house_number": null,
        "neighbourhood": null,
        "suburb": "Umm Ghuwailina",
        "city_district": null,
        "city": "Doha",
        "state": null,
        "postcode": null,
        "country": "Qatar",
        "country_code": "qa"
      },
      "address": "327, Ibn Aflah, Umm Ghuwailina, 84000 Doha, Qatar"
    }
  ],
  "updated_at": "2025-10-19T06:09:56.560576+00:00",
  "_kind": "geo_samples"
}