{
  "country_code": "QA",
  "country": "Qatar",
  "city": "Mu‘aydhir Rawḑat Rāshid",
  "geonameid": 289716,
  "target_addresses": 5,
  "samples": [
    {
      "lat": 25.23043993352094,
      "lon": 51.39482014096672,
      "geoinfo": {
        "display_name": "Al Hamm Street, Al Rayyan, Qatar",
        "road": "Al Hamm Street",
        "house_number": null,
        "neighbourhood": null,
        "suburb": null,
        "city_district": null,
        "city": "Al Rayyan",
        "state": "Al Rayyan",
        "postcode": null,
        "country": "Qatar",
        "country_code": "qa"
      },
      "address": "676, Al Hamm Street, 53340 Al Rayyan, Qatar"
    },
    {
      "lat": 25.304545557695448,
      "lon": 51.39892000084218,
      "geoinfo": {
        "display_name": "Al Ruwad Street, Al Wajba, Al Rayyan, Qatar",
        "road": "Al Ruwad Street",
        "house_number": null,
        "neighbourhood": null,
        "suburb": "Al Wajba",
        "city_district": null,
        "city": "Al Rayyan",
        "state": "Al Rayyan",
        "postcode": null,
        "country": "Qatar",
        "country_code": "qa"
      },
      "address": "666, Al Ruwad Street, Al Wajba, 03896 Al Rayyan, Qatar"
    },
    {
      "lat": 25.28473154688163,
      "lon": 51.390597205962536,
      "geoinfo": {
        "display_name": "Al Wajba, Al Rayyan, Qatar",
        "road": null,
        "house_number": null,
        "neighbourhood": null,
        "suburb": "Al Wajba",
        "city_district": null,
        "city": "Al Rayyan",
        "state": "Al Rayyan",
        "postcode": null,
        "country": "Qatar",
        "country_code": "qa"
      },
      "address": "250, Al Wajba, 06195 Al Rayyan, Qatar"
    },
    {
      "lat": 25.23284375928011,
      "lon": 51.418806667395295,
      "geoinfo": {
        "display_name": "Lejthooiya Street, Fereej Al Manseer, Al Rayyan, Qatar",
        "road": "Lejthooiya Street",
        "house_number": null,
        "neighbourhood": null,
        "suburb": "Fereej Al Manseer",
        "city_district": null,
        "city": "Al Rayyan",
        "state": "Al Rayyan",
        "postcode": null,
        "country": "Qatar",
        "country_code": "qa"
      },
      "address": "380, Lejthooiya Street, Fereej Al Manseer, 35928 Al Rayyan, Qatar"
    },
    {
      "lat": 25.250939727487054,
      "lon": 51.3876685465049,
      "geoinfo": {
        "display_name": "Asmah Street, Al Rayyan, Qatar",
        "road": "Asmah Street",
        "house_number": null,
        "neighbourhood": null,
        "suburb": null,
        "city_district": null,
        "city": "Al Rayyan",
        "state": "Al Rayyan",
        "postcode": null,
        "country": "Qatar",
        "country_code": "qa"
      },
      "address": "481, Asmah Street, 23617 Al Rayyan, Qatar"
    }
  ],
  "updated_at": "2025-10-19T06:40:39.232557+00:00",
  "_kind": "geo_samples"
}