{
  "country_code": "QA",
  "country": "Qatar",
  "city": "Umm Şalāl Muḩammad",
  "geonameid": 289523,
  "target_addresses": 5,
  "samples": [
    {
      "lat": 25.420806012241545,
      "lon": 51.36246222831519,
      "geoinfo": {
        "display_name": "Street 1200, Umm Salal, Qatar",
        "road": "Street 1200",
        "house_number": null,
        "neighbourhood": null,
        "suburb": null,
        "city_district": null,
        "city": null,
        "state": "Umm Salal",
        "postcode": null,
        "country": "Qatar",
        "country_code": "qa"
      },
      "address": "Street 1200, Umm Şalāl Muḩammad, Umm Salal, Qatar"
    },
    {
      "lat": 25.439961922694106,
      "lon": 51.392913652582315,
      "geoinfo": {
        "display_name": "Al Mazrouah Road, Umm Salal Muhammad, Umm Salal, Qatar",
        "road": "Al Mazrouah Road",
        "house_number": null,
        "neighbourhood": null,
        "suburb": null,
        "city_district": null,
        "city": "Umm Salal Muhammad",
        "state": "Umm Salal",
        "postcode": null,
        "country": "Qatar",
        "country_code": "qa"
      },
      "address": "Al Mazrouah Road, Umm Şalāl Muḩammad, Umm Salal, Qatar"
    },
    {
      "lat": 25.445307866656204,
      "lon": 51.4091231393462,
      "geoinfo": {
        "display_name": "Umm Salal Ali, Umm Salal, Qatar",
        "road": null,
        "house_number": null,
        "neighbourhood": null,
        "suburb": null,
        "city_district": null,
        "city": "Umm Salal Ali",
        "state": "Umm Salal",
        "postcode": null,
        "country": "Qatar",
        "country_code": "qa"
      },
      "address": "Umm Şalāl Muḩammad, Umm Salal, Qatar"
    },
    {
      "lat": 25.407590688699138,
      "lon": 51.42257540840852,
      "geoinfo": {
        "display_name": "Wadi Al Ain Street, Al Kharaitiyat, Umm Salal Muhammad, Umm Salal, Qatar",
        "road": "Wadi Al Ain Street",
        "house_number": null,
        "neighbourhood": null,
        "suburb": null,
        "city_district": null,
        "city": "Umm Salal Muhammad",
        "state": "Umm Salal",
        "postcode": null,
        "country": "Qatar",
        "country_code": "qa"
      },
      "address": "Wadi Al Ain Street, Umm Şalāl Muḩammad, Umm Salal, Qatar"
    },
    {
      "lat": 25.38524194438705,
      "lon": 51.42179232634028,
      "geoinfo": {
        "display_name": "Street 132, Al Kharaitiyat, Umm Salal, Qatar",
        "road": "Street 132",
        "house_number": null,
        "neighbourhood": null,
        "suburb": null,
        "city_district": null,
        "city": null,
        "state": "Umm Salal",
        "postcode": null,
        "country": "Qatar",
        "country_code": "qa"
      },
      "address": "Street 132, Umm Şalāl Muḩammad, Umm Salal, Qatar"
    },
    {
      "lat": 25.431656454648817,
      "lon": 51.44784229232977,
      "geoinfo": {
        "display_name": "Street 1023, Jeri Muraijeel, Lusail, Al-Daayen, Qatar",
        "road": "Street 1023",
        "house_number": null,
        "neighbourhood": null,
        "suburb": null,
        "city_district": null,
        "city": "Lusail",
        "state": "Al-Daayen",
        "postcode": null,
        "country": "Qatar",
        "country_code": "qa"
      },
      "address": "Street 1023, Umm Şalāl Muḩammad, 90683 Al-Daayen, Qatar"
    },
    {
      "lat": 25.4264331695687,
      "lon": 51.39331132765068,
      "geoinfo": {
        "display_name": "Umm Salal Muhammad, Umm Salal, Qatar",
        "road": null,
        "house_number": null,
        "neighbourhood": null,
        "suburb": null,
        "city_district": null,
        "city": "Umm Salal Muhammad",
        "state": "Umm Salal",
        "postcode": null,
        "country": "Qatar",
        "country_code": "qa"
      },
      "address": "494, Umm Salal Muhammad, 53756 Umm Salal, Qatar"
    },
    {
      "lat": 25.377270705522037,
      "lon": 51.40064811859482,
      "geoinfo": {
        "display_name": "Umm Salal, Qatar",
        "road": null,
        "house_number": null,
        "neighbourhood": null,
        "suburb": null,
        "city_district": null,
        "city": null,
        "state": "Umm Salal",
        "postcode": null,
        "country": "Qatar",
        "country_code": "qa"
      },
      "address": "564, Umm Şalāl Muḩammad, 25268 Umm Salal, Qatar"
    },
    {
      "lat": 25.422704819367542,
      "lon": 51.36612064178075,
      "geoinfo": {
        "display_name": "Street 1200, Umm Salal, Qatar",
        "road": "Street 1200",
        "house_number": null,
        "neighbourhood": null,
        "suburb": null,
        "city_district": null,
        "city": null,
        "state": "Umm Salal",
        "postcode": null,
        "country": "Qatar",
        "country_code": "qa"
      },
      "address": "Street 1200, Umm Şalāl Muḩammad, 83900 Umm Salal, Qatar"
    },
    {
      "lat": 25.422911693786542,
      "lon": 51.364065704666935,
      "geoinfo": {
        "display_name": "Street 1200, Umm Salal, Qatar",
        "road": "Street 1200",
        "house_number": null,
        "neighbourhood": null,
        "suburb": null,
        "city_district": null,
        "city": null,
        "state": "Umm Salal",
        "postcode": null,
        "country": "Qatar",
        "country_code": "qa"
      },
      "address": "Street 1200, Umm Şalāl Muḩammad, 92672 Umm Salal, Qatar"
    }
  ],
  "updated_at": "2025-10-19T04:27:45.168432+00:00",
  "_kind": "geo_samples"
}