{
  "country_code": "IL",
  "country": "Israel",
  "city": "Afula",
  "geonameid": 295740,
  "target_addresses": 4,
  "samples": [
    {
      "lat": 32.60820708615387,
      "lon": 35.30445205485423,
      "geoinfo": {
        "display_name": "Kibbutz Merhavya, Emek Izrael Regional Council, Jezreel Subdistrict, North District, 1834328, Israel",
        "road": null,
        "house_number": null,
        "neighbourhood": null,
        "suburb": null,
        "city_district": null,
        "city": "Emek Izrael Regional Council",
        "state": "North District",
        "postcode": "1834328",
        "country": "Israel",
        "country_code": "il"
      },
      "address": "Afula, North District, Israel"
    },
    {
      "lat": 32.6459508999794,
      "lon": 35.29676730878217,
      "geoinfo": {
        "display_name": "Habbotz, Tel Adashim, Emek Izrael Regional Council, Jezreel Subdistrict, North District, 1756103, Israel",
        "road": "Habbotz",
        "house_number": null,
        "neighbourhood": null,
        "suburb": null,
        "city_district": null,
        "city": "Emek Izrael Regional Council",
        "state": "North District",
        "postcode": "1756103",
        "country": "Israel",
        "country_code": "il"
      },
      "address": "135, Habbotz, Tel Adashim, Emek Izrael Regional Council, Jezreel Subdistrict, North District, 1756103, Israel"
    },
    {
      "lat": 32.62758009297856,
      "lon": 35.278598119986015,
      "geoinfo": {
        "display_name": "Emek Izrael Regional Council, Jezreel Subdistrict, North District, Israel",
        "road": null,
        "house_number": null,
        "neighbourhood": null,
        "suburb": null,
        "city_district": null,
        "city": "Emek Izrael Regional Council",
        "state": "North District",
        "postcode": null,
        "country": "Israel",
        "country_code": "il"
      },
      "address": "407, Afula, 63366 North District, Israel"
    },
    {
      "lat": 32.59942403247927,
      "lon": 35.28188396029259,
      "geoinfo": {
        "display_name": "שדרת גיבורי עפולה, Afula, Jezreel Subdistrict, North District, 1839010, Israel",
        "road": "שדרת גיבורי עפולה",
        "house_number": null,
        "neighbourhood": null,
        "suburb": null,
        "city_district": null,
        "city": "Afula",
        "state": "North District",
        "postcode": "1839010",
        "country": "Israel",
        "country_code": "il"
      },
      "address": "217, שדרת גיבורי עפולה, Afula, Jezreel Subdistrict, North District, 1839010, Israel"
    }
  ],
  "updated_at": "2025-10-19T04:52:08.744331+00:00",
  "_kind": "geo_samples"
}