{
  "country_code": "IL",
  "country": "Israel",
  "city": "Migdal Ha‘Emeq",
  "geonameid": 294210,
  "target_addresses": 4,
  "samples": [
    {
      "lat": 32.71866932118864,
      "lon": 35.236108405907565,
      "geoinfo": {
        "display_name": "Givat Ela, Emek Izrael Regional Council, Jezreel Subdistrict, North District, 2304998, Israel",
        "road": null,
        "house_number": null,
        "neighbourhood": null,
        "suburb": null,
        "city_district": null,
        "city": "Emek Izrael Regional Council",
        "state": "North District",
        "postcode": "2304998",
        "country": "Israel",
        "country_code": "il"
      },
      "address": "Givat Ela, Emek Izrael Regional Council, Jezreel Subdistrict, North District, 2304998, Israel"
    },
    {
      "lat": 32.685769444999416,
      "lon": 35.2422999773285,
      "geoinfo": {
        "display_name": "CI Systems (Israel) Ltd, 6, HaMehkar, Ramat Gabriel industrial zone, Migdal HaEmek, Jezreel Subdistrict, North District, 2306990, Israel",
        "road": "HaMehkar",
        "house_number": "6",
        "neighbourhood": null,
        "suburb": null,
        "city_district": null,
        "city": "Migdal HaEmek",
        "state": "North District",
        "postcode": "2306990",
        "country": "Israel",
        "country_code": "il"
      },
      "address": "CI Systems (Israel) Ltd, 6, HaMehkar, Ramat Gabriel industrial zone, Migdal HaEmek, Jezreel Subdistrict, North District, 2306990, Israel"
    },
    {
      "lat": 32.67566414482842,
      "lon": 35.2560996621531,
      "geoinfo": {
        "display_name": "Shoshanat HaAmakim, Migdal HaEmeq, Migdal Haemeq, Jezreel Subdistrict, North District, 2350827, Israel",
        "road": "Shoshanat HaAmakim",
        "house_number": null,
        "neighbourhood": null,
        "suburb": null,
        "city_district": null,
        "city": "Migdal HaEmeq",
        "state": "North District",
        "postcode": "2350827",
        "country": "Israel",
        "country_code": "il"
      },
      "address": "426, Shoshanat HaAmakim, Migdal HaEmeq, Migdal Haemeq, Jezreel Subdistrict, North District, 2350827, Israel"
    },
    {
      "lat": 32.68990567732675,
      "lon": 35.256136313019894,
      "geoinfo": {
        "display_name": "מאוריציו לוי, Ramat Gabriel industrial zone, Migdal HaEmek, Jezreel Subdistrict, North District, 2353401, Israel",
        "road": "מאוריציו לוי",
        "house_number": null,
        "neighbourhood": null,
        "suburb": null,
        "city_district": null,
        "city": "Migdal HaEmek",
        "state": "North District",
        "postcode": "2353401",
        "country": "Israel",
        "country_code": "il"
      },
      "address": "869, מאוריציו לוי, Ramat Gabriel industrial zone, Migdal HaEmek, Jezreel Subdistrict, North District, 2353401, Israel"
    }
  ],
  "updated_at": "2025-10-19T04:50:57.425917+00:00",
  "_kind": "geo_samples"
}