{
  "country_code": "ME",
  "country": "Montenegro",
  "city": "Bar",
  "geonameid": 3204509,
  "target_addresses": 13,
  "samples": [
    {
      "lat": 42.07439283563412,
      "lon": 19.1329897730372,
      "geoinfo": {
        "display_name": "Gornja Tomba, Tomba, Bar Municipality, 85354, Montenegro",
        "road": null,
        "house_number": null,
        "neighbourhood": null,
        "suburb": null,
        "city_district": "Gornja Tomba",
        "city": "Tomba",
        "state": null,
        "postcode": "85354",
        "country": "Montenegro",
        "country_code": "me"
      },
      "address": "Gornja Tomba, Bar, Montenegro"
    },
    {
      "lat": 42.112941290302274,
      "lon": 19.106337889595736,
      "geoinfo": {
        "display_name": "Šušanj-dio, Šušanj, Bar Municipality, 85354, Montenegro",
        "road": null,
        "house_number": null,
        "neighbourhood": null,
        "suburb": null,
        "city_district": "Šušanj-dio",
        "city": "Šušanj",
        "state": null,
        "postcode": "85354",
        "country": "Montenegro",
        "country_code": "me"
      },
      "address": "Šušanj-dio, Bar, Montenegro"
    },
    {
      "lat": 42.10855979598781,
      "lon": 19.08677509928891,
      "geoinfo": {
        "display_name": "Plaža Šušanj, IV. proleterske brigade, Žukotrlica, Bar, Bar Municipality, 85000, Montenegro",
        "road": "IV. proleterske brigade",
        "house_number": null,
        "neighbourhood": null,
        "suburb": "Žukotrlica",
        "city_district": "Žukotrlica",
        "city": "Bar",
        "state": null,
        "postcode": "85000",
        "country": "Montenegro",
        "country_code": "me"
      },
      "address": "IV. proleterske brigade, Bar, Montenegro"
    },
    {
      "lat": 42.11930175749065,
      "lon": 19.094864897607337,
      "geoinfo": {
        "display_name": "Šušanjska ulica, Perajkovići, Šušanj-dio, Šušanj, Bar Municipality, 85000, Montenegro",
        "road": "Šušanjska ulica",
        "house_number": null,
        "neighbourhood": null,
        "suburb": null,
        "city_district": "Šušanj-dio",
        "city": "Šušanj",
        "state": null,
        "postcode": "85000",
        "country": "Montenegro",
        "country_code": "me"
      },
      "address": "Šušanjska ulica, Bar, Montenegro"
    },
    {
      "lat": 42.098494884106685,
      "lon": 19.05562446357191,
      "geoinfo": {
        "display_name": "Žukotrlica, Bar, Bar Municipality, 85000, Montenegro",
        "road": null,
        "house_number": null,
        "neighbourhood": null,
        "suburb": "Žukotrlica",
        "city_district": "Žukotrlica",
        "city": "Bar",
        "state": null,
        "postcode": "85000",
        "country": "Montenegro",
        "country_code": "me"
      },
      "address": "Žukotrlica, Bar, Montenegro"
    },
    {
      "lat": 42.078214966316345,
      "lon": 19.099155432384816,
      "geoinfo": {
        "display_name": "35, Pristanska ulica, Polje-dio, Polje, Bar Municipality, 85354, Montenegro",
        "road": "Pristanska ulica",
        "house_number": "35",
        "neighbourhood": null,
        "suburb": null,
        "city_district": "Polje-dio",
        "city": "Polje",
        "state": null,
        "postcode": "85354",
        "country": "Montenegro",
        "country_code": "me"
      },
      "address": "35 Pristanska ulica, Bar, Montenegro"
    },
    {
      "lat": 42.06696504126279,
      "lon": 19.098164719607603,
      "geoinfo": {
        "display_name": "Marka Sekulića, Polje-dio, Polje, Bar Municipality, 85354, Montenegro",
        "road": "Marka Sekulića",
        "house_number": null,
        "neighbourhood": null,
        "suburb": null,
        "city_district": "Polje-dio",
        "city": "Polje",
        "state": null,
        "postcode": "85354",
        "country": "Montenegro",
        "country_code": "me"
      },
      "address": "Marka Sekulića, Bar, Montenegro"
    },
    {
      "lat": 42.07487009209801,
      "lon": 19.147797983395666,
      "geoinfo": {
        "display_name": "Donja Poda, Bar Municipality, 85354, Montenegro",
        "road": null,
        "house_number": null,
        "neighbourhood": null,
        "suburb": null,
        "city_district": null,
        "city": "Donja Poda",
        "state": null,
        "postcode": "85354",
        "country": "Montenegro",
        "country_code": "me"
      },
      "address": "Bar, Montenegro"
    },
    {
      "lat": 42.13449049058605,
      "lon": 19.09147056835546,
      "geoinfo": {
        "display_name": "Gornja voda, R-28, Sutorman, Tuđemili, Bar Municipality, 85355, Montenegro",
        "road": "R-28",
        "house_number": null,
        "neighbourhood": null,
        "suburb": null,
        "city_district": null,
        "city": "Tuđemili",
        "state": null,
        "postcode": "85355",
        "country": "Montenegro",
        "country_code": "me"
      },
      "address": "R-28, Bar, Montenegro"
    },
    {
      "lat": 42.10448129365199,
      "lon": 19.091775871993338,
      "geoinfo": {
        "display_name": "ulica Jovana Tomaševića, Topolica, Bar, Bar Municipality, 85000, Montenegro",
        "road": "ulica Jovana Tomaševića",
        "house_number": null,
        "neighbourhood": null,
        "suburb": "Topolica",
        "city_district": "Topolica",
        "city": "Bar",
        "state": null,
        "postcode": "85000",
        "country": "Montenegro",
        "country_code": "me"
      },
      "address": "ulica Jovana Tomaševića, Bar, Montenegro"
    },
    {
      "lat": 42.06164411309659,
      "lon": 19.108954884589036,
      "geoinfo": {
        "display_name": "Donje Zaljevo, Zaljevo, Bar Municipality, 85354, Montenegro",
        "road": null,
        "house_number": null,
        "neighbourhood": null,
        "suburb": null,
        "city_district": "Donje Zaljevo",
        "city": "Zaljevo",
        "state": null,
        "postcode": "85354",
        "country": "Montenegro",
        "country_code": "me"
      },
      "address": "Donje Zaljevo, Bar, Montenegro"
    },
    {
      "lat": 42.07994203839268,
      "lon": 19.148917875271888,
      "geoinfo": {
        "display_name": "Kamp Bartula, Ulica Andrije P. Markolovića, Bartula, Bar Municipality, 85354, Montenegro",
        "road": "Ulica Andrije P. Markolovića",
        "house_number": null,
        "neighbourhood": null,
        "suburb": null,
        "city_district": null,
        "city": "Bartula",
        "state": null,
        "postcode": "85354",
        "country": "Montenegro",
        "country_code": "me"
      },
      "address": "Ulica Andrije P. Markolovića, Bar, Montenegro"
    },
    {
      "lat": 42.06144096460432,
      "lon": 19.138070644795405,
      "geoinfo": {
        "display_name": "Dobra Voda-dio, Donja Poda, Bar Municipality, 85358, Montenegro",
        "road": null,
        "house_number": null,
        "neighbourhood": null,
        "suburb": null,
        "city_district": "Dobra Voda-dio",
        "city": "Donja Poda",
        "state": null,
        "postcode": "85358",
        "country": "Montenegro",
        "country_code": "me"
      },
      "address": "Dobra Voda-dio, Bar, Montenegro"
    },
    {
      "lat": 42.095547879001764,
      "lon": 19.09976321912791,
      "geoinfo": {
        "display_name": "21, ulica Kraljice Jelene Anžujske, Bjeliši, Bar Municipality, 85354, Montenegro",
        "road": "ulica Kraljice Jelene Anžujske",
        "house_number": "21",
        "neighbourhood": null,
        "suburb": null,
        "city_district": null,
        "city": "Bjeliši",
        "state": null,
        "postcode": "85354",
        "country": "Montenegro",
        "country_code": "me"
      },
      "address": "21, ulica Kraljice Jelene Anžujske, Bjeliši, Bar Municipality, 85354, Montenegro"
    },
    {
      "lat": 42.11872046766738,
      "lon": 19.078114438522174,
      "geoinfo": {
        "display_name": "Ulica 2, Zeleni pojas, Šušanj, Bar Municipality, 85000, Montenegro",
        "road": "Ulica 2",
        "house_number": null,
        "neighbourhood": null,
        "suburb": null,
        "city_district": "Zeleni pojas",
        "city": "Šušanj",
        "state": null,
        "postcode": "85000",
        "country": "Montenegro",
        "country_code": "me"
      },
      "address": "Ulica 2, Zeleni pojas, Šušanj, Bar Municipality, 85000, Montenegro"
    },
    {
      "lat": 42.07484412097651,
      "lon": 19.118911356943602,
      "geoinfo": {
        "display_name": "Donje Zaljevo, Zaljevo, Bar Municipality, 85354, Montenegro",
        "road": null,
        "house_number": null,
        "neighbourhood": null,
        "suburb": null,
        "city_district": "Donje Zaljevo",
        "city": "Zaljevo",
        "state": null,
        "postcode": "85354",
        "country": "Montenegro",
        "country_code": "me"
      },
      "address": "124, Donje Zaljevo, Zaljevo, Bar Municipality, 85354, Montenegro"
    },
    {
      "lat": 42.07614109064792,
      "lon": 19.10120965547626,
      "geoinfo": {
        "display_name": "Marka Sekulića, Polje-dio, Polje, Bar Municipality, 85354, Montenegro",
        "road": "Marka Sekulića",
        "house_number": null,
        "neighbourhood": null,
        "suburb": null,
        "city_district": "Polje-dio",
        "city": "Polje",
        "state": null,
        "postcode": "85354",
        "country": "Montenegro",
        "country_code": "me"
      },
      "address": "531, Marka Sekulića, Polje-dio, Polje, Bar Municipality, 85354, Montenegro"
    },
    {
      "lat": 42.09076234152962,
      "lon": 19.068656488902583,
      "geoinfo": {
        "display_name": "Topolica, Bar, Bar Municipality, 85000, Montenegro",
        "road": null,
        "house_number": null,
        "neighbourhood": null,
        "suburb": "Topolica",
        "city_district": "Topolica",
        "city": "Bar",
        "state": null,
        "postcode": "85000",
        "country": "Montenegro",
        "country_code": "me"
      },
      "address": "812, Topolica, Bar, Bar Municipality, 85000, Montenegro"
    },
    {
      "lat": 42.10421303579195,
      "lon": 19.07273655259507,
      "geoinfo": {
        "display_name": "Zeleni pojas, Šušanj, Bar Municipality, 85000, Montenegro",
        "road": null,
        "house_number": null,
        "neighbourhood": null,
        "suburb": null,
        "city_district": "Zeleni pojas",
        "city": "Šušanj",
        "state": null,
        "postcode": "85000",
        "country": "Montenegro",
        "country_code": "me"
      },
      "address": "741, Zeleni pojas, Šušanj, Bar Municipality, 85000, Montenegro"
    },
    {
      "lat": 42.05961100332362,
      "lon": 19.082476614003095,
      "geoinfo": {
        "display_name": "Sokolana, Bar, Bar Municipality, 85354, Montenegro",
        "road": null,
        "house_number": null,
        "neighbourhood": null,
        "suburb": "Sokolana",
        "city_district": "Sokolana",
        "city": "Bar",
        "state": null,
        "postcode": "85354",
        "country": "Montenegro",
        "country_code": "me"
      },
      "address": "177, Sokolana, Bar, Bar Municipality, 85354, Montenegro"
    },
    {
      "lat": 42.119452472602944,
      "lon": 19.084638773447075,
      "geoinfo": {
        "display_name": "Ulica kapetana Iva Dokića, Šušanj-dio, Šušanj, Bar Municipality, 85000, Montenegro",
        "road": "Ulica kapetana Iva Dokića",
        "house_number": null,
        "neighbourhood": null,
        "suburb": null,
        "city_district": "Šušanj-dio",
        "city": "Šušanj",
        "state": null,
        "postcode": "85000",
        "country": "Montenegro",
        "country_code": "me"
      },
      "address": "423, Ulica kapetana Iva Dokića, Šušanj-dio, Šušanj, Bar Municipality, 85000, Montenegro"
    },
    {
      "lat": 42.05984388112477,
      "lon": 19.118098827561465,
      "geoinfo": {
        "display_name": "Donje Zaljevo, Zaljevo, Bar Municipality, 85354, Montenegro",
        "road": null,
        "house_number": null,
        "neighbourhood": null,
        "suburb": null,
        "city_district": "Donje Zaljevo",
        "city": "Zaljevo",
        "state": null,
        "postcode": "85354",
        "country": "Montenegro",
        "country_code": "me"
      },
      "address": "013, Donje Zaljevo, Zaljevo, Bar Municipality, 85354, Montenegro"
    },
    {
      "lat": 42.107667050820574,
      "lon": 19.058003254271796,
      "geoinfo": {
        "display_name": "Ratac, Sutomore, Bar Municipality, 85355, Montenegro",
        "road": null,
        "house_number": null,
        "neighbourhood": null,
        "suburb": null,
        "city_district": "Ratac",
        "city": "Sutomore",
        "state": null,
        "postcode": "85355",
        "country": "Montenegro",
        "country_code": "me"
      },
      "address": "459, Ratac, Sutomore, Bar Municipality, 85355, Montenegro"
    },
    {
      "lat": 42.06782496055775,
      "lon": 19.122340851560427,
      "geoinfo": {
        "display_name": "Donje Zaljevo, Zaljevo, Bar Municipality, 85354, Montenegro",
        "road": null,
        "house_number": null,
        "neighbourhood": null,
        "suburb": null,
        "city_district": "Donje Zaljevo",
        "city": "Zaljevo",
        "state": null,
        "postcode": "85354",
        "country": "Montenegro",
        "country_code": "me"
      },
      "address": "751, Donje Zaljevo, Zaljevo, Bar Municipality, 85354, Montenegro"
    },
    {
      "lat": 42.064572615640984,
      "lon": 19.09034720207525,
      "geoinfo": {
        "display_name": "Kapljeva, Polje, Bar Municipality, 85354, Montenegro",
        "road": null,
        "house_number": null,
        "neighbourhood": null,
        "suburb": null,
        "city_district": "Kapljeva",
        "city": "Polje",
        "state": null,
        "postcode": "85354",
        "country": "Montenegro",
        "country_code": "me"
      },
      "address": "581, Kapljeva, Polje, Bar Municipality, 85354, Montenegro"
    },
    {
      "lat": 42.111173867608585,
      "lon": 19.065281568502698,
      "geoinfo": {
        "display_name": "Ratac, Sutomore, Bar Municipality, 85355, Montenegro",
        "road": null,
        "house_number": null,
        "neighbourhood": null,
        "suburb": null,
        "city_district": "Ratac",
        "city": "Sutomore",
        "state": null,
        "postcode": "85355",
        "country": "Montenegro",
        "country_code": "me"
      },
      "address": "017, Ratac, Sutomore, Bar Municipality, 85355, Montenegro"
    }
  ],
  "updated_at": "2025-10-19T05:55:19.635824+00:00",
  "_kind": "geo_samples"
}