{
  "country_code": "ME",
  "country": "Montenegro",
  "city": "Bijelo Polje",
  "geonameid": 3204176,
  "target_addresses": 13,
  "samples": [
    {
      "lat": 43.01235185617878,
      "lon": 19.72000313663427,
      "geoinfo": {
        "display_name": "Rakonjska, Bijelo Polje, Bijelo Polje Municipality, 84000, Montenegro",
        "road": "Rakonjska",
        "house_number": null,
        "neighbourhood": null,
        "suburb": null,
        "city_district": null,
        "city": "Bijelo Polje",
        "state": null,
        "postcode": "84000",
        "country": "Montenegro",
        "country_code": "me"
      },
      "address": "Rakonjska, Bijelo Polje, Montenegro"
    },
    {
      "lat": 43.02747282125075,
      "lon": 19.729818800377014,
      "geoinfo": {
        "display_name": "Medanovićka 1, Medanovići, Bijelo Polje, Bijelo Polje Municipality, 84000, Montenegro",
        "road": "Medanovićka 1",
        "house_number": null,
        "neighbourhood": null,
        "suburb": null,
        "city_district": null,
        "city": "Bijelo Polje",
        "state": null,
        "postcode": "84000",
        "country": "Montenegro",
        "country_code": "me"
      },
      "address": "Medanovićka 1, Bijelo Polje, Montenegro"
    },
    {
      "lat": 43.05987592102266,
      "lon": 19.768047324074328,
      "geoinfo": {
        "display_name": "Kisjele vode, Nedakusi, Bijelo Polje Municipality, 84000, Montenegro",
        "road": null,
        "house_number": null,
        "neighbourhood": null,
        "suburb": null,
        "city_district": null,
        "city": "Nedakusi",
        "state": null,
        "postcode": "84000",
        "country": "Montenegro",
        "country_code": "me"
      },
      "address": "Bijelo Polje, Montenegro"
    },
    {
      "lat": 43.027241297242064,
      "lon": 19.734902526961175,
      "geoinfo": {
        "display_name": "Ulica Solidarnosti, Rakonje, Bijelo Polje, Bijelo Polje Municipality, 84000, Montenegro",
        "road": "Ulica Solidarnosti",
        "house_number": null,
        "neighbourhood": "Rakonje",
        "suburb": null,
        "city_district": null,
        "city": "Bijelo Polje",
        "state": null,
        "postcode": "84000",
        "country": "Montenegro",
        "country_code": "me"
      },
      "address": "Ulica Solidarnosti, Bijelo Polje, Montenegro"
    },
    {
      "lat": 43.00835701570746,
      "lon": 19.740363419167227,
      "geoinfo": {
        "display_name": "Pripčići, Bijelo Polje Municipality, 84000, Montenegro",
        "road": null,
        "house_number": null,
        "neighbourhood": null,
        "suburb": "Pripčići",
        "city_district": null,
        "city": "Pripčići",
        "state": null,
        "postcode": "84000",
        "country": "Montenegro",
        "country_code": "me"
      },
      "address": "Pripčići, Bijelo Polje, Montenegro"
    },
    {
      "lat": 43.02101177913593,
      "lon": 19.78345187648231,
      "geoinfo": {
        "display_name": "Obrov, Bukova voda, Obrov, Bijelo Polje Municipality, 84000, Montenegro",
        "road": "Obrov",
        "house_number": null,
        "neighbourhood": null,
        "suburb": null,
        "city_district": null,
        "city": "Obrov",
        "state": null,
        "postcode": "84000",
        "country": "Montenegro",
        "country_code": "me"
      },
      "address": "Obrov, Bijelo Polje, Montenegro"
    },
    {
      "lat": 43.03926896816277,
      "lon": 19.757004154414506,
      "geoinfo": {
        "display_name": "60, 13 Jula, Pruška, Bijelo Polje, Bijelo Polje Municipality, 84000, Montenegro",
        "road": "13 Jula",
        "house_number": "60",
        "neighbourhood": "Pruška",
        "suburb": null,
        "city_district": null,
        "city": "Bijelo Polje",
        "state": null,
        "postcode": "84000",
        "country": "Montenegro",
        "country_code": "me"
      },
      "address": "60 13 Jula, Bijelo Polje, Montenegro"
    },
    {
      "lat": 43.03692825419895,
      "lon": 19.715197098496237,
      "geoinfo": {
        "display_name": "Rakonje, Bijelo Polje Municipality, 84000, Montenegro",
        "road": null,
        "house_number": null,
        "neighbourhood": null,
        "suburb": "Rakonje",
        "city_district": null,
        "city": "Rakonje",
        "state": null,
        "postcode": "84000",
        "country": "Montenegro",
        "country_code": "me"
      },
      "address": "Rakonje, Bijelo Polje, Montenegro"
    },
    {
      "lat": 43.045989305918845,
      "lon": 19.778351817915247,
      "geoinfo": {
        "display_name": "Rasovska, Rasovo, Bijelo Polje Municipality, 84000, Montenegro",
        "road": "Rasovska",
        "house_number": null,
        "neighbourhood": null,
        "suburb": "Rasovo",
        "city_district": null,
        "city": "Rasovo",
        "state": null,
        "postcode": "84000",
        "country": "Montenegro",
        "country_code": "me"
      },
      "address": "Rasovska, Bijelo Polje, Montenegro"
    },
    {
      "lat": 43.00983750679701,
      "lon": 19.73440663609267,
      "geoinfo": {
        "display_name": "M-2, Rakonje, Bijelo Polje, Bijelo Polje Municipality, 84000, Montenegro",
        "road": "M-2",
        "house_number": null,
        "neighbourhood": "Rakonje",
        "suburb": null,
        "city_district": null,
        "city": "Bijelo Polje",
        "state": null,
        "postcode": "84000",
        "country": "Montenegro",
        "country_code": "me"
      },
      "address": "M-2, Bijelo Polje, Montenegro"
    },
    {
      "lat": 43.03839992403082,
      "lon": 19.736170202629573,
      "geoinfo": {
        "display_name": "Kulinska, Zaimovića livade, Bijelo Polje, Bijelo Polje Municipality, 84000, Montenegro",
        "road": "Kulinska",
        "house_number": null,
        "neighbourhood": "Zaimovića livade",
        "suburb": null,
        "city_district": null,
        "city": "Bijelo Polje",
        "state": null,
        "postcode": "84000",
        "country": "Montenegro",
        "country_code": "me"
      },
      "address": "Kulinska, Bijelo Polje, Montenegro"
    },
    {
      "lat": 43.046058453641784,
      "lon": 19.801137089282697,
      "geoinfo": {
        "display_name": "Resnička, Franca - Mahala, Resnik, Bijelo Polje Municipality, 84000, Montenegro",
        "road": "Resnička",
        "house_number": null,
        "neighbourhood": null,
        "suburb": null,
        "city_district": null,
        "city": "Resnik",
        "state": null,
        "postcode": "84000",
        "country": "Montenegro",
        "country_code": "me"
      },
      "address": "Resnička, Bijelo Polje, Montenegro"
    },
    {
      "lat": 43.01964952980556,
      "lon": 19.70980419811695,
      "geoinfo": {
        "display_name": "Medanovićka, Medanovići, Bijelo Polje, Bijelo Polje Municipality, 84000, Montenegro",
        "road": "Medanovićka",
        "house_number": null,
        "neighbourhood": null,
        "suburb": null,
        "city_district": null,
        "city": "Bijelo Polje",
        "state": null,
        "postcode": "84000",
        "country": "Montenegro",
        "country_code": "me"
      },
      "address": "Medanovićka, Bijelo Polje, Montenegro"
    },
    {
      "lat": 43.04064138285238,
      "lon": 19.68850392365416,
      "geoinfo": {
        "display_name": "R-11, Bučje, Bijelo Polje Municipality, Montenegro",
        "road": "R-11",
        "house_number": null,
        "neighbourhood": null,
        "suburb": null,
        "city_district": null,
        "city": null,
        "state": null,
        "postcode": null,
        "country": "Montenegro",
        "country_code": "me"
      },
      "address": "R-11, Bučje, 07922 Bijelo Polje Municipality, Montenegro"
    },
    {
      "lat": 43.070222836566366,
      "lon": 19.76008988193985,
      "geoinfo": {
        "display_name": "Sljepašnica, Nedakusi, Bijelo Polje Municipality, 84000, Montenegro",
        "road": null,
        "house_number": null,
        "neighbourhood": null,
        "suburb": null,
        "city_district": null,
        "city": "Nedakusi",
        "state": null,
        "postcode": "84000",
        "country": "Montenegro",
        "country_code": "me"
      },
      "address": "520, Sljepašnica, Nedakusi, Bijelo Polje Municipality, 84000, Montenegro"
    },
    {
      "lat": 43.08173312850325,
      "lon": 19.75329008891482,
      "geoinfo": {
        "display_name": "Dubrave, Kukulje, Bijelo Polje Municipality, 84000, Montenegro",
        "road": null,
        "house_number": null,
        "neighbourhood": null,
        "suburb": null,
        "city_district": null,
        "city": "Kukulje",
        "state": null,
        "postcode": "84000",
        "country": "Montenegro",
        "country_code": "me"
      },
      "address": "761, Dubrave, Kukulje, Bijelo Polje Municipality, 84000, Montenegro"
    },
    {
      "lat": 43.049722690909476,
      "lon": 19.705925772065342,
      "geoinfo": {
        "display_name": "Đapanov grob, Bijelo Polje Municipality, Montenegro",
        "road": null,
        "house_number": null,
        "neighbourhood": null,
        "suburb": null,
        "city_district": null,
        "city": null,
        "state": null,
        "postcode": null,
        "country": "Montenegro",
        "country_code": "me"
      },
      "address": "889, Đapanov grob, 55122 Bijelo Polje Municipality, Montenegro"
    },
    {
      "lat": 43.014074607242705,
      "lon": 19.726735044560346,
      "geoinfo": {
        "display_name": "Rakonje, Bijelo Polje Municipality, 84000, Montenegro",
        "road": null,
        "house_number": null,
        "neighbourhood": null,
        "suburb": "Rakonje",
        "city_district": null,
        "city": "Rakonje",
        "state": null,
        "postcode": "84000",
        "country": "Montenegro",
        "country_code": "me"
      },
      "address": "234, Rakonje, Bijelo Polje Municipality, 84000, Montenegro"
    },
    {
      "lat": 43.06286690814572,
      "lon": 19.715261132584722,
      "geoinfo": {
        "display_name": "Krokočevo, Lješnica, Bijelo Polje Municipality, 84000, Montenegro",
        "road": null,
        "house_number": null,
        "neighbourhood": null,
        "suburb": null,
        "city_district": null,
        "city": "Lješnica",
        "state": null,
        "postcode": "84000",
        "country": "Montenegro",
        "country_code": "me"
      },
      "address": "937, Krokočevo, Lješnica, Bijelo Polje Municipality, 84000, Montenegro"
    },
    {
      "lat": 43.00387289072965,
      "lon": 19.757627641228684,
      "geoinfo": {
        "display_name": "Pripčići, Bijelo Polje Municipality, 84000, Montenegro",
        "road": null,
        "house_number": null,
        "neighbourhood": null,
        "suburb": "Pripčići",
        "city_district": null,
        "city": "Pripčići",
        "state": null,
        "postcode": "84000",
        "country": "Montenegro",
        "country_code": "me"
      },
      "address": "387, Pripčići, Bijelo Polje Municipality, 84000, Montenegro"
    },
    {
      "lat": 43.06437574821834,
      "lon": 19.713284444942442,
      "geoinfo": {
        "display_name": "Livadice, Lješnica, Bijelo Polje Municipality, 84000, Montenegro",
        "road": null,
        "house_number": null,
        "neighbourhood": null,
        "suburb": null,
        "city_district": null,
        "city": "Lješnica",
        "state": null,
        "postcode": "84000",
        "country": "Montenegro",
        "country_code": "me"
      },
      "address": "735, Livadice, Lješnica, Bijelo Polje Municipality, 84000, Montenegro"
    },
    {
      "lat": 43.031798736036855,
      "lon": 19.720181839644066,
      "geoinfo": {
        "display_name": "Rakonje, Bijelo Polje Municipality, 84000, Montenegro",
        "road": null,
        "house_number": null,
        "neighbourhood": null,
        "suburb": "Rakonje",
        "city_district": null,
        "city": "Rakonje",
        "state": null,
        "postcode": "84000",
        "country": "Montenegro",
        "country_code": "me"
      },
      "address": "105, Rakonje, Bijelo Polje Municipality, 84000, Montenegro"
    },
    {
      "lat": 43.05719712579957,
      "lon": 19.713071975858483,
      "geoinfo": {
        "display_name": "Đapanov grob, Lješnica, Bijelo Polje Municipality, 84000, Montenegro",
        "road": null,
        "house_number": null,
        "neighbourhood": null,
        "suburb": null,
        "city_district": null,
        "city": "Lješnica",
        "state": null,
        "postcode": "84000",
        "country": "Montenegro",
        "country_code": "me"
      },
      "address": "575, Đapanov grob, Lješnica, Bijelo Polje Municipality, 84000, Montenegro"
    },
    {
      "lat": 43.01178456545102,
      "lon": 19.7167006515313,
      "geoinfo": {
        "display_name": "Rakonje, Bijelo Polje Municipality, 84000, Montenegro",
        "road": null,
        "house_number": null,
        "neighbourhood": null,
        "suburb": "Rakonje",
        "city_district": null,
        "city": "Rakonje",
        "state": null,
        "postcode": "84000",
        "country": "Montenegro",
        "country_code": "me"
      },
      "address": "244, Rakonje, Bijelo Polje Municipality, 84000, Montenegro"
    },
    {
      "lat": 43.06287805768465,
      "lon": 19.709876265375986,
      "geoinfo": {
        "display_name": "Krokočevo, Lješnica, Bijelo Polje Municipality, 84000, Montenegro",
        "road": null,
        "house_number": null,
        "neighbourhood": null,
        "suburb": null,
        "city_district": null,
        "city": "Lješnica",
        "state": null,
        "postcode": "84000",
        "country": "Montenegro",
        "country_code": "me"
      },
      "address": "720, Krokočevo, Lješnica, Bijelo Polje Municipality, 84000, Montenegro"
    },
    {
      "lat": 43.004730635082716,
      "lon": 19.76662892160364,
      "geoinfo": {
        "display_name": "Obrov, Bukova voda, Pripčići, Bijelo Polje Municipality, 84000, Montenegro",
        "road": "Obrov",
        "house_number": null,
        "neighbourhood": null,
        "suburb": null,
        "city_district": null,
        "city": "Pripčići",
        "state": null,
        "postcode": "84000",
        "country": "Montenegro",
        "country_code": "me"
      },
      "address": "947, Obrov, Bukova voda, Pripčići, Bijelo Polje Municipality, 84000, Montenegro"
    }
  ],
  "updated_at": "2025-10-19T05:54:46.067193+00:00",
  "_kind": "geo_samples"
}