{
  "country_code": "ME",
  "country": "Montenegro",
  "city": "Budva",
  "geonameid": 3203106,
  "target_addresses": 13,
  "samples": [
    {
      "lat": 42.25677159484099,
      "lon": 18.844160676620742,
      "geoinfo": {
        "display_name": "Boreti, Bečići, Budva Municipality, 85316, Montenegro",
        "road": null,
        "house_number": null,
        "neighbourhood": null,
        "suburb": null,
        "city_district": null,
        "city": "Boreti",
        "state": null,
        "postcode": "85316",
        "country": "Montenegro",
        "country_code": "me"
      },
      "address": "Budva, Montenegro"
    },
    {
      "lat": 42.260966569954576,
      "lon": 18.88828557130857,
      "geoinfo": {
        "display_name": "M-1, Pržno, Budva Municipality, 85315, Montenegro",
        "road": "M-1",
        "house_number": null,
        "neighbourhood": null,
        "suburb": null,
        "city_district": null,
        "city": "Pržno",
        "state": null,
        "postcode": "85315",
        "country": "Montenegro",
        "country_code": "me"
      },
      "address": "M-1, Budva, Montenegro"
    },
    {
      "lat": 42.30084079836487,
      "lon": 18.88142905229647,
      "geoinfo": {
        "display_name": "M-10, Stanišići, Budva Municipality, 85316, Montenegro",
        "road": "M-10",
        "house_number": null,
        "neighbourhood": null,
        "suburb": null,
        "city_district": null,
        "city": "Stanišići",
        "state": null,
        "postcode": "85316",
        "country": "Montenegro",
        "country_code": "me"
      },
      "address": "M-10, Budva, Montenegro"
    },
    {
      "lat": 42.28162397401502,
      "lon": 18.879418206580183,
      "geoinfo": {
        "display_name": "Jadranski put, Rafailovići, Budva Municipality, 85316, Montenegro",
        "road": "Jadranski put",
        "house_number": null,
        "neighbourhood": null,
        "suburb": null,
        "city_district": null,
        "city": "Rafailovići",
        "state": null,
        "postcode": "85316",
        "country": "Montenegro",
        "country_code": "me"
      },
      "address": "Jadranski put, Budva, Montenegro"
    },
    {
      "lat": 42.28786062187235,
      "lon": 18.882422761274494,
      "geoinfo": {
        "display_name": "Dionisa Mikovića, Rafailovići, Budva Municipality, 85316, Montenegro",
        "road": "Dionisa Mikovića",
        "house_number": null,
        "neighbourhood": null,
        "suburb": null,
        "city_district": null,
        "city": "Rafailovići",
        "state": null,
        "postcode": "85316",
        "country": "Montenegro",
        "country_code": "me"
      },
      "address": "Dionisa Mikovića, Budva, Montenegro"
    },
    {
      "lat": 42.29086799486943,
      "lon": 18.878606523630832,
      "geoinfo": {
        "display_name": "Old Mill, Ive Lole Ribara, Ivanovići, Budva Municipality, 85316, Montenegro",
        "road": "Ive Lole Ribara",
        "house_number": null,
        "neighbourhood": null,
        "suburb": null,
        "city_district": null,
        "city": "Ivanovići",
        "state": null,
        "postcode": "85316",
        "country": "Montenegro",
        "country_code": "me"
      },
      "address": "Ive Lole Ribara, Budva, Montenegro"
    },
    {
      "lat": 42.26743797789385,
      "lon": 18.822380391683893,
      "geoinfo": {
        "display_name": "Stari grad, Stari Grad, Budva, Budva Municipality, 85313, Montenegro",
        "road": null,
        "house_number": null,
        "neighbourhood": "Stari grad",
        "suburb": null,
        "city_district": "Stari Grad",
        "city": "Budva",
        "state": null,
        "postcode": "85313",
        "country": "Montenegro",
        "country_code": "me"
      },
      "address": "Stari grad, Budva, Montenegro"
    },
    {
      "lat": 42.261856634267566,
      "lon": 18.851013177166394,
      "geoinfo": {
        "display_name": "Sveti Nikola, staza Školj, Budva Municipality, 58310, Montenegro",
        "road": "staza Školj",
        "house_number": null,
        "neighbourhood": null,
        "suburb": null,
        "city_district": null,
        "city": null,
        "state": null,
        "postcode": "58310",
        "country": "Montenegro",
        "country_code": "me"
      },
      "address": "staza Školj, Budva, Montenegro"
    },
    {
      "lat": 42.30309172247346,
      "lon": 18.837092453527713,
      "geoinfo": {
        "display_name": "Kaludrak, X Street, Maine, Podostrog, Budva Municipality, 88330, Montenegro",
        "road": "X Street",
        "house_number": null,
        "neighbourhood": null,
        "suburb": null,
        "city_district": "Maine",
        "city": "Podostrog",
        "state": null,
        "postcode": "88330",
        "country": "Montenegro",
        "country_code": "me"
      },
      "address": "X Street, Budva, Montenegro"
    },
    {
      "lat": 42.28268794409316,
      "lon": 18.847709738750588,
      "geoinfo": {
        "display_name": "Slovenska obala, Budva Centar, Budva, Budva Municipality, 85311, Montenegro",
        "road": "Slovenska obala",
        "house_number": null,
        "neighbourhood": null,
        "suburb": null,
        "city_district": "Budva Centar",
        "city": "Budva",
        "state": null,
        "postcode": "85311",
        "country": "Montenegro",
        "country_code": "me"
      },
      "address": "Slovenska obala, Budva, Montenegro"
    },
    {
      "lat": 42.30227963133233,
      "lon": 18.893084773470854,
      "geoinfo": {
        "display_name": "Tunel Brajići, Brajici, Budva Municipality, 85316, Montenegro",
        "road": "Tunel Brajići",
        "house_number": null,
        "neighbourhood": null,
        "suburb": null,
        "city_district": null,
        "city": "Brajici",
        "state": null,
        "postcode": "85316",
        "country": "Montenegro",
        "country_code": "me"
      },
      "address": "Tunel Brajići, Budva, Montenegro"
    },
    {
      "lat": 42.28676704307732,
      "lon": 18.836830528089607,
      "geoinfo": {
        "display_name": "Dositejeva, Budva Centar, Budva, Budva Municipality, 81350, Montenegro",
        "road": "Dositejeva",
        "house_number": null,
        "neighbourhood": null,
        "suburb": null,
        "city_district": "Budva Centar",
        "city": "Budva",
        "state": null,
        "postcode": "81350",
        "country": "Montenegro",
        "country_code": "me"
      },
      "address": "Dositejeva, Budva, Montenegro"
    },
    {
      "lat": 42.28554635213396,
      "lon": 18.878307802469045,
      "geoinfo": {
        "display_name": "XLIV ulica, Boreti, Bečići, Budva Municipality, 85316, Montenegro",
        "road": "XLIV ulica",
        "house_number": null,
        "neighbourhood": null,
        "suburb": null,
        "city_district": null,
        "city": "Boreti",
        "state": null,
        "postcode": "85316",
        "country": "Montenegro",
        "country_code": "me"
      },
      "address": "XLIV ulica, Budva, Montenegro"
    },
    {
      "lat": 42.253471939421566,
      "lon": 18.82006582268648,
      "geoinfo": {
        "display_name": "Seoca, Budva Municipality, 81310, Montenegro",
        "road": null,
        "house_number": null,
        "neighbourhood": null,
        "suburb": null,
        "city_district": null,
        "city": "Seoca",
        "state": null,
        "postcode": "81310",
        "country": "Montenegro",
        "country_code": "me"
      },
      "address": "991, Seoca, Budva Municipality, 81310, Montenegro"
    },
    {
      "lat": 42.31498609224591,
      "lon": 18.828660527107758,
      "geoinfo": {
        "display_name": "Podostrog, Budva Municipality, 81310, Montenegro",
        "road": null,
        "house_number": null,
        "neighbourhood": null,
        "suburb": null,
        "city_district": null,
        "city": "Podostrog",
        "state": null,
        "postcode": "81310",
        "country": "Montenegro",
        "country_code": "me"
      },
      "address": "721, Podostrog, Budva Municipality, 81310, Montenegro"
    },
    {
      "lat": 42.32289890606592,
      "lon": 18.82397221678472,
      "geoinfo": {
        "display_name": "Stanjevići, Pobori, Donji Pobori, Budva Municipality, 85317, Montenegro",
        "road": null,
        "house_number": null,
        "neighbourhood": null,
        "suburb": null,
        "city_district": null,
        "city": "Donji Pobori",
        "state": null,
        "postcode": "85317",
        "country": "Montenegro",
        "country_code": "me"
      },
      "address": "570, Stanjevići, Pobori, Donji Pobori, Budva Municipality, 85317, Montenegro"
    },
    {
      "lat": 42.32213820181625,
      "lon": 18.81127262557105,
      "geoinfo": {
        "display_name": "Šumarev Dub, Gornji Pobori, Budva Municipality, 85317, Montenegro",
        "road": null,
        "house_number": null,
        "neighbourhood": null,
        "suburb": null,
        "city_district": null,
        "city": "Gornji Pobori",
        "state": null,
        "postcode": "85317",
        "country": "Montenegro",
        "country_code": "me"
      },
      "address": "202, Šumarev Dub, Gornji Pobori, Budva Municipality, 85317, Montenegro"
    },
    {
      "lat": 42.282511401777356,
      "lon": 18.84287750370247,
      "geoinfo": {
        "display_name": "Budva Centar, Budva, Budva Municipality, 85310, Montenegro",
        "road": null,
        "house_number": null,
        "neighbourhood": null,
        "suburb": null,
        "city_district": "Budva Centar",
        "city": "Budva",
        "state": null,
        "postcode": "85310",
        "country": "Montenegro",
        "country_code": "me"
      },
      "address": "735, Budva Centar, Budva, Budva Municipality, 85310, Montenegro"
    },
    {
      "lat": 42.27539222288652,
      "lon": 18.875840972165037,
      "geoinfo": {
        "display_name": "M-1, Kamenovo, Rafailovići, Budva Municipality, 85316, Montenegro",
        "road": "M-1",
        "house_number": null,
        "neighbourhood": null,
        "suburb": null,
        "city_district": null,
        "city": null,
        "state": null,
        "postcode": "85316",
        "country": "Montenegro",
        "country_code": "me"
      },
      "address": "M-1, Kamenovo, Rafailovići, Budva Municipality, 85316, Montenegro"
    },
    {
      "lat": 42.30320535286353,
      "lon": 18.882693272469393,
      "geoinfo": {
        "display_name": "M-10, Brajici, Budva Municipality, 85316, Montenegro",
        "road": "M-10",
        "house_number": null,
        "neighbourhood": null,
        "suburb": null,
        "city_district": null,
        "city": "Brajici",
        "state": null,
        "postcode": "85316",
        "country": "Montenegro",
        "country_code": "me"
      },
      "address": "M-10, Brajici, Budva Municipality, 85316, Montenegro"
    },
    {
      "lat": 42.30375717048252,
      "lon": 18.787150932277715,
      "geoinfo": {
        "display_name": "Glavatske Kućice, Kovačko Polje, Kotor Municipality, 85317, Montenegro",
        "road": null,
        "house_number": null,
        "neighbourhood": null,
        "suburb": null,
        "city_district": null,
        "city": "Kovačko Polje",
        "state": null,
        "postcode": "85317",
        "country": "Montenegro",
        "country_code": "me"
      },
      "address": "170, Glavatske Kućice, Kovačko Polje, Kotor Municipality, 85317, Montenegro"
    },
    {
      "lat": 42.264741565733786,
      "lon": 18.81712154829129,
      "geoinfo": {
        "display_name": "Seoca, Budva Municipality, 81310, Montenegro",
        "road": null,
        "house_number": null,
        "neighbourhood": null,
        "suburb": null,
        "city_district": null,
        "city": "Seoca",
        "state": null,
        "postcode": "81310",
        "country": "Montenegro",
        "country_code": "me"
      },
      "address": "198, Seoca, Budva Municipality, 81310, Montenegro"
    },
    {
      "lat": 42.30295760260149,
      "lon": 18.78574995128105,
      "geoinfo": {
        "display_name": "Glavatske Kućice, Kovačko Polje, Kotor Municipality, 85317, Montenegro",
        "road": null,
        "house_number": null,
        "neighbourhood": null,
        "suburb": null,
        "city_district": null,
        "city": "Kovačko Polje",
        "state": null,
        "postcode": "85317",
        "country": "Montenegro",
        "country_code": "me"
      },
      "address": "885, Glavatske Kućice, Kovačko Polje, Kotor Municipality, 85317, Montenegro"
    },
    {
      "lat": 42.293157641163305,
      "lon": 18.79469573054464,
      "geoinfo": {
        "display_name": "Gorica, M-1, Prijevor, Seoca, Budva Municipality, 85317, Montenegro",
        "road": "M-1",
        "house_number": null,
        "neighbourhood": null,
        "suburb": null,
        "city_district": null,
        "city": "Prijevor",
        "state": null,
        "postcode": "85317",
        "country": "Montenegro",
        "country_code": "me"
      },
      "address": "Gorica, M-1, Prijevor, Seoca, Budva Municipality, 85317, Montenegro"
    },
    {
      "lat": 42.29606357005882,
      "lon": 18.820841304083217,
      "geoinfo": {
        "display_name": "Dalmatinska, Bijeli Do, Budva, Budva Municipality, 81310, Montenegro",
        "road": "Dalmatinska",
        "house_number": null,
        "neighbourhood": null,
        "suburb": null,
        "city_district": "Bijeli Do",
        "city": "Budva",
        "state": null,
        "postcode": "81310",
        "country": "Montenegro",
        "country_code": "me"
      },
      "address": "884, Dalmatinska, Bijeli Do, Budva, Budva Municipality, 81310, Montenegro"
    },
    {
      "lat": 42.28385039567369,
      "lon": 18.841131349168453,
      "geoinfo": {
        "display_name": "Budva Centar, Budva, Budva Municipality, 85310, Montenegro",
        "road": null,
        "house_number": null,
        "neighbourhood": null,
        "suburb": null,
        "city_district": "Budva Centar",
        "city": "Budva",
        "state": null,
        "postcode": "85310",
        "country": "Montenegro",
        "country_code": "me"
      },
      "address": "866, Budva Centar, Budva, Budva Municipality, 85310, Montenegro"
    }
  ],
  "updated_at": "2025-10-19T05:53:56.645186+00:00",
  "_kind": "geo_samples"
}