{
  "country_code": "ME",
  "country": "Montenegro",
  "city": "Cetinje",
  "geonameid": 3202641,
  "target_addresses": 13,
  "samples": [
    {
      "lat": 42.37394625071224,
      "lon": 18.8641652616119,
      "geoinfo": {
        "display_name": "Cetinje - Lovćen, Bjeloši, Old Royal Capital Cetinje, Montenegro",
        "road": "Cetinje - Lovćen",
        "house_number": null,
        "neighbourhood": null,
        "suburb": null,
        "city_district": null,
        "city": "Bjeloši",
        "state": null,
        "postcode": null,
        "country": "Montenegro",
        "country_code": "me"
      },
      "address": "Cetinje - Lovćen, Cetinje, Montenegro"
    },
    {
      "lat": 42.35783121450754,
      "lon": 18.921926123980583,
      "geoinfo": {
        "display_name": "Očinići, Old Royal Capital Cetinje, 81250, Montenegro",
        "road": null,
        "house_number": null,
        "neighbourhood": null,
        "suburb": null,
        "city_district": null,
        "city": "Očinići",
        "state": null,
        "postcode": "81250",
        "country": "Montenegro",
        "country_code": "me"
      },
      "address": "Cetinje, Montenegro"
    },
    {
      "lat": 42.372865568870786,
      "lon": 18.939416550422166,
      "geoinfo": {
        "display_name": "M-10, Borovik, Old Royal Capital Cetinje, 81250, Montenegro",
        "road": "M-10",
        "house_number": null,
        "neighbourhood": null,
        "suburb": "Borovik",
        "city_district": null,
        "city": null,
        "state": null,
        "postcode": "81250",
        "country": "Montenegro",
        "country_code": "me"
      },
      "address": "M-10, Cetinje, Montenegro"
    },
    {
      "lat": 42.37283432104459,
      "lon": 18.897787723994753,
      "geoinfo": {
        "display_name": "Bjeloši, Old Royal Capital Cetinje, 81250, Montenegro",
        "road": "Bjeloši",
        "house_number": null,
        "neighbourhood": null,
        "suburb": null,
        "city_district": null,
        "city": "Bjeloši",
        "state": null,
        "postcode": "81250",
        "country": "Montenegro",
        "country_code": "me"
      },
      "address": "Bjeloši, Cetinje, Montenegro"
    },
    {
      "lat": 42.412291064377236,
      "lon": 18.905143470853154,
      "geoinfo": {
        "display_name": "Cetinje - Nikšić, Borovik, Petrov Do, Old Royal Capital Cetinje, Montenegro",
        "road": "Cetinje - Nikšić",
        "house_number": null,
        "neighbourhood": null,
        "suburb": "Borovik",
        "city_district": null,
        "city": "Petrov Do",
        "state": null,
        "postcode": null,
        "country": "Montenegro",
        "country_code": "me"
      },
      "address": "Cetinje - Nikšić, Cetinje, Montenegro"
    },
    {
      "lat": 42.41772146217675,
      "lon": 18.881217942709497,
      "geoinfo": {
        "display_name": "Cetinje - Njeguši - Kotor, Bajice, Dubovik, Old Royal Capital Cetinje, Montenegro",
        "road": "Cetinje - Njeguši - Kotor",
        "house_number": null,
        "neighbourhood": null,
        "suburb": "Bajice",
        "city_district": null,
        "city": "Dubovik",
        "state": null,
        "postcode": null,
        "country": "Montenegro",
        "country_code": "me"
      },
      "address": "Cetinje - Njeguši - Kotor, Cetinje, Montenegro"
    },
    {
      "lat": 42.375869666131024,
      "lon": 18.916713248130222,
      "geoinfo": {
        "display_name": "Love Cetinje way, Borovik, Bjeloši, Old Royal Capital Cetinje, 81250, Montenegro",
        "road": "Love Cetinje way",
        "house_number": null,
        "neighbourhood": null,
        "suburb": "Borovik",
        "city_district": null,
        "city": "Bjeloši",
        "state": null,
        "postcode": "81250",
        "country": "Montenegro",
        "country_code": "me"
      },
      "address": "Love Cetinje way, Cetinje, Montenegro"
    },
    {
      "lat": 42.39663461516538,
      "lon": 18.89459144796184,
      "geoinfo": {
        "display_name": "Suvodo, Dubrava, Cetinje, Old Royal Capital Cetinje, Montenegro",
        "road": "Suvodo",
        "house_number": null,
        "neighbourhood": null,
        "suburb": "Dubrava",
        "city_district": null,
        "city": "Cetinje",
        "state": null,
        "postcode": null,
        "country": "Montenegro",
        "country_code": "me"
      },
      "address": "Suvodo, Cetinje, Montenegro"
    },
    {
      "lat": 42.401475494438195,
      "lon": 18.91709414066412,
      "geoinfo": {
        "display_name": "Humci, Cetinje, Old Royal Capital Cetinje, 81250, Montenegro",
        "road": null,
        "house_number": null,
        "neighbourhood": null,
        "suburb": "Humci",
        "city_district": null,
        "city": "Cetinje",
        "state": null,
        "postcode": "81250",
        "country": "Montenegro",
        "country_code": "me"
      },
      "address": "Humci, Cetinje, Montenegro"
    },
    {
      "lat": 42.37970008146169,
      "lon": 18.93009876273814,
      "geoinfo": {
        "display_name": "Borovik, Cetinje, Old Royal Capital Cetinje, 81250, Montenegro",
        "road": null,
        "house_number": null,
        "neighbourhood": null,
        "suburb": "Borovik",
        "city_district": null,
        "city": "Cetinje",
        "state": null,
        "postcode": "81250",
        "country": "Montenegro",
        "country_code": "me"
      },
      "address": "Borovik, Cetinje, Montenegro"
    },
    {
      "lat": 42.40195479654378,
      "lon": 18.896257331517756,
      "geoinfo": {
        "display_name": "Bajice, Cetinje, Old Royal Capital Cetinje, Montenegro",
        "road": null,
        "house_number": null,
        "neighbourhood": null,
        "suburb": "Bajice",
        "city_district": null,
        "city": "Cetinje",
        "state": null,
        "postcode": null,
        "country": "Montenegro",
        "country_code": "me"
      },
      "address": "Bajice, Cetinje, Montenegro"
    },
    {
      "lat": 42.38161257316083,
      "lon": 18.875141973050003,
      "geoinfo": {
        "display_name": "Gornić, Dubrava, Gornić, Old Royal Capital Cetinje, Montenegro",
        "road": "Gornić",
        "house_number": null,
        "neighbourhood": null,
        "suburb": "Dubrava",
        "city_district": null,
        "city": "Gornić",
        "state": null,
        "postcode": null,
        "country": "Montenegro",
        "country_code": "me"
      },
      "address": "Gornić, Cetinje, Montenegro"
    },
    {
      "lat": 42.398529391847276,
      "lon": 18.903910033971766,
      "geoinfo": {
        "display_name": "218, Jaroslava Cermaka ul, Bajice, Cetinje, Old Royal Capital Cetinje, 81250, Montenegro",
        "road": "Jaroslava Cermaka ul",
        "house_number": "218",
        "neighbourhood": null,
        "suburb": "Bajice",
        "city_district": null,
        "city": "Cetinje",
        "state": null,
        "postcode": "81250",
        "country": "Montenegro",
        "country_code": "me"
      },
      "address": "218 Jaroslava Cermaka ul, Cetinje, Montenegro"
    }
  ],
  "updated_at": "2025-10-16T19:03:21.432270+00:00",
  "_kind": "geo_samples"
}