{
  "country_code": "ME",
  "country": "Montenegro",
  "city": "Podgorica",
  "geonameid": 3193044,
  "target_addresses": 13,
  "samples": [
    {
      "lat": 42.48273755320037,
      "lon": 19.255162100020275,
      "geoinfo": {
        "display_name": "Radevići, Podgorica, Podgorica Capital City, Montenegro",
        "road": null,
        "house_number": null,
        "neighbourhood": null,
        "suburb": null,
        "city_district": null,
        "city": "Podgorica",
        "state": null,
        "postcode": null,
        "country": "Montenegro",
        "country_code": "me"
      },
      "address": "Podgorica, Montenegro"
    },
    {
      "lat": 42.42498717651373,
      "lon": 19.28246545474634,
      "geoinfo": {
        "display_name": "Cvijetna, Stari Aerodrom, Podgorica, Podgorica Capital City, 81201, Montenegro",
        "road": "Cvijetna",
        "house_number": null,
        "neighbourhood": "Stari Aerodrom",
        "suburb": null,
        "city_district": null,
        "city": "Podgorica",
        "state": null,
        "postcode": "81201",
        "country": "Montenegro",
        "country_code": "me"
      },
      "address": "Cvijetna, Podgorica, Montenegro"
    },
    {
      "lat": 42.44877452028964,
      "lon": 19.257959411626793,
      "geoinfo": {
        "display_name": "Belvederska, Malo brdo, Podgorica, Podgorica Capital City, 81110, Montenegro",
        "road": "Belvederska",
        "house_number": null,
        "neighbourhood": null,
        "suburb": null,
        "city_district": null,
        "city": "Podgorica",
        "state": null,
        "postcode": "81110",
        "country": "Montenegro",
        "country_code": "me"
      },
      "address": "Belvederska, Podgorica, Montenegro"
    },
    {
      "lat": 42.40474737070239,
      "lon": 19.235927922953927,
      "geoinfo": {
        "display_name": "49, Manastirska, Podgorica, Podgorica Capital City, 81106, Montenegro",
        "road": "Manastirska",
        "house_number": "49",
        "neighbourhood": null,
        "suburb": null,
        "city_district": null,
        "city": "Podgorica",
        "state": null,
        "postcode": "81106",
        "country": "Montenegro",
        "country_code": "me"
      },
      "address": "49 Manastirska, Podgorica, Montenegro"
    },
    {
      "lat": 42.41778939163131,
      "lon": 19.22001853610359,
      "geoinfo": {
        "display_name": "Desanke Maksimović, Dahna, Podgorica, Podgorica Capital City, 81257, Montenegro",
        "road": "Desanke Maksimović",
        "house_number": null,
        "neighbourhood": "Dahna",
        "suburb": null,
        "city_district": null,
        "city": "Podgorica",
        "state": null,
        "postcode": "81257",
        "country": "Montenegro",
        "country_code": "me"
      },
      "address": "Desanke Maksimović, Podgorica, Montenegro"
    },
    {
      "lat": 42.460168296050206,
      "lon": 19.29142690237396,
      "geoinfo": {
        "display_name": "Bulevar Vilija Branta, Zlatica, Podgorica, Podgorica Capital City, 80001, Montenegro",
        "road": "Bulevar Vilija Branta",
        "house_number": null,
        "neighbourhood": "Zlatica",
        "suburb": null,
        "city_district": null,
        "city": "Podgorica",
        "state": null,
        "postcode": "80001",
        "country": "Montenegro",
        "country_code": "me"
      },
      "address": "Bulevar Vilija Branta, Podgorica, Montenegro"
    },
    {
      "lat": 42.45782470889738,
      "lon": 19.218665707458122,
      "geoinfo": {
        "display_name": "Tološi, Podgorica, Podgorica Capital City, 81103, Montenegro",
        "road": null,
        "house_number": null,
        "neighbourhood": null,
        "suburb": "Tološi",
        "city_district": null,
        "city": "Podgorica",
        "state": null,
        "postcode": "81103",
        "country": "Montenegro",
        "country_code": "me"
      },
      "address": "Tološi, Podgorica, Montenegro"
    },
    {
      "lat": 42.44017664970682,
      "lon": 19.22557856508474,
      "geoinfo": {
        "display_name": "Gornja Gorica, Podgorica, Podgorica Capital City, 81111, Montenegro",
        "road": null,
        "house_number": null,
        "neighbourhood": "Gornja Gorica",
        "suburb": null,
        "city_district": null,
        "city": "Podgorica",
        "state": null,
        "postcode": "81111",
        "country": "Montenegro",
        "country_code": "me"
      },
      "address": "Gornja Gorica, Podgorica, Montenegro"
    },
    {
      "lat": 42.42395225146354,
      "lon": 19.302878064467,
      "geoinfo": {
        "display_name": "Španskih boraca, Vrela Ribnička, Podgorica, Podgorica Capital City, 81201, Montenegro",
        "road": "Španskih boraca",
        "house_number": null,
        "neighbourhood": "Vrela Ribnička",
        "suburb": null,
        "city_district": null,
        "city": "Podgorica",
        "state": null,
        "postcode": "81201",
        "country": "Montenegro",
        "country_code": "me"
      },
      "address": "Španskih boraca, Podgorica, Montenegro"
    },
    {
      "lat": 42.42445552429012,
      "lon": 19.2179882874985,
      "geoinfo": {
        "display_name": "Donja Gorica III, Bulevar 21. maj, Donja Gorica, Podgorica, Podgorica Capital City, 81257, Montenegro",
        "road": "Bulevar 21. maj",
        "house_number": null,
        "neighbourhood": "Donja Gorica",
        "suburb": null,
        "city_district": null,
        "city": "Podgorica",
        "state": null,
        "postcode": "81257",
        "country": "Montenegro",
        "country_code": "me"
      },
      "address": "Bulevar 21. maj, Podgorica, Montenegro"
    },
    {
      "lat": 42.43213449294359,
      "lon": 19.307263662760846,
      "geoinfo": {
        "display_name": "Kakaricka gora, Novo selo, Podgorica, Podgorica Capital City, 81201, Montenegro",
        "road": null,
        "house_number": null,
        "neighbourhood": "Kakaricka gora",
        "suburb": null,
        "city_district": null,
        "city": "Podgorica",
        "state": null,
        "postcode": "81201",
        "country": "Montenegro",
        "country_code": "me"
      },
      "address": "Kakaricka gora, Podgorica, Montenegro"
    },
    {
      "lat": 42.44658901970024,
      "lon": 19.258959918623376,
      "geoinfo": {
        "display_name": "Serdara Jola Piletića, Podgorica, Podgorica Capital City, 81110, Montenegro",
        "road": "Serdara Jola Piletića",
        "house_number": null,
        "neighbourhood": null,
        "suburb": null,
        "city_district": null,
        "city": "Podgorica",
        "state": null,
        "postcode": "81110",
        "country": "Montenegro",
        "country_code": "me"
      },
      "address": "Serdara Jola Piletića, Podgorica, Montenegro"
    },
    {
      "lat": 42.45970111034604,
      "lon": 19.259358385250277,
      "geoinfo": {
        "display_name": "R-23, Podgorica, Podgorica Capital City, 80001, Montenegro",
        "road": "R-23",
        "house_number": null,
        "neighbourhood": null,
        "suburb": null,
        "city_district": null,
        "city": "Podgorica",
        "state": null,
        "postcode": "80001",
        "country": "Montenegro",
        "country_code": "me"
      },
      "address": "R-23, Podgorica, Montenegro"
    },
    {
      "lat": 42.446696804630974,
      "lon": 19.255831925422832,
      "geoinfo": {
        "display_name": "Voli, Serdara Jola Piletića, Podgorica, Podgorica Capital City, 81000, Montenegro",
        "road": "Serdara Jola Piletića",
        "house_number": null,
        "neighbourhood": null,
        "suburb": null,
        "city_district": null,
        "city": "Podgorica",
        "state": null,
        "postcode": "81000",
        "country": "Montenegro",
        "country_code": "me"
      },
      "address": "167, Serdara Jola Piletića, 81000 Podgorica, Montenegro"
    },
    {
      "lat": 42.44432302893487,
      "lon": 19.296426149647345,
      "geoinfo": {
        "display_name": "Podgorica, Podgorica Capital City, 81201, Montenegro",
        "road": null,
        "house_number": null,
        "neighbourhood": null,
        "suburb": null,
        "city_district": null,
        "city": "Podgorica",
        "state": null,
        "postcode": "81201",
        "country": "Montenegro",
        "country_code": "me"
      },
      "address": "395, Podgorica, Podgorica Capital City, 81201, Montenegro"
    },
    {
      "lat": 42.46299585737638,
      "lon": 19.275720216740485,
      "geoinfo": {
        "display_name": "Podgorica, Podgorica Capital City, 80001, Montenegro",
        "road": null,
        "house_number": null,
        "neighbourhood": null,
        "suburb": null,
        "city_district": null,
        "city": "Podgorica",
        "state": null,
        "postcode": "80001",
        "country": "Montenegro",
        "country_code": "me"
      },
      "address": "195, Podgorica, Podgorica Capital City, 80001, Montenegro"
    },
    {
      "lat": 42.41647692491262,
      "lon": 19.233161780109562,
      "geoinfo": {
        "display_name": "Vojislavljevića, Zabjelo, Podgorica, Podgorica Capital City, 81111, Montenegro",
        "road": "Vojislavljevića",
        "house_number": null,
        "neighbourhood": "Zabjelo",
        "suburb": null,
        "city_district": null,
        "city": "Podgorica",
        "state": null,
        "postcode": "81111",
        "country": "Montenegro",
        "country_code": "me"
      },
      "address": "778, Vojislavljevića, Zabjelo, Podgorica, Podgorica Capital City, 81111, Montenegro"
    },
    {
      "lat": 42.4052418870557,
      "lon": 19.299334197056314,
      "geoinfo": {
        "display_name": "M-4, Rakića Kuće, Tuzi Municipality, 81201, Montenegro",
        "road": "M-4",
        "house_number": null,
        "neighbourhood": null,
        "suburb": null,
        "city_district": null,
        "city": "Rakića Kuće",
        "state": null,
        "postcode": "81201",
        "country": "Montenegro",
        "country_code": "me"
      },
      "address": "M-4, 81201 Podgorica, Montenegro"
    },
    {
      "lat": 42.46331456788832,
      "lon": 19.269039115770266,
      "geoinfo": {
        "display_name": "Piperska, Zagorič, Podgorica, Podgorica Capital City, 80001, Montenegro",
        "road": "Piperska",
        "house_number": null,
        "neighbourhood": "Zagorič",
        "suburb": null,
        "city_district": null,
        "city": "Podgorica",
        "state": null,
        "postcode": "80001",
        "country": "Montenegro",
        "country_code": "me"
      },
      "address": "433, Piperska, Zagorič, Podgorica, Podgorica Capital City, 80001, Montenegro"
    },
    {
      "lat": 42.43967267564856,
      "lon": 19.246888614258367,
      "geoinfo": {
        "display_name": "Moskovska, Kruševac, Podgorica, Podgorica Capital City, 81107, Montenegro",
        "road": "Moskovska",
        "house_number": null,
        "neighbourhood": "Kruševac",
        "suburb": null,
        "city_district": null,
        "city": "Podgorica",
        "state": null,
        "postcode": "81107",
        "country": "Montenegro",
        "country_code": "me"
      },
      "address": "693, Moskovska, Kruševac, Podgorica, Podgorica Capital City, 81107, Montenegro"
    },
    {
      "lat": 42.421854619468604,
      "lon": 19.23323089058566,
      "geoinfo": {
        "display_name": "Podgorica, Podgorica Capital City, 81111, Montenegro",
        "road": null,
        "house_number": null,
        "neighbourhood": null,
        "suburb": null,
        "city_district": null,
        "city": "Podgorica",
        "state": null,
        "postcode": "81111",
        "country": "Montenegro",
        "country_code": "me"
      },
      "address": "560, Podgorica, Podgorica Capital City, 81111, Montenegro"
    },
    {
      "lat": 42.45699799141693,
      "lon": 19.262763476585786,
      "geoinfo": {
        "display_name": "Borislava Pekica, Podgorica, Podgorica Capital City, 80001, Montenegro",
        "road": "Borislava Pekica",
        "house_number": null,
        "neighbourhood": null,
        "suburb": null,
        "city_district": null,
        "city": "Podgorica",
        "state": null,
        "postcode": "80001",
        "country": "Montenegro",
        "country_code": "me"
      },
      "address": "222, Borislava Pekica, Podgorica, Podgorica Capital City, 80001, Montenegro"
    },
    {
      "lat": 42.42029164935844,
      "lon": 19.218687079296917,
      "geoinfo": {
        "display_name": "Donja Gorica, Podgorica, Podgorica Capital City, 81257, Montenegro",
        "road": null,
        "house_number": null,
        "neighbourhood": "Donja Gorica",
        "suburb": null,
        "city_district": null,
        "city": "Podgorica",
        "state": null,
        "postcode": "81257",
        "country": "Montenegro",
        "country_code": "me"
      },
      "address": "046, Donja Gorica, Podgorica, Podgorica Capital City, 81257, Montenegro"
    },
    {
      "lat": 42.423372009705986,
      "lon": 19.236952370219026,
      "geoinfo": {
        "display_name": "66, Vojislavljevića, Zabjelo, Podgorica, Podgorica Capital City, 81000, Montenegro",
        "road": "Vojislavljevića",
        "house_number": "66",
        "neighbourhood": "Zabjelo",
        "suburb": null,
        "city_district": null,
        "city": "Podgorica",
        "state": null,
        "postcode": "81000",
        "country": "Montenegro",
        "country_code": "me"
      },
      "address": "66, Vojislavljevića, Zabjelo, Podgorica, Podgorica Capital City, 81000, Montenegro"
    },
    {
      "lat": 42.43505812229749,
      "lon": 19.235418867678327,
      "geoinfo": {
        "display_name": "Kruševac, Podgorica, Podgorica Capital City, 81103, Montenegro",
        "road": null,
        "house_number": null,
        "neighbourhood": "Kruševac",
        "suburb": null,
        "city_district": null,
        "city": "Podgorica",
        "state": null,
        "postcode": "81103",
        "country": "Montenegro",
        "country_code": "me"
      },
      "address": "011, Kruševac, Podgorica, Podgorica Capital City, 81103, Montenegro"
    },
    {
      "lat": 42.419292741971994,
      "lon": 19.221160192066904,
      "geoinfo": {
        "display_name": "Desanke Maksimović, Dahna, Podgorica, Podgorica Capital City, 81257, Montenegro",
        "road": "Desanke Maksimović",
        "house_number": null,
        "neighbourhood": "Dahna",
        "suburb": null,
        "city_district": null,
        "city": "Podgorica",
        "state": null,
        "postcode": "81257",
        "country": "Montenegro",
        "country_code": "me"
      },
      "address": "632, Desanke Maksimović, Dahna, Podgorica, Podgorica Capital City, 81257, Montenegro"
    }
  ],
  "updated_at": "2025-10-19T04:14:40.835945+00:00",
  "_kind": "geo_samples"
}