{
  "country_code": "HU",
  "country": "Hungary",
  "city": "Angyalföld",
  "geonameid": 3055970,
  "target_addresses": 4,
  "samples": [
    {
      "lat": 47.54034834997809,
      "lon": 19.06688131637326,
      "geoinfo": {
        "display_name": "Esztergomi út, Marina part, Vizafogó, 13th district, Budapest, Central Hungary, 1138, Hungary",
        "road": "Esztergomi út",
        "house_number": null,
        "neighbourhood": "Marina part",
        "suburb": "Vizafogó",
        "city_district": null,
        "city": "Budapest",
        "state": null,
        "postcode": "1138",
        "country": "Hungary",
        "country_code": "hu"
      },
      "address": "Esztergomi út, Angyalföld, Hungary"
    },
    {
      "lat": 47.5848530005899,
      "lon": 19.063701270986847,
      "geoinfo": {
        "display_name": "95 -> 91, 95, Mátyás király út, Csillaghegy, 3rd district, Budapest, Central Hungary, 1039, Hungary",
        "road": "Mátyás király út",
        "house_number": "95",
        "neighbourhood": null,
        "suburb": "Csillaghegy",
        "city_district": null,
        "city": "Budapest",
        "state": null,
        "postcode": "1039",
        "country": "Hungary",
        "country_code": "hu"
      },
      "address": "95 -> 91, 95, Mátyás király út, Csillaghegy, 3rd district, Budapest, Central Hungary, 1039, Hungary"
    },
    {
      "lat": 47.582206613024624,
      "lon": 19.084959130003632,
      "geoinfo": {
        "display_name": "Fóti út, Megyer Kertváros, Megyer, 4th district, Budapest, Central Hungary, 1044, Hungary",
        "road": "Fóti út",
        "house_number": null,
        "neighbourhood": null,
        "suburb": "Megyer",
        "city_district": null,
        "city": "Budapest",
        "state": null,
        "postcode": "1044",
        "country": "Hungary",
        "country_code": "hu"
      },
      "address": "Fóti út, Megyer Kertváros, Megyer, 4th district, Budapest, Central Hungary, 1044, Hungary"
    },
    {
      "lat": 47.57336761878547,
      "lon": 19.110757870712227,
      "geoinfo": {
        "display_name": "Kosár utca, Újpest Északi Kertváros, Megyer, 4th district, Budapest, Central Hungary, 1046, Hungary",
        "road": "Kosár utca",
        "house_number": null,
        "neighbourhood": null,
        "suburb": "Megyer",
        "city_district": null,
        "city": "Budapest",
        "state": null,
        "postcode": "1046",
        "country": "Hungary",
        "country_code": "hu"
      },
      "address": "Kosár utca, Újpest Északi Kertváros, Megyer, 4th district, Budapest, Central Hungary, 1046, Hungary"
    }
  ],
  "updated_at": "2025-10-19T04:47:14.061453+00:00",
  "_kind": "geo_samples"
}