{
  "country_code": "HU",
  "country": "Hungary",
  "city": "Budapest XX. kerület",
  "geonameid": 7284840,
  "target_addresses": 4,
  "samples": [
    {
      "lat": 47.44144840531576,
      "lon": 19.10140596045662,
      "geoinfo": {
        "display_name": "János tér, Erzsébetfalva, 20th district, Budapest, Central Hungary, 1203, Hungary",
        "road": "János tér",
        "house_number": null,
        "neighbourhood": null,
        "suburb": "Erzsébetfalva",
        "city_district": null,
        "city": "Budapest",
        "state": null,
        "postcode": "1203",
        "country": "Hungary",
        "country_code": "hu"
      },
      "address": "János tér, Budapest XX. kerület, Hungary"
    },
    {
      "lat": 47.47187741855432,
      "lon": 19.10146680486489,
      "geoinfo": {
        "display_name": "Fék utca, Középső-Ferencváros, 9th district, Budapest, Central Hungary, 1098, Hungary",
        "road": "Fék utca",
        "house_number": null,
        "neighbourhood": null,
        "suburb": "Középső-Ferencváros",
        "city_district": null,
        "city": "Budapest",
        "state": null,
        "postcode": "1098",
        "country": "Hungary",
        "country_code": "hu"
      },
      "address": "Fék utca, Középső-Ferencváros, 9th district, Budapest, Central Hungary, 1098, Hungary"
    },
    {
      "lat": 47.439929463987795,
      "lon": 19.149108058419294,
      "geoinfo": {
        "display_name": "Mészáros Lőrinc utca, Kispest, 19th district, Budapest, Central Hungary, 1194, Hungary",
        "road": "Mészáros Lőrinc utca",
        "house_number": null,
        "neighbourhood": null,
        "suburb": "Kispest",
        "city_district": null,
        "city": "Budapest",
        "state": null,
        "postcode": "1194",
        "country": "Hungary",
        "country_code": "hu"
      },
      "address": "Mészáros Lőrinc utca, Kispest, 19th district, Budapest, Central Hungary, 1194, Hungary"
    },
    {
      "lat": 47.41283311273216,
      "lon": 19.137021516511826,
      "geoinfo": {
        "display_name": "Szentlőrinci út, Szentlőrinc úti lakótelep, Soroksár, 23rd district, Budapest, Central Hungary, 1238, Hungary",
        "road": "Szentlőrinci út",
        "house_number": null,
        "neighbourhood": "Szentlőrinc úti lakótelep",
        "suburb": "Soroksár",
        "city_district": null,
        "city": "Budapest",
        "state": null,
        "postcode": "1238",
        "country": "Hungary",
        "country_code": "hu"
      },
      "address": "Szentlőrinci út, Szentlőrinc úti lakótelep, Soroksár, 23rd district, Budapest, Central Hungary, 1238, Hungary"
    }
  ],
  "updated_at": "2025-10-19T04:47:30.087456+00:00",
  "_kind": "geo_samples"
}