{
  "country_code": "HU",
  "country": "Hungary",
  "city": "Budapest XIII. kerület",
  "geonameid": 7284830,
  "target_addresses": 4,
  "samples": [
    {
      "lat": 47.54562204562484,
      "lon": 19.090372698317122,
      "geoinfo": {
        "display_name": "85, Gyöngyösi utca, Angyalföld-Kertváros, Angyalföld, 13th district, Budapest, Central Hungary, 1131, Hungary",
        "road": "Gyöngyösi utca",
        "house_number": "85",
        "neighbourhood": "Angyalföld-Kertváros",
        "suburb": "Angyalföld",
        "city_district": null,
        "city": "Budapest",
        "state": null,
        "postcode": "1131",
        "country": "Hungary",
        "country_code": "hu"
      },
      "address": "85 Gyöngyösi utca, Budapest XIII. kerület, Hungary"
    },
    {
      "lat": 47.56538364011188,
      "lon": 19.077337591312084,
      "geoinfo": {
        "display_name": "3/A, Komp utca, Károlyi Városnegyed, Újpest, 4th district, Budapest, Central Hungary, 1044, Hungary",
        "road": "Komp utca",
        "house_number": "3/A",
        "neighbourhood": null,
        "suburb": "Újpest",
        "city_district": null,
        "city": "Budapest",
        "state": null,
        "postcode": "1044",
        "country": "Hungary",
        "country_code": "hu"
      },
      "address": "3/A, Komp utca, Károlyi Városnegyed, Újpest, 4th district, Budapest, Central Hungary, 1044, Hungary"
    },
    {
      "lat": 47.513480841081424,
      "lon": 19.131068858195555,
      "geoinfo": {
        "display_name": "34, Csernyus utca, Mogyoródi–Jerney úti lakótelep, Alsórákos, 14th district, Budapest, Central Hungary, 1141, Hungary",
        "road": "Csernyus utca",
        "house_number": "34",
        "neighbourhood": "Mogyoródi–Jerney úti lakótelep",
        "suburb": "Alsórákos",
        "city_district": null,
        "city": "Budapest",
        "state": null,
        "postcode": "1141",
        "country": "Hungary",
        "country_code": "hu"
      },
      "address": "34, Csernyus utca, Mogyoródi–Jerney úti lakótelep, Alsórákos, 14th district, Budapest, Central Hungary, 1141, Hungary"
    },
    {
      "lat": 47.53683532948834,
      "lon": 19.060629485737422,
      "geoinfo": {
        "display_name": "Europe Tower, 24-26, Népfürdő utca, Vizafogó lakótelep, Vizafogó, 13th district, Budapest, Central Hungary, 1138, Hungary",
        "road": "Népfürdő utca",
        "house_number": "24-26",
        "neighbourhood": null,
        "suburb": "Vizafogó",
        "city_district": null,
        "city": "Budapest",
        "state": null,
        "postcode": "1138",
        "country": "Hungary",
        "country_code": "hu"
      },
      "address": "Europe Tower, 24-26, Népfürdő utca, Vizafogó lakótelep, Vizafogó, 13th district, Budapest, Central Hungary, 1138, Hungary"
    }
  ],
  "updated_at": "2025-10-19T04:47:22.080647+00:00",
  "_kind": "geo_samples"
}