{
  "country_code": "HU",
  "country": "Hungary",
  "city": "Középső-Ferencváros",
  "geonameid": 12749860,
  "target_addresses": 4,
  "samples": [
    {
      "lat": 47.46819164331737,
      "lon": 19.013768257989682,
      "geoinfo": {
        "display_name": "67, Ugron Gábor utca, Sasad, 11th district, Budapest, Central Hungary, 1118, Hungary",
        "road": "Ugron Gábor utca",
        "house_number": "67",
        "neighbourhood": null,
        "suburb": "Sasad",
        "city_district": null,
        "city": "Budapest",
        "state": null,
        "postcode": "1118",
        "country": "Hungary",
        "country_code": "hu"
      },
      "address": "67, Ugron Gábor utca, Sasad, 11th district, Budapest, Central Hungary, 1118, Hungary"
    },
    {
      "lat": 47.47521865231157,
      "lon": 19.039404725161262,
      "geoinfo": {
        "display_name": "neked kelek., Bartók Béla út, Kelenföld, 11th district, Budapest, Central Hungary, 1114, Hungary",
        "road": "Bartók Béla út",
        "house_number": null,
        "neighbourhood": null,
        "suburb": "Kelenföld",
        "city_district": null,
        "city": "Budapest",
        "state": null,
        "postcode": "1114",
        "country": "Hungary",
        "country_code": "hu"
      },
      "address": "neked kelek., Bartók Béla út, Kelenföld, 11th district, Budapest, Central Hungary, 1114, Hungary"
    },
    {
      "lat": 47.44323061452636,
      "lon": 19.054940066209518,
      "geoinfo": {
        "display_name": "Szikratávíró utca, Szabadkikötő, Csepel-Szigetcsúcs, 21st district, Budapest, Central Hungary, 1211, Hungary",
        "road": "Szikratávíró utca",
        "house_number": null,
        "neighbourhood": "Szabadkikötő",
        "suburb": "Csepel-Szigetcsúcs",
        "city_district": null,
        "city": "Budapest",
        "state": null,
        "postcode": "1211",
        "country": "Hungary",
        "country_code": "hu"
      },
      "address": "Szikratávíró utca, Szabadkikötő, Csepel-Szigetcsúcs, 21st district, Budapest, Central Hungary, 1211, Hungary"
    },
    {
      "lat": 47.44428799800815,
      "lon": 19.040394932237678,
      "geoinfo": {
        "display_name": "Albertfalvi Közösségi Ház, 45-47, Gyékényes utca, Albertfalva, 11th district, Budapest, Central Hungary, 1116, Hungary",
        "road": "Gyékényes utca",
        "house_number": "45-47",
        "neighbourhood": null,
        "suburb": "Albertfalva",
        "city_district": null,
        "city": "Budapest",
        "state": null,
        "postcode": "1116",
        "country": "Hungary",
        "country_code": "hu"
      },
      "address": "Albertfalvi Közösségi Ház, 45-47, Gyékényes utca, Albertfalva, 11th district, Budapest, Central Hungary, 1116, Hungary"
    }
  ],
  "updated_at": "2025-10-19T04:47:38.097566+00:00",
  "_kind": "geo_samples"
}