{
  "country_code": "HU",
  "country": "Hungary",
  "city": "Szekszárd",
  "geonameid": 3044760,
  "target_addresses": 4,
  "samples": [
    {
      "lat": 46.326107455872595,
      "lon": 18.664232741068748,
      "geoinfo": {
        "display_name": "Szekszárd, Szekszárdi járás, Tolna, Southern Transdanubia, Transdanubia, 7100, Hungary",
        "road": null,
        "house_number": null,
        "neighbourhood": null,
        "suburb": null,
        "city_district": null,
        "city": "Szekszárd",
        "state": null,
        "postcode": "7100",
        "country": "Hungary",
        "country_code": "hu"
      },
      "address": "Szekszárd, Hungary"
    },
    {
      "lat": 46.33669623795627,
      "lon": 18.724327929688364,
      "geoinfo": {
        "display_name": "TOTÉV Ipartelep, Iparváros, Szekszárd, Szekszárdi járás, Tolna, Southern Transdanubia, 7100, Hungary",
        "road": "TOTÉV Ipartelep",
        "house_number": null,
        "neighbourhood": null,
        "suburb": "Iparváros",
        "city_district": null,
        "city": "Szekszárd",
        "state": null,
        "postcode": "7100",
        "country": "Hungary",
        "country_code": "hu"
      },
      "address": "547, TOTÉV Ipartelep, Iparváros, Szekszárd, Szekszárdi járás, Tolna, Southern Transdanubia, 7100, Hungary"
    },
    {
      "lat": 46.33375690308975,
      "lon": 18.71164027994003,
      "geoinfo": {
        "display_name": "9, Tartsay ipartelep, Alsóváros, Szekszárd, Szekszárdi járás, Tolna, Southern Transdanubia, Transdanubia, 7100, Hungary",
        "road": "Tartsay ipartelep",
        "house_number": "9",
        "neighbourhood": null,
        "suburb": "Alsóváros",
        "city_district": null,
        "city": "Szekszárd",
        "state": null,
        "postcode": "7100",
        "country": "Hungary",
        "country_code": "hu"
      },
      "address": "9, Tartsay ipartelep, Alsóváros, Szekszárd, Szekszárdi járás, Tolna, Southern Transdanubia, Transdanubia, 7100, Hungary"
    },
    {
      "lat": 46.34403348244859,
      "lon": 18.66308630184185,
      "geoinfo": {
        "display_name": "Csötönyivölgy, Szekszárd, Szekszárdi járás, Tolna, Southern Transdanubia, Transdanubia, 7100, Hungary",
        "road": "Csötönyivölgy",
        "house_number": null,
        "neighbourhood": null,
        "suburb": null,
        "city_district": null,
        "city": "Szekszárd",
        "state": null,
        "postcode": "7100",
        "country": "Hungary",
        "country_code": "hu"
      },
      "address": "060, Csötönyivölgy, Szekszárd, Szekszárdi járás, Tolna, Southern Transdanubia, Transdanubia, 7100, Hungary"
    }
  ],
  "updated_at": "2025-10-19T04:46:31.837227+00:00",
  "_kind": "geo_samples"
}