{
  "country_code": "PT",
  "country": "Portugal",
  "city": "São Martinho do Bispo",
  "geonameid": 2734410,
  "target_addresses": 3,
  "samples": [
    {
      "lat": 40.199424372627,
      "lon": -8.449510630000791,
      "geoinfo": {
        "display_name": "Rua dos Alqueves, Vale Rosal, Santa Clara, Santa Clara e Castelo Viegas, Coimbra, 3040-354, Portugal",
        "road": "Rua dos Alqueves",
        "house_number": null,
        "neighbourhood": "Vale Rosal",
        "suburb": "Santa Clara",
        "city_district": "Santa Clara e Castelo Viegas",
        "city": "Coimbra",
        "state": null,
        "postcode": "3040-354",
        "country": "Portugal",
        "country_code": "pt"
      },
      "address": "Rua dos Alqueves, São Martinho do Bispo, Portugal"
    },
    {
      "lat": 40.17513089001606,
      "lon": -8.477501899113278,
      "geoinfo": {
        "display_name": "Valongo, Albergaria, Assafarge e Antanhol, Coimbra, 3040-570, Portugal",
        "road": null,
        "house_number": null,
        "neighbourhood": null,
        "suburb": null,
        "city_district": "Assafarge e Antanhol",
        "city": "Coimbra",
        "state": null,
        "postcode": "3040-570",
        "country": "Portugal",
        "country_code": "pt"
      },
      "address": "Valongo, Albergaria, Assafarge e Antanhol, Coimbra, 3040-570, Portugal"
    },
    {
      "lat": 40.18366341309759,
      "lon": -8.436969282161362,
      "geoinfo": {
        "display_name": "IC 3, Quinta do Rossio, Santa Clara e Castelo Viegas, Coimbra, 3040-227, Portugal",
        "road": "IC 3",
        "house_number": null,
        "neighbourhood": null,
        "suburb": null,
        "city_district": "Santa Clara e Castelo Viegas",
        "city": "Coimbra",
        "state": null,
        "postcode": "3040-227",
        "country": "Portugal",
        "country_code": "pt"
      },
      "address": "IC 3, Quinta do Rossio, Santa Clara e Castelo Viegas, Coimbra, 3040-227, Portugal"
    }
  ],
  "updated_at": "2025-10-19T06:08:57.913453+00:00",
  "_kind": "geo_samples"
}