{
  "country_code": "BY",
  "country": "Belarus",
  "city": "Byaroza",
  "geonameid": 629454,
  "target_addresses": 2,
  "samples": [
    {
      "lat": 52.51807908952302,
      "lon": 24.92060156247253,
      "geoinfo": {
        "display_name": "25, Светлая вуліца, Вілы, Biaroza, Byaroza District, Brest Region, 225202, Belarus",
        "road": "Светлая вуліца",
        "house_number": "25",
        "neighbourhood": null,
        "suburb": "Вілы",
        "city_district": null,
        "city": "Biaroza",
        "state": "Brest Region",
        "postcode": "225202",
        "country": "Belarus",
        "country_code": "by"
      },
      "address": "25 Светлая вуліца, Byaroza, Brest Region, Belarus"
    },
    {
      "lat": 52.503423749548276,
      "lon": 24.952592235465996,
      "geoinfo": {
        "display_name": "Светацкая вуліца, Navasiolki, Бярозаўскі сельскі Савет, Byaroza District, Brest Region, 225202, Belarus",
        "road": "Светацкая вуліца",
        "house_number": null,
        "neighbourhood": null,
        "suburb": null,
        "city_district": null,
        "city": "Бярозаўскі сельскі Савет",
        "state": "Brest Region",
        "postcode": "225202",
        "country": "Belarus",
        "country_code": "by"
      },
      "address": "Светацкая вуліца, Byaroza, Brest Region, Belarus"
    },
    {
      "lat": 52.55934348159544,
      "lon": 24.960059984434626,
      "geoinfo": {
        "display_name": "1, Карʼерная вуліца, Самойлавічы, Biaroza, Byaroza District, Brest Region, 225210, Belarus",
        "road": "Карʼерная вуліца",
        "house_number": "1",
        "neighbourhood": "Самойлавічы",
        "suburb": null,
        "city_district": null,
        "city": "Biaroza",
        "state": "Brest Region",
        "postcode": "225210",
        "country": "Belarus",
        "country_code": "by"
      },
      "address": "1, Карʼерная вуліца, Самойлавічы, Biaroza, Byaroza District, Brest Region, 225210, Belarus"
    },
    {
      "lat": 52.4909065125561,
      "lon": 25.000406792250402,
      "geoinfo": {
        "display_name": "1А, вуліца Леніна, Zdzitava, Здзітаўскі сельскі Савет, Byaroza District, Brest Region, 225211, Belarus",
        "road": "вуліца Леніна",
        "house_number": "1А",
        "neighbourhood": null,
        "suburb": null,
        "city_district": null,
        "city": "Здзітаўскі сельскі Савет",
        "state": "Brest Region",
        "postcode": "225211",
        "country": "Belarus",
        "country_code": "by"
      },
      "address": "1А, вуліца Леніна, Zdzitava, Здзітаўскі сельскі Савет, Byaroza District, Brest Region, 225211, Belarus"
    }
  ],
  "updated_at": "2025-10-19T01:33:38.176732+00:00",
  "_kind": "geo_samples"
}