{
  "country_code": "BY",
  "country": "Belarus",
  "city": "Dzyarzhynsk",
  "geonameid": 628634,
  "target_addresses": 2,
  "samples": [
    {
      "lat": 53.643803373971586,
      "lon": 27.133534232869422,
      "geoinfo": {
        "display_name": "ДАК №15, Н8408, Бязодніца, Станькаўскі сельскі Савет, Dzyarzhynsk District, Minsk Region, 222720, Belarus",
        "road": "Н8408",
        "house_number": null,
        "neighbourhood": null,
        "suburb": null,
        "city_district": null,
        "city": "Станькаўскі сельскі Савет",
        "state": "Minsk Region",
        "postcode": "222720",
        "country": "Belarus",
        "country_code": "by"
      },
      "address": "Н8408, Dzyarzhynsk, Minsk Region, Belarus"
    },
    {
      "lat": 53.65465591946071,
      "lon": 27.076234828253845,
      "geoinfo": {
        "display_name": "Шасэйная вуліца, Старая Рудзіца, Бараўскі сельскі Савет, Dzyarzhynsk District, Minsk Region, Belarus",
        "road": "Шасэйная вуліца",
        "house_number": null,
        "neighbourhood": null,
        "suburb": null,
        "city_district": null,
        "city": "Бараўскі сельскі Савет",
        "state": "Minsk Region",
        "postcode": null,
        "country": "Belarus",
        "country_code": "by"
      },
      "address": "Шасэйная вуліца, Dzyarzhynsk, Minsk Region, Belarus"
    },
    {
      "lat": 53.656564704974976,
      "lon": 27.153924754853396,
      "geoinfo": {
        "display_name": "Ніва-1992, Станькаўскі сельскі Савет, Dzyarzhynsk District, Minsk Region, 222720, Belarus",
        "road": null,
        "house_number": null,
        "neighbourhood": null,
        "suburb": null,
        "city_district": null,
        "city": "Станькаўскі сельскі Савет",
        "state": "Minsk Region",
        "postcode": "222720",
        "country": "Belarus",
        "country_code": "by"
      },
      "address": "Ніва-1992, Станькаўскі сельскі Савет, Dzyarzhynsk District, Minsk Region, 222720, Belarus"
    },
    {
      "lat": 53.69002079928051,
      "lon": 27.181787874144103,
      "geoinfo": {
        "display_name": "Н8427, Дзяржынскі сельскі Савет, Dzyarzhynsk District, Minsk Region, 222720, Belarus",
        "road": "Н8427",
        "house_number": null,
        "neighbourhood": null,
        "suburb": null,
        "city_district": null,
        "city": "Дзяржынскі сельскі Савет",
        "state": "Minsk Region",
        "postcode": "222720",
        "country": "Belarus",
        "country_code": "by"
      },
      "address": "Н8427, Дзяржынскі сельскі Савет, Dzyarzhynsk District, Minsk Region, 222720, Belarus"
    }
  ],
  "updated_at": "2025-10-19T01:33:31.148872+00:00",
  "_kind": "geo_samples"
}