{
  "country_code": "BY",
  "country": "Belarus",
  "city": "Horad Zhodzina",
  "geonameid": 618800,
  "target_addresses": 9,
  "samples": [
    {
      "lat": 54.083558959087696,
      "lon": 28.350981484297744,
      "geoinfo": {
        "display_name": "3А, вуліца Бажоры, Zhodzina, Minsk Region, 222163, Belarus",
        "road": "вуліца Бажоры",
        "house_number": "3А",
        "neighbourhood": null,
        "suburb": null,
        "city_district": null,
        "city": "Zhodzina",
        "state": "Minsk Region",
        "postcode": "222163",
        "country": "Belarus",
        "country_code": "by"
      },
      "address": "3А, вуліца Бажоры, Zhodzina, Minsk Region, 222163, Belarus"
    },
    {
      "lat": 54.064576403271026,
      "lon": 28.29867204732328,
      "geoinfo": {
        "display_name": "56, Н9559, Яловіца, Жодзінскі сельскі Савет, Smalyavichy District, Minsk Region, 222167, Belarus",
        "road": "Н9559",
        "house_number": "56",
        "neighbourhood": null,
        "suburb": null,
        "city_district": null,
        "city": "Жодзінскі сельскі Савет",
        "state": "Minsk Region",
        "postcode": "222167",
        "country": "Belarus",
        "country_code": "by"
      },
      "address": "56, Н9559, Яловіца, Жодзінскі сельскі Савет, Smalyavichy District, Minsk Region, 222167, Belarus"
    },
    {
      "lat": 54.10300982623453,
      "lon": 28.28914688950197,
      "geoinfo": {
        "display_name": "Лагойская вуліца, Zhodzina, Minsk Region, 220167, Belarus",
        "road": "Лагойская вуліца",
        "house_number": null,
        "neighbourhood": null,
        "suburb": null,
        "city_district": null,
        "city": "Zhodzina",
        "state": "Minsk Region",
        "postcode": "220167",
        "country": "Belarus",
        "country_code": "by"
      },
      "address": "389, Лагойская вуліца, Zhodzina, Minsk Region, 220167, Belarus"
    },
    {
      "lat": 54.104125877697875,
      "lon": 28.372823806411358,
      "geoinfo": {
        "display_name": "6, Берагавая вуліца, Military place, Zhodzina, Minsk Region, 222163, Belarus",
        "road": "Берагавая вуліца",
        "house_number": "6",
        "neighbourhood": "Military place",
        "suburb": null,
        "city_district": null,
        "city": "Zhodzina",
        "state": "Minsk Region",
        "postcode": "222163",
        "country": "Belarus",
        "country_code": "by"
      },
      "address": "6, Берагавая вуліца, Military place, Zhodzina, Minsk Region, 222163, Belarus"
    },
    {
      "lat": 54.09843711061826,
      "lon": 28.265869995949814,
      "geoinfo": {
        "display_name": "Novyja Hradki, Zhodzina, Minsk Region, 220167, Belarus",
        "road": null,
        "house_number": null,
        "neighbourhood": "Novyja Hradki",
        "suburb": null,
        "city_district": null,
        "city": "Zhodzina",
        "state": "Minsk Region",
        "postcode": "220167",
        "country": "Belarus",
        "country_code": "by"
      },
      "address": "210, Novyja Hradki, Zhodzina, Minsk Region, 220167, Belarus"
    },
    {
      "lat": 54.11647045774448,
      "lon": 28.336064484191184,
      "geoinfo": {
        "display_name": "2, 2-і Калядны завулак, Zhodzina, Minsk Region, 222163, Belarus",
        "road": "2-і Калядны завулак",
        "house_number": "2",
        "neighbourhood": null,
        "suburb": null,
        "city_district": null,
        "city": "Zhodzina",
        "state": "Minsk Region",
        "postcode": "222163",
        "country": "Belarus",
        "country_code": "by"
      },
      "address": "2, 2-і Калядны завулак, Zhodzina, Minsk Region, 222163, Belarus"
    },
    {
      "lat": 54.05893224366578,
      "lon": 28.300859050170285,
      "geoinfo": {
        "display_name": "Яловіца, Жодзінскі сельскі Савет, Smalyavichy District, Minsk Region, 222167, Belarus",
        "road": null,
        "house_number": null,
        "neighbourhood": null,
        "suburb": null,
        "city_district": null,
        "city": "Жодзінскі сельскі Савет",
        "state": "Minsk Region",
        "postcode": "222167",
        "country": "Belarus",
        "country_code": "by"
      },
      "address": "301, Яловіца, Жодзінскі сельскі Савет, Smalyavichy District, Minsk Region, 222167, Belarus"
    },
    {
      "lat": 54.12215998491042,
      "lon": 28.379623941085764,
      "geoinfo": {
        "display_name": "Перасадскі сельскі Савет, Barysaw District, Minsk Region, Belarus",
        "road": null,
        "house_number": null,
        "neighbourhood": null,
        "suburb": null,
        "city_district": null,
        "city": "Перасадскі сельскі Савет",
        "state": "Minsk Region",
        "postcode": null,
        "country": "Belarus",
        "country_code": "by"
      },
      "address": "319, Перасадскі сельскі Савет, Barysaw District, 80487 Minsk Region, Belarus"
    },
    {
      "lat": 54.129047648657426,
      "lon": 28.3231517623932,
      "geoinfo": {
        "display_name": "Жодзінскі сельскі Савет, Smalyavichy District, Minsk Region, 222166, Belarus",
        "road": null,
        "house_number": null,
        "neighbourhood": null,
        "suburb": null,
        "city_district": null,
        "city": "Жодзінскі сельскі Савет",
        "state": "Minsk Region",
        "postcode": "222166",
        "country": "Belarus",
        "country_code": "by"
      },
      "address": "726, Жодзінскі сельскі Савет, Smalyavichy District, Minsk Region, 222166, Belarus"
    }
  ],
  "updated_at": "2025-10-19T03:35:05.948135+00:00",
  "_kind": "geo_samples"
}