{
  "country_code": "BY",
  "country": "Belarus",
  "city": "Nesvizh",
  "geonameid": 624700,
  "target_addresses": 12,
  "samples": [
    {
      "lat": 53.207170514936344,
      "lon": 26.689820267810596,
      "geoinfo": {
        "display_name": "Паўднёвая вуліца, Nyasvizh, Nesvizh District, Minsk Region, 220603, Belarus",
        "road": "Паўднёвая вуліца",
        "house_number": null,
        "neighbourhood": null,
        "suburb": null,
        "city_district": null,
        "city": "Nyasvizh",
        "state": "Minsk Region",
        "postcode": "220603",
        "country": "Belarus",
        "country_code": "by"
      },
      "address": "Паўднёвая вуліца, Nesvizh, Minsk Region, Belarus"
    },
    {
      "lat": 53.19097822001692,
      "lon": 26.689877387380072,
      "geoinfo": {
        "display_name": "Р12, Нясвіжскі сельскі Савет, Nesvizh District, Minsk Region, 222632, Belarus",
        "road": "Р12",
        "house_number": null,
        "neighbourhood": null,
        "suburb": null,
        "city_district": null,
        "city": "Нясвіжскі сельскі Савет",
        "state": "Minsk Region",
        "postcode": "222632",
        "country": "Belarus",
        "country_code": "by"
      },
      "address": "Р12, Nesvizh, Minsk Region, Belarus"
    },
    {
      "lat": 53.246426998914174,
      "lon": 26.66721830293203,
      "geoinfo": {
        "display_name": "Р91/П1, Нясвіжскі сельскі Савет, Nesvizh District, Minsk Region, 222621, Belarus",
        "road": "Р91/П1",
        "house_number": null,
        "neighbourhood": null,
        "suburb": null,
        "city_district": null,
        "city": "Нясвіжскі сельскі Савет",
        "state": "Minsk Region",
        "postcode": "222621",
        "country": "Belarus",
        "country_code": "by"
      },
      "address": "Р91/П1, Nesvizh, 78519 Minsk Region, Belarus"
    },
    {
      "lat": 53.22318562832545,
      "lon": 26.718872679907072,
      "geoinfo": {
        "display_name": "8, Сонечная вуліца, Караліна, Нясвіжскі сельскі Савет, Nesvizh District, Minsk Region, 220603, Belarus",
        "road": "Сонечная вуліца",
        "house_number": "8",
        "neighbourhood": null,
        "suburb": null,
        "city_district": null,
        "city": "Нясвіжскі сельскі Савет",
        "state": "Minsk Region",
        "postcode": "220603",
        "country": "Belarus",
        "country_code": "by"
      },
      "address": "8 Сонечная вуліца, Nesvizh, 16211 Minsk Region, Belarus"
    },
    {
      "lat": 53.21316970149928,
      "lon": 26.68397284983889,
      "geoinfo": {
        "display_name": "Рэвалюцыйная вуліца, Nyasvizh, Nesvizh District, Minsk Region, 222603, Belarus",
        "road": "Рэвалюцыйная вуліца",
        "house_number": null,
        "neighbourhood": null,
        "suburb": null,
        "city_district": null,
        "city": "Nyasvizh",
        "state": "Minsk Region",
        "postcode": "222603",
        "country": "Belarus",
        "country_code": "by"
      },
      "address": "Рэвалюцыйная вуліца, Nyasvizh, Nesvizh District, Minsk Region, 222603, Belarus"
    },
    {
      "lat": 53.25553807482698,
      "lon": 26.70121833088628,
      "geoinfo": {
        "display_name": "Нясвіжскі сельскі Савет, Nesvizh District, Minsk Region, 220603, Belarus",
        "road": null,
        "house_number": null,
        "neighbourhood": null,
        "suburb": null,
        "city_district": null,
        "city": "Нясвіжскі сельскі Савет",
        "state": "Minsk Region",
        "postcode": "220603",
        "country": "Belarus",
        "country_code": "by"
      },
      "address": "693, Нясвіжскі сельскі Савет, Nesvizh District, Minsk Region, 220603, Belarus"
    },
    {
      "lat": 53.25749375765866,
      "lon": 26.632084392793196,
      "geoinfo": {
        "display_name": "Н24567, Завітая, Гарадзейскі сельскі Савет, Nesvizh District, Minsk Region, 222621, Belarus",
        "road": "Н24567",
        "house_number": null,
        "neighbourhood": null,
        "suburb": null,
        "city_district": null,
        "city": "Гарадзейскі сельскі Савет",
        "state": "Minsk Region",
        "postcode": "222621",
        "country": "Belarus",
        "country_code": "by"
      },
      "address": "Н24567, Завітая, Гарадзейскі сельскі Савет, Nesvizh District, Minsk Region, 222621, Belarus"
    },
    {
      "lat": 53.26226719402613,
      "lon": 26.678206615494595,
      "geoinfo": {
        "display_name": "Нясвіжскі сельскі Савет, Nesvizh District, Minsk Region, 222621, Belarus",
        "road": null,
        "house_number": null,
        "neighbourhood": null,
        "suburb": null,
        "city_district": null,
        "city": "Нясвіжскі сельскі Савет",
        "state": "Minsk Region",
        "postcode": "222621",
        "country": "Belarus",
        "country_code": "by"
      },
      "address": "023, Нясвіжскі сельскі Савет, Nesvizh District, Minsk Region, 222621, Belarus"
    },
    {
      "lat": 53.24785252761871,
      "lon": 26.72024749864325,
      "geoinfo": {
        "display_name": "Азярына, Нясвіжскі сельскі Савет, Nesvizh District, Minsk Region, 220603, Belarus",
        "road": null,
        "house_number": null,
        "neighbourhood": null,
        "suburb": null,
        "city_district": null,
        "city": "Нясвіжскі сельскі Савет",
        "state": "Minsk Region",
        "postcode": "220603",
        "country": "Belarus",
        "country_code": "by"
      },
      "address": "919, Азярына, Нясвіжскі сельскі Савет, Nesvizh District, Minsk Region, 220603, Belarus"
    },
    {
      "lat": 53.19787750662442,
      "lon": 26.61895440430428,
      "geoinfo": {
        "display_name": "Нясвіжскі сельскі Савет, Nesvizh District, Minsk Region, Belarus",
        "road": null,
        "house_number": null,
        "neighbourhood": null,
        "suburb": null,
        "city_district": null,
        "city": "Нясвіжскі сельскі Савет",
        "state": "Minsk Region",
        "postcode": null,
        "country": "Belarus",
        "country_code": "by"
      },
      "address": "502, Нясвіжскі сельскі Савет, Nesvizh District, 45467 Minsk Region, Belarus"
    },
    {
      "lat": 53.20501739986532,
      "lon": 26.613417145637925,
      "geoinfo": {
        "display_name": "Кастрычніцкая вуліца, Альбянка, Нясвіжскі сельскі Савет, Nesvizh District, Minsk Region, 222620, Belarus",
        "road": "Кастрычніцкая вуліца",
        "house_number": null,
        "neighbourhood": null,
        "suburb": null,
        "city_district": null,
        "city": "Нясвіжскі сельскі Савет",
        "state": "Minsk Region",
        "postcode": "222620",
        "country": "Belarus",
        "country_code": "by"
      },
      "address": "215, Кастрычніцкая вуліца, Альбянка, Нясвіжскі сельскі Савет, Nesvizh District, Minsk Region, 222620, Belarus"
    },
    {
      "lat": 53.23338739543068,
      "lon": 26.67873083796819,
      "geoinfo": {
        "display_name": "4, Агранамічная вуліца, Заазерʼе, Нясвіжскі сельскі Савет, Nesvizh District, Minsk Region, 222603, Belarus",
        "road": "Агранамічная вуліца",
        "house_number": "4",
        "neighbourhood": null,
        "suburb": null,
        "city_district": null,
        "city": "Нясвіжскі сельскі Савет",
        "state": "Minsk Region",
        "postcode": "222603",
        "country": "Belarus",
        "country_code": "by"
      },
      "address": "4, Агранамічная вуліца, Заазерʼе, Нясвіжскі сельскі Савет, Nesvizh District, Minsk Region, 222603, Belarus"
    }
  ],
  "updated_at": "2025-10-19T03:35:36.648691+00:00",
  "_kind": "geo_samples"
}