{
  "country_code": "BY",
  "country": "Belarus",
  "city": "Orsha",
  "geonameid": 624079,
  "target_addresses": 2,
  "samples": [
    {
      "lat": 54.546967282206836,
      "lon": 30.45275272351843,
      "geoinfo": {
        "display_name": "вуліца Уладзіміра Леніна, Orsha, Orsha District, Vitsebsk Region, 211388, Belarus",
        "road": "вуліца Уладзіміра Леніна",
        "house_number": null,
        "neighbourhood": null,
        "suburb": null,
        "city_district": null,
        "city": "Orsha",
        "state": "Vitsebsk Region",
        "postcode": "211388",
        "country": "Belarus",
        "country_code": "by"
      },
      "address": "вуліца Уладзіміра Леніна, Orsha, Vitsebsk Region, Belarus"
    },
    {
      "lat": 54.540974706666425,
      "lon": 30.402944826513757,
      "geoinfo": {
        "display_name": "Н3180, Harodnia, Пішчалаўскі сельскі Савет, Orsha District, Vitsebsk Region, 211390, Belarus",
        "road": "Н3180",
        "house_number": null,
        "neighbourhood": null,
        "suburb": null,
        "city_district": null,
        "city": "Пішчалаўскі сельскі Савет",
        "state": "Vitsebsk Region",
        "postcode": "211390",
        "country": "Belarus",
        "country_code": "by"
      },
      "address": "Н3180, Orsha, Vitsebsk Region, Belarus"
    },
    {
      "lat": 54.47566871039254,
      "lon": 30.42492809471476,
      "geoinfo": {
        "display_name": "Магілёўская шаша, Бабініцкі сельскі Савет, Orsha District, Vitsebsk Region, 211389, Belarus",
        "road": null,
        "house_number": null,
        "neighbourhood": null,
        "suburb": null,
        "city_district": null,
        "city": "Бабініцкі сельскі Савет",
        "state": "Vitsebsk Region",
        "postcode": "211389",
        "country": "Belarus",
        "country_code": "by"
      },
      "address": "299, Магілёўская шаша, Бабініцкі сельскі Савет, Orsha District, Vitsebsk Region, 211389, Belarus"
    },
    {
      "lat": 54.49603143076013,
      "lon": 30.364968403755157,
      "geoinfo": {
        "display_name": "Яслі-сад №27, Дальні завулак, Orsha, Orsha District, Vitsebsk Region, 211386, Belarus",
        "road": "Дальні завулак",
        "house_number": null,
        "neighbourhood": null,
        "suburb": null,
        "city_district": null,
        "city": "Orsha",
        "state": "Vitsebsk Region",
        "postcode": "211386",
        "country": "Belarus",
        "country_code": "by"
      },
      "address": "Яслі-сад №27, Дальні завулак, Orsha, Orsha District, Vitsebsk Region, 211386, Belarus"
    }
  ],
  "updated_at": "2025-10-19T03:19:15.431677+00:00",
  "_kind": "geo_samples"
}