{
  "country_code": "BY",
  "country": "Belarus",
  "city": "Slonim",
  "geonameid": 621754,
  "target_addresses": 2,
  "samples": [
    {
      "lat": 53.07148101534152,
      "lon": 25.272243228711186,
      "geoinfo": {
        "display_name": "147, Брэсцкая вуліца, Slonim, Slonim District, Hrodna Region, 231797, Belarus",
        "road": "Брэсцкая вуліца",
        "house_number": "147",
        "neighbourhood": null,
        "suburb": null,
        "city_district": null,
        "city": "Slonim",
        "state": "Hrodna Region",
        "postcode": "231797",
        "country": "Belarus",
        "country_code": "by"
      },
      "address": "147 Брэсцкая вуліца, Slonim, Hrodna Region, Belarus"
    },
    {
      "lat": 53.132006342523574,
      "lon": 25.319715150849493,
      "geoinfo": {
        "display_name": "Парэцкая Дача, Паўлаўскі сельскі Савет, Slonim District, Hrodna Region, Belarus",
        "road": null,
        "house_number": null,
        "neighbourhood": null,
        "suburb": null,
        "city_district": null,
        "city": "Паўлаўскі сельскі Савет",
        "state": "Hrodna Region",
        "postcode": null,
        "country": "Belarus",
        "country_code": "by"
      },
      "address": "Slonim, Hrodna Region, Belarus"
    },
    {
      "lat": 53.12727429771216,
      "lon": 25.326351316882963,
      "geoinfo": {
        "display_name": "Паўлаўскі сельскі Савет, Slonim District, Hrodna Region, 231799, Belarus",
        "road": null,
        "house_number": null,
        "neighbourhood": null,
        "suburb": null,
        "city_district": null,
        "city": "Паўлаўскі сельскі Савет",
        "state": "Hrodna Region",
        "postcode": "231799",
        "country": "Belarus",
        "country_code": "by"
      },
      "address": "098, Паўлаўскі сельскі Савет, Slonim District, Hrodna Region, 231799, Belarus"
    },
    {
      "lat": 53.12168199525933,
      "lon": 25.271851240218044,
      "geoinfo": {
        "display_name": "Падлужанскія Горы, Сянькоўшчынскі сельскі Савет, Slonim District, Hrodna Region, Belarus",
        "road": null,
        "house_number": null,
        "neighbourhood": null,
        "suburb": null,
        "city_district": null,
        "city": "Сянькоўшчынскі сельскі Савет",
        "state": "Hrodna Region",
        "postcode": null,
        "country": "Belarus",
        "country_code": "by"
      },
      "address": "050, Падлужанскія Горы, Сянькоўшчынскі сельскі Савет, Slonim District, 72141 Hrodna Region, Belarus"
    }
  ],
  "updated_at": "2025-10-19T01:32:40.852788+00:00",
  "_kind": "geo_samples"
}