{
  "country_code": "BY",
  "country": "Belarus",
  "city": "Smaliavičy",
  "geonameid": 621729,
  "target_addresses": 2,
  "samples": [
    {
      "lat": 54.0312965666052,
      "lon": 28.147795966214982,
      "geoinfo": {
        "display_name": "Беларускі зялёны крыж (адукацыйны цэнтр), Н9555, Акцябрскі, Пліскі сельскі Савет, Smalyavichy District, Minsk Region, 222220, Belarus",
        "road": "Н9555",
        "house_number": null,
        "neighbourhood": null,
        "suburb": null,
        "city_district": null,
        "city": "Пліскі сельскі Савет",
        "state": "Minsk Region",
        "postcode": "222220",
        "country": "Belarus",
        "country_code": "by"
      },
      "address": "Н9555, Smaliavičy, Minsk Region, Belarus"
    },
    {
      "lat": 54.00162743207017,
      "lon": 28.095644471305306,
      "geoinfo": {
        "display_name": "Забалоцкі сельскі Савет, Smalyavichy District, Minsk Region, 222225, Belarus",
        "road": null,
        "house_number": null,
        "neighbourhood": null,
        "suburb": null,
        "city_district": null,
        "city": "Забалоцкі сельскі Савет",
        "state": "Minsk Region",
        "postcode": "222225",
        "country": "Belarus",
        "country_code": "by"
      },
      "address": "Smaliavičy, Minsk Region, Belarus"
    },
    {
      "lat": 54.032528964981196,
      "lon": 28.135022633014376,
      "geoinfo": {
        "display_name": "Н9555, Акцябрскі, Пліскі сельскі Савет, Smalyavichy District, Minsk Region, 222220, Belarus",
        "road": "Н9555",
        "house_number": null,
        "neighbourhood": null,
        "suburb": null,
        "city_district": null,
        "city": "Пліскі сельскі Савет",
        "state": "Minsk Region",
        "postcode": "222220",
        "country": "Belarus",
        "country_code": "by"
      },
      "address": "Н9555, Акцябрскі, Пліскі сельскі Савет, Smalyavichy District, Minsk Region, 222220, Belarus"
    },
    {
      "lat": 54.053151063977985,
      "lon": 28.0994583469554,
      "geoinfo": {
        "display_name": "Р53, Усяжскі сельскі Савет, Smalyavichy District, Minsk Region, 222201, Belarus",
        "road": "Р53",
        "house_number": null,
        "neighbourhood": null,
        "suburb": null,
        "city_district": null,
        "city": "Усяжскі сельскі Савет",
        "state": "Minsk Region",
        "postcode": "222201",
        "country": "Belarus",
        "country_code": "by"
      },
      "address": "Р53, Усяжскі сельскі Савет, Smalyavichy District, Minsk Region, 222201, Belarus"
    }
  ],
  "updated_at": "2025-10-19T03:18:53.249493+00:00",
  "_kind": "geo_samples"
}