{
  "country_code": "BY",
  "country": "Belarus",
  "city": "Soligorsk",
  "geonameid": 622428,
  "target_addresses": 2,
  "samples": [
    {
      "lat": 52.80795391784705,
      "lon": 27.474880346003765,
      "geoinfo": {
        "display_name": "26, Кляновая вуліца, мікрараён Чыжы, Чыжэвіцкі сельскі Савет, Salihorsk District, Minsk Region, 223703, Belarus",
        "road": "Кляновая вуліца",
        "house_number": "26",
        "neighbourhood": "мікрараён Чыжы",
        "suburb": null,
        "city_district": null,
        "city": "Чыжэвіцкі сельскі Савет",
        "state": "Minsk Region",
        "postcode": "223703",
        "country": "Belarus",
        "country_code": "by"
      },
      "address": "26 Кляновая вуліца, Soligorsk, Minsk Region, Belarus"
    },
    {
      "lat": 52.7776998006133,
      "lon": 27.576404155979766,
      "geoinfo": {
        "display_name": "Садовая вуліца, Заазёрны, Старобінскі сельскі Савет, Salihorsk District, Minsk Region, 223707, Belarus",
        "road": "Садовая вуліца",
        "house_number": null,
        "neighbourhood": null,
        "suburb": null,
        "city_district": null,
        "city": "Старобінскі сельскі Савет",
        "state": "Minsk Region",
        "postcode": "223707",
        "country": "Belarus",
        "country_code": "by"
      },
      "address": "Садовая вуліца, Soligorsk, Minsk Region, Belarus"
    },
    {
      "lat": 52.766217314138935,
      "lon": 27.59742712773762,
      "geoinfo": {
        "display_name": "Заазёрны, Старобінскі сельскі Савет, Salihorsk District, Minsk Region, 223707, Belarus",
        "road": null,
        "house_number": null,
        "neighbourhood": null,
        "suburb": null,
        "city_district": null,
        "city": "Старобінскі сельскі Савет",
        "state": "Minsk Region",
        "postcode": "223707",
        "country": "Belarus",
        "country_code": "by"
      },
      "address": "410, Заазёрны, Старобінскі сельскі Савет, Salihorsk District, Minsk Region, 223707, Belarus"
    },
    {
      "lat": 52.76560672369754,
      "lon": 27.526060494828723,
      "geoinfo": {
        "display_name": "Лясны праезд, Юстикова гора, Salihorsk, Salihorsk District, Minsk Region, 223706, Belarus",
        "road": "Лясны праезд",
        "house_number": null,
        "neighbourhood": "Юстикова гора",
        "suburb": null,
        "city_district": null,
        "city": "Salihorsk",
        "state": "Minsk Region",
        "postcode": "223706",
        "country": "Belarus",
        "country_code": "by"
      },
      "address": "598, Лясны праезд, Юстикова гора, Salihorsk, Salihorsk District, Minsk Region, 223706, Belarus"
    }
  ],
  "updated_at": "2025-10-19T03:01:19.323431+00:00",
  "_kind": "geo_samples"
}