{
  "country_code": "BY",
  "country": "Belarus",
  "city": "Svetlogorsk",
  "geonameid": 621074,
  "target_addresses": 2,
  "samples": [
    {
      "lat": 52.63046601843589,
      "lon": 29.700952003506355,
      "geoinfo": {
        "display_name": "Паркавая вуліца, Стары аэрадром, Svietlahorsk, Svietlahorsk District, Homyel Region, 247433, Belarus",
        "road": "Паркавая вуліца",
        "house_number": null,
        "neighbourhood": null,
        "suburb": "Стары аэрадром",
        "city_district": null,
        "city": "Svietlahorsk",
        "state": "Homyel Region",
        "postcode": "247433",
        "country": "Belarus",
        "country_code": "by"
      },
      "address": "Паркавая вуліца, Svetlogorsk, Homyel Region, Belarus"
    },
    {
      "lat": 52.6014026955331,
      "lon": 29.75102506975814,
      "geoinfo": {
        "display_name": "Р82, Сасноваборскі сельскі Савет, Svietlahorsk District, Homyel Region, 247431, Belarus",
        "road": "Р82",
        "house_number": null,
        "neighbourhood": null,
        "suburb": null,
        "city_district": null,
        "city": "Сасноваборскі сельскі Савет",
        "state": "Homyel Region",
        "postcode": "247431",
        "country": "Belarus",
        "country_code": "by"
      },
      "address": "Р82, Svetlogorsk, Homyel Region, Belarus"
    },
    {
      "lat": 52.60092793581638,
      "lon": 29.767188074250345,
      "geoinfo": {
        "display_name": "Заводская вуліца, Svietlahorsk, Svietlahorsk District, Homyel Region, 243474, Belarus",
        "road": "Заводская вуліца",
        "house_number": null,
        "neighbourhood": null,
        "suburb": null,
        "city_district": null,
        "city": "Svietlahorsk",
        "state": "Homyel Region",
        "postcode": "243474",
        "country": "Belarus",
        "country_code": "by"
      },
      "address": "042, Заводская вуліца, Svietlahorsk, Svietlahorsk District, Homyel Region, 243474, Belarus"
    },
    {
      "lat": 52.63396928280168,
      "lon": 29.67298080083877,
      "geoinfo": {
        "display_name": "вуліца Міру, Rudnya, Чыркавіцкі сельскі Савет, Svietlahorsk District, Homyel Region, 246284, Belarus",
        "road": "вуліца Міру",
        "house_number": null,
        "neighbourhood": null,
        "suburb": null,
        "city_district": null,
        "city": "Чыркавіцкі сельскі Савет",
        "state": "Homyel Region",
        "postcode": "246284",
        "country": "Belarus",
        "country_code": "by"
      },
      "address": "594, вуліца Міру, Rudnya, Чыркавіцкі сельскі Савет, Svietlahorsk District, Homyel Region, 246284, Belarus"
    }
  ],
  "updated_at": "2025-10-19T01:32:32.850846+00:00",
  "_kind": "geo_samples"
}