{
  "country_code": "SK",
  "country": "Slovakia",
  "city": "Brezno",
  "geonameid": 3060950,
  "target_addresses": 6,
  "samples": [
    {
      "lat": 48.77269874558367,
      "lon": 19.66503501499071,
      "geoinfo": {
        "display_name": "5645/142, Podkoreňová, Brezno, District of Brezno, Region of Banská Bystrica, Central Slovakia, 977 01, Slovakia",
        "road": "Podkoreňová",
        "house_number": "5645/142",
        "neighbourhood": null,
        "suburb": null,
        "city_district": null,
        "city": "Brezno",
        "state": "Region of Banská Bystrica",
        "postcode": "977 01",
        "country": "Slovakia",
        "country_code": "sk"
      },
      "address": "5645/142 Podkoreňová, Brezno, Region of Banská Bystrica, Slovakia"
    },
    {
      "lat": 48.821241048852755,
      "lon": 19.672956922743854,
      "geoinfo": {
        "display_name": "4096/21A, Tehelňa, Brezno - Zadné Halny, Brezno, District of Brezno, Region of Banská Bystrica, Central Slovakia, 977 01, Slovakia",
        "road": "Tehelňa",
        "house_number": "4096/21A",
        "neighbourhood": null,
        "suburb": "Brezno - Zadné Halny",
        "city_district": null,
        "city": "Brezno",
        "state": "Region of Banská Bystrica",
        "postcode": "977 01",
        "country": "Slovakia",
        "country_code": "sk"
      },
      "address": "4096/21A Tehelňa, Brezno, Region of Banská Bystrica, Slovakia"
    },
    {
      "lat": 48.813179732665056,
      "lon": 19.593816642288687,
      "geoinfo": {
        "display_name": "2391, Valaská, District of Brezno, Region of Banská Bystrica, Central Slovakia, 976 46, Slovakia",
        "road": "2391",
        "house_number": null,
        "neighbourhood": null,
        "suburb": null,
        "city_district": null,
        "city": "Valaská",
        "state": "Region of Banská Bystrica",
        "postcode": "976 46",
        "country": "Slovakia",
        "country_code": "sk"
      },
      "address": "2391, Valaská, District of Brezno, Region of Banská Bystrica, Central Slovakia, 976 46, Slovakia"
    },
    {
      "lat": 48.83234488276083,
      "lon": 19.667390796766597,
      "geoinfo": {
        "display_name": "2378, Brezno - Zadné Halny, Brezno, District of Brezno, Region of Banská Bystrica, Central Slovakia, 977 01, Slovakia",
        "road": "2378",
        "house_number": null,
        "neighbourhood": null,
        "suburb": "Brezno - Zadné Halny",
        "city_district": null,
        "city": "Brezno",
        "state": "Region of Banská Bystrica",
        "postcode": "977 01",
        "country": "Slovakia",
        "country_code": "sk"
      },
      "address": "2378, Brezno - Zadné Halny, Brezno, District of Brezno, Region of Banská Bystrica, Central Slovakia, 977 01, Slovakia"
    },
    {
      "lat": 48.78796145232598,
      "lon": 19.607286834457835,
      "geoinfo": {
        "display_name": "Lúčky, Mazorníkovo, Brezno, District of Brezno, Region of Banská Bystrica, Central Slovakia, 977 03, Slovakia",
        "road": "Lúčky",
        "house_number": null,
        "neighbourhood": null,
        "suburb": "Mazorníkovo",
        "city_district": null,
        "city": "Brezno",
        "state": "Region of Banská Bystrica",
        "postcode": "977 03",
        "country": "Slovakia",
        "country_code": "sk"
      },
      "address": "Lúčky, Mazorníkovo, Brezno, District of Brezno, Region of Banská Bystrica, Central Slovakia, 977 03, Slovakia"
    },
    {
      "lat": 48.833559230074975,
      "lon": 19.619888704431908,
      "geoinfo": {
        "display_name": "72, Mýto pod Ďumbierom, District of Brezno, Region of Banská Bystrica, Central Slovakia, 976 44, Slovakia",
        "road": "72",
        "house_number": null,
        "neighbourhood": null,
        "suburb": null,
        "city_district": null,
        "city": "Mýto pod Ďumbierom",
        "state": "Region of Banská Bystrica",
        "postcode": "976 44",
        "country": "Slovakia",
        "country_code": "sk"
      },
      "address": "72, Mýto pod Ďumbierom, District of Brezno, Region of Banská Bystrica, Central Slovakia, 976 44, Slovakia"
    }
  ],
  "updated_at": "2025-10-19T06:15:44.039523+00:00",
  "_kind": "geo_samples"
}