{
  "country_code": "SK",
  "country": "Slovakia",
  "city": "Dubnica nad Váhom",
  "geonameid": 3060346,
  "target_addresses": 2,
  "samples": [
    {
      "lat": 48.98257477830298,
      "lon": 18.161572260071665,
      "geoinfo": {
        "display_name": "K Váhu, Bolešov, District of Ilava, Region of Trenčín, Western Slovakia, 018 53, Slovakia",
        "road": "K Váhu",
        "house_number": null,
        "neighbourhood": null,
        "suburb": "Bolešov",
        "city_district": null,
        "city": "Bolešov",
        "state": "Region of Trenčín",
        "postcode": "018 53",
        "country": "Slovakia",
        "country_code": "sk"
      },
      "address": "K Váhu, Dubnica nad Váhom, Region of Trenčín, Slovakia"
    },
    {
      "lat": 48.92008460690214,
      "lon": 18.162322911181956,
      "geoinfo": {
        "display_name": "1994, Trenčianske Teplice, District of Trenčín, Region of Trenčín, Western Slovakia, 914 51, Slovakia",
        "road": null,
        "house_number": "1994",
        "neighbourhood": null,
        "suburb": null,
        "city_district": null,
        "city": "Trenčianske Teplice",
        "state": "Region of Trenčín",
        "postcode": "914 51",
        "country": "Slovakia",
        "country_code": "sk"
      },
      "address": "Dubnica nad Váhom, Region of Trenčín, Slovakia"
    },
    {
      "lat": 48.98019324582043,
      "lon": 18.185334413082817,
      "geoinfo": {
        "display_name": "D1, Prejta, Dubnica nad Váhom, District of Ilava, Region of Trenčín, Western Slovakia, 018 41, Slovakia",
        "road": "D1",
        "house_number": null,
        "neighbourhood": "Prejta",
        "suburb": "Prejta",
        "city_district": null,
        "city": "Dubnica nad Váhom",
        "state": "Region of Trenčín",
        "postcode": "018 41",
        "country": "Slovakia",
        "country_code": "sk"
      },
      "address": "D1, Prejta, Dubnica nad Váhom, District of Ilava, Region of Trenčín, Western Slovakia, 018 41, Slovakia"
    },
    {
      "lat": 48.92832932380978,
      "lon": 18.133237619144914,
      "geoinfo": {
        "display_name": "1607/140, Teplická, Trenčianska Teplá, District of Trenčín, Region of Trenčín, Western Slovakia, 914 01, Slovakia",
        "road": "Teplická",
        "house_number": "1607/140",
        "neighbourhood": null,
        "suburb": null,
        "city_district": null,
        "city": "Trenčianska Teplá",
        "state": "Region of Trenčín",
        "postcode": "914 01",
        "country": "Slovakia",
        "country_code": "sk"
      },
      "address": "1607/140, Teplická, Trenčianska Teplá, District of Trenčín, Region of Trenčín, Western Slovakia, 914 01, Slovakia"
    }
  ],
  "updated_at": "2025-10-19T06:59:25.620485+00:00",
  "_kind": "geo_samples"
}