{
  "country_code": "SK",
  "country": "Slovakia",
  "city": "Košice",
  "geonameid": 724443,
  "target_addresses": 2,
  "samples": [
    {
      "lat": 48.68718355889175,
      "lon": 21.26112054011248,
      "geoinfo": {
        "display_name": "1546/5, Turnianska, Južné Mesto, Barca, District of Košice IV, Košice, Region of Košice, Eastern Slovakia, 040 17, Slovakia",
        "road": "Turnianska",
        "house_number": "1546/5",
        "neighbourhood": "Južné Mesto",
        "suburb": "Barca",
        "city_district": "District of Košice IV",
        "city": "Košice",
        "state": "Region of Košice",
        "postcode": "040 17",
        "country": "Slovakia",
        "country_code": "sk"
      },
      "address": "1546/5 Turnianska, Košice, Region of Košice, Slovakia"
    },
    {
      "lat": 48.75354489553456,
      "lon": 21.238132750576334,
      "geoinfo": {
        "display_name": "66, Kavečianska cesta, Severné Mesto, Košice - mestská časť Sever, District of Košice I, Košice, Region of Košice, Eastern Slovakia, 042 48, Slovakia",
        "road": "Kavečianska cesta",
        "house_number": "66",
        "neighbourhood": "Severné Mesto",
        "suburb": "Košice - mestská časť Sever",
        "city_district": "District of Košice I",
        "city": "Košice",
        "state": "Region of Košice",
        "postcode": "042 48",
        "country": "Slovakia",
        "country_code": "sk"
      },
      "address": "66 Kavečianska cesta, Košice, Region of Košice, Slovakia"
    },
    {
      "lat": 48.720910201708655,
      "lon": 21.30664690799942,
      "geoinfo": {
        "display_name": "1256, Košice - mestská časť Košická Nová Ves, District of Košice III, Košice, Region of Košice, Eastern Slovakia, 040 14, Slovakia",
        "road": null,
        "house_number": "1256",
        "neighbourhood": null,
        "suburb": "Košice - mestská časť Košická Nová Ves",
        "city_district": "District of Košice III",
        "city": "Košice",
        "state": "Region of Košice",
        "postcode": "040 14",
        "country": "Slovakia",
        "country_code": "sk"
      },
      "address": "1256, Košice - mestská časť Košická Nová Ves, District of Košice III, Košice, Region of Košice, Eastern Slovakia, 040 14, Slovakia"
    },
    {
      "lat": 48.74174347109226,
      "lon": 21.272975187799677,
      "geoinfo": {
        "display_name": "Trieda arm. gen. Svobodu, Furča, Košice - mestská časť Dargovských hrdinov, District of Košice III, Košice, Region of Košice, Eastern Slovakia, 040 22, Slovakia",
        "road": "Trieda arm. gen. Svobodu",
        "house_number": null,
        "neighbourhood": "Furča",
        "suburb": "Košice - mestská časť Dargovských hrdinov",
        "city_district": "District of Košice III",
        "city": "Košice",
        "state": "Region of Košice",
        "postcode": "040 22",
        "country": "Slovakia",
        "country_code": "sk"
      },
      "address": "Trieda arm. gen. Svobodu, Furča, Košice - mestská časť Dargovských hrdinov, District of Košice III, Košice, Region of Košice, Eastern Slovakia, 040 22, Slovakia"
    }
  ],
  "updated_at": "2025-10-19T04:48:28.571049+00:00",
  "_kind": "geo_samples"
}