{
  "country_code": "SK",
  "country": "Slovakia",
  "city": "Martin",
  "geonameid": 3058780,
  "target_addresses": 6,
  "samples": [
    {
      "lat": 49.09188222229073,
      "lon": 18.885375671441682,
      "geoinfo": {
        "display_name": "Romantyčka, Martin, District of Martin, Region of Žilina, Central Slovakia, 036 01, Slovakia",
        "road": "Romantyčka",
        "house_number": null,
        "neighbourhood": null,
        "suburb": null,
        "city_district": null,
        "city": "Martin",
        "state": "Region of Žilina",
        "postcode": "036 01",
        "country": "Slovakia",
        "country_code": "sk"
      },
      "address": "Romantyčka, Martin, Region of Žilina, Slovakia"
    },
    {
      "lat": 49.09208566089598,
      "lon": 18.880415569142233,
      "geoinfo": {
        "display_name": "Investička, Martin, District of Martin, Region of Žilina, Central Slovakia, 036 01, Slovakia",
        "road": "Investička",
        "house_number": null,
        "neighbourhood": null,
        "suburb": null,
        "city_district": null,
        "city": "Martin",
        "state": "Region of Žilina",
        "postcode": "036 01",
        "country": "Slovakia",
        "country_code": "sk"
      },
      "address": "Investička, Martin, Region of Žilina, Slovakia"
    },
    {
      "lat": 49.09262591145991,
      "lon": 18.883939727647775,
      "geoinfo": {
        "display_name": "Romantyčka, Martin, District of Martin, Region of Žilina, Central Slovakia, 036 01, Slovakia",
        "road": "Romantyčka",
        "house_number": null,
        "neighbourhood": null,
        "suburb": null,
        "city_district": null,
        "city": "Martin",
        "state": "Region of Žilina",
        "postcode": "036 01",
        "country": "Slovakia",
        "country_code": "sk"
      },
      "address": "Romantyčka, Martin, District of Martin, Region of Žilina, Central Slovakia, 036 01, Slovakia"
    },
    {
      "lat": 49.05641089354901,
      "lon": 18.902145541462996,
      "geoinfo": {
        "display_name": "Fornigovo, Martin, District of Martin, Region of Žilina, Central Slovakia, 038 04, Slovakia",
        "road": "Fornigovo",
        "house_number": null,
        "neighbourhood": null,
        "suburb": null,
        "city_district": null,
        "city": "Martin",
        "state": "Region of Žilina",
        "postcode": "038 04",
        "country": "Slovakia",
        "country_code": "sk"
      },
      "address": "Fornigovo, Martin, District of Martin, Region of Žilina, Central Slovakia, 038 04, Slovakia"
    },
    {
      "lat": 49.03260233426628,
      "lon": 18.880395739532183,
      "geoinfo": {
        "display_name": "151, Turčiansky Peter, District of Martin, Region of Žilina, Central Slovakia, 038 41, Slovakia",
        "road": null,
        "house_number": "151",
        "neighbourhood": null,
        "suburb": null,
        "city_district": null,
        "city": "Turčiansky Peter",
        "state": "Region of Žilina",
        "postcode": "038 41",
        "country": "Slovakia",
        "country_code": "sk"
      },
      "address": "151, Turčiansky Peter, District of Martin, Region of Žilina, Central Slovakia, 038 41, Slovakia"
    },
    {
      "lat": 49.06572135905712,
      "lon": 18.918911828358752,
      "geoinfo": {
        "display_name": "8097, District of Martin, Region of Žilina, Central Slovakia, 036 01, Slovakia",
        "road": null,
        "house_number": "8097",
        "neighbourhood": null,
        "suburb": null,
        "city_district": null,
        "city": null,
        "state": "Region of Žilina",
        "postcode": "036 01",
        "country": "Slovakia",
        "country_code": "sk"
      },
      "address": "8097, Martin, 036 01 Region of Žilina, Slovakia"
    }
  ],
  "updated_at": "2025-10-19T06:15:39.740546+00:00",
  "_kind": "geo_samples"
}