{
  "country_code": "SK",
  "country": "Slovakia",
  "city": "Pezinok",
  "geonameid": 3058210,
  "target_addresses": 6,
  "samples": [
    {
      "lat": 48.25312937967552,
      "lon": 17.277406440775685,
      "geoinfo": {
        "display_name": "Pažitná, Šúr, Slovenský Grob, District of Pezinok, Region of Bratislava, 900 26, Slovakia",
        "road": "Pažitná",
        "house_number": null,
        "neighbourhood": null,
        "suburb": "Šúr",
        "city_district": null,
        "city": "Slovenský Grob",
        "state": "Region of Bratislava",
        "postcode": "900 26",
        "country": "Slovakia",
        "country_code": "sk"
      },
      "address": "Pažitná, Pezinok, Region of Bratislava, Slovakia"
    },
    {
      "lat": 48.252917875715916,
      "lon": 17.239054917262838,
      "geoinfo": {
        "display_name": "Palo, 502, Svätý Jur, District of Pezinok, Region of Bratislava, 902 03, Slovakia",
        "road": "502",
        "house_number": null,
        "neighbourhood": null,
        "suburb": null,
        "city_district": null,
        "city": "Svätý Jur",
        "state": "Region of Bratislava",
        "postcode": "902 03",
        "country": "Slovakia",
        "country_code": "sk"
      },
      "address": "502, Pezinok, Region of Bratislava, Slovakia"
    },
    {
      "lat": 48.292524487597106,
      "lon": 17.287548937543363,
      "geoinfo": {
        "display_name": "5465/14S, Šenkvická cesta, Muškát, Cajla, Pezinok, District of Pezinok, Region of Bratislava, 902 01, Slovakia",
        "road": "Šenkvická cesta",
        "house_number": "5465/14S",
        "neighbourhood": "Muškát",
        "suburb": "Cajla",
        "city_district": null,
        "city": "Pezinok",
        "state": "Region of Bratislava",
        "postcode": "902 01",
        "country": "Slovakia",
        "country_code": "sk"
      },
      "address": "5465/14S, Šenkvická cesta, Muškát, Cajla, Pezinok, District of Pezinok, Region of Bratislava, 902 01, Slovakia"
    },
    {
      "lat": 48.256027238548185,
      "lon": 17.22443329297417,
      "geoinfo": {
        "display_name": "502, Svätý Jur, District of Pezinok, Region of Bratislava, 900 21, Slovakia",
        "road": "502",
        "house_number": null,
        "neighbourhood": null,
        "suburb": null,
        "city_district": null,
        "city": "Svätý Jur",
        "state": "Region of Bratislava",
        "postcode": "900 21",
        "country": "Slovakia",
        "country_code": "sk"
      },
      "address": "502, Svätý Jur, District of Pezinok, Region of Bratislava, 900 21, Slovakia"
    },
    {
      "lat": 48.2714545431077,
      "lon": 17.278305375197256,
      "geoinfo": {
        "display_name": "Mahulanka, Sídlisko Za hradbami, Pezinok, District of Pezinok, Region of Bratislava, 902 01, Slovakia",
        "road": "Mahulanka",
        "house_number": null,
        "neighbourhood": "Sídlisko Za hradbami",
        "suburb": null,
        "city_district": null,
        "city": "Pezinok",
        "state": "Region of Bratislava",
        "postcode": "902 01",
        "country": "Slovakia",
        "country_code": "sk"
      },
      "address": "Mahulanka, Sídlisko Za hradbami, Pezinok, District of Pezinok, Region of Bratislava, 902 01, Slovakia"
    },
    {
      "lat": 48.28826654782471,
      "lon": 17.323428179941992,
      "geoinfo": {
        "display_name": "1769, Šenkvice, District of Pezinok, Region of Bratislava, 900 81, Slovakia",
        "road": null,
        "house_number": "1769",
        "neighbourhood": null,
        "suburb": null,
        "city_district": null,
        "city": "Šenkvice",
        "state": "Region of Bratislava",
        "postcode": "900 81",
        "country": "Slovakia",
        "country_code": "sk"
      },
      "address": "1769, Šenkvice, District of Pezinok, Region of Bratislava, 900 81, Slovakia"
    }
  ],
  "updated_at": "2025-10-19T06:15:36.277984+00:00",
  "_kind": "geo_samples"
}