{
  "country_code": "SK",
  "country": "Slovakia",
  "city": "Ružomberok",
  "geonameid": 3057789,
  "target_addresses": 2,
  "samples": [
    {
      "lat": 49.101771340574395,
      "lon": 19.302355862134416,
      "geoinfo": {
        "display_name": "245, Likavka, District of Ružomberok, Region of Žilina, Central Slovakia, 034 95, Slovakia",
        "road": null,
        "house_number": "245",
        "neighbourhood": null,
        "suburb": null,
        "city_district": null,
        "city": "Likavka",
        "state": "Region of Žilina",
        "postcode": "034 95",
        "country": "Slovakia",
        "country_code": "sk"
      },
      "address": "Ružomberok, Region of Žilina, Slovakia"
    },
    {
      "lat": 49.065269833484756,
      "lon": 19.242133381068683,
      "geoinfo": {
        "display_name": "Antón Smieška 13.4.1986, Stará cesta, Černová, Ružomberok, District of Ružomberok, Region of Žilina, Central Slovakia, 034 06, Slovakia",
        "road": "Stará cesta",
        "house_number": null,
        "neighbourhood": null,
        "suburb": "Černová",
        "city_district": null,
        "city": "Ružomberok",
        "state": "Region of Žilina",
        "postcode": "034 06",
        "country": "Slovakia",
        "country_code": "sk"
      },
      "address": "Stará cesta, Ružomberok, Region of Žilina, Slovakia"
    },
    {
      "lat": 49.09733925662814,
      "lon": 19.26159998152409,
      "geoinfo": {
        "display_name": "6176/62, Nová Hrboltová, Rybárpole, Ružomberok, District of Ružomberok, Region of Žilina, Central Slovakia, 034 01, Slovakia",
        "road": "Nová Hrboltová",
        "house_number": "6176/62",
        "neighbourhood": null,
        "suburb": "Rybárpole",
        "city_district": null,
        "city": "Ružomberok",
        "state": "Region of Žilina",
        "postcode": "034 01",
        "country": "Slovakia",
        "country_code": "sk"
      },
      "address": "6176/62, Nová Hrboltová, Rybárpole, Ružomberok, District of Ružomberok, Region of Žilina, Central Slovakia, 034 01, Slovakia"
    },
    {
      "lat": 49.05026199001462,
      "lon": 19.348275391538948,
      "geoinfo": {
        "display_name": "556/62, Drevenice, Liptovská Štiavnica, District of Ružomberok, Region of Žilina, Central Slovakia, 034 01, Slovakia",
        "road": "Drevenice",
        "house_number": "556/62",
        "neighbourhood": null,
        "suburb": null,
        "city_district": null,
        "city": "Liptovská Štiavnica",
        "state": "Region of Žilina",
        "postcode": "034 01",
        "country": "Slovakia",
        "country_code": "sk"
      },
      "address": "556/62, Drevenice, Liptovská Štiavnica, District of Ružomberok, Region of Žilina, Central Slovakia, 034 01, Slovakia"
    }
  ],
  "updated_at": "2025-10-19T07:02:41.625631+00:00",
  "_kind": "geo_samples"
}