{
  "country_code": "SK",
  "country": "Slovakia",
  "city": "Staré Mesto",
  "geonameid": 3057478,
  "target_addresses": 2,
  "samples": [
    {
      "lat": 48.13877955294718,
      "lon": 17.090459640228882,
      "geoinfo": {
        "display_name": "Dvořákovo nábrežie, Fialkové údolie, Oblasť Bôrik, Bratislava, District of Bratislava I, Bratislava, Region of Bratislava, 811 02, Slovakia",
        "road": "Dvořákovo nábrežie",
        "house_number": null,
        "neighbourhood": "Fialkové údolie",
        "suburb": "Bratislava",
        "city_district": "District of Bratislava I",
        "city": "Bratislava",
        "state": "Region of Bratislava",
        "postcode": "811 02",
        "country": "Slovakia",
        "country_code": "sk"
      },
      "address": "Dvořákovo nábrežie, Staré Mesto, Region of Bratislava, Slovakia"
    },
    {
      "lat": 48.14376344536556,
      "lon": 17.101776920701756,
      "geoinfo": {
        "display_name": "Bratislava Castle, Zámocká, Hausbergle, Oblasť Partizánska, Bratislava, District of Bratislava I, Bratislava, Region of Bratislava, 811 01, Slovakia",
        "road": "Zámocká",
        "house_number": null,
        "neighbourhood": "Hausbergle",
        "suburb": "Bratislava",
        "city_district": "District of Bratislava I",
        "city": "Bratislava",
        "state": "Region of Bratislava",
        "postcode": "811 01",
        "country": "Slovakia",
        "country_code": "sk"
      },
      "address": "Zámocká, Staré Mesto, Region of Bratislava, Slovakia"
    },
    {
      "lat": 48.17292880294703,
      "lon": 17.123858226030105,
      "geoinfo": {
        "display_name": "Vyhnianska cesta, Ahoj, Bratislava, District of Bratislava III, Bratislava, Region of Bratislava, 831 02, Slovakia",
        "road": "Vyhnianska cesta",
        "house_number": null,
        "neighbourhood": null,
        "suburb": "Bratislava",
        "city_district": "District of Bratislava III",
        "city": "Bratislava",
        "state": "Region of Bratislava",
        "postcode": "831 02",
        "country": "Slovakia",
        "country_code": "sk"
      },
      "address": "Vyhnianska cesta, Ahoj, Bratislava, District of Bratislava III, Bratislava, Region of Bratislava, 831 02, Slovakia"
    },
    {
      "lat": 48.164504347876395,
      "lon": 17.08675298425344,
      "geoinfo": {
        "display_name": "Univerzitná nemocnica Bratislava - Nemocnica akademika L. Dérera - Kramáre, 5, Limbová, Krásna hôrka, Vinohrady, Bratislava, District of Bratislava III, Bratislava, Region of Bratislava, 833 05, Slovakia",
        "road": "Limbová",
        "house_number": "5",
        "neighbourhood": "Krásna hôrka",
        "suburb": "Bratislava",
        "city_district": "District of Bratislava III",
        "city": "Bratislava",
        "state": "Region of Bratislava",
        "postcode": "833 05",
        "country": "Slovakia",
        "country_code": "sk"
      },
      "address": "Univerzitná nemocnica Bratislava - Nemocnica akademika L. Dérera - Kramáre, 5, Limbová, Krásna hôrka, Vinohrady, Bratislava, District of Bratislava III, Bratislava, Region of Bratislava, 833 05, Slovakia"
    }
  ],
  "updated_at": "2025-10-19T06:36:11.909831+00:00",
  "_kind": "geo_samples"
}