{
  "country_code": "SK",
  "country": "Slovakia",
  "city": "Trenčín",
  "geonameid": 3057140,
  "target_addresses": 6,
  "samples": [
    {
      "lat": 48.925911428836066,
      "lon": 18.064715213472986,
      "geoinfo": {
        "display_name": "62, Skala, Skalka nad Váhom, District of Trenčín, Region of Trenčín, Western Slovakia, 913 31, Slovakia",
        "road": null,
        "house_number": "62",
        "neighbourhood": "Skala",
        "suburb": null,
        "city_district": null,
        "city": "Skalka nad Váhom",
        "state": "Region of Trenčín",
        "postcode": "913 31",
        "country": "Slovakia",
        "country_code": "sk"
      },
      "address": "Skala, Trenčín, Region of Trenčín, Slovakia"
    },
    {
      "lat": 48.902010596819,
      "lon": 17.9974053979346,
      "geoinfo": {
        "display_name": "61a, Záblatie, Trenčín, District of Trenčín, Region of Trenčín, Western Slovakia, 911 06, Slovakia",
        "road": "61a",
        "house_number": null,
        "neighbourhood": null,
        "suburb": "Záblatie",
        "city_district": null,
        "city": "Trenčín",
        "state": "Region of Trenčín",
        "postcode": "911 06",
        "country": "Slovakia",
        "country_code": "sk"
      },
      "address": "61a, Trenčín, Region of Trenčín, Slovakia"
    },
    {
      "lat": 48.86745416083137,
      "lon": 18.058832652261643,
      "geoinfo": {
        "display_name": "4722, District of Trenčín, Region of Trenčín, Western Slovakia, 911 08, Slovakia",
        "road": null,
        "house_number": "4722",
        "neighbourhood": null,
        "suburb": null,
        "city_district": null,
        "city": null,
        "state": "Region of Trenčín",
        "postcode": "911 08",
        "country": "Slovakia",
        "country_code": "sk"
      },
      "address": "Trenčín, 83427 Region of Trenčín, Slovakia"
    },
    {
      "lat": 48.89553824686243,
      "lon": 18.077744011573078,
      "geoinfo": {
        "display_name": "Zelnica, Kubrá, Trenčín, District of Trenčín, Region of Trenčín, Western Slovakia, 911 01, Slovakia",
        "road": "Zelnica",
        "house_number": null,
        "neighbourhood": null,
        "suburb": "Kubrá",
        "city_district": null,
        "city": "Trenčín",
        "state": "Region of Trenčín",
        "postcode": "911 01",
        "country": "Slovakia",
        "country_code": "sk"
      },
      "address": "Zelnica, Kubrá, Trenčín, District of Trenčín, Region of Trenčín, Western Slovakia, 911 01, Slovakia"
    },
    {
      "lat": 48.91193664997549,
      "lon": 18.08856334321058,
      "geoinfo": {
        "display_name": "AH Opatová, Opatovská, Opatová, Trenčín, District of Trenčín, Region of Trenčín, Western Slovakia, 913 31, Slovakia",
        "road": "Opatovská",
        "house_number": null,
        "neighbourhood": null,
        "suburb": "Opatová",
        "city_district": null,
        "city": "Trenčín",
        "state": "Region of Trenčín",
        "postcode": "913 31",
        "country": "Slovakia",
        "country_code": "sk"
      },
      "address": "AH Opatová, Opatovská, Opatová, Trenčín, District of Trenčín, Region of Trenčín, Western Slovakia, 913 31, Slovakia"
    },
    {
      "lat": 48.90673103460011,
      "lon": 18.109701676988866,
      "geoinfo": {
        "display_name": "641/193, Potočná, Opatová, Trenčín, District of Trenčín, Region of Trenčín, Western Slovakia, 911 01, Slovakia",
        "road": "Potočná",
        "house_number": "641/193",
        "neighbourhood": null,
        "suburb": "Opatová",
        "city_district": null,
        "city": "Trenčín",
        "state": "Region of Trenčín",
        "postcode": "911 01",
        "country": "Slovakia",
        "country_code": "sk"
      },
      "address": "641/193, Potočná, Opatová, Trenčín, District of Trenčín, Region of Trenčín, Western Slovakia, 911 01, Slovakia"
    }
  ],
  "updated_at": "2025-10-19T06:15:27.307405+00:00",
  "_kind": "geo_samples"
}