{
  "country_code": "SK",
  "country": "Slovakia",
  "city": "Čadca",
  "geonameid": 3060835,
  "target_addresses": 2,
  "samples": [
    {
      "lat": 49.412881567977486,
      "lon": 18.799787149502716,
      "geoinfo": {
        "display_name": "318, Veščarovci, Veščárovci, Horelica, Čadca, District of Čadca, Region of Žilina, Central Slovakia, 025 90, Slovakia",
        "road": "Veščarovci",
        "house_number": "318",
        "neighbourhood": null,
        "suburb": "Horelica",
        "city_district": null,
        "city": "Čadca",
        "state": "Region of Žilina",
        "postcode": "025 90",
        "country": "Slovakia",
        "country_code": "sk"
      },
      "address": "318 Veščarovci, Čadca, Region of Žilina, Slovakia"
    },
    {
      "lat": 49.411329219065706,
      "lon": 18.84520953077294,
      "geoinfo": {
        "display_name": "D3, U Jozefíkov, Krásno nad Kysucou, District of Čadca, Region of Žilina, Central Slovakia, 023 02, Slovakia",
        "road": "D3",
        "house_number": null,
        "neighbourhood": null,
        "suburb": null,
        "city_district": null,
        "city": "Krásno nad Kysucou",
        "state": "Region of Žilina",
        "postcode": "023 02",
        "country": "Slovakia",
        "country_code": "sk"
      },
      "address": "D3, Čadca, Region of Žilina, Slovakia"
    },
    {
      "lat": 49.468812597431956,
      "lon": 18.825617398534494,
      "geoinfo": {
        "display_name": "590, Čadečka, Čadca, District of Čadca, Region of Žilina, Central Slovakia, 022 01, Slovakia",
        "road": null,
        "house_number": "590",
        "neighbourhood": null,
        "suburb": "Čadečka",
        "city_district": null,
        "city": "Čadca",
        "state": "Region of Žilina",
        "postcode": "022 01",
        "country": "Slovakia",
        "country_code": "sk"
      },
      "address": "590, Čadečka, Čadca, District of Čadca, Region of Žilina, Central Slovakia, 022 01, Slovakia"
    },
    {
      "lat": 49.45006653294117,
      "lon": 18.848822368071048,
      "geoinfo": {
        "display_name": "Kyčerky, Horelica, Čadca, District of Čadca, Region of Žilina, Central Slovakia, 023 01, Slovakia",
        "road": null,
        "house_number": null,
        "neighbourhood": null,
        "suburb": "Horelica",
        "city_district": null,
        "city": "Čadca",
        "state": "Region of Žilina",
        "postcode": "023 01",
        "country": "Slovakia",
        "country_code": "sk"
      },
      "address": "Kyčerky, Horelica, Čadca, District of Čadca, Region of Žilina, Central Slovakia, 023 01, Slovakia"
    }
  ],
  "updated_at": "2025-10-19T07:02:40.739873+00:00",
  "_kind": "geo_samples"
}