{
  "country_code": "EE",
  "country": "Estonia",
  "city": "Kohtla-Järve",
  "geonameid": 591260,
  "target_addresses": 56,
  "samples": [
    {
      "lat": 59.372045906871506,
      "lon": 27.30773015092789,
      "geoinfo": {
        "display_name": "Kuninga, Outokumpu-Kabelimetsa, Peeri, Peeri küla, Kohtla-Järve linn, Toila vald, Ida-Viru County, 30333, Estonia",
        "road": "Outokumpu-Kabelimetsa",
        "house_number": null,
        "neighbourhood": null,
        "suburb": null,
        "city_district": "Peeri küla",
        "city": "Kohtla-Järve linn",
        "state": null,
        "postcode": "30333",
        "country": "Estonia",
        "country_code": "ee"
      },
      "address": "Outokumpu-Kabelimetsa, Kohtla-Järve, Estonia"
    },
    {
      "lat": 59.42234323402684,
      "lon": 27.31486606159243,
      "geoinfo": {
        "display_name": "Kaasikvälja, Kaasikvälja küla, Toila vald, Ida-Viru County, 41555, Estonia",
        "road": null,
        "house_number": null,
        "neighbourhood": null,
        "suburb": null,
        "city_district": "Kaasikvälja küla",
        "city": null,
        "state": null,
        "postcode": "41555",
        "country": "Estonia",
        "country_code": "ee"
      },
      "address": "Kaasikvälja küla, Kohtla-Järve, Estonia"
    },
    {
      "lat": 59.35753777723976,
      "lon": 27.275371515614886,
      "geoinfo": {
        "display_name": "Aia, Päikese, Järve linnaosa, Kohtla-Järve linn, Ida-Viru County, 30333, Estonia",
        "road": "Päikese",
        "house_number": null,
        "neighbourhood": null,
        "suburb": null,
        "city_district": "Järve linnaosa",
        "city": "Kohtla-Järve linn",
        "state": null,
        "postcode": "30333",
        "country": "Estonia",
        "country_code": "ee"
      },
      "address": "Päikese, Kohtla-Järve, Estonia"
    },
    {
      "lat": 59.37357907797443,
      "lon": 27.337807066118728,
      "geoinfo": {
        "display_name": "Kadaka, Kohtla-Järve — Kukruse — Tammiku, Täkumetsa küla, Toila vald, Ida-Viru County, 30626, Estonia",
        "road": "Kohtla-Järve — Kukruse — Tammiku",
        "house_number": null,
        "neighbourhood": null,
        "suburb": null,
        "city_district": "Täkumetsa küla",
        "city": null,
        "state": null,
        "postcode": "30626",
        "country": "Estonia",
        "country_code": "ee"
      },
      "address": "Kohtla-Järve — Kukruse — Tammiku, Kohtla-Järve, Estonia"
    },
    {
      "lat": 59.391116778043504,
      "lon": 27.205762569085884,
      "geoinfo": {
        "display_name": "2e, Keemia väikekoht, Järve linnaosa, Kohtla-Järve linn, Ida-Viru County, 30328, Estonia",
        "road": null,
        "house_number": "2e",
        "neighbourhood": null,
        "suburb": null,
        "city_district": "Järve linnaosa",
        "city": "Kohtla-Järve linn",
        "state": null,
        "postcode": "30328",
        "country": "Estonia",
        "country_code": "ee"
      },
      "address": "Järve linnaosa, Kohtla-Järve, Estonia"
    },
    {
      "lat": 59.408408973809486,
      "lon": 27.27907360740715,
      "geoinfo": {
        "display_name": "Kohtla-Järve kunstide kool, Endla, Järve linnaosa, Kohtla-Järve linn, Ida-Viru County, 30323, Estonia",
        "road": "Endla",
        "house_number": null,
        "neighbourhood": null,
        "suburb": null,
        "city_district": "Järve linnaosa",
        "city": "Kohtla-Järve linn",
        "state": null,
        "postcode": "30323",
        "country": "Estonia",
        "country_code": "ee"
      },
      "address": "Endla, Kohtla-Järve, Estonia"
    },
    {
      "lat": 59.38892279814063,
      "lon": 27.24973435125295,
      "geoinfo": {
        "display_name": "VKG Energia OÜ, 14, Järveküla tee, Järve linnaosa, Kohtla-Järve linn, Ida-Viru County, 30328, Estonia",
        "road": "Järveküla tee",
        "house_number": "14",
        "neighbourhood": null,
        "suburb": null,
        "city_district": "Järve linnaosa",
        "city": "Kohtla-Järve linn",
        "state": null,
        "postcode": "30328",
        "country": "Estonia",
        "country_code": "ee"
      },
      "address": "14 Järveküla tee, Kohtla-Järve, Estonia"
    },
    {
      "lat": 59.39963325155393,
      "lon": 27.227295400319605,
      "geoinfo": {
        "display_name": "Kivi tee, Järve linnaosa, Kohtla-Järve linn, Ida-Viru County, 30197, Estonia",
        "road": "Kivi tee",
        "house_number": null,
        "neighbourhood": null,
        "suburb": null,
        "city_district": "Järve linnaosa",
        "city": "Kohtla-Järve linn",
        "state": null,
        "postcode": "30197",
        "country": "Estonia",
        "country_code": "ee"
      },
      "address": "Kivi tee, Kohtla-Järve, Estonia"
    },
    {
      "lat": 59.404141084369755,
      "lon": 27.357134983841934,
      "geoinfo": {
        "display_name": "Kukruse, Kukruse küla, Toila vald, Ida-Viru County, 30623, Estonia",
        "road": null,
        "house_number": null,
        "neighbourhood": null,
        "suburb": null,
        "city_district": "Kukruse küla",
        "city": null,
        "state": null,
        "postcode": "30623",
        "country": "Estonia",
        "country_code": "ee"
      },
      "address": "Kukruse küla, Kohtla-Järve, Estonia"
    },
    {
      "lat": 59.442662768669976,
      "lon": 27.258421290868583,
      "geoinfo": {
        "display_name": "Ontika küla, Toila vald, Ida-Viru County, 41556, Estonia",
        "road": null,
        "house_number": null,
        "neighbourhood": null,
        "suburb": null,
        "city_district": "Ontika küla",
        "city": null,
        "state": null,
        "postcode": "41556",
        "country": "Estonia",
        "country_code": "ee"
      },
      "address": "Ontika küla, Kohtla-Järve, Estonia"
    },
    {
      "lat": 59.4291246540413,
      "lon": 27.335710587908483,
      "geoinfo": {
        "display_name": "Valaste küla, Toila vald, Ida-Viru County, 41557, Estonia",
        "road": null,
        "house_number": null,
        "neighbourhood": null,
        "suburb": null,
        "city_district": "Valaste küla",
        "city": null,
        "state": null,
        "postcode": "41557",
        "country": "Estonia",
        "country_code": "ee"
      },
      "address": "Valaste küla, Kohtla-Järve, Estonia"
    },
    {
      "lat": 59.38398068646661,
      "lon": 27.270274465127557,
      "geoinfo": {
        "display_name": "Järve, Käva, Järve linnaosa, Kohtla-Järve linn, Ida-Viru County, 30332, Estonia",
        "road": "Käva",
        "house_number": null,
        "neighbourhood": null,
        "suburb": null,
        "city_district": "Järve linnaosa",
        "city": "Kohtla-Järve linn",
        "state": null,
        "postcode": "30332",
        "country": "Estonia",
        "country_code": "ee"
      },
      "address": "Käva, Kohtla-Järve, Estonia"
    },
    {
      "lat": 59.41025001229814,
      "lon": 27.306134094284765,
      "geoinfo": {
        "display_name": "Geose, Järve sissesõidutee, Järve, Järve küla, Kohtla-Järve linn, Toila vald, Ida-Viru County, 30331, Estonia",
        "road": "Järve sissesõidutee",
        "house_number": null,
        "neighbourhood": null,
        "suburb": null,
        "city_district": "Järve küla",
        "city": "Kohtla-Järve linn",
        "state": null,
        "postcode": "30331",
        "country": "Estonia",
        "country_code": "ee"
      },
      "address": "Järve sissesõidutee, Kohtla-Järve, Estonia"
    },
    {
      "lat": 59.395770722476065,
      "lon": 27.249869703901155,
      "geoinfo": {
        "display_name": "7, Järveküla tee, Järve linnaosa, Kohtla-Järve linn, Ida-Viru County, 30328, Estonia",
        "road": "Järveküla tee",
        "house_number": "7",
        "neighbourhood": null,
        "suburb": null,
        "city_district": "Järve linnaosa",
        "city": "Kohtla-Järve linn",
        "state": null,
        "postcode": "30328",
        "country": "Estonia",
        "country_code": "ee"
      },
      "address": "7 Järveküla tee, Kohtla-Järve, Estonia"
    },
    {
      "lat": 59.366672477439224,
      "lon": 27.248791780694937,
      "geoinfo": {
        "display_name": "130a, Ehitajate, Järve linnaosa, Kohtla-Järve linn, Ida-Viru County, 30222, Estonia",
        "road": "Ehitajate",
        "house_number": "130a",
        "neighbourhood": null,
        "suburb": null,
        "city_district": "Järve linnaosa",
        "city": "Kohtla-Järve linn",
        "state": null,
        "postcode": "30222",
        "country": "Estonia",
        "country_code": "ee"
      },
      "address": "130a Ehitajate, Kohtla-Järve, Estonia"
    },
    {
      "lat": 59.391722947017506,
      "lon": 27.223705062940304,
      "geoinfo": {
        "display_name": "2e, Keemia väikekoht, Järve linnaosa, Kohtla-Järve linn, Ida-Viru County, 30328, Estonia",
        "road": null,
        "house_number": "2e",
        "neighbourhood": null,
        "suburb": null,
        "city_district": "Järve linnaosa",
        "city": "Kohtla-Järve linn",
        "state": null,
        "postcode": "30328",
        "country": "Estonia",
        "country_code": "ee"
      },
      "address": "2e, Keemia väikekoht, Järve linnaosa, Kohtla-Järve linn, Ida-Viru County, 30328, Estonia"
    },
    {
      "lat": 59.40153759543943,
      "lon": 27.263873394705477,
      "geoinfo": {
        "display_name": "Pavandu, Järve linnaosa, Kohtla-Järve linn, Ida-Viru County, 30328, Estonia",
        "road": "Pavandu",
        "house_number": null,
        "neighbourhood": null,
        "suburb": null,
        "city_district": "Järve linnaosa",
        "city": "Kohtla-Järve linn",
        "state": null,
        "postcode": "30328",
        "country": "Estonia",
        "country_code": "ee"
      },
      "address": "Pavandu, Järve linnaosa, Kohtla-Järve linn, Ida-Viru County, 30328, Estonia"
    },
    {
      "lat": 59.405091007863085,
      "lon": 27.254599984975062,
      "geoinfo": {
        "display_name": "Edu, Järve linnaosa, Kohtla-Järve linn, Ida-Viru County, 30328, Estonia",
        "road": "Edu",
        "house_number": null,
        "neighbourhood": null,
        "suburb": null,
        "city_district": "Järve linnaosa",
        "city": "Kohtla-Järve linn",
        "state": null,
        "postcode": "30328",
        "country": "Estonia",
        "country_code": "ee"
      },
      "address": "Edu, Järve linnaosa, Kohtla-Järve linn, Ida-Viru County, 30328, Estonia"
    },
    {
      "lat": 59.38487945334924,
      "lon": 27.238427434679917,
      "geoinfo": {
        "display_name": "12j, Keemia väikekoht, Järve linnaosa, Kohtla-Järve linn, Ida-Viru County, 30328, Estonia",
        "road": null,
        "house_number": "12j",
        "neighbourhood": null,
        "suburb": null,
        "city_district": "Järve linnaosa",
        "city": "Kohtla-Järve linn",
        "state": null,
        "postcode": "30328",
        "country": "Estonia",
        "country_code": "ee"
      },
      "address": "12j, Keemia väikekoht, Järve linnaosa, Kohtla-Järve linn, Ida-Viru County, 30328, Estonia"
    },
    {
      "lat": 59.38988709611046,
      "lon": 27.35000345362687,
      "geoinfo": {
        "display_name": "Lehe, Kukruse küla, Toila vald, Ida-Viru County, 30621, Estonia",
        "road": "Lehe",
        "house_number": null,
        "neighbourhood": null,
        "suburb": null,
        "city_district": "Kukruse küla",
        "city": null,
        "state": null,
        "postcode": "30621",
        "country": "Estonia",
        "country_code": "ee"
      },
      "address": "949, Lehe, 30621 Kohtla-Järve, Estonia"
    },
    {
      "lat": 59.3925975787638,
      "lon": 27.33832047044072,
      "geoinfo": {
        "display_name": "Tallinn — Narva, Peeri küla, Toila vald, Ida-Viru County, 30601, Estonia",
        "road": "Tallinn — Narva",
        "house_number": null,
        "neighbourhood": null,
        "suburb": null,
        "city_district": "Peeri küla",
        "city": null,
        "state": null,
        "postcode": "30601",
        "country": "Estonia",
        "country_code": "ee"
      },
      "address": "645, Tallinn — Narva, Peeri küla, Toila vald, Ida-Viru County, 30601, Estonia"
    },
    {
      "lat": 59.37545200703535,
      "lon": 27.306132209533338,
      "geoinfo": {
        "display_name": "Kuninga, Outokumpu-Kabelimetsa, Peeri, Peeri küla, Kohtla-Järve linn, Toila vald, Ida-Viru County, 30333, Estonia",
        "road": "Outokumpu-Kabelimetsa",
        "house_number": null,
        "neighbourhood": null,
        "suburb": null,
        "city_district": "Peeri küla",
        "city": "Kohtla-Järve linn",
        "state": null,
        "postcode": "30333",
        "country": "Estonia",
        "country_code": "ee"
      },
      "address": "292, Outokumpu-Kabelimetsa, 30333 Kohtla-Järve, Estonia"
    },
    {
      "lat": 59.43385671752717,
      "lon": 27.28581437326832,
      "geoinfo": {
        "display_name": "Järve — Ontika, Ontika, Ontika küla, Toila vald, Ida-Viru County, 41556, Estonia",
        "road": "Järve — Ontika",
        "house_number": null,
        "neighbourhood": null,
        "suburb": null,
        "city_district": "Ontika küla",
        "city": null,
        "state": null,
        "postcode": "41556",
        "country": "Estonia",
        "country_code": "ee"
      },
      "address": "682, Järve — Ontika, 41556 Kohtla-Järve, Estonia"
    },
    {
      "lat": 59.39017104349828,
      "lon": 27.252419918633844,
      "geoinfo": {
        "display_name": "9b, Vanalinna, Järve linnaosa, Kohtla-Järve linn, Ida-Viru County, 30328, Estonia",
        "road": "Vanalinna",
        "house_number": "9b",
        "neighbourhood": null,
        "suburb": null,
        "city_district": "Järve linnaosa",
        "city": "Kohtla-Järve linn",
        "state": null,
        "postcode": "30328",
        "country": "Estonia",
        "country_code": "ee"
      },
      "address": "9b, Vanalinna, Järve linnaosa, Kohtla-Järve linn, Ida-Viru County, 30328, Estonia"
    },
    {
      "lat": 59.37193519438333,
      "lon": 27.237534184247743,
      "geoinfo": {
        "display_name": "3, Vabriku, Järve linnaosa, Kohtla-Järve linn, Ida-Viru County, 30503, Estonia",
        "road": "Vabriku",
        "house_number": "3",
        "neighbourhood": null,
        "suburb": null,
        "city_district": "Järve linnaosa",
        "city": "Kohtla-Järve linn",
        "state": null,
        "postcode": "30503",
        "country": "Estonia",
        "country_code": "ee"
      },
      "address": "3, Vabriku, Järve linnaosa, Kohtla-Järve linn, Ida-Viru County, 30503, Estonia"
    },
    {
      "lat": 59.42578771885098,
      "lon": 27.27337148154625,
      "geoinfo": {
        "display_name": "Tallinn — Narva, Ontika küla, Toila vald, Ida-Viru County, 30324, Estonia",
        "road": "Tallinn — Narva",
        "house_number": null,
        "neighbourhood": null,
        "suburb": null,
        "city_district": "Ontika küla",
        "city": null,
        "state": null,
        "postcode": "30324",
        "country": "Estonia",
        "country_code": "ee"
      },
      "address": "059, Tallinn — Narva, Ontika küla, Toila vald, Ida-Viru County, 30324, Estonia"
    },
    {
      "lat": 59.39996025574262,
      "lon": 27.215237702437197,
      "geoinfo": {
        "display_name": "Järve linnaosa, Kohtla-Järve linn, Ida-Viru County, 30197, Estonia",
        "road": null,
        "house_number": null,
        "neighbourhood": null,
        "suburb": null,
        "city_district": "Järve linnaosa",
        "city": "Kohtla-Järve linn",
        "state": null,
        "postcode": "30197",
        "country": "Estonia",
        "country_code": "ee"
      },
      "address": "185, Järve linnaosa, Kohtla-Järve linn, Ida-Viru County, 30197, Estonia"
    },
    {
      "lat": 59.42469111586848,
      "lon": 27.253121416825056,
      "geoinfo": {
        "display_name": "Tallinn — Narva, Saka küla, Toila vald, Ida-Viru County, 30197, Estonia",
        "road": "Tallinn — Narva",
        "house_number": null,
        "neighbourhood": null,
        "suburb": null,
        "city_district": "Saka küla",
        "city": null,
        "state": null,
        "postcode": "30197",
        "country": "Estonia",
        "country_code": "ee"
      },
      "address": "838, Tallinn — Narva, Saka küla, Toila vald, Ida-Viru County, 30197, Estonia"
    },
    {
      "lat": 59.38145102943771,
      "lon": 27.317336552813654,
      "geoinfo": {
        "display_name": "Vaarika, Outokumpu-Kabelimetsa, Peeri, Peeri küla, Kohtla-Järve linn, Toila vald, Ida-Viru County, 30333, Estonia",
        "road": "Outokumpu-Kabelimetsa",
        "house_number": null,
        "neighbourhood": null,
        "suburb": null,
        "city_district": "Peeri küla",
        "city": "Kohtla-Järve linn",
        "state": null,
        "postcode": "30333",
        "country": "Estonia",
        "country_code": "ee"
      },
      "address": "564, Outokumpu-Kabelimetsa, 30333 Kohtla-Järve, Estonia"
    },
    {
      "lat": 59.42008471666578,
      "lon": 27.20647374105603,
      "geoinfo": {
        "display_name": "Tallinn — Narva, Aa küla, Saka küla, Toila vald, Ida-Viru County, 43311, Estonia",
        "road": "Tallinn — Narva",
        "house_number": null,
        "neighbourhood": null,
        "suburb": null,
        "city_district": "Saka küla",
        "city": null,
        "state": null,
        "postcode": "43311",
        "country": "Estonia",
        "country_code": "ee"
      },
      "address": "929, Tallinn — Narva, Aa küla, Saka küla, Toila vald, Ida-Viru County, 43311, Estonia"
    },
    {
      "lat": 59.41312758108079,
      "lon": 27.290060097396484,
      "geoinfo": {
        "display_name": "Metsapargi, Järve linnaosa, Kohtla-Järve linn, Ida-Viru County, 30324, Estonia",
        "road": "Metsapargi",
        "house_number": null,
        "neighbourhood": null,
        "suburb": null,
        "city_district": "Järve linnaosa",
        "city": "Kohtla-Järve linn",
        "state": null,
        "postcode": "30324",
        "country": "Estonia",
        "country_code": "ee"
      },
      "address": "316, Metsapargi, Järve linnaosa, Kohtla-Järve linn, Ida-Viru County, 30324, Estonia"
    },
    {
      "lat": 59.398651687602786,
      "lon": 27.278039086267516,
      "geoinfo": {
        "display_name": "5, Torujõe, Järve linnaosa, Kohtla-Järve linn, Ida-Viru County, 30321, Estonia",
        "road": "Torujõe",
        "house_number": "5",
        "neighbourhood": null,
        "suburb": null,
        "city_district": "Järve linnaosa",
        "city": "Kohtla-Järve linn",
        "state": null,
        "postcode": "30321",
        "country": "Estonia",
        "country_code": "ee"
      },
      "address": "5, Torujõe, Järve linnaosa, Kohtla-Järve linn, Ida-Viru County, 30321, Estonia"
    },
    {
      "lat": 59.38933067573198,
      "lon": 27.299627590524835,
      "geoinfo": {
        "display_name": "Nauri, Sinivoore, Järve linnaosa, Kohtla-Järve linn, Ida-Viru County, 30333, Estonia",
        "road": "Sinivoore",
        "house_number": null,
        "neighbourhood": null,
        "suburb": null,
        "city_district": "Järve linnaosa",
        "city": "Kohtla-Järve linn",
        "state": null,
        "postcode": "30333",
        "country": "Estonia",
        "country_code": "ee"
      },
      "address": "868, Sinivoore, 30333 Kohtla-Järve, Estonia"
    },
    {
      "lat": 59.406889080913736,
      "lon": 27.254631096168342,
      "geoinfo": {
        "display_name": "4, Tuleviku, Järve linnaosa, Kohtla-Järve linn, Ida-Viru County, 30328, Estonia",
        "road": "Tuleviku",
        "house_number": "4",
        "neighbourhood": null,
        "suburb": null,
        "city_district": "Järve linnaosa",
        "city": "Kohtla-Järve linn",
        "state": null,
        "postcode": "30328",
        "country": "Estonia",
        "country_code": "ee"
      },
      "address": "4, Tuleviku, Järve linnaosa, Kohtla-Järve linn, Ida-Viru County, 30328, Estonia"
    },
    {
      "lat": 59.40075574276375,
      "lon": 27.32555934519659,
      "geoinfo": {
        "display_name": "Kohtla-Järve — Kukruse — Tammiku, Järve küla, Toila vald, Ida-Viru County, 30625, Estonia",
        "road": "Kohtla-Järve — Kukruse — Tammiku",
        "house_number": null,
        "neighbourhood": null,
        "suburb": null,
        "city_district": "Järve küla",
        "city": null,
        "state": null,
        "postcode": "30625",
        "country": "Estonia",
        "country_code": "ee"
      },
      "address": "169, Kohtla-Järve — Kukruse — Tammiku, Järve küla, Toila vald, Ida-Viru County, 30625, Estonia"
    },
    {
      "lat": 59.401036443688334,
      "lon": 27.20162531802837,
      "geoinfo": {
        "display_name": "Järve linnaosa, Kohtla-Järve linn, Ida-Viru County, 30197, Estonia",
        "road": null,
        "house_number": null,
        "neighbourhood": null,
        "suburb": null,
        "city_district": "Järve linnaosa",
        "city": "Kohtla-Järve linn",
        "state": null,
        "postcode": "30197",
        "country": "Estonia",
        "country_code": "ee"
      },
      "address": "030, Järve linnaosa, Kohtla-Järve linn, Ida-Viru County, 30197, Estonia"
    },
    {
      "lat": 59.417112509200855,
      "lon": 27.27377038774248,
      "geoinfo": {
        "display_name": "Kohtla-Järve — Kukruse — Tammiku, Ontika küla, Kohtla-Järve linn, Toila vald, Ida-Viru County, 30324, Estonia",
        "road": "Kohtla-Järve — Kukruse — Tammiku",
        "house_number": null,
        "neighbourhood": null,
        "suburb": null,
        "city_district": "Ontika küla",
        "city": "Kohtla-Järve linn",
        "state": null,
        "postcode": "30324",
        "country": "Estonia",
        "country_code": "ee"
      },
      "address": "342, Kohtla-Järve — Kukruse — Tammiku, Ontika küla, Kohtla-Järve linn, Toila vald, Ida-Viru County, 30324, Estonia"
    },
    {
      "lat": 59.42323263885814,
      "lon": 27.26707730834595,
      "geoinfo": {
        "display_name": "Tallinn — Narva, Ontika küla, Toila vald, Ida-Viru County, 30197, Estonia",
        "road": "Tallinn — Narva",
        "house_number": null,
        "neighbourhood": null,
        "suburb": null,
        "city_district": "Ontika küla",
        "city": null,
        "state": null,
        "postcode": "30197",
        "country": "Estonia",
        "country_code": "ee"
      },
      "address": "606, Tallinn — Narva, Ontika küla, Toila vald, Ida-Viru County, 30197, Estonia"
    },
    {
      "lat": 59.39853056456126,
      "lon": 27.242768543943104,
      "geoinfo": {
        "display_name": "Pavandu, Järve linnaosa, Kohtla-Järve linn, Ida-Viru County, 30328, Estonia",
        "road": "Pavandu",
        "house_number": null,
        "neighbourhood": null,
        "suburb": null,
        "city_district": "Järve linnaosa",
        "city": "Kohtla-Järve linn",
        "state": null,
        "postcode": "30328",
        "country": "Estonia",
        "country_code": "ee"
      },
      "address": "414, Pavandu, Järve linnaosa, Kohtla-Järve linn, Ida-Viru County, 30328, Estonia"
    },
    {
      "lat": 59.363360204446415,
      "lon": 27.22496558389024,
      "geoinfo": {
        "display_name": "27, Savi, Kohtla-Uueküla, Toila vald, Ida-Viru County, 30503, Estonia",
        "road": "Savi",
        "house_number": "27",
        "neighbourhood": null,
        "suburb": null,
        "city_district": "Kohtla-Uueküla",
        "city": null,
        "state": null,
        "postcode": "30503",
        "country": "Estonia",
        "country_code": "ee"
      },
      "address": "27, Savi, 30503 Kohtla-Järve, Estonia"
    },
    {
      "lat": 59.38025337098197,
      "lon": 27.23076082030483,
      "geoinfo": {
        "display_name": "Vaheküla raudtee R2, Vaheküla, Järve linnaosa, Kohtla-Järve linn, Ida-Viru County, 30222, Estonia",
        "road": "Vaheküla",
        "house_number": null,
        "neighbourhood": null,
        "suburb": null,
        "city_district": "Järve linnaosa",
        "city": "Kohtla-Järve linn",
        "state": null,
        "postcode": "30222",
        "country": "Estonia",
        "country_code": "ee"
      },
      "address": "Vaheküla raudtee R2, Vaheküla, Järve linnaosa, Kohtla-Järve linn, Ida-Viru County, 30222, Estonia"
    },
    {
      "lat": 59.40359704509299,
      "lon": 27.332362525256983,
      "geoinfo": {
        "display_name": "Kohtla-Järve — Kukruse — Tammiku, Järve küla, Kohtla-Järve linn, Toila vald, Ida-Viru County, 30625, Estonia",
        "road": "Kohtla-Järve — Kukruse — Tammiku",
        "house_number": null,
        "neighbourhood": null,
        "suburb": null,
        "city_district": "Järve küla",
        "city": "Kohtla-Järve linn",
        "state": null,
        "postcode": "30625",
        "country": "Estonia",
        "country_code": "ee"
      },
      "address": "247, Kohtla-Järve — Kukruse — Tammiku, Järve küla, Kohtla-Järve linn, Toila vald, Ida-Viru County, 30625, Estonia"
    },
    {
      "lat": 59.386728269229266,
      "lon": 27.26935371180901,
      "geoinfo": {
        "display_name": "Kaevu, Päikese, Järve linnaosa, Kohtla-Järve linn, Ida-Viru County, 30332, Estonia",
        "road": "Päikese",
        "house_number": null,
        "neighbourhood": null,
        "suburb": null,
        "city_district": "Järve linnaosa",
        "city": "Kohtla-Järve linn",
        "state": null,
        "postcode": "30332",
        "country": "Estonia",
        "country_code": "ee"
      },
      "address": "396, Päikese, 30332 Kohtla-Järve, Estonia"
    },
    {
      "lat": 59.39627779040302,
      "lon": 27.258113745765822,
      "geoinfo": {
        "display_name": "4/2, Spordi, Järve linnaosa, Kohtla-Järve linn, Ida-Viru County, 30328, Estonia",
        "road": "Spordi",
        "house_number": "4/2",
        "neighbourhood": null,
        "suburb": null,
        "city_district": "Järve linnaosa",
        "city": "Kohtla-Järve linn",
        "state": null,
        "postcode": "30328",
        "country": "Estonia",
        "country_code": "ee"
      },
      "address": "4/2, Spordi, Järve linnaosa, Kohtla-Järve linn, Ida-Viru County, 30328, Estonia"
    },
    {
      "lat": 59.42567027651063,
      "lon": 27.262587537849672,
      "geoinfo": {
        "display_name": "Tallinn — Narva, Ontika küla, Toila vald, Ida-Viru County, 30197, Estonia",
        "road": "Tallinn — Narva",
        "house_number": null,
        "neighbourhood": null,
        "suburb": null,
        "city_district": "Ontika küla",
        "city": null,
        "state": null,
        "postcode": "30197",
        "country": "Estonia",
        "country_code": "ee"
      },
      "address": "256, Tallinn — Narva, Ontika küla, Toila vald, Ida-Viru County, 30197, Estonia"
    }
  ],
  "updated_at": "2025-10-19T04:17:19.903590+00:00",
  "_kind": "geo_samples"
}