{
  "country_code": "EE",
  "country": "Estonia",
  "city": "Nõmme",
  "geonameid": 589947,
  "target_addresses": 13,
  "samples": [
    {
      "lat": 59.36478432931432,
      "lon": 24.69038086408564,
      "geoinfo": {
        "display_name": "Ilmarise terviserada, Nõmme, Nõmme linnaosa, Tallinn, Harju County, 11617, Estonia",
        "road": "Ilmarise terviserada",
        "house_number": null,
        "neighbourhood": null,
        "suburb": "Nõmme linnaosa",
        "city_district": null,
        "city": "Tallinn",
        "state": null,
        "postcode": "11617",
        "country": "Estonia",
        "country_code": "ee"
      },
      "address": "Ilmarise terviserada, Nõmme, Estonia"
    },
    {
      "lat": 59.394670610968056,
      "lon": 24.662776562053757,
      "geoinfo": {
        "display_name": "Tallinna Tehnikaülikool, 5, Ehitajate tee, Mustamäe, Mustamäe linnaosa, Tallinn, Harju County, 19086, Estonia",
        "road": "Ehitajate tee",
        "house_number": "5",
        "neighbourhood": null,
        "suburb": "Mustamäe linnaosa",
        "city_district": null,
        "city": "Tallinn",
        "state": null,
        "postcode": "19086",
        "country": "Estonia",
        "country_code": "ee"
      },
      "address": "5 Ehitajate tee, Nõmme, Estonia"
    },
    {
      "lat": 59.37558635087798,
      "lon": 24.653485982044277,
      "geoinfo": {
        "display_name": "124, Raudtee, Kivimäe, Nõmme linnaosa, Tallinn, Harju County, 10919, Estonia",
        "road": "Raudtee",
        "house_number": "124",
        "neighbourhood": null,
        "suburb": "Nõmme linnaosa",
        "city_district": null,
        "city": "Tallinn",
        "state": null,
        "postcode": "10919",
        "country": "Estonia",
        "country_code": "ee"
      },
      "address": "124 Raudtee, Nõmme, Estonia"
    },
    {
      "lat": 59.36565139524349,
      "lon": 24.6191721731593,
      "geoinfo": {
        "display_name": "11, Sambliku, Pääsküla, Nõmme linnaosa, Tallinn, Harju County, 10912, Estonia",
        "road": "Sambliku",
        "house_number": "11",
        "neighbourhood": null,
        "suburb": "Nõmme linnaosa",
        "city_district": null,
        "city": "Tallinn",
        "state": null,
        "postcode": "10912",
        "country": "Estonia",
        "country_code": "ee"
      },
      "address": "11 Sambliku, Nõmme, Estonia"
    },
    {
      "lat": 59.365007379176106,
      "lon": 24.654048913858013,
      "geoinfo": {
        "display_name": "38, Rännaku pst, Pääsküla, Nõmme linnaosa, Tallinn, Harju County, 10921, Estonia",
        "road": "Rännaku pst",
        "house_number": "38",
        "neighbourhood": null,
        "suburb": "Nõmme linnaosa",
        "city_district": null,
        "city": "Tallinn",
        "state": null,
        "postcode": "10921",
        "country": "Estonia",
        "country_code": "ee"
      },
      "address": "38 Rännaku pst, Nõmme, Estonia"
    },
    {
      "lat": 59.37612854409414,
      "lon": 24.651342871115244,
      "geoinfo": {
        "display_name": "18, Värsi, Kivimäe, Nõmme linnaosa, Tallinn, Harju County, 10919, Estonia",
        "road": "Värsi",
        "house_number": "18",
        "neighbourhood": null,
        "suburb": "Nõmme linnaosa",
        "city_district": null,
        "city": "Tallinn",
        "state": null,
        "postcode": "10919",
        "country": "Estonia",
        "country_code": "ee"
      },
      "address": "18 Värsi, Nõmme, Estonia"
    },
    {
      "lat": 59.38975006537397,
      "lon": 24.681214617044308,
      "geoinfo": {
        "display_name": "Ehitajate tee, Nõmme, Nõmme linnaosa, Tallinn, Harju County, 13414, Estonia",
        "road": "Ehitajate tee",
        "house_number": null,
        "neighbourhood": null,
        "suburb": "Nõmme linnaosa",
        "city_district": null,
        "city": "Tallinn",
        "state": null,
        "postcode": "13414",
        "country": "Estonia",
        "country_code": "ee"
      },
      "address": "Ehitajate tee, Nõmme, Estonia"
    },
    {
      "lat": 59.38241439789691,
      "lon": 24.68232495724419,
      "geoinfo": {
        "display_name": "17c, Sambla, Nõmme, Nõmme linnaosa, Tallinn, Harju County, 11618, Estonia",
        "road": "Sambla",
        "house_number": "17c",
        "neighbourhood": null,
        "suburb": "Nõmme linnaosa",
        "city_district": null,
        "city": "Tallinn",
        "state": null,
        "postcode": "11618",
        "country": "Estonia",
        "country_code": "ee"
      },
      "address": "17c Sambla, Nõmme, Estonia"
    },
    {
      "lat": 59.35469030434124,
      "lon": 24.74852510814521,
      "geoinfo": {
        "display_name": "Männiku küla, Saku Parish, Harju County, 75511, Estonia",
        "road": null,
        "house_number": null,
        "neighbourhood": null,
        "suburb": null,
        "city_district": "Männiku küla",
        "city": null,
        "state": null,
        "postcode": "75511",
        "country": "Estonia",
        "country_code": "ee"
      },
      "address": "Männiku küla, Nõmme, Estonia"
    },
    {
      "lat": 59.353186129444644,
      "lon": 24.725853347115144,
      "geoinfo": {
        "display_name": "Männiku lasketiir, Silikaltsiidi, Männiku, Nõmme linnaosa, Tallinn, Harju County, 11216, Estonia",
        "road": "Silikaltsiidi",
        "house_number": null,
        "neighbourhood": null,
        "suburb": "Nõmme linnaosa",
        "city_district": null,
        "city": "Tallinn",
        "state": null,
        "postcode": "11216",
        "country": "Estonia",
        "country_code": "ee"
      },
      "address": "Silikaltsiidi, Nõmme, Estonia"
    },
    {
      "lat": 59.36422581295092,
      "lon": 24.657978304874444,
      "geoinfo": {
        "display_name": "57c, Lemmiku, Pääsküla, Nõmme linnaosa, Tallinn, Harju County, 10921, Estonia",
        "road": "Lemmiku",
        "house_number": "57c",
        "neighbourhood": null,
        "suburb": "Nõmme linnaosa",
        "city_district": null,
        "city": "Tallinn",
        "state": null,
        "postcode": "10921",
        "country": "Estonia",
        "country_code": "ee"
      },
      "address": "57c Lemmiku, Nõmme, Estonia"
    },
    {
      "lat": 59.37615665299794,
      "lon": 24.73007989589649,
      "geoinfo": {
        "display_name": "Valdeku, Liiva, Nõmme linnaosa, Tallinn, Harju County, 11216, Estonia",
        "road": "Valdeku",
        "house_number": null,
        "neighbourhood": null,
        "suburb": "Nõmme linnaosa",
        "city_district": null,
        "city": "Tallinn",
        "state": null,
        "postcode": "11216",
        "country": "Estonia",
        "country_code": "ee"
      },
      "address": "Valdeku, Nõmme, Estonia"
    },
    {
      "lat": 59.364925626037305,
      "lon": 24.706890706391246,
      "geoinfo": {
        "display_name": "Pääsküla raba õpperada, Nõmme, Nõmme linnaosa, Tallinn, Harju County, 11211, Estonia",
        "road": "Pääsküla raba õpperada",
        "house_number": null,
        "neighbourhood": null,
        "suburb": "Nõmme linnaosa",
        "city_district": null,
        "city": "Tallinn",
        "state": null,
        "postcode": "11211",
        "country": "Estonia",
        "country_code": "ee"
      },
      "address": "Pääsküla raba õpperada, Nõmme, Estonia"
    },
    {
      "lat": 59.41280004969923,
      "lon": 24.716819459878895,
      "geoinfo": {
        "display_name": "65, Nõmme tee, Lilleküla, Kristiine linnaosa, Tallinn, Harju County, 11311, Estonia",
        "road": "Nõmme tee",
        "house_number": "65",
        "neighbourhood": null,
        "suburb": "Kristiine linnaosa",
        "city_district": null,
        "city": "Tallinn",
        "state": null,
        "postcode": "11311",
        "country": "Estonia",
        "country_code": "ee"
      },
      "address": "65, Nõmme tee, Lilleküla, Kristiine linnaosa, Tallinn, Harju County, 11311, Estonia"
    },
    {
      "lat": 59.41339416982944,
      "lon": 24.670812378519905,
      "geoinfo": {
        "display_name": "46a, Kadaka tee, Kadaka, Mustamäe linnaosa, Tallinn, Harju County, 12919, Estonia",
        "road": "Kadaka tee",
        "house_number": "46a",
        "neighbourhood": null,
        "suburb": "Mustamäe linnaosa",
        "city_district": null,
        "city": "Tallinn",
        "state": null,
        "postcode": "12919",
        "country": "Estonia",
        "country_code": "ee"
      },
      "address": "46a, Kadaka tee, Kadaka, Mustamäe linnaosa, Tallinn, Harju County, 12919, Estonia"
    },
    {
      "lat": 59.378980145816016,
      "lon": 24.690847774983663,
      "geoinfo": {
        "display_name": "54, Lõuna, Nõmme, Nõmme linnaosa, Tallinn, Harju County, 11617, Estonia",
        "road": "Lõuna",
        "house_number": "54",
        "neighbourhood": null,
        "suburb": "Nõmme linnaosa",
        "city_district": null,
        "city": "Tallinn",
        "state": null,
        "postcode": "11617",
        "country": "Estonia",
        "country_code": "ee"
      },
      "address": "54, Lõuna, Nõmme, Nõmme linnaosa, Tallinn, Harju County, 11617, Estonia"
    },
    {
      "lat": 59.39734502238374,
      "lon": 24.64768207033141,
      "geoinfo": {
        "display_name": "Kadaka, Mustamäe linnaosa, Tallinn, Harju County, 12619, Estonia",
        "road": null,
        "house_number": null,
        "neighbourhood": null,
        "suburb": "Mustamäe linnaosa",
        "city_district": null,
        "city": "Tallinn",
        "state": null,
        "postcode": "12619",
        "country": "Estonia",
        "country_code": "ee"
      },
      "address": "566, Kadaka, Mustamäe linnaosa, Tallinn, Harju County, 12619, Estonia"
    },
    {
      "lat": 59.359735274921,
      "lon": 24.7137058165328,
      "geoinfo": {
        "display_name": "Männiku tee, Männiku küla, Saku Parish, Harju County, 11215, Estonia",
        "road": "Männiku tee",
        "house_number": null,
        "neighbourhood": null,
        "suburb": null,
        "city_district": "Männiku küla",
        "city": null,
        "state": null,
        "postcode": "11215",
        "country": "Estonia",
        "country_code": "ee"
      },
      "address": "162, Männiku tee, 11215 Nõmme, Estonia"
    },
    {
      "lat": 59.406646676991556,
      "lon": 24.73274915704668,
      "geoinfo": {
        "display_name": "AJ Salong, 158, Pärnu mnt, Kitseküla, City center, Tallinn, Harju County, 11318, Estonia",
        "road": "Pärnu mnt",
        "house_number": "158",
        "neighbourhood": null,
        "suburb": "City center",
        "city_district": null,
        "city": "Tallinn",
        "state": null,
        "postcode": "11318",
        "country": "Estonia",
        "country_code": "ee"
      },
      "address": "158, Pärnu mnt, 11318 Nõmme, Estonia"
    },
    {
      "lat": 59.37658571980306,
      "lon": 24.64319093140328,
      "geoinfo": {
        "display_name": "9, Varbola, Kivimäe, Nõmme linnaosa, Tallinn, Harju County, 10919, Estonia",
        "road": "Varbola",
        "house_number": "9",
        "neighbourhood": null,
        "suburb": "Nõmme linnaosa",
        "city_district": null,
        "city": "Tallinn",
        "state": null,
        "postcode": "10919",
        "country": "Estonia",
        "country_code": "ee"
      },
      "address": "9, Varbola, Kivimäe, Nõmme linnaosa, Tallinn, Harju County, 10919, Estonia"
    },
    {
      "lat": 59.361434699103036,
      "lon": 24.678659275353123,
      "geoinfo": {
        "display_name": "Ilmarise terviserada, Kivimäe, Nõmme linnaosa, Tallinn, Harju County, 11613, Estonia",
        "road": "Ilmarise terviserada",
        "house_number": null,
        "neighbourhood": null,
        "suburb": "Nõmme linnaosa",
        "city_district": null,
        "city": "Tallinn",
        "state": null,
        "postcode": "11613",
        "country": "Estonia",
        "country_code": "ee"
      },
      "address": "388, Ilmarise terviserada, Kivimäe, Nõmme linnaosa, Tallinn, Harju County, 11613, Estonia"
    },
    {
      "lat": 59.380711607774124,
      "lon": 24.635979389955562,
      "geoinfo": {
        "display_name": "19, Tammiku, Pääsküla, Nõmme linnaosa, Tallinn, Harju County, 10922, Estonia",
        "road": "Tammiku",
        "house_number": "19",
        "neighbourhood": null,
        "suburb": "Nõmme linnaosa",
        "city_district": null,
        "city": "Tallinn",
        "state": null,
        "postcode": "10922",
        "country": "Estonia",
        "country_code": "ee"
      },
      "address": "19, Tammiku, Pääsküla, Nõmme linnaosa, Tallinn, Harju County, 10922, Estonia"
    },
    {
      "lat": 59.360686046359554,
      "lon": 24.743145333850823,
      "geoinfo": {
        "display_name": "Männiku, Nõmme linnaosa, Tallinn, Harju County, Estonia",
        "road": null,
        "house_number": null,
        "neighbourhood": null,
        "suburb": "Nõmme linnaosa",
        "city_district": null,
        "city": "Tallinn",
        "state": null,
        "postcode": null,
        "country": "Estonia",
        "country_code": "ee"
      },
      "address": "359, Männiku, Nõmme linnaosa, Tallinn, 84305 Harju County, Estonia"
    },
    {
      "lat": 59.367015057363254,
      "lon": 24.65917914959519,
      "geoinfo": {
        "display_name": "48, Sõbra, Pääsküla, Nõmme linnaosa, Tallinn, Harju County, 10911, Estonia",
        "road": "Sõbra",
        "house_number": "48",
        "neighbourhood": null,
        "suburb": "Nõmme linnaosa",
        "city_district": null,
        "city": "Tallinn",
        "state": null,
        "postcode": "10911",
        "country": "Estonia",
        "country_code": "ee"
      },
      "address": "48, Sõbra, Pääsküla, Nõmme linnaosa, Tallinn, Harju County, 10911, Estonia"
    },
    {
      "lat": 59.3745829282285,
      "lon": 24.67769731838084,
      "geoinfo": {
        "display_name": "3, Taara, Hiiu, Nõmme linnaosa, Tallinn, Harju County, 11613, Estonia",
        "road": "Taara",
        "house_number": "3",
        "neighbourhood": null,
        "suburb": "Nõmme linnaosa",
        "city_district": null,
        "city": "Tallinn",
        "state": null,
        "postcode": "11613",
        "country": "Estonia",
        "country_code": "ee"
      },
      "address": "3, Taara, Hiiu, Nõmme linnaosa, Tallinn, Harju County, 11613, Estonia"
    },
    {
      "lat": 59.34892938149549,
      "lon": 24.722591350630786,
      "geoinfo": {
        "display_name": "Männiku küla, Saku Parish, Harju County, 75511, Estonia",
        "road": null,
        "house_number": null,
        "neighbourhood": null,
        "suburb": null,
        "city_district": "Männiku küla",
        "city": null,
        "state": null,
        "postcode": "75511",
        "country": "Estonia",
        "country_code": "ee"
      },
      "address": "364, Männiku küla, 75511 Nõmme, Estonia"
    }
  ],
  "updated_at": "2025-10-19T04:40:59.119039+00:00",
  "_kind": "geo_samples"
}