{
  "country_code": "EE",
  "country": "Estonia",
  "city": "Pärnu",
  "geonameid": 589580,
  "target_addresses": 65,
  "samples": [
    {
      "lat": 58.381155010779935,
      "lon": 24.54523645854913,
      "geoinfo": {
        "display_name": "Tammiste tee, Rääma, Pärnu linn, Pärnu, Pärnu linn, Pärnu County, 80024, Estonia",
        "road": "Tammiste tee",
        "house_number": null,
        "neighbourhood": null,
        "suburb": null,
        "city_district": "Pärnu linn",
        "city": "Pärnu",
        "state": null,
        "postcode": "80024",
        "country": "Estonia",
        "country_code": "ee"
      },
      "address": "Tammiste tee, Pärnu, Estonia"
    },
    {
      "lat": 58.36272609738111,
      "lon": 24.439440848923365,
      "geoinfo": {
        "display_name": "Pärnu, Pärnu linn, Pärnu County, 80011, Estonia",
        "road": null,
        "house_number": null,
        "neighbourhood": null,
        "suburb": null,
        "city_district": null,
        "city": "Pärnu",
        "state": null,
        "postcode": "80011",
        "country": "Estonia",
        "country_code": "ee"
      },
      "address": "Pärnu, Estonia"
    },
    {
      "lat": 58.398688058248055,
      "lon": 24.497428971208688,
      "geoinfo": {
        "display_name": "8, Astri, Ülejõe, Pärnu linn, Pärnu, Pärnu linn, Pärnu County, 80034, Estonia",
        "road": "Astri",
        "house_number": "8",
        "neighbourhood": null,
        "suburb": null,
        "city_district": "Pärnu linn",
        "city": "Pärnu",
        "state": null,
        "postcode": "80034",
        "country": "Estonia",
        "country_code": "ee"
      },
      "address": "8 Astri, Pärnu, Estonia"
    },
    {
      "lat": 58.38102842142534,
      "lon": 24.422758812261563,
      "geoinfo": {
        "display_name": "Järvi, Papsaare küla, Pärnu linn, Pärnu County, 88317, Estonia",
        "road": null,
        "house_number": null,
        "neighbourhood": null,
        "suburb": null,
        "city_district": "Papsaare küla",
        "city": null,
        "state": null,
        "postcode": "88317",
        "country": "Estonia",
        "country_code": "ee"
      },
      "address": "Papsaare küla, Pärnu, Estonia"
    },
    {
      "lat": 58.38657418427032,
      "lon": 24.521109615674796,
      "geoinfo": {
        "display_name": "9, Pilli, Eeslinn, Pärnu linn, Pärnu, Pärnu linn, Pärnu County, 80013, Estonia",
        "road": "Pilli",
        "house_number": "9",
        "neighbourhood": null,
        "suburb": null,
        "city_district": "Pärnu linn",
        "city": "Pärnu",
        "state": null,
        "postcode": "80013",
        "country": "Estonia",
        "country_code": "ee"
      },
      "address": "9 Pilli, Pärnu, Estonia"
    },
    {
      "lat": 58.39914277978481,
      "lon": 24.44120790482627,
      "geoinfo": {
        "display_name": "Pärnu — Lihula, Papsaare küla, Pärnu linn, Pärnu County, 88317, Estonia",
        "road": "Pärnu — Lihula",
        "house_number": null,
        "neighbourhood": null,
        "suburb": null,
        "city_district": "Papsaare küla",
        "city": null,
        "state": null,
        "postcode": "88317",
        "country": "Estonia",
        "country_code": "ee"
      },
      "address": "Pärnu — Lihula, Pärnu, Estonia"
    },
    {
      "lat": 58.40068652574407,
      "lon": 24.577191377370585,
      "geoinfo": {
        "display_name": "Tammiste küla, Tori vald, Pärnu County, 85009, Estonia",
        "road": null,
        "house_number": null,
        "neighbourhood": null,
        "suburb": null,
        "city_district": "Tammiste küla",
        "city": null,
        "state": null,
        "postcode": "85009",
        "country": "Estonia",
        "country_code": "ee"
      },
      "address": "Tammiste küla, Pärnu, Estonia"
    },
    {
      "lat": 58.38925230747586,
      "lon": 24.51682953391304,
      "geoinfo": {
        "display_name": "2. Jõe, Eeslinn, Pärnu linn, Pärnu, Pärnu linn, Pärnu County, 80013, Estonia",
        "road": "2. Jõe",
        "house_number": null,
        "neighbourhood": null,
        "suburb": null,
        "city_district": "Pärnu linn",
        "city": "Pärnu",
        "state": null,
        "postcode": "80013",
        "country": "Estonia",
        "country_code": "ee"
      },
      "address": "2. Jõe, Pärnu, Estonia"
    },
    {
      "lat": 58.36527286310107,
      "lon": 24.52310619014174,
      "geoinfo": {
        "display_name": "Villa, Rannarajoon, Pärnu linn, Pärnu, Pärnu linn, Pärnu County, 80016, Estonia",
        "road": "Villa",
        "house_number": null,
        "neighbourhood": null,
        "suburb": null,
        "city_district": "Pärnu linn",
        "city": "Pärnu",
        "state": null,
        "postcode": "80016",
        "country": "Estonia",
        "country_code": "ee"
      },
      "address": "Villa, Pärnu, Estonia"
    },
    {
      "lat": 58.39006508095983,
      "lon": 24.521094366222012,
      "geoinfo": {
        "display_name": "70a, Rääma, Pärnu linn, Pärnu, Pärnu linn, Pärnu County, 80039, Estonia",
        "road": "Rääma",
        "house_number": "70a",
        "neighbourhood": null,
        "suburb": null,
        "city_district": "Pärnu linn",
        "city": "Pärnu",
        "state": null,
        "postcode": "80039",
        "country": "Estonia",
        "country_code": "ee"
      },
      "address": "70a Rääma, Pärnu, Estonia"
    },
    {
      "lat": 58.42700873438368,
      "lon": 24.476524438687814,
      "geoinfo": {
        "display_name": "Sepa tee, Eametsa küla, Sauga, Tori vald, Pärnu County, 85008, Estonia",
        "road": "Sepa tee",
        "house_number": null,
        "neighbourhood": null,
        "suburb": null,
        "city_district": null,
        "city": "Sauga",
        "state": null,
        "postcode": "85008",
        "country": "Estonia",
        "country_code": "ee"
      },
      "address": "Sepa tee, Pärnu, Estonia"
    },
    {
      "lat": 58.391792343347774,
      "lon": 24.432322697019096,
      "geoinfo": {
        "display_name": "8, Anni tee, Papsaare küla, Pärnu linn, Pärnu County, 88317, Estonia",
        "road": "Anni tee",
        "house_number": "8",
        "neighbourhood": null,
        "suburb": null,
        "city_district": "Papsaare küla",
        "city": null,
        "state": null,
        "postcode": "88317",
        "country": "Estonia",
        "country_code": "ee"
      },
      "address": "8 Anni tee, Pärnu, Estonia"
    },
    {
      "lat": 58.41809475928352,
      "lon": 24.542173269320035,
      "geoinfo": {
        "display_name": "Kilksama küla, Tori vald, Pärnu County, Estonia",
        "road": null,
        "house_number": null,
        "neighbourhood": null,
        "suburb": null,
        "city_district": "Kilksama küla",
        "city": null,
        "state": null,
        "postcode": null,
        "country": "Estonia",
        "country_code": "ee"
      },
      "address": "Kilksama küla, Pärnu, Estonia"
    },
    {
      "lat": 58.3936785586165,
      "lon": 24.469083629949413,
      "geoinfo": {
        "display_name": "38, Vana-Sauga, Ülejõe, Pärnu linn, Pärnu County, 80031, Estonia",
        "road": "Vana-Sauga",
        "house_number": "38",
        "neighbourhood": null,
        "suburb": null,
        "city_district": null,
        "city": "Pärnu linn",
        "state": null,
        "postcode": "80031",
        "country": "Estonia",
        "country_code": "ee"
      },
      "address": "38, Vana-Sauga, Ülejõe, Pärnu linn, Pärnu County, 80031, Estonia"
    },
    {
      "lat": 58.3958757502415,
      "lon": 24.520792432404264,
      "geoinfo": {
        "display_name": "96, Rohu, Rääma, Pärnu linn, Pärnu County, 80039, Estonia",
        "road": "Rohu",
        "house_number": "96",
        "neighbourhood": null,
        "suburb": null,
        "city_district": null,
        "city": "Pärnu linn",
        "state": null,
        "postcode": "80039",
        "country": "Estonia",
        "country_code": "ee"
      },
      "address": "96, Rohu, Rääma, Pärnu linn, Pärnu County, 80039, Estonia"
    },
    {
      "lat": 58.367777893915985,
      "lon": 24.56086954935261,
      "geoinfo": {
        "display_name": "Liivi tee, Raeküla, Pärnu linn, Pärnu County, 80042, Estonia",
        "road": "Liivi tee",
        "house_number": null,
        "neighbourhood": null,
        "suburb": null,
        "city_district": null,
        "city": "Pärnu linn",
        "state": null,
        "postcode": "80042",
        "country": "Estonia",
        "country_code": "ee"
      },
      "address": "Liivi tee, Raeküla, Pärnu linn, Pärnu County, 80042, Estonia"
    },
    {
      "lat": 58.40903902408273,
      "lon": 24.47278275485333,
      "geoinfo": {
        "display_name": "Kaitseliit Pärnumaa Malev, Lennuvälja tee, Ülejõe, Pärnu linn, Pärnu County, 80033, Estonia",
        "road": "Lennuvälja tee",
        "house_number": null,
        "neighbourhood": null,
        "suburb": null,
        "city_district": null,
        "city": "Pärnu linn",
        "state": null,
        "postcode": "80033",
        "country": "Estonia",
        "country_code": "ee"
      },
      "address": "Kaitseliit Pärnumaa Malev, Lennuvälja tee, Ülejõe, Pärnu linn, Pärnu County, 80033, Estonia"
    },
    {
      "lat": 58.42268619743094,
      "lon": 24.454803896472743,
      "geoinfo": {
        "display_name": "Meelespea tee, Eametsa küla, Tori vald, Pärnu County, 85001, Estonia",
        "road": "Meelespea tee",
        "house_number": null,
        "neighbourhood": null,
        "suburb": null,
        "city_district": null,
        "city": null,
        "state": null,
        "postcode": "85001",
        "country": "Estonia",
        "country_code": "ee"
      },
      "address": "497, Meelespea tee, Eametsa küla, Tori vald, Pärnu County, 85001, Estonia"
    },
    {
      "lat": 58.35751814603835,
      "lon": 24.53643705467254,
      "geoinfo": {
        "display_name": "Pärnu, Pärnu linn, Pärnu County, 80011, Estonia",
        "road": null,
        "house_number": null,
        "neighbourhood": null,
        "suburb": null,
        "city_district": null,
        "city": "Pärnu",
        "state": null,
        "postcode": "80011",
        "country": "Estonia",
        "country_code": "ee"
      },
      "address": "294, Pärnu, Pärnu linn, Pärnu County, 80011, Estonia"
    },
    {
      "lat": 58.3872516129648,
      "lon": 24.57355486690129,
      "geoinfo": {
        "display_name": "Pikanõmme - Selja tee, Tammiste, Tammiste küla, Tori vald, Pärnu County, 85009, Estonia",
        "road": "Pikanõmme - Selja tee",
        "house_number": null,
        "neighbourhood": null,
        "suburb": null,
        "city_district": "Tammiste küla",
        "city": null,
        "state": null,
        "postcode": "85009",
        "country": "Estonia",
        "country_code": "ee"
      },
      "address": "288, Pikanõmme - Selja tee, Tammiste, Tammiste küla, Tori vald, Pärnu County, 85009, Estonia"
    },
    {
      "lat": 58.38357123816734,
      "lon": 24.509374396365363,
      "geoinfo": {
        "display_name": "Karja, Eeslinn, Pärnu linn, Pärnu, Pärnu linn, Pärnu County, 80015, Estonia",
        "road": "Karja",
        "house_number": null,
        "neighbourhood": null,
        "suburb": null,
        "city_district": "Pärnu linn",
        "city": "Pärnu",
        "state": null,
        "postcode": "80015",
        "country": "Estonia",
        "country_code": "ee"
      },
      "address": "338, Karja, Eeslinn, Pärnu linn, Pärnu, Pärnu linn, Pärnu County, 80015, Estonia"
    },
    {
      "lat": 58.4123572724404,
      "lon": 24.428196116393426,
      "geoinfo": {
        "display_name": "Regina, Papsaare küla, Pärnu linn, Pärnu County, 88317, Estonia",
        "road": null,
        "house_number": null,
        "neighbourhood": null,
        "suburb": null,
        "city_district": "Papsaare küla",
        "city": null,
        "state": null,
        "postcode": "88317",
        "country": "Estonia",
        "country_code": "ee"
      },
      "address": "997, Regina, Papsaare küla, Pärnu linn, Pärnu County, 88317, Estonia"
    },
    {
      "lat": 58.34777072191025,
      "lon": 24.51265775755805,
      "geoinfo": {
        "display_name": "Pärnu, Pärnu linn, Pärnu County, 80011, Estonia",
        "road": null,
        "house_number": null,
        "neighbourhood": null,
        "suburb": null,
        "city_district": null,
        "city": "Pärnu",
        "state": null,
        "postcode": "80011",
        "country": "Estonia",
        "country_code": "ee"
      },
      "address": "964, Pärnu, Pärnu linn, Pärnu County, 80011, Estonia"
    },
    {
      "lat": 58.40233605142921,
      "lon": 24.523744086253068,
      "geoinfo": {
        "display_name": "26, Savi, Rääma, Pärnu linn, Pärnu County, 80040, Estonia",
        "road": "Savi",
        "house_number": "26",
        "neighbourhood": null,
        "suburb": null,
        "city_district": null,
        "city": "Pärnu linn",
        "state": null,
        "postcode": "80040",
        "country": "Estonia",
        "country_code": "ee"
      },
      "address": "26, Savi, Rääma, Pärnu linn, Pärnu County, 80040, Estonia"
    },
    {
      "lat": 58.413661962900136,
      "lon": 24.463172707395778,
      "geoinfo": {
        "display_name": "Lennujaama tee, Eametsa küla, Tori vald, Pärnu County, 85001, Estonia",
        "road": "Lennujaama tee",
        "house_number": null,
        "neighbourhood": null,
        "suburb": null,
        "city_district": null,
        "city": null,
        "state": null,
        "postcode": "85001",
        "country": "Estonia",
        "country_code": "ee"
      },
      "address": "713, Lennujaama tee, Eametsa küla, Tori vald, Pärnu County, 85001, Estonia"
    },
    {
      "lat": 58.36902388907262,
      "lon": 24.54020189983446,
      "geoinfo": {
        "display_name": "53, Mai, Pärnu linn, Pärnu County, 80022, Estonia",
        "road": "Mai",
        "house_number": "53",
        "neighbourhood": null,
        "suburb": null,
        "city_district": null,
        "city": "Pärnu linn",
        "state": null,
        "postcode": "80022",
        "country": "Estonia",
        "country_code": "ee"
      },
      "address": "53, Mai, Pärnu linn, Pärnu County, 80022, Estonia"
    },
    {
      "lat": 58.377874520701184,
      "lon": 24.44416911757268,
      "geoinfo": {
        "display_name": "Kiisapoja, Papsaare küla, Pärnu linn, Pärnu County, 88317, Estonia",
        "road": null,
        "house_number": null,
        "neighbourhood": null,
        "suburb": null,
        "city_district": "Papsaare küla",
        "city": null,
        "state": null,
        "postcode": "88317",
        "country": "Estonia",
        "country_code": "ee"
      },
      "address": "238, Kiisapoja, Papsaare küla, Pärnu linn, Pärnu County, 88317, Estonia"
    },
    {
      "lat": 58.367907170857514,
      "lon": 24.547642283693726,
      "geoinfo": {
        "display_name": "Pärnu Koidula Gümnaasium, 21, Metsa, Mai, Pärnu linn, Pärnu County, 80025, Estonia",
        "road": "Metsa",
        "house_number": "21",
        "neighbourhood": null,
        "suburb": null,
        "city_district": null,
        "city": "Pärnu linn",
        "state": null,
        "postcode": "80025",
        "country": "Estonia",
        "country_code": "ee"
      },
      "address": "Pärnu Koidula Gümnaasium, 21, Metsa, Mai, Pärnu linn, Pärnu County, 80025, Estonia"
    },
    {
      "lat": 58.4063470677365,
      "lon": 24.50686122796906,
      "geoinfo": {
        "display_name": "Metaprint, 2, Betooni, Rääma, Pärnu linn, Pärnu County, 80041, Estonia",
        "road": "Betooni",
        "house_number": "2",
        "neighbourhood": null,
        "suburb": null,
        "city_district": null,
        "city": "Pärnu linn",
        "state": null,
        "postcode": "80041",
        "country": "Estonia",
        "country_code": "ee"
      },
      "address": "Metaprint, 2, Betooni, Rääma, Pärnu linn, Pärnu County, 80041, Estonia"
    },
    {
      "lat": 58.370053281465005,
      "lon": 24.49530096494012,
      "geoinfo": {
        "display_name": "Mere pst, Rannarajoon, Pärnu linn, Pärnu County, 80012, Estonia",
        "road": "Mere pst",
        "house_number": null,
        "neighbourhood": null,
        "suburb": null,
        "city_district": null,
        "city": "Pärnu linn",
        "state": null,
        "postcode": "80012",
        "country": "Estonia",
        "country_code": "ee"
      },
      "address": "382, Mere pst, Rannarajoon, Pärnu linn, Pärnu County, 80012, Estonia"
    },
    {
      "lat": 58.36621324312441,
      "lon": 24.54877689279708,
      "geoinfo": {
        "display_name": "34, Mai, Pärnu linn, Pärnu County, 80045, Estonia",
        "road": "Mai",
        "house_number": "34",
        "neighbourhood": null,
        "suburb": null,
        "city_district": null,
        "city": "Pärnu linn",
        "state": null,
        "postcode": "80045",
        "country": "Estonia",
        "country_code": "ee"
      },
      "address": "34, Mai, Pärnu linn, Pärnu County, 80045, Estonia"
    },
    {
      "lat": 58.40218493656317,
      "lon": 24.51235145593075,
      "geoinfo": {
        "display_name": "18, Karikakra, Rääma, Pärnu linn, Pärnu County, 80041, Estonia",
        "road": "Karikakra",
        "house_number": "18",
        "neighbourhood": null,
        "suburb": null,
        "city_district": null,
        "city": "Pärnu linn",
        "state": null,
        "postcode": "80041",
        "country": "Estonia",
        "country_code": "ee"
      },
      "address": "18, Karikakra, Rääma, Pärnu linn, Pärnu County, 80041, Estonia"
    },
    {
      "lat": 58.428343447926736,
      "lon": 24.512268148223104,
      "geoinfo": {
        "display_name": "Tehnika, Sauga alevik, Sauga, Tori vald, Pärnu County, 85008, Estonia",
        "road": "Tehnika",
        "house_number": null,
        "neighbourhood": null,
        "suburb": null,
        "city_district": "Sauga alevik",
        "city": "Sauga",
        "state": null,
        "postcode": "85008",
        "country": "Estonia",
        "country_code": "ee"
      },
      "address": "664, Tehnika, Sauga alevik, Sauga, Tori vald, Pärnu County, 85008, Estonia"
    },
    {
      "lat": 58.39647778289756,
      "lon": 24.53909339217765,
      "geoinfo": {
        "display_name": "42, Savi, Rääma, Pärnu linn, Pärnu County, 80040, Estonia",
        "road": "Savi",
        "house_number": "42",
        "neighbourhood": null,
        "suburb": null,
        "city_district": null,
        "city": "Pärnu linn",
        "state": null,
        "postcode": "80040",
        "country": "Estonia",
        "country_code": "ee"
      },
      "address": "42, Savi, Rääma, Pärnu linn, Pärnu County, 80040, Estonia"
    },
    {
      "lat": 58.411788842883894,
      "lon": 24.440994822112327,
      "geoinfo": {
        "display_name": "Kambimõisa tee, Papsaare küla, Pärnu linn, Pärnu County, 88317, Estonia",
        "road": "Kambimõisa tee",
        "house_number": null,
        "neighbourhood": null,
        "suburb": null,
        "city_district": "Papsaare küla",
        "city": null,
        "state": null,
        "postcode": "88317",
        "country": "Estonia",
        "country_code": "ee"
      },
      "address": "096, Kambimõisa tee, Papsaare küla, Pärnu linn, Pärnu County, 88317, Estonia"
    },
    {
      "lat": 58.36935300561784,
      "lon": 24.463256606576177,
      "geoinfo": {
        "display_name": "Pärnu läänemuuli tulepaak, Mole of Pärnu, Rannarajoon, Pärnu linn, Pärnu County, 80030, Estonia",
        "road": "Mole of Pärnu",
        "house_number": null,
        "neighbourhood": null,
        "suburb": null,
        "city_district": null,
        "city": "Pärnu linn",
        "state": null,
        "postcode": "80030",
        "country": "Estonia",
        "country_code": "ee"
      },
      "address": "945, Mole of Pärnu, 80030 Pärnu, Estonia"
    },
    {
      "lat": 58.35400087618738,
      "lon": 24.45613474565846,
      "geoinfo": {
        "display_name": "Pärnu, Pärnu linn, Pärnu County, 80011, Estonia",
        "road": null,
        "house_number": null,
        "neighbourhood": null,
        "suburb": null,
        "city_district": null,
        "city": "Pärnu",
        "state": null,
        "postcode": "80011",
        "country": "Estonia",
        "country_code": "ee"
      },
      "address": "694, Pärnu, Pärnu linn, Pärnu County, 80011, Estonia"
    },
    {
      "lat": 58.34456675234569,
      "lon": 24.48946964150781,
      "geoinfo": {
        "display_name": "Pärnu, Pärnu linn, Pärnu County, 80011, Estonia",
        "road": null,
        "house_number": null,
        "neighbourhood": null,
        "suburb": null,
        "city_district": null,
        "city": "Pärnu",
        "state": null,
        "postcode": "80011",
        "country": "Estonia",
        "country_code": "ee"
      },
      "address": "449, Pärnu, Pärnu linn, Pärnu County, 80011, Estonia"
    },
    {
      "lat": 58.39264268371571,
      "lon": 24.50623196124722,
      "geoinfo": {
        "display_name": "38, Rääma, Pärnu linn, Pärnu, Pärnu linn, Pärnu County, 80044, Estonia",
        "road": "Rääma",
        "house_number": "38",
        "neighbourhood": null,
        "suburb": null,
        "city_district": "Pärnu linn",
        "city": "Pärnu",
        "state": null,
        "postcode": "80044",
        "country": "Estonia",
        "country_code": "ee"
      },
      "address": "38, Rääma, Pärnu linn, Pärnu, Pärnu linn, Pärnu County, 80044, Estonia"
    },
    {
      "lat": 58.386144950471305,
      "lon": 24.47564754275843,
      "geoinfo": {
        "display_name": "6, Luha, Old Pärnu, Pärnu linn, Pärnu, Pärnu linn, Pärnu County, 80030, Estonia",
        "road": "Luha",
        "house_number": "6",
        "neighbourhood": null,
        "suburb": null,
        "city_district": "Pärnu linn",
        "city": "Pärnu",
        "state": null,
        "postcode": "80030",
        "country": "Estonia",
        "country_code": "ee"
      },
      "address": "6, Luha, Old Pärnu, Pärnu linn, Pärnu, Pärnu linn, Pärnu County, 80030, Estonia"
    },
    {
      "lat": 58.392952722997364,
      "lon": 24.565163225229856,
      "geoinfo": {
        "display_name": "8, Kauba, Tammiste, Pärnu linn, Pärnu County, 80047, Estonia",
        "road": "Kauba",
        "house_number": "8",
        "neighbourhood": null,
        "suburb": null,
        "city_district": "Pärnu linn",
        "city": null,
        "state": null,
        "postcode": "80047",
        "country": "Estonia",
        "country_code": "ee"
      },
      "address": "8, Kauba, Tammiste, Pärnu linn, Pärnu County, 80047, Estonia"
    },
    {
      "lat": 58.395877699283105,
      "lon": 24.415525550415293,
      "geoinfo": {
        "display_name": "29, Elu tee, Kulli, Papsaare küla, Pärnu linn, Pärnu County, 88317, Estonia",
        "road": "Elu tee",
        "house_number": "29",
        "neighbourhood": null,
        "suburb": null,
        "city_district": "Papsaare küla",
        "city": null,
        "state": null,
        "postcode": "88317",
        "country": "Estonia",
        "country_code": "ee"
      },
      "address": "29, Elu tee, Kulli, Papsaare küla, Pärnu linn, Pärnu County, 88317, Estonia"
    },
    {
      "lat": 58.379266419500425,
      "lon": 24.503741952678563,
      "geoinfo": {
        "display_name": "13, Karusselli, Rannarajoon, Pärnu linn, Pärnu, Pärnu linn, Pärnu County, 80015, Estonia",
        "road": "Karusselli",
        "house_number": "13",
        "neighbourhood": null,
        "suburb": null,
        "city_district": "Pärnu linn",
        "city": "Pärnu",
        "state": null,
        "postcode": "80015",
        "country": "Estonia",
        "country_code": "ee"
      },
      "address": "13, Karusselli, Rannarajoon, Pärnu linn, Pärnu, Pärnu linn, Pärnu County, 80015, Estonia"
    },
    {
      "lat": 58.40742474076307,
      "lon": 24.431306150283202,
      "geoinfo": {
        "display_name": "Regina, Nurme — Papsaare, Papsaare, Papsaare küla, Pärnu linn, Pärnu County, 88317, Estonia",
        "road": "Nurme — Papsaare",
        "house_number": null,
        "neighbourhood": null,
        "suburb": null,
        "city_district": "Papsaare küla",
        "city": null,
        "state": null,
        "postcode": "88317",
        "country": "Estonia",
        "country_code": "ee"
      },
      "address": "731, Nurme — Papsaare, 88317 Pärnu, Estonia"
    },
    {
      "lat": 58.4295355896161,
      "lon": 24.500050272889926,
      "geoinfo": {
        "display_name": "Tallinna mnt, Sauga alevik, Sauga, Tori vald, Pärnu County, 85008, Estonia",
        "road": "Tallinna mnt",
        "house_number": null,
        "neighbourhood": null,
        "suburb": null,
        "city_district": "Sauga alevik",
        "city": "Sauga",
        "state": null,
        "postcode": "85008",
        "country": "Estonia",
        "country_code": "ee"
      },
      "address": "900, Tallinna mnt, Sauga alevik, Sauga, Tori vald, Pärnu County, 85008, Estonia"
    },
    {
      "lat": 58.400271267540845,
      "lon": 24.525234670737568,
      "geoinfo": {
        "display_name": "30, Savi, Rääma, Pärnu linn, Pärnu, Pärnu linn, Pärnu County, 80040, Estonia",
        "road": "Savi",
        "house_number": "30",
        "neighbourhood": null,
        "suburb": null,
        "city_district": "Pärnu linn",
        "city": "Pärnu",
        "state": null,
        "postcode": "80040",
        "country": "Estonia",
        "country_code": "ee"
      },
      "address": "30, Savi, Rääma, Pärnu linn, Pärnu, Pärnu linn, Pärnu County, 80040, Estonia"
    },
    {
      "lat": 58.35667079357754,
      "lon": 24.54188520365711,
      "geoinfo": {
        "display_name": "Raeküla rannaniit L1, Raja, Raeküla, Pärnu linn, Pärnu, Pärnu linn, Pärnu County, 80025, Estonia",
        "road": "Raja",
        "house_number": null,
        "neighbourhood": null,
        "suburb": null,
        "city_district": "Pärnu linn",
        "city": "Pärnu",
        "state": null,
        "postcode": "80025",
        "country": "Estonia",
        "country_code": "ee"
      },
      "address": "Raeküla rannaniit L1, Raja, Raeküla, Pärnu linn, Pärnu, Pärnu linn, Pärnu County, 80025, Estonia"
    },
    {
      "lat": 58.366738374026085,
      "lon": 24.464980103265678,
      "geoinfo": {
        "display_name": "Mole of Pärnu, Rannarajoon, Pärnu linn, Pärnu, Pärnu linn, Pärnu County, 80030, Estonia",
        "road": "Mole of Pärnu",
        "house_number": null,
        "neighbourhood": null,
        "suburb": null,
        "city_district": "Pärnu linn",
        "city": "Pärnu",
        "state": null,
        "postcode": "80030",
        "country": "Estonia",
        "country_code": "ee"
      },
      "address": "316, Mole of Pärnu, Rannarajoon, Pärnu linn, Pärnu, Pärnu linn, Pärnu County, 80030, Estonia"
    },
    {
      "lat": 58.41857060796581,
      "lon": 24.529406919906556,
      "geoinfo": {
        "display_name": "Viira, Kilksama küla, Tori vald, Pärnu County, 85008, Estonia",
        "road": null,
        "house_number": null,
        "neighbourhood": null,
        "suburb": null,
        "city_district": "Kilksama küla",
        "city": null,
        "state": null,
        "postcode": "85008",
        "country": "Estonia",
        "country_code": "ee"
      },
      "address": "295, Viira, Kilksama küla, Tori vald, Pärnu County, 85008, Estonia"
    },
    {
      "lat": 58.385408588875876,
      "lon": 24.51684730428423,
      "geoinfo": {
        "display_name": "1, Tui, Eeslinn, Pärnu linn, Pärnu, Pärnu linn, Pärnu County, 80013, Estonia",
        "road": "Tui",
        "house_number": "1",
        "neighbourhood": null,
        "suburb": null,
        "city_district": "Pärnu linn",
        "city": "Pärnu",
        "state": null,
        "postcode": "80013",
        "country": "Estonia",
        "country_code": "ee"
      },
      "address": "1, Tui, Eeslinn, Pärnu linn, Pärnu, Pärnu linn, Pärnu County, 80013, Estonia"
    },
    {
      "lat": 58.37952862077329,
      "lon": 24.497340560661947,
      "geoinfo": {
        "display_name": "3, Sääse, Rannarajoon, Pärnu linn, Pärnu, Pärnu linn, Pärnu County, 80012, Estonia",
        "road": "Sääse",
        "house_number": "3",
        "neighbourhood": null,
        "suburb": null,
        "city_district": "Pärnu linn",
        "city": "Pärnu",
        "state": null,
        "postcode": "80012",
        "country": "Estonia",
        "country_code": "ee"
      },
      "address": "3, Sääse, Rannarajoon, Pärnu linn, Pärnu, Pärnu linn, Pärnu County, 80012, Estonia"
    },
    {
      "lat": 58.40467184399362,
      "lon": 24.525586446941595,
      "geoinfo": {
        "display_name": "39a, Raba, Rääma, Pärnu linn, Pärnu, Pärnu linn, Pärnu County, 80041, Estonia",
        "road": "Raba",
        "house_number": "39a",
        "neighbourhood": null,
        "suburb": null,
        "city_district": "Pärnu linn",
        "city": "Pärnu",
        "state": null,
        "postcode": "80041",
        "country": "Estonia",
        "country_code": "ee"
      },
      "address": "39a, Raba, Rääma, Pärnu linn, Pärnu, Pärnu linn, Pärnu County, 80041, Estonia"
    },
    {
      "lat": 58.400268851435506,
      "lon": 24.507683301687216,
      "geoinfo": {
        "display_name": "Kuldne Kodu I, 5, Kuldse Kodu, Rääma, Pärnu linn, Pärnu, Pärnu linn, Pärnu County, 80035, Estonia",
        "road": "Kuldse Kodu",
        "house_number": "5",
        "neighbourhood": null,
        "suburb": null,
        "city_district": "Pärnu linn",
        "city": "Pärnu",
        "state": null,
        "postcode": "80035",
        "country": "Estonia",
        "country_code": "ee"
      },
      "address": "Kuldne Kodu I, 5, Kuldse Kodu, Rääma, Pärnu linn, Pärnu, Pärnu linn, Pärnu County, 80035, Estonia"
    },
    {
      "lat": 58.343869558869876,
      "lon": 24.504931866297724,
      "geoinfo": {
        "display_name": "Pärnu, Pärnu linn, Pärnu County, 80011, Estonia",
        "road": null,
        "house_number": null,
        "neighbourhood": null,
        "suburb": null,
        "city_district": null,
        "city": "Pärnu",
        "state": null,
        "postcode": "80011",
        "country": "Estonia",
        "country_code": "ee"
      },
      "address": "086, Pärnu, Pärnu linn, Pärnu County, 80011, Estonia"
    },
    {
      "lat": 58.35597076852908,
      "lon": 24.533621825281237,
      "geoinfo": {
        "display_name": "Pärnu, Pärnu linn, Pärnu County, 80011, Estonia",
        "road": null,
        "house_number": null,
        "neighbourhood": null,
        "suburb": null,
        "city_district": null,
        "city": "Pärnu",
        "state": null,
        "postcode": "80011",
        "country": "Estonia",
        "country_code": "ee"
      },
      "address": "559, Pärnu, Pärnu linn, Pärnu County, 80011, Estonia"
    },
    {
      "lat": 58.41561887765039,
      "lon": 24.50545939491658,
      "geoinfo": {
        "display_name": "29, Turba, Rääma, Pärnu linn, Pärnu, Pärnu linn, Pärnu County, 80010, Estonia",
        "road": "Turba",
        "house_number": "29",
        "neighbourhood": null,
        "suburb": null,
        "city_district": "Pärnu linn",
        "city": "Pärnu",
        "state": null,
        "postcode": "80010",
        "country": "Estonia",
        "country_code": "ee"
      },
      "address": "29, Turba, Rääma, Pärnu linn, Pärnu, Pärnu linn, Pärnu County, 80010, Estonia"
    },
    {
      "lat": 58.37752405068574,
      "lon": 24.489211613634424,
      "geoinfo": {
        "display_name": "Mere pst, Rannarajoon, Pärnu linn, Pärnu, Pärnu linn, Pärnu County, 80012, Estonia",
        "road": "Mere pst",
        "house_number": null,
        "neighbourhood": null,
        "suburb": null,
        "city_district": "Pärnu linn",
        "city": "Pärnu",
        "state": null,
        "postcode": "80012",
        "country": "Estonia",
        "country_code": "ee"
      },
      "address": "762, Mere pst, Rannarajoon, Pärnu linn, Pärnu, Pärnu linn, Pärnu County, 80012, Estonia"
    },
    {
      "lat": 58.39659653164421,
      "lon": 24.541368322291365,
      "geoinfo": {
        "display_name": "20, Niidu, Rääma, Pärnu linn, Pärnu County, 80047, Estonia",
        "road": "Niidu",
        "house_number": "20",
        "neighbourhood": null,
        "suburb": null,
        "city_district": null,
        "city": "Pärnu linn",
        "state": null,
        "postcode": "80047",
        "country": "Estonia",
        "country_code": "ee"
      },
      "address": "20, Niidu, Rääma, Pärnu linn, Pärnu County, 80047, Estonia"
    },
    {
      "lat": 58.40297941653348,
      "lon": 24.515481445831476,
      "geoinfo": {
        "display_name": "Kuremarja, Rääma, Pärnu linn, Pärnu County, 80041, Estonia",
        "road": "Kuremarja",
        "house_number": null,
        "neighbourhood": null,
        "suburb": null,
        "city_district": null,
        "city": "Pärnu linn",
        "state": null,
        "postcode": "80041",
        "country": "Estonia",
        "country_code": "ee"
      },
      "address": "491, Kuremarja, Rääma, Pärnu linn, Pärnu County, 80041, Estonia"
    },
    {
      "lat": 58.3756922270338,
      "lon": 24.54005952469647,
      "geoinfo": {
        "display_name": "Suur-Jõe, Mai, Pärnu linn, Pärnu County, 80024, Estonia",
        "road": "Suur-Jõe",
        "house_number": null,
        "neighbourhood": null,
        "suburb": null,
        "city_district": null,
        "city": "Pärnu linn",
        "state": null,
        "postcode": "80024",
        "country": "Estonia",
        "country_code": "ee"
      },
      "address": "691, Suur-Jõe, Mai, Pärnu linn, Pärnu County, 80024, Estonia"
    },
    {
      "lat": 58.38521645642219,
      "lon": 24.51473257796775,
      "geoinfo": {
        "display_name": "7, Henno, Eeslinn, Pärnu linn, Pärnu County, 80013, Estonia",
        "road": "Henno",
        "house_number": "7",
        "neighbourhood": null,
        "suburb": null,
        "city_district": null,
        "city": "Pärnu linn",
        "state": null,
        "postcode": "80013",
        "country": "Estonia",
        "country_code": "ee"
      },
      "address": "7, Henno, Eeslinn, Pärnu linn, Pärnu County, 80013, Estonia"
    },
    {
      "lat": 58.37399443206832,
      "lon": 24.57183949263019,
      "geoinfo": {
        "display_name": "11, Tammiste tee, Tammiste, Tammiste küla, Pärnu linn, Pärnu County, 80047, Estonia",
        "road": "Tammiste tee",
        "house_number": "11",
        "neighbourhood": null,
        "suburb": null,
        "city_district": "Tammiste küla",
        "city": "Pärnu linn",
        "state": null,
        "postcode": "80047",
        "country": "Estonia",
        "country_code": "ee"
      },
      "address": "11, Tammiste tee, Tammiste, Tammiste küla, Pärnu linn, Pärnu County, 80047, Estonia"
    }
  ],
  "updated_at": "2025-10-19T04:15:18.914593+00:00",
  "_kind": "geo_samples"
}