{
  "country_code": "EE",
  "country": "Estonia",
  "city": "Tallinn",
  "geonameid": 588409,
  "target_addresses": 13,
  "samples": [
    {
      "lat": 59.4218011833303,
      "lon": 24.802862634785726,
      "geoinfo": {
        "display_name": "Selver, 2, Sepapaja, Ülemiste City, Ülemiste, Lasnamäe linnaosa, Tallinn, Harju County, 11415, Estonia",
        "road": "Sepapaja",
        "house_number": "2",
        "neighbourhood": null,
        "suburb": "Lasnamäe linnaosa",
        "city_district": null,
        "city": "Tallinn",
        "state": null,
        "postcode": "11415",
        "country": "Estonia",
        "country_code": "ee"
      },
      "address": "2 Sepapaja, Tallinn, Estonia"
    },
    {
      "lat": 59.44617975794591,
      "lon": 24.71181205470884,
      "geoinfo": {
        "display_name": "Luste, Pelgulinn, Põhja-Tallinna linnaosa, Tallinn, Harju County, 10317, Estonia",
        "road": "Luste",
        "house_number": null,
        "neighbourhood": null,
        "suburb": "Põhja-Tallinna linnaosa",
        "city_district": null,
        "city": "Tallinn",
        "state": null,
        "postcode": "10317",
        "country": "Estonia",
        "country_code": "ee"
      },
      "address": "Luste, Tallinn, Estonia"
    },
    {
      "lat": 59.420058130044374,
      "lon": 24.67278371176012,
      "geoinfo": {
        "display_name": "34a, Tuuleveski, Mustjõe, Haabersti linnaosa, Tallinn, Harju County, 10618, Estonia",
        "road": "Tuuleveski",
        "house_number": "34a",
        "neighbourhood": null,
        "suburb": "Haabersti linnaosa",
        "city_district": null,
        "city": "Tallinn",
        "state": null,
        "postcode": "10618",
        "country": "Estonia",
        "country_code": "ee"
      },
      "address": "34a Tuuleveski, Tallinn, Estonia"
    },
    {
      "lat": 59.40264151549114,
      "lon": 24.715318412779116,
      "geoinfo": {
        "display_name": "Tondi Resto, 62/1, A. H. Tammsaare tee, Tondi, Kristiine linnaosa, Tallinn, Harju County, 11316, Estonia",
        "road": "A. H. Tammsaare tee",
        "house_number": "62/1",
        "neighbourhood": null,
        "suburb": "Kristiine linnaosa",
        "city_district": null,
        "city": "Tallinn",
        "state": null,
        "postcode": "11316",
        "country": "Estonia",
        "country_code": "ee"
      },
      "address": "62/1 A. H. Tammsaare tee, Tallinn, Estonia"
    },
    {
      "lat": 59.41534963151169,
      "lon": 24.708278242416764,
      "geoinfo": {
        "display_name": "6, Varese põik, Lilleküla, Kristiine linnaosa, Tallinn, Harju County, 13417, Estonia",
        "road": "Varese põik",
        "house_number": "6",
        "neighbourhood": null,
        "suburb": "Kristiine linnaosa",
        "city_district": null,
        "city": "Tallinn",
        "state": null,
        "postcode": "13417",
        "country": "Estonia",
        "country_code": "ee"
      },
      "address": "6 Varese põik, Tallinn, Estonia"
    },
    {
      "lat": 59.41995332242386,
      "lon": 24.692975736763064,
      "geoinfo": {
        "display_name": "2, Forelli, Lilleküla, Kristiine linnaosa, Tallinn, Harju County, 10621, Estonia",
        "road": "Forelli",
        "house_number": "2",
        "neighbourhood": null,
        "suburb": "Kristiine linnaosa",
        "city_district": null,
        "city": "Tallinn",
        "state": null,
        "postcode": "10621",
        "country": "Estonia",
        "country_code": "ee"
      },
      "address": "2 Forelli, Tallinn, Estonia"
    },
    {
      "lat": 59.42472739217947,
      "lon": 24.701949704410968,
      "geoinfo": {
        "display_name": "Sõstra, Lilleküla, Kristiine linnaosa, Tallinn, Harju County, 10616, Estonia",
        "road": "Sõstra",
        "house_number": null,
        "neighbourhood": null,
        "suburb": "Kristiine linnaosa",
        "city_district": null,
        "city": "Tallinn",
        "state": null,
        "postcode": "10616",
        "country": "Estonia",
        "country_code": "ee"
      },
      "address": "Sõstra, Tallinn, Estonia"
    },
    {
      "lat": 59.409865922244585,
      "lon": 24.73473548633683,
      "geoinfo": {
        "display_name": "TS Autoteenindus, 148, Pärnu mnt, Kitseküla, City center, Tallinn, Harju County, 11318, Estonia",
        "road": "Pärnu mnt",
        "house_number": "148",
        "neighbourhood": null,
        "suburb": "City center",
        "city_district": null,
        "city": "Tallinn",
        "state": null,
        "postcode": "11318",
        "country": "Estonia",
        "country_code": "ee"
      },
      "address": "148 Pärnu mnt, Tallinn, Estonia"
    },
    {
      "lat": 59.47337996055271,
      "lon": 24.765858782687978,
      "geoinfo": {
        "display_name": "Harju County, Estonia",
        "road": null,
        "house_number": null,
        "neighbourhood": null,
        "suburb": null,
        "city_district": null,
        "city": null,
        "state": null,
        "postcode": null,
        "country": "Estonia",
        "country_code": "ee"
      },
      "address": "Tallinn, Estonia"
    },
    {
      "lat": 59.40589673841404,
      "lon": 24.69094418439831,
      "geoinfo": {
        "display_name": "A. H. Tammsaare tee, Sääse, Mustamäe linnaosa, Tallinn, Harju County, 12918, Estonia",
        "road": "A. H. Tammsaare tee",
        "house_number": null,
        "neighbourhood": null,
        "suburb": "Mustamäe linnaosa",
        "city_district": null,
        "city": "Tallinn",
        "state": null,
        "postcode": "12918",
        "country": "Estonia",
        "country_code": "ee"
      },
      "address": "A. H. Tammsaare tee, Tallinn, Estonia"
    },
    {
      "lat": 59.41259707409676,
      "lon": 24.71454427664288,
      "geoinfo": {
        "display_name": "54/1, Tüve, Lilleküla, Kristiine linnaosa, Tallinn, Harju County, 13425, Estonia",
        "road": "Tüve",
        "house_number": "54/1",
        "neighbourhood": null,
        "suburb": "Kristiine linnaosa",
        "city_district": null,
        "city": "Tallinn",
        "state": null,
        "postcode": "13425",
        "country": "Estonia",
        "country_code": "ee"
      },
      "address": "54/1 Tüve, Tallinn, Estonia"
    },
    {
      "lat": 59.41969836106298,
      "lon": 24.726875014501054,
      "geoinfo": {
        "display_name": "Tallinna Vindi Lasteaed, 3, Vindi, Lilleküla, Kristiine linnaosa, Tallinn, Harju County, 11315, Estonia",
        "road": "Vindi",
        "house_number": "3",
        "neighbourhood": null,
        "suburb": "Kristiine linnaosa",
        "city_district": null,
        "city": "Tallinn",
        "state": null,
        "postcode": "11315",
        "country": "Estonia",
        "country_code": "ee"
      },
      "address": "3 Vindi, Tallinn, Estonia"
    },
    {
      "lat": 59.4330852266204,
      "lon": 24.83454865137683,
      "geoinfo": {
        "display_name": "38a/1, Punane, Laagna, Lasnamäe linnaosa, Tallinn, Harju County, 13619, Estonia",
        "road": "Punane",
        "house_number": "38a/1",
        "neighbourhood": null,
        "suburb": "Lasnamäe linnaosa",
        "city_district": null,
        "city": "Tallinn",
        "state": null,
        "postcode": "13619",
        "country": "Estonia",
        "country_code": "ee"
      },
      "address": "38a/1 Punane, Tallinn, Estonia"
    },
    {
      "lat": 59.45853520715813,
      "lon": 24.737081448608407,
      "geoinfo": {
        "display_name": "Noblessner Marina, Peetri, Krulli kvartal, Kalamaja, Põhja-Tallinna linnaosa, Tallinn, Harju County, 10413, Estonia",
        "road": "Peetri",
        "house_number": null,
        "neighbourhood": null,
        "suburb": "Põhja-Tallinna linnaosa",
        "city_district": null,
        "city": "Tallinn",
        "state": null,
        "postcode": "10413",
        "country": "Estonia",
        "country_code": "ee"
      },
      "address": "682, Peetri, 10413 Tallinn, Estonia"
    },
    {
      "lat": 59.4406008097951,
      "lon": 24.804326965866746,
      "geoinfo": {
        "display_name": "16, Kuristiku, Kadriorg, City center, Tallinn, Harju County, 10127, Estonia",
        "road": "Kuristiku",
        "house_number": "16",
        "neighbourhood": null,
        "suburb": "City center",
        "city_district": null,
        "city": "Tallinn",
        "state": null,
        "postcode": "10127",
        "country": "Estonia",
        "country_code": "ee"
      },
      "address": "16, Kuristiku, 10127 Tallinn, Estonia"
    },
    {
      "lat": 59.41357201962254,
      "lon": 24.745101065723894,
      "geoinfo": {
        "display_name": "25b, Juurdeveo, Kitseküla, City center, Tallinn, Harju County, 11313, Estonia",
        "road": "Juurdeveo",
        "house_number": "25b",
        "neighbourhood": null,
        "suburb": "City center",
        "city_district": null,
        "city": "Tallinn",
        "state": null,
        "postcode": "11313",
        "country": "Estonia",
        "country_code": "ee"
      },
      "address": "25b, Juurdeveo, 11313 Tallinn, Estonia"
    },
    {
      "lat": 59.40169060017128,
      "lon": 24.743729625912405,
      "geoinfo": {
        "display_name": "Järvevana tee, Luite, City center, Tallinn, Harju County, 11313, Estonia",
        "road": "Järvevana tee",
        "house_number": null,
        "neighbourhood": null,
        "suburb": "City center",
        "city_district": null,
        "city": "Tallinn",
        "state": null,
        "postcode": "11313",
        "country": "Estonia",
        "country_code": "ee"
      },
      "address": "019, Järvevana tee, 11313 Tallinn, Estonia"
    },
    {
      "lat": 59.416567905804094,
      "lon": 24.740537345276508,
      "geoinfo": {
        "display_name": "107, Pärnu mnt, Kitseküla, City center, Tallinn, Harju County, 11312, Estonia",
        "road": "Pärnu mnt",
        "house_number": "107",
        "neighbourhood": null,
        "suburb": "City center",
        "city_district": null,
        "city": "Tallinn",
        "state": null,
        "postcode": "11312",
        "country": "Estonia",
        "country_code": "ee"
      },
      "address": "107, Pärnu mnt, 11312 Tallinn, Estonia"
    },
    {
      "lat": 59.404327096208746,
      "lon": 24.741203179602316,
      "geoinfo": {
        "display_name": "Järvevana tee, Luite, City center, Tallinn, Harju County, 11313, Estonia",
        "road": "Järvevana tee",
        "house_number": null,
        "neighbourhood": null,
        "suburb": "City center",
        "city_district": null,
        "city": "Tallinn",
        "state": null,
        "postcode": "11313",
        "country": "Estonia",
        "country_code": "ee"
      },
      "address": "642, Järvevana tee, 11313 Tallinn, Estonia"
    },
    {
      "lat": 59.405406391351505,
      "lon": 24.753852292368467,
      "geoinfo": {
        "display_name": "Järvevana tee, Luite, City center, Tallinn, Harju County, 11313, Estonia",
        "road": "Järvevana tee",
        "house_number": null,
        "neighbourhood": null,
        "suburb": "City center",
        "city_district": null,
        "city": "Tallinn",
        "state": null,
        "postcode": "11313",
        "country": "Estonia",
        "country_code": "ee"
      },
      "address": "961, Järvevana tee, 11313 Tallinn, Estonia"
    },
    {
      "lat": 59.40930546311267,
      "lon": 24.7452015294439,
      "geoinfo": {
        "display_name": "54, Suitsu, Luite, City center, Tallinn, Harju County, 11313, Estonia",
        "road": "Suitsu",
        "house_number": "54",
        "neighbourhood": null,
        "suburb": "City center",
        "city_district": null,
        "city": "Tallinn",
        "state": null,
        "postcode": "11313",
        "country": "Estonia",
        "country_code": "ee"
      },
      "address": "54, Suitsu, 11313 Tallinn, Estonia"
    },
    {
      "lat": 59.40782153174251,
      "lon": 24.75543491778126,
      "geoinfo": {
        "display_name": "7a, Järvevana tee, Luite, City center, Tallinn, Harju County, 10112, Estonia",
        "road": "Järvevana tee",
        "house_number": "7a",
        "neighbourhood": null,
        "suburb": "City center",
        "city_district": null,
        "city": "Tallinn",
        "state": null,
        "postcode": "10112",
        "country": "Estonia",
        "country_code": "ee"
      },
      "address": "7a, Järvevana tee, 10112 Tallinn, Estonia"
    },
    {
      "lat": 59.39762355710524,
      "lon": 24.7110604963247,
      "geoinfo": {
        "display_name": "4, Elektroni, Järve, Kristiine linnaosa, Tallinn, Harju County, 13415, Estonia",
        "road": "Elektroni",
        "house_number": "4",
        "neighbourhood": null,
        "suburb": "Kristiine linnaosa",
        "city_district": null,
        "city": "Tallinn",
        "state": null,
        "postcode": "13415",
        "country": "Estonia",
        "country_code": "ee"
      },
      "address": "4, Elektroni, Järve, Kristiine linnaosa, Tallinn, Harju County, 13415, Estonia"
    },
    {
      "lat": 59.39819584510804,
      "lon": 24.73660928704945,
      "geoinfo": {
        "display_name": "Järve terviserada, Ülemistejärve, City center, Tallinn, Harju County, 11314, Estonia",
        "road": "Järve terviserada",
        "house_number": null,
        "neighbourhood": null,
        "suburb": "City center",
        "city_district": null,
        "city": "Tallinn",
        "state": null,
        "postcode": "11314",
        "country": "Estonia",
        "country_code": "ee"
      },
      "address": "901, Järve terviserada, 11314 Tallinn, Estonia"
    },
    {
      "lat": 59.41912590527431,
      "lon": 24.79056312467744,
      "geoinfo": {
        "display_name": "Tartu mnt, Ülemistejärve, City center, Tallinn, Harju County, 11411, Estonia",
        "road": "Tartu mnt",
        "house_number": null,
        "neighbourhood": null,
        "suburb": "City center",
        "city_district": null,
        "city": "Tallinn",
        "state": null,
        "postcode": "11411",
        "country": "Estonia",
        "country_code": "ee"
      },
      "address": "756, Tartu mnt, Ülemistejärve, City center, Tallinn, Harju County, 11411, Estonia"
    },
    {
      "lat": 59.4108270156181,
      "lon": 24.8122059357224,
      "geoinfo": {
        "display_name": "Kanali tee, Mõigu, City center, Tallinn, Harju County, 10112, Estonia",
        "road": "Kanali tee",
        "house_number": null,
        "neighbourhood": null,
        "suburb": "City center",
        "city_district": null,
        "city": "Tallinn",
        "state": null,
        "postcode": "10112",
        "country": "Estonia",
        "country_code": "ee"
      },
      "address": "165, Kanali tee, 10112 Tallinn, Estonia"
    }
  ],
  "updated_at": "2025-10-19T03:58:16.907120+00:00",
  "_kind": "geo_samples"
}