{
  "country_code": "PM",
  "country": "Saint Pierre and Miquelon",
  "city": "Saint-Pierre",
  "geonameid": 3424934,
  "target_addresses": 100,
  "samples": [
    {
      "lat": 46.76963851425209,
      "lon": -56.155595114306486,
      "geoinfo": {
        "display_name": "Route de l'Incinérateur, Saint-Pierre, Saint Pierre and Miquelon, 97500, France",
        "road": "Route de l'Incinérateur",
        "house_number": null,
        "neighbourhood": null,
        "suburb": null,
        "city_district": null,
        "city": "Saint-Pierre",
        "state": "Saint Pierre and Miquelon",
        "postcode": "97500",
        "country": "France",
        "country_code": "fr"
      },
      "address": "Route de l'Incinérateur, Saint-Pierre, Saint Pierre and Miquelon, Saint Pierre and Miquelon"
    },
    {
      "lat": 46.764007328010784,
      "lon": -56.133233609854635,
      "geoinfo": {
        "display_name": "Cap Noir, Saint-Pierre, Saint Pierre and Miquelon, 97500, France",
        "road": null,
        "house_number": null,
        "neighbourhood": null,
        "suburb": null,
        "city_district": null,
        "city": "Saint-Pierre",
        "state": "Saint Pierre and Miquelon",
        "postcode": "97500",
        "country": "France",
        "country_code": "fr"
      },
      "address": "Saint-Pierre, Saint Pierre and Miquelon, Saint Pierre and Miquelon"
    },
    {
      "lat": 46.78883632765461,
      "lon": -56.20352049416278,
      "geoinfo": {
        "display_name": "19, Route de l'Anse à Pierre, Saint-Pierre, Saint Pierre and Miquelon, 97500, France",
        "road": "Route de l'Anse à Pierre",
        "house_number": "19",
        "neighbourhood": null,
        "suburb": null,
        "city_district": null,
        "city": "Saint-Pierre",
        "state": "Saint Pierre and Miquelon",
        "postcode": "97500",
        "country": "France",
        "country_code": "fr"
      },
      "address": "19 Route de l'Anse à Pierre, Saint-Pierre, Saint Pierre and Miquelon, Saint Pierre and Miquelon"
    },
    {
      "lat": 46.77574585784698,
      "lon": -56.18730339649288,
      "geoinfo": {
        "display_name": "8, Rue des Charpentiers, Saint-Pierre, Saint Pierre and Miquelon, 97500, France",
        "road": "Rue des Charpentiers",
        "house_number": "8",
        "neighbourhood": null,
        "suburb": null,
        "city_district": null,
        "city": "Saint-Pierre",
        "state": "Saint Pierre and Miquelon",
        "postcode": "97500",
        "country": "France",
        "country_code": "fr"
      },
      "address": "8 Rue des Charpentiers, Saint-Pierre, Saint Pierre and Miquelon, Saint Pierre and Miquelon"
    },
    {
      "lat": 46.79619530721657,
      "lon": -56.16152410315467,
      "geoinfo": {
        "display_name": "Boulevard Thélot, Saint-Pierre, Saint Pierre and Miquelon, 97500, France",
        "road": "Boulevard Thélot",
        "house_number": null,
        "neighbourhood": null,
        "suburb": null,
        "city_district": null,
        "city": "Saint-Pierre",
        "state": "Saint Pierre and Miquelon",
        "postcode": "97500",
        "country": "France",
        "country_code": "fr"
      },
      "address": "Boulevard Thélot, Saint-Pierre, Saint Pierre and Miquelon, Saint Pierre and Miquelon"
    },
    {
      "lat": 46.79550021297992,
      "lon": -56.19225120081799,
      "geoinfo": {
        "display_name": "Sentier de l'Étang du Télégraphe, Saint-Pierre, Saint Pierre and Miquelon, 97500, France",
        "road": "Sentier de l'Étang du Télégraphe",
        "house_number": null,
        "neighbourhood": null,
        "suburb": null,
        "city_district": null,
        "city": "Saint-Pierre",
        "state": "Saint Pierre and Miquelon",
        "postcode": "97500",
        "country": "France",
        "country_code": "fr"
      },
      "address": "Sentier de l'Étang du Télégraphe, Saint-Pierre, Saint Pierre and Miquelon, Saint Pierre and Miquelon"
    },
    {
      "lat": 46.74947010526485,
      "lon": -56.220900300934524,
      "geoinfo": {
        "display_name": "Route du Diamant, Saint-Pierre, Saint Pierre and Miquelon, 97500, France",
        "road": "Route du Diamant",
        "house_number": null,
        "neighbourhood": null,
        "suburb": null,
        "city_district": null,
        "city": "Saint-Pierre",
        "state": "Saint Pierre and Miquelon",
        "postcode": "97500",
        "country": "France",
        "country_code": "fr"
      },
      "address": "Route du Diamant, Saint-Pierre, Saint Pierre and Miquelon, Saint Pierre and Miquelon"
    },
    {
      "lat": 46.79754380685251,
      "lon": -56.15593514588296,
      "geoinfo": {
        "display_name": "Route de Frecker, Saint-Pierre, Saint Pierre and Miquelon, 97500, France",
        "road": "Route de Frecker",
        "house_number": null,
        "neighbourhood": null,
        "suburb": null,
        "city_district": null,
        "city": "Saint-Pierre",
        "state": "Saint Pierre and Miquelon",
        "postcode": "97500",
        "country": "France",
        "country_code": "fr"
      },
      "address": "Route de Frecker, Saint-Pierre, Saint Pierre and Miquelon, Saint Pierre and Miquelon"
    },
    {
      "lat": 46.7615011740047,
      "lon": -56.18552332845917,
      "geoinfo": {
        "display_name": "Route de Ravenel, Saint-Pierre, Saint Pierre and Miquelon, 97500, France",
        "road": "Route de Ravenel",
        "house_number": null,
        "neighbourhood": null,
        "suburb": null,
        "city_district": null,
        "city": "Saint-Pierre",
        "state": "Saint Pierre and Miquelon",
        "postcode": "97500",
        "country": "France",
        "country_code": "fr"
      },
      "address": "Route de Ravenel, Saint-Pierre, Saint Pierre and Miquelon, Saint Pierre and Miquelon"
    },
    {
      "lat": 46.768715711205104,
      "lon": -56.15824448884878,
      "geoinfo": {
        "display_name": "94, Route de Galantry, Saint-Pierre, Saint Pierre and Miquelon, 97500, France",
        "road": "Route de Galantry",
        "house_number": "94",
        "neighbourhood": null,
        "suburb": null,
        "city_district": null,
        "city": "Saint-Pierre",
        "state": "Saint Pierre and Miquelon",
        "postcode": "97500",
        "country": "France",
        "country_code": "fr"
      },
      "address": "94 Route de Galantry, Saint-Pierre, Saint Pierre and Miquelon, Saint Pierre and Miquelon"
    },
    {
      "lat": 46.7978064422947,
      "lon": -56.205549429319866,
      "geoinfo": {
        "display_name": "Route de l'Anse à Pierre, Saint-Pierre, Saint Pierre and Miquelon, 97500, France",
        "road": "Route de l'Anse à Pierre",
        "house_number": null,
        "neighbourhood": null,
        "suburb": null,
        "city_district": null,
        "city": "Saint-Pierre",
        "state": "Saint Pierre and Miquelon",
        "postcode": "97500",
        "country": "France",
        "country_code": "fr"
      },
      "address": "Route de l'Anse à Pierre, Saint-Pierre, Saint Pierre and Miquelon, Saint Pierre and Miquelon"
    },
    {
      "lat": 46.75789792238303,
      "lon": -56.22901713230513,
      "geoinfo": {
        "display_name": "Route de la Plage, Saint-Pierre, Saint Pierre and Miquelon, 97500, France",
        "road": "Route de la Plage",
        "house_number": null,
        "neighbourhood": null,
        "suburb": null,
        "city_district": null,
        "city": "Saint-Pierre",
        "state": "Saint Pierre and Miquelon",
        "postcode": "97500",
        "country": "France",
        "country_code": "fr"
      },
      "address": "Route de la Plage, Saint-Pierre, Saint Pierre and Miquelon, Saint Pierre and Miquelon"
    },
    {
      "lat": 46.79550207961774,
      "lon": -56.167748694003336,
      "geoinfo": {
        "display_name": "Route de l'étang Thélot, Saint-Pierre, Saint Pierre and Miquelon, 97500, France",
        "road": "Route de l'étang Thélot",
        "house_number": null,
        "neighbourhood": null,
        "suburb": null,
        "city_district": null,
        "city": "Saint-Pierre",
        "state": "Saint Pierre and Miquelon",
        "postcode": "97500",
        "country": "France",
        "country_code": "fr"
      },
      "address": "Route de l'étang Thélot, Saint-Pierre, Saint Pierre and Miquelon, Saint Pierre and Miquelon"
    },
    {
      "lat": 46.77947007203863,
      "lon": -56.168615853132785,
      "geoinfo": {
        "display_name": "Quai de l'Épi, Quai de l'épi, Saint-Pierre, Saint Pierre and Miquelon, 97500, France",
        "road": "Quai de l'Épi",
        "house_number": null,
        "neighbourhood": null,
        "suburb": null,
        "city_district": null,
        "city": "Saint-Pierre",
        "state": "Saint Pierre and Miquelon",
        "postcode": "97500",
        "country": "France",
        "country_code": "fr"
      },
      "address": "Quai de l'Épi, Saint-Pierre, Saint Pierre and Miquelon, Saint Pierre and Miquelon"
    },
    {
      "lat": 46.762624647796144,
      "lon": -56.18949257587467,
      "geoinfo": {
        "display_name": "51, Route de Ravenel, Saint-Pierre, Saint Pierre and Miquelon, 97500, France",
        "road": "Route de Ravenel",
        "house_number": "51",
        "neighbourhood": null,
        "suburb": null,
        "city_district": null,
        "city": "Saint-Pierre",
        "state": "Saint Pierre and Miquelon",
        "postcode": "97500",
        "country": "France",
        "country_code": "fr"
      },
      "address": "51 Route de Ravenel, Saint-Pierre, Saint Pierre and Miquelon, Saint Pierre and Miquelon"
    },
    {
      "lat": 46.783104567992815,
      "lon": -56.1716290197318,
      "geoinfo": {
        "display_name": "1, Rue Maréchal de Lattre de Tassigny, Saint-Pierre, Saint Pierre and Miquelon, 97500, France",
        "road": "Rue Maréchal de Lattre de Tassigny",
        "house_number": "1",
        "neighbourhood": null,
        "suburb": null,
        "city_district": null,
        "city": "Saint-Pierre",
        "state": "Saint Pierre and Miquelon",
        "postcode": "97500",
        "country": "France",
        "country_code": "fr"
      },
      "address": "1 Rue Maréchal de Lattre de Tassigny, Saint-Pierre, Saint Pierre and Miquelon, Saint Pierre and Miquelon"
    },
    {
      "lat": 46.76418145491664,
      "lon": -56.157635597694586,
      "geoinfo": {
        "display_name": "Route de Galantry, Saint-Pierre, Saint Pierre and Miquelon, 97500, France",
        "road": "Route de Galantry",
        "house_number": null,
        "neighbourhood": null,
        "suburb": null,
        "city_district": null,
        "city": "Saint-Pierre",
        "state": "Saint Pierre and Miquelon",
        "postcode": "97500",
        "country": "France",
        "country_code": "fr"
      },
      "address": "Route de Galantry, Saint-Pierre, Saint Pierre and Miquelon, Saint Pierre and Miquelon"
    },
    {
      "lat": 46.764083830800395,
      "lon": -56.20362544150335,
      "geoinfo": {
        "display_name": "92, Route du Cap aux Basques, Saint-Pierre, Saint Pierre and Miquelon, 97500, France",
        "road": "Route du Cap aux Basques",
        "house_number": "92",
        "neighbourhood": null,
        "suburb": null,
        "city_district": null,
        "city": "Saint-Pierre",
        "state": "Saint Pierre and Miquelon",
        "postcode": "97500",
        "country": "France",
        "country_code": "fr"
      },
      "address": "92 Route du Cap aux Basques, Saint-Pierre, Saint Pierre and Miquelon, Saint Pierre and Miquelon"
    },
    {
      "lat": 46.77962411588846,
      "lon": -56.15969947060619,
      "geoinfo": {
        "display_name": "Digue de l'Île aux Moules, Saint-Pierre, Saint Pierre and Miquelon, 97500, France",
        "road": "Digue de l'Île aux Moules",
        "house_number": null,
        "neighbourhood": null,
        "suburb": null,
        "city_district": null,
        "city": "Saint-Pierre",
        "state": "Saint Pierre and Miquelon",
        "postcode": "97500",
        "country": "France",
        "country_code": "fr"
      },
      "address": "Digue de l'Île aux Moules, Saint-Pierre, Saint Pierre and Miquelon, Saint Pierre and Miquelon"
    },
    {
      "lat": 46.77268711569922,
      "lon": -56.15382977095764,
      "geoinfo": {
        "display_name": "1, Route de Galantry, Saint-Pierre, Saint Pierre and Miquelon, 97500, France",
        "road": "Route de Galantry",
        "house_number": "1",
        "neighbourhood": null,
        "suburb": null,
        "city_district": null,
        "city": "Saint-Pierre",
        "state": "Saint Pierre and Miquelon",
        "postcode": "97500",
        "country": "France",
        "country_code": "fr"
      },
      "address": "1 Route de Galantry, Saint-Pierre, Saint Pierre and Miquelon, Saint Pierre and Miquelon"
    },
    {
      "lat": 46.76055199294942,
      "lon": -56.20259689534096,
      "geoinfo": {
        "display_name": "Route du Cap aux Basques, Saint-Pierre, Saint Pierre and Miquelon, 97500, France",
        "road": "Route du Cap aux Basques",
        "house_number": null,
        "neighbourhood": null,
        "suburb": null,
        "city_district": null,
        "city": "Saint-Pierre",
        "state": "Saint Pierre and Miquelon",
        "postcode": "97500",
        "country": "France",
        "country_code": "fr"
      },
      "address": "Route du Cap aux Basques, Saint-Pierre, Saint Pierre and Miquelon, Saint Pierre and Miquelon"
    },
    {
      "lat": 46.756785272450294,
      "lon": -56.194153355782234,
      "geoinfo": {
        "display_name": "20, Route de Ravenel, Saint-Pierre, Saint Pierre and Miquelon, 97500, France",
        "road": "Route de Ravenel",
        "house_number": "20",
        "neighbourhood": null,
        "suburb": null,
        "city_district": null,
        "city": "Saint-Pierre",
        "state": "Saint Pierre and Miquelon",
        "postcode": "97500",
        "country": "France",
        "country_code": "fr"
      },
      "address": "20 Route de Ravenel, Saint-Pierre, Saint Pierre and Miquelon, Saint Pierre and Miquelon"
    },
    {
      "lat": 46.7714308746523,
      "lon": -56.23318402620203,
      "geoinfo": {
        "display_name": "22, Route Anse à Brossard, Saint-Pierre, Saint Pierre and Miquelon, 97500, France",
        "road": "Route Anse à Brossard",
        "house_number": "22",
        "neighbourhood": null,
        "suburb": null,
        "city_district": null,
        "city": "Saint-Pierre",
        "state": "Saint Pierre and Miquelon",
        "postcode": "97500",
        "country": "France",
        "country_code": "fr"
      },
      "address": "22 Route Anse à Brossard, Saint-Pierre, Saint Pierre and Miquelon, Saint Pierre and Miquelon"
    },
    {
      "lat": 46.765538231326644,
      "lon": -56.20908307785007,
      "geoinfo": {
        "display_name": "9, Route de la Bellone, Saint-Pierre, Saint Pierre and Miquelon, 97500, France",
        "road": "Route de la Bellone",
        "house_number": "9",
        "neighbourhood": null,
        "suburb": null,
        "city_district": null,
        "city": "Saint-Pierre",
        "state": "Saint Pierre and Miquelon",
        "postcode": "97500",
        "country": "France",
        "country_code": "fr"
      },
      "address": "9 Route de la Bellone, Saint-Pierre, Saint Pierre and Miquelon, Saint Pierre and Miquelon"
    },
    {
      "lat": 46.795796383761015,
      "lon": -56.17814304020621,
      "geoinfo": {
        "display_name": "Sentier de l'Étang du Trépied, Saint-Pierre, Saint Pierre and Miquelon, 97500, France",
        "road": "Sentier de l'Étang du Trépied",
        "house_number": null,
        "neighbourhood": null,
        "suburb": null,
        "city_district": null,
        "city": "Saint-Pierre",
        "state": "Saint Pierre and Miquelon",
        "postcode": "97500",
        "country": "France",
        "country_code": "fr"
      },
      "address": "Sentier de l'Étang du Trépied, Saint-Pierre, Saint Pierre and Miquelon, Saint Pierre and Miquelon"
    },
    {
      "lat": 46.77085560933519,
      "lon": -56.20482043935157,
      "geoinfo": {
        "display_name": "58, Route de la Cléopâtre, Saint-Pierre, Saint Pierre and Miquelon, 97500, France",
        "road": "Route de la Cléopâtre",
        "house_number": "58",
        "neighbourhood": null,
        "suburb": null,
        "city_district": null,
        "city": "Saint-Pierre",
        "state": "Saint Pierre and Miquelon",
        "postcode": "97500",
        "country": "France",
        "country_code": "fr"
      },
      "address": "58 Route de la Cléopâtre, Saint-Pierre, Saint Pierre and Miquelon, Saint Pierre and Miquelon"
    },
    {
      "lat": 46.78866891083061,
      "lon": -56.208584817044084,
      "geoinfo": {
        "display_name": "31, Route de l'Anse à Pierre, Saint-Pierre, Saint Pierre and Miquelon, 97500, France",
        "road": "Route de l'Anse à Pierre",
        "house_number": "31",
        "neighbourhood": null,
        "suburb": null,
        "city_district": null,
        "city": "Saint-Pierre",
        "state": "Saint Pierre and Miquelon",
        "postcode": "97500",
        "country": "France",
        "country_code": "fr"
      },
      "address": "31 Route de l'Anse à Pierre, Saint-Pierre, Saint Pierre and Miquelon, Saint Pierre and Miquelon"
    },
    {
      "lat": 46.78760707039989,
      "lon": -56.193932059304686,
      "geoinfo": {
        "display_name": "Route des Télécoms, Saint-Pierre, Saint Pierre and Miquelon, 97500, France",
        "road": "Route des Télécoms",
        "house_number": null,
        "neighbourhood": null,
        "suburb": null,
        "city_district": null,
        "city": "Saint-Pierre",
        "state": "Saint Pierre and Miquelon",
        "postcode": "97500",
        "country": "France",
        "country_code": "fr"
      },
      "address": "Route des Télécoms, Saint-Pierre, Saint Pierre and Miquelon, Saint Pierre and Miquelon"
    },
    {
      "lat": 46.76833715012509,
      "lon": -56.18229830421077,
      "geoinfo": {
        "display_name": "SAUS004, Rue Paul Audouze, Saint-Pierre, Saint Pierre and Miquelon, 97500, France",
        "road": "Rue Paul Audouze",
        "house_number": null,
        "neighbourhood": null,
        "suburb": null,
        "city_district": null,
        "city": "Saint-Pierre",
        "state": "Saint Pierre and Miquelon",
        "postcode": "97500",
        "country": "France",
        "country_code": "fr"
      },
      "address": "Rue Paul Audouze, Saint-Pierre, Saint Pierre and Miquelon, Saint Pierre and Miquelon"
    },
    {
      "lat": 46.76597493619972,
      "lon": -56.198868075822055,
      "geoinfo": {
        "display_name": "50, Route du Cap aux Basques, Saint-Pierre, Saint Pierre and Miquelon, 97500, France",
        "road": "Route du Cap aux Basques",
        "house_number": "50",
        "neighbourhood": null,
        "suburb": null,
        "city_district": null,
        "city": "Saint-Pierre",
        "state": "Saint Pierre and Miquelon",
        "postcode": "97500",
        "country": "France",
        "country_code": "fr"
      },
      "address": "50 Route du Cap aux Basques, Saint-Pierre, Saint Pierre and Miquelon, Saint Pierre and Miquelon"
    },
    {
      "lat": 46.76480315818459,
      "lon": -56.238524685834264,
      "geoinfo": {
        "display_name": "45, Route du Gabion, Saint-Pierre, Saint Pierre and Miquelon, 97500, France",
        "road": "Route du Gabion",
        "house_number": "45",
        "neighbourhood": null,
        "suburb": null,
        "city_district": null,
        "city": "Saint-Pierre",
        "state": "Saint Pierre and Miquelon",
        "postcode": "97500",
        "country": "France",
        "country_code": "fr"
      },
      "address": "45 Route du Gabion, Saint-Pierre, Saint Pierre and Miquelon, Saint Pierre and Miquelon"
    },
    {
      "lat": 46.775592577278736,
      "lon": -56.203272931689185,
      "geoinfo": {
        "display_name": "40, Route de la Cléopâtre, Saint-Pierre, Saint Pierre and Miquelon, 97500, France",
        "road": "Route de la Cléopâtre",
        "house_number": "40",
        "neighbourhood": null,
        "suburb": null,
        "city_district": null,
        "city": "Saint-Pierre",
        "state": "Saint Pierre and Miquelon",
        "postcode": "97500",
        "country": "France",
        "country_code": "fr"
      },
      "address": "40 Route de la Cléopâtre, Saint-Pierre, Saint Pierre and Miquelon, Saint Pierre and Miquelon"
    },
    {
      "lat": 46.778279635906664,
      "lon": -56.17035868550477,
      "geoinfo": {
        "display_name": "EILG014, Boulevard Constant Colmay, Saint-Pierre, Saint Pierre and Miquelon, 97500, France",
        "road": "Boulevard Constant Colmay",
        "house_number": null,
        "neighbourhood": null,
        "suburb": null,
        "city_district": null,
        "city": "Saint-Pierre",
        "state": "Saint Pierre and Miquelon",
        "postcode": "97500",
        "country": "France",
        "country_code": "fr"
      },
      "address": "Boulevard Constant Colmay, Saint-Pierre, Saint Pierre and Miquelon, Saint Pierre and Miquelon"
    },
    {
      "lat": 46.7621480454466,
      "lon": -56.18510780669976,
      "geoinfo": {
        "display_name": "Route de la Pointe Blanche, Saint-Pierre, Saint Pierre and Miquelon, 97500, France",
        "road": "Route de la Pointe Blanche",
        "house_number": null,
        "neighbourhood": null,
        "suburb": null,
        "city_district": null,
        "city": "Saint-Pierre",
        "state": "Saint Pierre and Miquelon",
        "postcode": "97500",
        "country": "France",
        "country_code": "fr"
      },
      "address": "Route de la Pointe Blanche, Saint-Pierre, Saint Pierre and Miquelon, Saint Pierre and Miquelon"
    },
    {
      "lat": 46.76531720006251,
      "lon": -56.221935762842776,
      "geoinfo": {
        "display_name": "Route de la Cléopâtre, Saint-Pierre, Saint Pierre and Miquelon, 97500, France",
        "road": "Route de la Cléopâtre",
        "house_number": null,
        "neighbourhood": null,
        "suburb": null,
        "city_district": null,
        "city": "Saint-Pierre",
        "state": "Saint Pierre and Miquelon",
        "postcode": "97500",
        "country": "France",
        "country_code": "fr"
      },
      "address": "Route de la Cléopâtre, Saint-Pierre, Saint Pierre and Miquelon, Saint Pierre and Miquelon"
    },
    {
      "lat": 46.76321529815445,
      "lon": -56.238241952874084,
      "geoinfo": {
        "display_name": "Route du Gabion, Saint-Pierre, Saint Pierre and Miquelon, 97500, France",
        "road": "Route du Gabion",
        "house_number": null,
        "neighbourhood": null,
        "suburb": null,
        "city_district": null,
        "city": "Saint-Pierre",
        "state": "Saint Pierre and Miquelon",
        "postcode": "97500",
        "country": "France",
        "country_code": "fr"
      },
      "address": "Route du Gabion, Saint-Pierre, Saint Pierre and Miquelon, Saint Pierre and Miquelon"
    },
    {
      "lat": 46.77484330158527,
      "lon": -56.18461167926212,
      "geoinfo": {
        "display_name": "Avenue du Commandant Roger Birot, Saint-Pierre, Saint Pierre and Miquelon, 97500, France",
        "road": "Avenue du Commandant Roger Birot",
        "house_number": null,
        "neighbourhood": null,
        "suburb": null,
        "city_district": null,
        "city": "Saint-Pierre",
        "state": "Saint Pierre and Miquelon",
        "postcode": "97500",
        "country": "France",
        "country_code": "fr"
      },
      "address": "Avenue du Commandant Roger Birot, Saint-Pierre, Saint Pierre and Miquelon, Saint Pierre and Miquelon"
    },
    {
      "lat": 46.764684600891606,
      "lon": -56.191076339339375,
      "geoinfo": {
        "display_name": "27, Route de Ravenel, Saint-Pierre, Saint Pierre and Miquelon, 97500, France",
        "road": "Route de Ravenel",
        "house_number": "27",
        "neighbourhood": null,
        "suburb": null,
        "city_district": null,
        "city": "Saint-Pierre",
        "state": "Saint Pierre and Miquelon",
        "postcode": "97500",
        "country": "France",
        "country_code": "fr"
      },
      "address": "27 Route de Ravenel, Saint-Pierre, Saint Pierre and Miquelon, Saint Pierre and Miquelon"
    },
    {
      "lat": 46.76234551756534,
      "lon": -56.23684359997333,
      "geoinfo": {
        "display_name": "35, Route du Gabion, Saint-Pierre, Saint Pierre and Miquelon, 97500, France",
        "road": "Route du Gabion",
        "house_number": "35",
        "neighbourhood": null,
        "suburb": null,
        "city_district": null,
        "city": "Saint-Pierre",
        "state": "Saint Pierre and Miquelon",
        "postcode": "97500",
        "country": "France",
        "country_code": "fr"
      },
      "address": "35 Route du Gabion, Saint-Pierre, Saint Pierre and Miquelon, Saint Pierre and Miquelon"
    },
    {
      "lat": 46.75862741113601,
      "lon": -56.188225764608305,
      "geoinfo": {
        "display_name": "26, Route de Ravenel, Saint-Pierre, Saint Pierre and Miquelon, 97500, France",
        "road": "Route de Ravenel",
        "house_number": "26",
        "neighbourhood": null,
        "suburb": null,
        "city_district": null,
        "city": "Saint-Pierre",
        "state": "Saint Pierre and Miquelon",
        "postcode": "97500",
        "country": "France",
        "country_code": "fr"
      },
      "address": "26 Route de Ravenel, Saint-Pierre, Saint Pierre and Miquelon, Saint Pierre and Miquelon"
    },
    {
      "lat": 46.775486259931334,
      "lon": -56.164061966778675,
      "geoinfo": {
        "display_name": "Boulevard Port-en-Bessin, Saint-Pierre, Saint Pierre and Miquelon, 97500, France",
        "road": "Boulevard Port-en-Bessin",
        "house_number": null,
        "neighbourhood": null,
        "suburb": null,
        "city_district": null,
        "city": "Saint-Pierre",
        "state": "Saint Pierre and Miquelon",
        "postcode": "97500",
        "country": "France",
        "country_code": "fr"
      },
      "address": "Boulevard Port-en-Bessin, Saint-Pierre, Saint Pierre and Miquelon, Saint Pierre and Miquelon"
    },
    {
      "lat": 46.77042243942236,
      "lon": -56.22409300388646,
      "geoinfo": {
        "display_name": "182, Route de la Cléopâtre, Saint-Pierre, Saint Pierre and Miquelon, 97500, France",
        "road": "Route de la Cléopâtre",
        "house_number": "182",
        "neighbourhood": null,
        "suburb": null,
        "city_district": null,
        "city": "Saint-Pierre",
        "state": "Saint Pierre and Miquelon",
        "postcode": "97500",
        "country": "France",
        "country_code": "fr"
      },
      "address": "182 Route de la Cléopâtre, Saint-Pierre, Saint Pierre and Miquelon, Saint Pierre and Miquelon"
    },
    {
      "lat": 46.771924193544095,
      "lon": -56.19009643603384,
      "geoinfo": {
        "display_name": "Route de l'Étang du Milieu, Saint-Pierre, Saint Pierre and Miquelon, 97500, France",
        "road": "Route de l'Étang du Milieu",
        "house_number": null,
        "neighbourhood": null,
        "suburb": null,
        "city_district": null,
        "city": "Saint-Pierre",
        "state": "Saint Pierre and Miquelon",
        "postcode": "97500",
        "country": "France",
        "country_code": "fr"
      },
      "address": "Route de l'Étang du Milieu, Saint-Pierre, Saint Pierre and Miquelon, Saint Pierre and Miquelon"
    },
    {
      "lat": 46.775445202768914,
      "lon": -56.181191442654004,
      "geoinfo": {
        "display_name": "Boulevard Louis Héron de Villefosse, Saint-Pierre, Saint Pierre and Miquelon, 97500, France",
        "road": "Boulevard Louis Héron de Villefosse",
        "house_number": null,
        "neighbourhood": null,
        "suburb": null,
        "city_district": null,
        "city": "Saint-Pierre",
        "state": "Saint Pierre and Miquelon",
        "postcode": "97500",
        "country": "France",
        "country_code": "fr"
      },
      "address": "Boulevard Louis Héron de Villefosse, Saint-Pierre, Saint Pierre and Miquelon, Saint Pierre and Miquelon"
    },
    {
      "lat": 46.77445415169709,
      "lon": -56.186036037443536,
      "geoinfo": {
        "display_name": "3, Rue des Menuisiers, Saint-Pierre, Saint Pierre and Miquelon, 97500, France",
        "road": "Rue des Menuisiers",
        "house_number": "3",
        "neighbourhood": null,
        "suburb": null,
        "city_district": null,
        "city": "Saint-Pierre",
        "state": "Saint Pierre and Miquelon",
        "postcode": "97500",
        "country": "France",
        "country_code": "fr"
      },
      "address": "3 Rue des Menuisiers, Saint-Pierre, Saint Pierre and Miquelon, Saint Pierre and Miquelon"
    },
    {
      "lat": 46.775250490214106,
      "lon": -56.197881765397945,
      "geoinfo": {
        "display_name": "18, Route de la Cléopâtre, Saint-Pierre, Saint Pierre and Miquelon, 97500, France",
        "road": "Route de la Cléopâtre",
        "house_number": "18",
        "neighbourhood": null,
        "suburb": null,
        "city_district": null,
        "city": "Saint-Pierre",
        "state": "Saint Pierre and Miquelon",
        "postcode": "97500",
        "country": "France",
        "country_code": "fr"
      },
      "address": "18 Route de la Cléopâtre, Saint-Pierre, Saint Pierre and Miquelon, Saint Pierre and Miquelon"
    },
    {
      "lat": 46.78333343824882,
      "lon": -56.171069295337624,
      "geoinfo": {
        "display_name": "30, Rue Abbé Pierre Gervain, Saint-Pierre, Saint Pierre and Miquelon, 97500, France",
        "road": "Rue Abbé Pierre Gervain",
        "house_number": "30",
        "neighbourhood": null,
        "suburb": null,
        "city_district": null,
        "city": "Saint-Pierre",
        "state": "Saint Pierre and Miquelon",
        "postcode": "97500",
        "country": "France",
        "country_code": "fr"
      },
      "address": "30 Rue Abbé Pierre Gervain, Saint-Pierre, Saint Pierre and Miquelon, Saint Pierre and Miquelon"
    },
    {
      "lat": 46.786195179139156,
      "lon": -56.17508498569351,
      "geoinfo": {
        "display_name": "16, Impasse des Quatre Temps, Saint-Pierre, Saint Pierre and Miquelon, 97500, France",
        "road": "Impasse des Quatre Temps",
        "house_number": "16",
        "neighbourhood": null,
        "suburb": null,
        "city_district": null,
        "city": "Saint-Pierre",
        "state": "Saint Pierre and Miquelon",
        "postcode": "97500",
        "country": "France",
        "country_code": "fr"
      },
      "address": "16 Impasse des Quatre Temps, Saint-Pierre, Saint Pierre and Miquelon, Saint Pierre and Miquelon"
    },
    {
      "lat": 46.77290731023866,
      "lon": -56.21376200719453,
      "geoinfo": {
        "display_name": "102, Route de la Cléopâtre, Saint-Pierre, Saint Pierre and Miquelon, 97500, France",
        "road": "Route de la Cléopâtre",
        "house_number": "102",
        "neighbourhood": null,
        "suburb": null,
        "city_district": null,
        "city": "Saint-Pierre",
        "state": "Saint Pierre and Miquelon",
        "postcode": "97500",
        "country": "France",
        "country_code": "fr"
      },
      "address": "102 Route de la Cléopâtre, Saint-Pierre, Saint Pierre and Miquelon, Saint Pierre and Miquelon"
    },
    {
      "lat": 46.770476881854144,
      "lon": -56.16704947316603,
      "geoinfo": {
        "display_name": "Rue du Cap Noir, Saint-Pierre, Saint Pierre and Miquelon, 97500, France",
        "road": "Rue du Cap Noir",
        "house_number": null,
        "neighbourhood": null,
        "suburb": null,
        "city_district": null,
        "city": "Saint-Pierre",
        "state": "Saint Pierre and Miquelon",
        "postcode": "97500",
        "country": "France",
        "country_code": "fr"
      },
      "address": "Rue du Cap Noir, Saint-Pierre, Saint Pierre and Miquelon, Saint Pierre and Miquelon"
    },
    {
      "lat": 46.7795393797359,
      "lon": -56.18676744776914,
      "geoinfo": {
        "display_name": "Boulevard Jean Levasseur, Saint-Pierre, Saint Pierre and Miquelon, 97500, France",
        "road": "Boulevard Jean Levasseur",
        "house_number": null,
        "neighbourhood": null,
        "suburb": null,
        "city_district": null,
        "city": "Saint-Pierre",
        "state": "Saint Pierre and Miquelon",
        "postcode": "97500",
        "country": "France",
        "country_code": "fr"
      },
      "address": "Boulevard Jean Levasseur, Saint-Pierre, Saint Pierre and Miquelon, Saint Pierre and Miquelon"
    },
    {
      "lat": 46.77413817996331,
      "lon": -56.17702584415145,
      "geoinfo": {
        "display_name": "Carrefour François René de Chateaubriand, Saint-Pierre, Saint Pierre and Miquelon, 97500, France",
        "road": "Carrefour François René de Chateaubriand",
        "house_number": null,
        "neighbourhood": null,
        "suburb": null,
        "city_district": null,
        "city": "Saint-Pierre",
        "state": "Saint Pierre and Miquelon",
        "postcode": "97500",
        "country": "France",
        "country_code": "fr"
      },
      "address": "Carrefour François René de Chateaubriand, Saint-Pierre, Saint Pierre and Miquelon, Saint Pierre and Miquelon"
    },
    {
      "lat": 46.771578840694346,
      "lon": -56.17489117427108,
      "geoinfo": {
        "display_name": "6, Impasse des Fécampois, Saint-Pierre, Saint Pierre and Miquelon, 97500, France",
        "road": "Impasse des Fécampois",
        "house_number": "6",
        "neighbourhood": null,
        "suburb": null,
        "city_district": null,
        "city": "Saint-Pierre",
        "state": "Saint Pierre and Miquelon",
        "postcode": "97500",
        "country": "France",
        "country_code": "fr"
      },
      "address": "6 Impasse des Fécampois, Saint-Pierre, Saint Pierre and Miquelon, Saint Pierre and Miquelon"
    },
    {
      "lat": 46.76661361859454,
      "lon": -56.197867550973584,
      "geoinfo": {
        "display_name": "44, Route du Cap aux Basques, Saint-Pierre, Saint Pierre and Miquelon, 97500, France",
        "road": "Route du Cap aux Basques",
        "house_number": "44",
        "neighbourhood": null,
        "suburb": null,
        "city_district": null,
        "city": "Saint-Pierre",
        "state": "Saint Pierre and Miquelon",
        "postcode": "97500",
        "country": "France",
        "country_code": "fr"
      },
      "address": "44 Route du Cap aux Basques, Saint-Pierre, Saint Pierre and Miquelon, Saint Pierre and Miquelon"
    },
    {
      "lat": 46.77263616563837,
      "lon": -56.18984228412046,
      "geoinfo": {
        "display_name": "Rue des Métiers, Saint-Pierre, Saint Pierre and Miquelon, 97500, France",
        "road": "Rue des Métiers",
        "house_number": null,
        "neighbourhood": null,
        "suburb": null,
        "city_district": null,
        "city": "Saint-Pierre",
        "state": "Saint Pierre and Miquelon",
        "postcode": "97500",
        "country": "France",
        "country_code": "fr"
      },
      "address": "Rue des Métiers, Saint-Pierre, Saint Pierre and Miquelon, Saint Pierre and Miquelon"
    },
    {
      "lat": 46.767651042940905,
      "lon": -56.20690771082133,
      "geoinfo": {
        "display_name": "121, Route de la Cléopâtre, Saint-Pierre, Saint Pierre and Miquelon, 97500, France",
        "road": "Route de la Cléopâtre",
        "house_number": "121",
        "neighbourhood": null,
        "suburb": null,
        "city_district": null,
        "city": "Saint-Pierre",
        "state": "Saint Pierre and Miquelon",
        "postcode": "97500",
        "country": "France",
        "country_code": "fr"
      },
      "address": "121 Route de la Cléopâtre, Saint-Pierre, Saint Pierre and Miquelon, Saint Pierre and Miquelon"
    },
    {
      "lat": 46.772724191026185,
      "lon": -56.21059987372998,
      "geoinfo": {
        "display_name": "82, Route de la Cléopâtre, Saint-Pierre, Saint Pierre and Miquelon, 97500, France",
        "road": "Route de la Cléopâtre",
        "house_number": "82",
        "neighbourhood": null,
        "suburb": null,
        "city_district": null,
        "city": "Saint-Pierre",
        "state": "Saint Pierre and Miquelon",
        "postcode": "97500",
        "country": "France",
        "country_code": "fr"
      },
      "address": "82 Route de la Cléopâtre, Saint-Pierre, Saint Pierre and Miquelon, Saint Pierre and Miquelon"
    },
    {
      "lat": 46.78098046452383,
      "lon": -56.16971079661383,
      "geoinfo": {
        "display_name": "7, Boulevard Constant Colmay, Saint-Pierre, Saint Pierre and Miquelon, 97500, France",
        "road": "Boulevard Constant Colmay",
        "house_number": "7",
        "neighbourhood": null,
        "suburb": null,
        "city_district": null,
        "city": "Saint-Pierre",
        "state": "Saint Pierre and Miquelon",
        "postcode": "97500",
        "country": "France",
        "country_code": "fr"
      },
      "address": "7 Boulevard Constant Colmay, Saint-Pierre, Saint Pierre and Miquelon, Saint Pierre and Miquelon"
    },
    {
      "lat": 46.778626242881046,
      "lon": -56.19491641349516,
      "geoinfo": {
        "display_name": "Route Iphigénie, Saint-Pierre, Saint Pierre and Miquelon, 97500, France",
        "road": "Route Iphigénie",
        "house_number": null,
        "neighbourhood": null,
        "suburb": null,
        "city_district": null,
        "city": "Saint-Pierre",
        "state": "Saint Pierre and Miquelon",
        "postcode": "97500",
        "country": "France",
        "country_code": "fr"
      },
      "address": "Route Iphigénie, Saint-Pierre, Saint Pierre and Miquelon, Saint Pierre and Miquelon"
    },
    {
      "lat": 46.78797420053344,
      "lon": -56.17131332667432,
      "geoinfo": {
        "display_name": "31, Rue Ange Gautier, Saint-Pierre, Saint Pierre and Miquelon, 97500, France",
        "road": "Rue Ange Gautier",
        "house_number": "31",
        "neighbourhood": null,
        "suburb": null,
        "city_district": null,
        "city": "Saint-Pierre",
        "state": "Saint Pierre and Miquelon",
        "postcode": "97500",
        "country": "France",
        "country_code": "fr"
      },
      "address": "31 Rue Ange Gautier, Saint-Pierre, Saint Pierre and Miquelon, Saint Pierre and Miquelon"
    },
    {
      "lat": 46.76543674064471,
      "lon": -56.20085933740559,
      "geoinfo": {
        "display_name": "62, Route du Cap aux Basques, Saint-Pierre, Saint Pierre and Miquelon, 97500, France",
        "road": "Route du Cap aux Basques",
        "house_number": "62",
        "neighbourhood": null,
        "suburb": null,
        "city_district": null,
        "city": "Saint-Pierre",
        "state": "Saint Pierre and Miquelon",
        "postcode": "97500",
        "country": "France",
        "country_code": "fr"
      },
      "address": "62 Route du Cap aux Basques, Saint-Pierre, Saint Pierre and Miquelon, Saint Pierre and Miquelon"
    },
    {
      "lat": 46.76955289105378,
      "lon": -56.212224165732955,
      "geoinfo": {
        "display_name": "96, Route de la Cléopâtre, Saint-Pierre, Saint Pierre and Miquelon, 97500, France",
        "road": "Route de la Cléopâtre",
        "house_number": "96",
        "neighbourhood": null,
        "suburb": null,
        "city_district": null,
        "city": "Saint-Pierre",
        "state": "Saint Pierre and Miquelon",
        "postcode": "97500",
        "country": "France",
        "country_code": "fr"
      },
      "address": "96 Route de la Cléopâtre, Saint-Pierre, Saint Pierre and Miquelon, Saint Pierre and Miquelon"
    },
    {
      "lat": 46.77038940270219,
      "lon": -56.20241794086174,
      "geoinfo": {
        "display_name": "97, Route de la Cléopâtre, Saint-Pierre, Saint Pierre and Miquelon, 97500, France",
        "road": "Route de la Cléopâtre",
        "house_number": "97",
        "neighbourhood": null,
        "suburb": null,
        "city_district": null,
        "city": "Saint-Pierre",
        "state": "Saint Pierre and Miquelon",
        "postcode": "97500",
        "country": "France",
        "country_code": "fr"
      },
      "address": "97 Route de la Cléopâtre, Saint-Pierre, Saint Pierre and Miquelon, Saint Pierre and Miquelon"
    },
    {
      "lat": 46.77470250955848,
      "lon": -56.17660799909666,
      "geoinfo": {
        "display_name": "Rue du 11 Novembre, Saint-Pierre, Saint Pierre and Miquelon, 97500, France",
        "road": "Rue du 11 Novembre",
        "house_number": null,
        "neighbourhood": null,
        "suburb": null,
        "city_district": null,
        "city": "Saint-Pierre",
        "state": "Saint Pierre and Miquelon",
        "postcode": "97500",
        "country": "France",
        "country_code": "fr"
      },
      "address": "Rue du 11 Novembre, Saint-Pierre, Saint Pierre and Miquelon, Saint Pierre and Miquelon"
    },
    {
      "lat": 46.76856696314279,
      "lon": -56.20015097754614,
      "geoinfo": {
        "display_name": "89, Route de la Cléopâtre, Saint-Pierre, Saint Pierre and Miquelon, 97500, France",
        "road": "Route de la Cléopâtre",
        "house_number": "89",
        "neighbourhood": null,
        "suburb": null,
        "city_district": null,
        "city": "Saint-Pierre",
        "state": "Saint Pierre and Miquelon",
        "postcode": "97500",
        "country": "France",
        "country_code": "fr"
      },
      "address": "89 Route de la Cléopâtre, Saint-Pierre, Saint Pierre and Miquelon, Saint Pierre and Miquelon"
    },
    {
      "lat": 46.77152736241887,
      "lon": -56.17360941215806,
      "geoinfo": {
        "display_name": "23, Rue des Prairies, Saint-Pierre, Saint Pierre and Miquelon, 97500, France",
        "road": "Rue des Prairies",
        "house_number": "23",
        "neighbourhood": null,
        "suburb": null,
        "city_district": null,
        "city": "Saint-Pierre",
        "state": "Saint Pierre and Miquelon",
        "postcode": "97500",
        "country": "France",
        "country_code": "fr"
      },
      "address": "23 Rue des Prairies, Saint-Pierre, Saint Pierre and Miquelon, Saint Pierre and Miquelon"
    },
    {
      "lat": 46.78964107135295,
      "lon": -56.20341231110184,
      "geoinfo": {
        "display_name": "23, Route de l'Anse à Pierre, Saint-Pierre, Saint Pierre and Miquelon, 97500, France",
        "road": "Route de l'Anse à Pierre",
        "house_number": "23",
        "neighbourhood": null,
        "suburb": null,
        "city_district": null,
        "city": "Saint-Pierre",
        "state": "Saint Pierre and Miquelon",
        "postcode": "97500",
        "country": "France",
        "country_code": "fr"
      },
      "address": "23 Route de l'Anse à Pierre, Saint-Pierre, Saint Pierre and Miquelon, Saint Pierre and Miquelon"
    },
    {
      "lat": 46.78321296801593,
      "lon": -56.179770058225905,
      "geoinfo": {
        "display_name": "39, Rue Brue, Saint-Pierre, Saint Pierre and Miquelon, 97500, France",
        "road": "Rue Brue",
        "house_number": "39",
        "neighbourhood": null,
        "suburb": null,
        "city_district": null,
        "city": "Saint-Pierre",
        "state": "Saint Pierre and Miquelon",
        "postcode": "97500",
        "country": "France",
        "country_code": "fr"
      },
      "address": "39 Rue Brue, Saint-Pierre, Saint Pierre and Miquelon, Saint Pierre and Miquelon"
    },
    {
      "lat": 46.76787991460389,
      "lon": -56.173654291214184,
      "geoinfo": {
        "display_name": "39, Route de la Pointe Blanche, Saint-Pierre, Saint Pierre and Miquelon, 97500, France",
        "road": "Route de la Pointe Blanche",
        "house_number": "39",
        "neighbourhood": null,
        "suburb": null,
        "city_district": null,
        "city": "Saint-Pierre",
        "state": "Saint Pierre and Miquelon",
        "postcode": "97500",
        "country": "France",
        "country_code": "fr"
      },
      "address": "39 Route de la Pointe Blanche, Saint-Pierre, Saint Pierre and Miquelon, Saint Pierre and Miquelon"
    },
    {
      "lat": 46.771813513130326,
      "lon": -56.177544086559855,
      "geoinfo": {
        "display_name": "3, Route de La Pérouse, Saint-Pierre, Saint Pierre and Miquelon, 97500, France",
        "road": "Route de La Pérouse",
        "house_number": "3",
        "neighbourhood": null,
        "suburb": null,
        "city_district": null,
        "city": "Saint-Pierre",
        "state": "Saint Pierre and Miquelon",
        "postcode": "97500",
        "country": "France",
        "country_code": "fr"
      },
      "address": "3 Route de La Pérouse, Saint-Pierre, Saint Pierre and Miquelon, Saint Pierre and Miquelon"
    },
    {
      "lat": 46.77279818709609,
      "lon": -56.1996292211666,
      "geoinfo": {
        "display_name": "28, Route de la Cléopâtre, Saint-Pierre, Saint Pierre and Miquelon, 97500, France",
        "road": "Route de la Cléopâtre",
        "house_number": "28",
        "neighbourhood": null,
        "suburb": null,
        "city_district": null,
        "city": "Saint-Pierre",
        "state": "Saint Pierre and Miquelon",
        "postcode": "97500",
        "country": "France",
        "country_code": "fr"
      },
      "address": "28 Route de la Cléopâtre, Saint-Pierre, Saint Pierre and Miquelon, Saint Pierre and Miquelon"
    },
    {
      "lat": 46.77175736134275,
      "lon": -56.20149674064648,
      "geoinfo": {
        "display_name": "36, Route de la Cléopâtre, Saint-Pierre, Saint Pierre and Miquelon, 97500, France",
        "road": "Route de la Cléopâtre",
        "house_number": "36",
        "neighbourhood": null,
        "suburb": null,
        "city_district": null,
        "city": "Saint-Pierre",
        "state": "Saint Pierre and Miquelon",
        "postcode": "97500",
        "country": "France",
        "country_code": "fr"
      },
      "address": "36 Route de la Cléopâtre, Saint-Pierre, Saint Pierre and Miquelon, Saint Pierre and Miquelon"
    },
    {
      "lat": 46.77310323503672,
      "lon": -56.16002248520402,
      "geoinfo": {
        "display_name": "Route de la Pointe à Philibert, Saint-Pierre, Saint Pierre and Miquelon, 97500, France",
        "road": "Route de la Pointe à Philibert",
        "house_number": null,
        "neighbourhood": null,
        "suburb": null,
        "city_district": null,
        "city": "Saint-Pierre",
        "state": "Saint Pierre and Miquelon",
        "postcode": "97500",
        "country": "France",
        "country_code": "fr"
      },
      "address": "Route de la Pointe à Philibert, Saint-Pierre, Saint Pierre and Miquelon, Saint Pierre and Miquelon"
    },
    {
      "lat": 46.77364957465968,
      "lon": -56.19859021592996,
      "geoinfo": {
        "display_name": "24, Route de la Cléopâtre, Saint-Pierre, Saint Pierre and Miquelon, 97500, France",
        "road": "Route de la Cléopâtre",
        "house_number": "24",
        "neighbourhood": null,
        "suburb": null,
        "city_district": null,
        "city": "Saint-Pierre",
        "state": "Saint Pierre and Miquelon",
        "postcode": "97500",
        "country": "France",
        "country_code": "fr"
      },
      "address": "24 Route de la Cléopâtre, Saint-Pierre, Saint Pierre and Miquelon, Saint Pierre and Miquelon"
    },
    {
      "lat": 46.77058163334393,
      "lon": -56.16865121579073,
      "geoinfo": {
        "display_name": "10, Rue du Cap Noir, Saint-Pierre, Saint Pierre and Miquelon, 97500, France",
        "road": "Rue du Cap Noir",
        "house_number": "10",
        "neighbourhood": null,
        "suburb": null,
        "city_district": null,
        "city": "Saint-Pierre",
        "state": "Saint Pierre and Miquelon",
        "postcode": "97500",
        "country": "France",
        "country_code": "fr"
      },
      "address": "10 Rue du Cap Noir, Saint-Pierre, Saint Pierre and Miquelon, Saint Pierre and Miquelon"
    },
    {
      "lat": 46.77586066587413,
      "lon": -56.184802245403006,
      "geoinfo": {
        "display_name": "1, Rue de Normandie, Saint-Pierre, Saint Pierre and Miquelon, 97500, France",
        "road": "Rue de Normandie",
        "house_number": "1",
        "neighbourhood": null,
        "suburb": null,
        "city_district": null,
        "city": "Saint-Pierre",
        "state": "Saint Pierre and Miquelon",
        "postcode": "97500",
        "country": "France",
        "country_code": "fr"
      },
      "address": "1 Rue de Normandie, Saint-Pierre, Saint Pierre and Miquelon, Saint Pierre and Miquelon"
    },
    {
      "lat": 46.76754272542922,
      "lon": -56.20350784999058,
      "geoinfo": {
        "display_name": "107, Route de la Cléopâtre, Saint-Pierre, Saint Pierre and Miquelon, 97500, France",
        "road": "Route de la Cléopâtre",
        "house_number": "107",
        "neighbourhood": null,
        "suburb": null,
        "city_district": null,
        "city": "Saint-Pierre",
        "state": "Saint Pierre and Miquelon",
        "postcode": "97500",
        "country": "France",
        "country_code": "fr"
      },
      "address": "107 Route de la Cléopâtre, Saint-Pierre, Saint Pierre and Miquelon, Saint Pierre and Miquelon"
    },
    {
      "lat": 46.77056624387834,
      "lon": -56.208944894274396,
      "geoinfo": {
        "display_name": "76, Route de la Cléopâtre, Saint-Pierre, Saint Pierre and Miquelon, 97500, France",
        "road": "Route de la Cléopâtre",
        "house_number": "76",
        "neighbourhood": null,
        "suburb": null,
        "city_district": null,
        "city": "Saint-Pierre",
        "state": "Saint Pierre and Miquelon",
        "postcode": "97500",
        "country": "France",
        "country_code": "fr"
      },
      "address": "76 Route de la Cléopâtre, Saint-Pierre, Saint Pierre and Miquelon, Saint Pierre and Miquelon"
    },
    {
      "lat": 46.77448434425499,
      "lon": -56.190796630214194,
      "geoinfo": {
        "display_name": "53, Route Iphigénie, Saint-Pierre, Saint Pierre and Miquelon, 97500, France",
        "road": "Route Iphigénie",
        "house_number": "53",
        "neighbourhood": null,
        "suburb": null,
        "city_district": null,
        "city": "Saint-Pierre",
        "state": "Saint Pierre and Miquelon",
        "postcode": "97500",
        "country": "France",
        "country_code": "fr"
      },
      "address": "53 Route Iphigénie, Saint-Pierre, Saint Pierre and Miquelon, Saint Pierre and Miquelon"
    },
    {
      "lat": 46.76849170602927,
      "lon": -56.20961060541946,
      "geoinfo": {
        "display_name": "84, Route de la Cléopâtre, Saint-Pierre, Saint Pierre and Miquelon, 97500, France",
        "road": "Route de la Cléopâtre",
        "house_number": "84",
        "neighbourhood": null,
        "suburb": null,
        "city_district": null,
        "city": "Saint-Pierre",
        "state": "Saint Pierre and Miquelon",
        "postcode": "97500",
        "country": "France",
        "country_code": "fr"
      },
      "address": "84 Route de la Cléopâtre, Saint-Pierre, Saint Pierre and Miquelon, Saint Pierre and Miquelon"
    },
    {
      "lat": 46.76264732965289,
      "lon": -56.22080102503592,
      "geoinfo": {
        "display_name": "129, Route de la Cléopâtre, Saint-Pierre, Saint Pierre and Miquelon, 97500, France",
        "road": "Route de la Cléopâtre",
        "house_number": "129",
        "neighbourhood": null,
        "suburb": null,
        "city_district": null,
        "city": "Saint-Pierre",
        "state": "Saint Pierre and Miquelon",
        "postcode": "97500",
        "country": "France",
        "country_code": "fr"
      },
      "address": "129 Route de la Cléopâtre, Saint-Pierre, Saint Pierre and Miquelon, Saint Pierre and Miquelon"
    },
    {
      "lat": 46.77283223207523,
      "lon": -56.21608351955103,
      "geoinfo": {
        "display_name": "112, Route de la Cléopâtre, Saint-Pierre, Saint Pierre and Miquelon, 97500, France",
        "road": "Route de la Cléopâtre",
        "house_number": "112",
        "neighbourhood": null,
        "suburb": null,
        "city_district": null,
        "city": "Saint-Pierre",
        "state": "Saint Pierre and Miquelon",
        "postcode": "97500",
        "country": "France",
        "country_code": "fr"
      },
      "address": "112 Route de la Cléopâtre, Saint-Pierre, Saint Pierre and Miquelon, Saint Pierre and Miquelon"
    },
    {
      "lat": 46.77947459470647,
      "lon": -56.17206441026194,
      "geoinfo": {
        "display_name": "14, Boulevard Constant Colmay, Saint-Pierre, Saint Pierre and Miquelon, 97500, France",
        "road": "Boulevard Constant Colmay",
        "house_number": "14",
        "neighbourhood": null,
        "suburb": null,
        "city_district": null,
        "city": "Saint-Pierre",
        "state": "Saint Pierre and Miquelon",
        "postcode": "97500",
        "country": "France",
        "country_code": "fr"
      },
      "address": "14 Boulevard Constant Colmay, Saint-Pierre, Saint Pierre and Miquelon, Saint Pierre and Miquelon"
    },
    {
      "lat": 46.78149172317313,
      "lon": -56.17053618559707,
      "geoinfo": {
        "display_name": "8, Rue Abbé Pierre Gervain, Saint-Pierre, Saint Pierre and Miquelon, 97500, France",
        "road": "Rue Abbé Pierre Gervain",
        "house_number": "8",
        "neighbourhood": null,
        "suburb": null,
        "city_district": null,
        "city": "Saint-Pierre",
        "state": "Saint Pierre and Miquelon",
        "postcode": "97500",
        "country": "France",
        "country_code": "fr"
      },
      "address": "8 Rue Abbé Pierre Gervain, Saint-Pierre, Saint Pierre and Miquelon, Saint Pierre and Miquelon"
    },
    {
      "lat": 46.78863689660431,
      "lon": -56.208258111949284,
      "geoinfo": {
        "display_name": "29, Route de l'Anse à Pierre, Saint-Pierre, Saint Pierre and Miquelon, 97500, France",
        "road": "Route de l'Anse à Pierre",
        "house_number": "29",
        "neighbourhood": null,
        "suburb": null,
        "city_district": null,
        "city": "Saint-Pierre",
        "state": "Saint Pierre and Miquelon",
        "postcode": "97500",
        "country": "France",
        "country_code": "fr"
      },
      "address": "29 Route de l'Anse à Pierre, Saint-Pierre, Saint Pierre and Miquelon, Saint Pierre and Miquelon"
    },
    {
      "lat": 46.7756723006455,
      "lon": -56.18454497699876,
      "geoinfo": {
        "display_name": "30, Avenue du Commandant Roger Birot, Saint-Pierre, Saint Pierre and Miquelon, 97500, France",
        "road": "Avenue du Commandant Roger Birot",
        "house_number": "30",
        "neighbourhood": null,
        "suburb": null,
        "city_district": null,
        "city": "Saint-Pierre",
        "state": "Saint Pierre and Miquelon",
        "postcode": "97500",
        "country": "France",
        "country_code": "fr"
      },
      "address": "30 Avenue du Commandant Roger Birot, Saint-Pierre, Saint Pierre and Miquelon, Saint Pierre and Miquelon"
    },
    {
      "lat": 46.78523737324851,
      "lon": -56.16072410034042,
      "geoinfo": {
        "display_name": "Digue Nord-Est, Saint-Pierre, Saint Pierre and Miquelon, 97500, France",
        "road": "Digue Nord-Est",
        "house_number": null,
        "neighbourhood": null,
        "suburb": null,
        "city_district": null,
        "city": "Saint-Pierre",
        "state": "Saint Pierre and Miquelon",
        "postcode": "97500",
        "country": "France",
        "country_code": "fr"
      },
      "address": "Digue Nord-Est, Saint-Pierre, Saint Pierre and Miquelon, Saint Pierre and Miquelon"
    },
    {
      "lat": 46.766089651068874,
      "lon": -56.20608551414972,
      "geoinfo": {
        "display_name": "104, Route du Cap aux Basques, Saint-Pierre, Saint Pierre and Miquelon, 97500, France",
        "road": "Route du Cap aux Basques",
        "house_number": "104",
        "neighbourhood": null,
        "suburb": null,
        "city_district": null,
        "city": "Saint-Pierre",
        "state": "Saint Pierre and Miquelon",
        "postcode": "97500",
        "country": "France",
        "country_code": "fr"
      },
      "address": "104 Route du Cap aux Basques, Saint-Pierre, Saint Pierre and Miquelon, Saint Pierre and Miquelon"
    },
    {
      "lat": 46.77590556014452,
      "lon": -56.17992793358501,
      "geoinfo": {
        "display_name": "4, Rue Molière, Saint-Pierre, Saint Pierre and Miquelon, 97500, France",
        "road": "Rue Molière",
        "house_number": "4",
        "neighbourhood": null,
        "suburb": null,
        "city_district": null,
        "city": "Saint-Pierre",
        "state": "Saint Pierre and Miquelon",
        "postcode": "97500",
        "country": "France",
        "country_code": "fr"
      },
      "address": "4 Rue Molière, Saint-Pierre, Saint Pierre and Miquelon, Saint Pierre and Miquelon"
    },
    {
      "lat": 46.76186761571613,
      "lon": -56.156678857510876,
      "geoinfo": {
        "display_name": "Route de Galantry, Saint-Pierre, Saint Pierre and Miquelon, 97500, France",
        "road": "Route de Galantry",
        "house_number": null,
        "neighbourhood": null,
        "suburb": null,
        "city_district": null,
        "city": "Saint-Pierre",
        "state": "Saint Pierre and Miquelon",
        "postcode": "97500",
        "country": "France",
        "country_code": "fr"
      },
      "address": "165, Route de Galantry, Saint-Pierre, 97500 Saint Pierre and Miquelon, Saint Pierre and Miquelon"
    },
    {
      "lat": 46.80354546614942,
      "lon": -56.189606010706285,
      "geoinfo": {
        "display_name": "Cap au Diable, Saint-Pierre, Saint Pierre and Miquelon, 97500, France",
        "road": null,
        "house_number": null,
        "neighbourhood": null,
        "suburb": null,
        "city_district": null,
        "city": "Saint-Pierre",
        "state": "Saint Pierre and Miquelon",
        "postcode": "97500",
        "country": "France",
        "country_code": "fr"
      },
      "address": "002, Saint-Pierre, 97500 Saint Pierre and Miquelon, Saint Pierre and Miquelon"
    },
    {
      "lat": 46.75355501997334,
      "lon": -56.19397799641459,
      "geoinfo": {
        "display_name": "Pointe aux Basques, Saint-Pierre, Saint Pierre and Miquelon, 97500, France",
        "road": null,
        "house_number": null,
        "neighbourhood": null,
        "suburb": null,
        "city_district": null,
        "city": "Saint-Pierre",
        "state": "Saint Pierre and Miquelon",
        "postcode": "97500",
        "country": "France",
        "country_code": "fr"
      },
      "address": "815, Saint-Pierre, 97500 Saint Pierre and Miquelon, Saint Pierre and Miquelon"
    },
    {
      "lat": 46.8065986526663,
      "lon": -56.16766786575458,
      "geoinfo": {
        "display_name": "Pointe à Henry, Saint-Pierre, Saint Pierre and Miquelon, 97500, France",
        "road": null,
        "house_number": null,
        "neighbourhood": null,
        "suburb": null,
        "city_district": null,
        "city": "Saint-Pierre",
        "state": "Saint Pierre and Miquelon",
        "postcode": "97500",
        "country": "France",
        "country_code": "fr"
      },
      "address": "271, Saint-Pierre, 97500 Saint Pierre and Miquelon, Saint Pierre and Miquelon"
    },
    {
      "lat": 46.75493281840314,
      "lon": -56.14974176003616,
      "geoinfo": {
        "display_name": "Cap Noir, Saint-Pierre, Saint Pierre and Miquelon, 97500, France",
        "road": null,
        "house_number": null,
        "neighbourhood": null,
        "suburb": null,
        "city_district": null,
        "city": "Saint-Pierre",
        "state": "Saint Pierre and Miquelon",
        "postcode": "97500",
        "country": "France",
        "country_code": "fr"
      },
      "address": "877, Saint-Pierre, 97500 Saint Pierre and Miquelon, Saint Pierre and Miquelon"
    },
    {
      "lat": 46.7753499668818,
      "lon": -56.20384375414298,
      "geoinfo": {
        "display_name": "42, Route de la Cléopâtre, Saint-Pierre, Saint Pierre and Miquelon, 97500, France",
        "road": "Route de la Cléopâtre",
        "house_number": "42",
        "neighbourhood": null,
        "suburb": null,
        "city_district": null,
        "city": "Saint-Pierre",
        "state": "Saint Pierre and Miquelon",
        "postcode": "97500",
        "country": "France",
        "country_code": "fr"
      },
      "address": "42, Route de la Cléopâtre, Saint-Pierre, 97500 Saint Pierre and Miquelon, Saint Pierre and Miquelon"
    },
    {
      "lat": 46.78656651108874,
      "lon": -56.16566502225715,
      "geoinfo": {
        "display_name": "EPOL023, Digue Nord-Est, Saint-Pierre, Saint Pierre and Miquelon, 97500, France",
        "road": "Digue Nord-Est",
        "house_number": null,
        "neighbourhood": null,
        "suburb": null,
        "city_district": null,
        "city": "Saint-Pierre",
        "state": "Saint Pierre and Miquelon",
        "postcode": "97500",
        "country": "France",
        "country_code": "fr"
      },
      "address": "766, Digue Nord-Est, Saint-Pierre, 97500 Saint Pierre and Miquelon, Saint Pierre and Miquelon"
    },
    {
      "lat": 46.78956678628417,
      "lon": -56.20876840867933,
      "geoinfo": {
        "display_name": "31, Route de l'Anse à Pierre, Saint-Pierre, Saint Pierre and Miquelon, 97500, France",
        "road": "Route de l'Anse à Pierre",
        "house_number": "31",
        "neighbourhood": null,
        "suburb": null,
        "city_district": null,
        "city": "Saint-Pierre",
        "state": "Saint Pierre and Miquelon",
        "postcode": "97500",
        "country": "France",
        "country_code": "fr"
      },
      "address": "31, Route de l'Anse à Pierre, Saint-Pierre, 97500 Saint Pierre and Miquelon, Saint Pierre and Miquelon"
    },
    {
      "lat": 46.76095847740207,
      "lon": -56.20870899045589,
      "geoinfo": {
        "display_name": "Route du Cap aux Basques, Saint-Pierre, Saint Pierre and Miquelon, 97500, France",
        "road": "Route du Cap aux Basques",
        "house_number": null,
        "neighbourhood": null,
        "suburb": null,
        "city_district": null,
        "city": "Saint-Pierre",
        "state": "Saint Pierre and Miquelon",
        "postcode": "97500",
        "country": "France",
        "country_code": "fr"
      },
      "address": "186, Route du Cap aux Basques, Saint-Pierre, 97500 Saint Pierre and Miquelon, Saint Pierre and Miquelon"
    },
    {
      "lat": 46.74247136049919,
      "lon": -56.16330287585643,
      "geoinfo": {
        "display_name": "Saint Pierre and Miquelon, France",
        "road": null,
        "house_number": null,
        "neighbourhood": null,
        "suburb": null,
        "city_district": null,
        "city": null,
        "state": "Saint Pierre and Miquelon",
        "postcode": null,
        "country": "France",
        "country_code": "fr"
      },
      "address": "027, Saint-Pierre, 43637 Saint Pierre and Miquelon, Saint Pierre and Miquelon"
    },
    {
      "lat": 46.74669133019688,
      "lon": -56.17160438345164,
      "geoinfo": {
        "display_name": "Saint Pierre and Miquelon, France",
        "road": null,
        "house_number": null,
        "neighbourhood": null,
        "suburb": null,
        "city_district": null,
        "city": null,
        "state": "Saint Pierre and Miquelon",
        "postcode": null,
        "country": "France",
        "country_code": "fr"
      },
      "address": "793, Saint-Pierre, 21820 Saint Pierre and Miquelon, Saint Pierre and Miquelon"
    },
    {
      "lat": 46.75245507971801,
      "lon": -56.20500174266754,
      "geoinfo": {
        "display_name": "Pointe aux Basques, Saint-Pierre, Saint Pierre and Miquelon, 97500, France",
        "road": null,
        "house_number": null,
        "neighbourhood": null,
        "suburb": null,
        "city_district": null,
        "city": "Saint-Pierre",
        "state": "Saint Pierre and Miquelon",
        "postcode": "97500",
        "country": "France",
        "country_code": "fr"
      },
      "address": "907, Saint-Pierre, 97500 Saint Pierre and Miquelon, Saint Pierre and Miquelon"
    },
    {
      "lat": 46.80530502406657,
      "lon": -56.175644618106546,
      "geoinfo": {
        "display_name": "Pointe à Henry, Saint-Pierre, Saint Pierre and Miquelon, 97500, France",
        "road": null,
        "house_number": null,
        "neighbourhood": null,
        "suburb": null,
        "city_district": null,
        "city": "Saint-Pierre",
        "state": "Saint Pierre and Miquelon",
        "postcode": "97500",
        "country": "France",
        "country_code": "fr"
      },
      "address": "059, Saint-Pierre, 97500 Saint Pierre and Miquelon, Saint Pierre and Miquelon"
    },
    {
      "lat": 46.77788347897142,
      "lon": -56.208097265381355,
      "geoinfo": {
        "display_name": "Pointe aux Basques, Saint-Pierre, Saint Pierre and Miquelon, 97500, France",
        "road": null,
        "house_number": null,
        "neighbourhood": null,
        "suburb": null,
        "city_district": null,
        "city": "Saint-Pierre",
        "state": "Saint Pierre and Miquelon",
        "postcode": "97500",
        "country": "France",
        "country_code": "fr"
      },
      "address": "507, Saint-Pierre, 97500 Saint Pierre and Miquelon, Saint Pierre and Miquelon"
    },
    {
      "lat": 46.78028014030507,
      "lon": -56.20074049441084,
      "geoinfo": {
        "display_name": "Route de l'Anse à Pierre, Saint-Pierre, Saint Pierre and Miquelon, 97500, France",
        "road": "Route de l'Anse à Pierre",
        "house_number": null,
        "neighbourhood": null,
        "suburb": null,
        "city_district": null,
        "city": "Saint-Pierre",
        "state": "Saint Pierre and Miquelon",
        "postcode": "97500",
        "country": "France",
        "country_code": "fr"
      },
      "address": "190, Route de l'Anse à Pierre, Saint-Pierre, 97500 Saint Pierre and Miquelon, Saint Pierre and Miquelon"
    },
    {
      "lat": 46.81058537211537,
      "lon": -56.13606758591642,
      "geoinfo": {
        "display_name": "Cap à Gordon, Saint-Pierre, Saint Pierre and Miquelon, 97500, France",
        "road": null,
        "house_number": null,
        "neighbourhood": null,
        "suburb": null,
        "city_district": null,
        "city": "Saint-Pierre",
        "state": "Saint Pierre and Miquelon",
        "postcode": "97500",
        "country": "France",
        "country_code": "fr"
      },
      "address": "780, Saint-Pierre, 97500 Saint Pierre and Miquelon, Saint Pierre and Miquelon"
    },
    {
      "lat": 46.784421624806896,
      "lon": -56.15382463268907,
      "geoinfo": {
        "display_name": "Saint-Pierre, Saint Pierre and Miquelon, 97500, France",
        "road": null,
        "house_number": null,
        "neighbourhood": null,
        "suburb": null,
        "city_district": null,
        "city": "Saint-Pierre",
        "state": "Saint Pierre and Miquelon",
        "postcode": "97500",
        "country": "France",
        "country_code": "fr"
      },
      "address": "117, Saint-Pierre, 97500 Saint Pierre and Miquelon, Saint Pierre and Miquelon"
    },
    {
      "lat": 46.77413820458745,
      "lon": -56.15111533699896,
      "geoinfo": {
        "display_name": "Cap Noir, Saint-Pierre, Saint Pierre and Miquelon, 97500, France",
        "road": null,
        "house_number": null,
        "neighbourhood": null,
        "suburb": null,
        "city_district": null,
        "city": "Saint-Pierre",
        "state": "Saint Pierre and Miquelon",
        "postcode": "97500",
        "country": "France",
        "country_code": "fr"
      },
      "address": "885, Saint-Pierre, 97500 Saint Pierre and Miquelon, Saint Pierre and Miquelon"
    },
    {
      "lat": 46.76232915697052,
      "lon": -56.22057133255719,
      "geoinfo": {
        "display_name": "Route du Diamant, Saint-Pierre, Saint Pierre and Miquelon, 97500, France",
        "road": "Route du Diamant",
        "house_number": null,
        "neighbourhood": null,
        "suburb": null,
        "city_district": null,
        "city": "Saint-Pierre",
        "state": "Saint Pierre and Miquelon",
        "postcode": "97500",
        "country": "France",
        "country_code": "fr"
      },
      "address": "973, Route du Diamant, Saint-Pierre, 97500 Saint Pierre and Miquelon, Saint Pierre and Miquelon"
    },
    {
      "lat": 46.769174813160674,
      "lon": -56.21941186097566,
      "geoinfo": {
        "display_name": "148, Route de la Cléopâtre, Saint-Pierre, Saint Pierre and Miquelon, 97500, France",
        "road": "Route de la Cléopâtre",
        "house_number": "148",
        "neighbourhood": null,
        "suburb": null,
        "city_district": null,
        "city": "Saint-Pierre",
        "state": "Saint Pierre and Miquelon",
        "postcode": "97500",
        "country": "France",
        "country_code": "fr"
      },
      "address": "148, Route de la Cléopâtre, Saint-Pierre, 97500 Saint Pierre and Miquelon, Saint Pierre and Miquelon"
    },
    {
      "lat": 46.7885143764705,
      "lon": -56.137857744233145,
      "geoinfo": {
        "display_name": "Boulevard Thélot, Saint-Pierre, Saint Pierre and Miquelon, 97500, France",
        "road": "Boulevard Thélot",
        "house_number": null,
        "neighbourhood": null,
        "suburb": null,
        "city_district": null,
        "city": "Saint-Pierre",
        "state": "Saint Pierre and Miquelon",
        "postcode": "97500",
        "country": "France",
        "country_code": "fr"
      },
      "address": "039, Boulevard Thélot, Saint-Pierre, 97500 Saint Pierre and Miquelon, Saint Pierre and Miquelon"
    },
    {
      "lat": 46.73751679965727,
      "lon": -56.18052267590396,
      "geoinfo": {
        "display_name": "Saint Pierre and Miquelon, France",
        "road": null,
        "house_number": null,
        "neighbourhood": null,
        "suburb": null,
        "city_district": null,
        "city": null,
        "state": "Saint Pierre and Miquelon",
        "postcode": null,
        "country": "France",
        "country_code": "fr"
      },
      "address": "330, Saint-Pierre, 00186 Saint Pierre and Miquelon, Saint Pierre and Miquelon"
    },
    {
      "lat": 46.776834026664815,
      "lon": -56.16675098785308,
      "geoinfo": {
        "display_name": "Quai de l'Épi, Quai de l'épi, Saint-Pierre, Saint Pierre and Miquelon, 97500, France",
        "road": "Quai de l'Épi",
        "house_number": null,
        "neighbourhood": null,
        "suburb": null,
        "city_district": null,
        "city": "Saint-Pierre",
        "state": "Saint Pierre and Miquelon",
        "postcode": "97500",
        "country": "France",
        "country_code": "fr"
      },
      "address": "921, Quai de l'Épi, Saint-Pierre, 97500 Saint Pierre and Miquelon, Saint Pierre and Miquelon"
    },
    {
      "lat": 46.74610425848985,
      "lon": -56.16181561871382,
      "geoinfo": {
        "display_name": "Saint Pierre and Miquelon, France",
        "road": null,
        "house_number": null,
        "neighbourhood": null,
        "suburb": null,
        "city_district": null,
        "city": null,
        "state": "Saint Pierre and Miquelon",
        "postcode": null,
        "country": "France",
        "country_code": "fr"
      },
      "address": "228, Saint-Pierre, 59824 Saint Pierre and Miquelon, Saint Pierre and Miquelon"
    },
    {
      "lat": 46.82096127597532,
      "lon": -56.199519666707516,
      "geoinfo": {
        "display_name": "Cap au Diable, Saint-Pierre, Saint Pierre and Miquelon, 97500, France",
        "road": null,
        "house_number": null,
        "neighbourhood": null,
        "suburb": null,
        "city_district": null,
        "city": "Saint-Pierre",
        "state": "Saint Pierre and Miquelon",
        "postcode": "97500",
        "country": "France",
        "country_code": "fr"
      },
      "address": "504, Saint-Pierre, 97500 Saint Pierre and Miquelon, Saint Pierre and Miquelon"
    },
    {
      "lat": 46.80576308575823,
      "lon": -56.175801123369766,
      "geoinfo": {
        "display_name": "Pointe à Henry, Saint-Pierre, Saint Pierre and Miquelon, 97500, France",
        "road": null,
        "house_number": null,
        "neighbourhood": null,
        "suburb": null,
        "city_district": null,
        "city": "Saint-Pierre",
        "state": "Saint Pierre and Miquelon",
        "postcode": "97500",
        "country": "France",
        "country_code": "fr"
      },
      "address": "007, Saint-Pierre, 97500 Saint Pierre and Miquelon, Saint Pierre and Miquelon"
    },
    {
      "lat": 46.81251807229929,
      "lon": -56.15594289243614,
      "geoinfo": {
        "display_name": "Pointe à Henry, Saint-Pierre, Saint Pierre and Miquelon, 97500, France",
        "road": null,
        "house_number": null,
        "neighbourhood": null,
        "suburb": null,
        "city_district": null,
        "city": "Saint-Pierre",
        "state": "Saint Pierre and Miquelon",
        "postcode": "97500",
        "country": "France",
        "country_code": "fr"
      },
      "address": "058, Saint-Pierre, 97500 Saint Pierre and Miquelon, Saint Pierre and Miquelon"
    },
    {
      "lat": 46.77781051047236,
      "lon": -56.22370669584152,
      "geoinfo": {
        "display_name": "Cap à la Vierge, Saint-Pierre, Saint Pierre and Miquelon, 97500, France",
        "road": null,
        "house_number": null,
        "neighbourhood": null,
        "suburb": null,
        "city_district": null,
        "city": "Saint-Pierre",
        "state": "Saint Pierre and Miquelon",
        "postcode": "97500",
        "country": "France",
        "country_code": "fr"
      },
      "address": "506, Saint-Pierre, 97500 Saint Pierre and Miquelon, Saint Pierre and Miquelon"
    },
    {
      "lat": 46.7742210037845,
      "lon": -56.17911457100844,
      "geoinfo": {
        "display_name": "EPAD008, Boulevard Louis Héron de Villefosse, Saint-Pierre, Saint Pierre and Miquelon, 97500, France",
        "road": "Boulevard Louis Héron de Villefosse",
        "house_number": null,
        "neighbourhood": null,
        "suburb": null,
        "city_district": null,
        "city": "Saint-Pierre",
        "state": "Saint Pierre and Miquelon",
        "postcode": "97500",
        "country": "France",
        "country_code": "fr"
      },
      "address": "917, Boulevard Louis Héron de Villefosse, Saint-Pierre, 97500 Saint Pierre and Miquelon, Saint Pierre and Miquelon"
    },
    {
      "lat": 46.79229336448432,
      "lon": -56.13283903640734,
      "geoinfo": {
        "display_name": "Cap à Gordon, Saint-Pierre, Saint Pierre and Miquelon, 97500, France",
        "road": null,
        "house_number": null,
        "neighbourhood": null,
        "suburb": null,
        "city_district": null,
        "city": "Saint-Pierre",
        "state": "Saint Pierre and Miquelon",
        "postcode": "97500",
        "country": "France",
        "country_code": "fr"
      },
      "address": "654, Saint-Pierre, 97500 Saint Pierre and Miquelon, Saint Pierre and Miquelon"
    },
    {
      "lat": 46.77324986404506,
      "lon": -56.13684938941558,
      "geoinfo": {
        "display_name": "Pointe à la Caille, Saint-Pierre, Saint Pierre and Miquelon, 97500, France",
        "road": null,
        "house_number": null,
        "neighbourhood": null,
        "suburb": null,
        "city_district": null,
        "city": "Saint-Pierre",
        "state": "Saint Pierre and Miquelon",
        "postcode": "97500",
        "country": "France",
        "country_code": "fr"
      },
      "address": "937, Saint-Pierre, 97500 Saint Pierre and Miquelon, Saint Pierre and Miquelon"
    },
    {
      "lat": 46.8079892257336,
      "lon": -56.132393947019054,
      "geoinfo": {
        "display_name": "Cap à Gordon, Saint-Pierre, Saint Pierre and Miquelon, 97500, France",
        "road": null,
        "house_number": null,
        "neighbourhood": null,
        "suburb": null,
        "city_district": null,
        "city": "Saint-Pierre",
        "state": "Saint Pierre and Miquelon",
        "postcode": "97500",
        "country": "France",
        "country_code": "fr"
      },
      "address": "948, Saint-Pierre, 97500 Saint Pierre and Miquelon, Saint Pierre and Miquelon"
    },
    {
      "lat": 46.744891410720214,
      "lon": -56.164547080381,
      "geoinfo": {
        "display_name": "Saint Pierre and Miquelon, France",
        "road": null,
        "house_number": null,
        "neighbourhood": null,
        "suburb": null,
        "city_district": null,
        "city": null,
        "state": "Saint Pierre and Miquelon",
        "postcode": null,
        "country": "France",
        "country_code": "fr"
      },
      "address": "218, Saint-Pierre, 32044 Saint Pierre and Miquelon, Saint Pierre and Miquelon"
    },
    {
      "lat": 46.77330604560368,
      "lon": -56.23378515345307,
      "geoinfo": {
        "display_name": "22, Route Anse à Brossard, Saint-Pierre, Saint Pierre and Miquelon, 97500, France",
        "road": "Route Anse à Brossard",
        "house_number": "22",
        "neighbourhood": null,
        "suburb": null,
        "city_district": null,
        "city": "Saint-Pierre",
        "state": "Saint Pierre and Miquelon",
        "postcode": "97500",
        "country": "France",
        "country_code": "fr"
      },
      "address": "22, Route Anse à Brossard, Saint-Pierre, 97500 Saint Pierre and Miquelon, Saint Pierre and Miquelon"
    },
    {
      "lat": 46.81195558298827,
      "lon": -56.18254331645546,
      "geoinfo": {
        "display_name": "Cap au Diable, Saint-Pierre, Saint Pierre and Miquelon, 97500, France",
        "road": null,
        "house_number": null,
        "neighbourhood": null,
        "suburb": null,
        "city_district": null,
        "city": "Saint-Pierre",
        "state": "Saint Pierre and Miquelon",
        "postcode": "97500",
        "country": "France",
        "country_code": "fr"
      },
      "address": "280, Saint-Pierre, 97500 Saint Pierre and Miquelon, Saint Pierre and Miquelon"
    },
    {
      "lat": 46.81213793831988,
      "lon": -56.19762152234957,
      "geoinfo": {
        "display_name": "Cap au Diable, Saint-Pierre, Saint Pierre and Miquelon, 97500, France",
        "road": null,
        "house_number": null,
        "neighbourhood": null,
        "suburb": null,
        "city_district": null,
        "city": "Saint-Pierre",
        "state": "Saint Pierre and Miquelon",
        "postcode": "97500",
        "country": "France",
        "country_code": "fr"
      },
      "address": "624, Saint-Pierre, 97500 Saint Pierre and Miquelon, Saint Pierre and Miquelon"
    },
    {
      "lat": 46.75848668407032,
      "lon": -56.16155842269569,
      "geoinfo": {
        "display_name": "Route de Galantry, Saint-Pierre, Saint Pierre and Miquelon, 97500, France",
        "road": "Route de Galantry",
        "house_number": null,
        "neighbourhood": null,
        "suburb": null,
        "city_district": null,
        "city": "Saint-Pierre",
        "state": "Saint Pierre and Miquelon",
        "postcode": "97500",
        "country": "France",
        "country_code": "fr"
      },
      "address": "153, Route de Galantry, Saint-Pierre, 97500 Saint Pierre and Miquelon, Saint Pierre and Miquelon"
    },
    {
      "lat": 46.74909072696488,
      "lon": -56.13964325793113,
      "geoinfo": {
        "display_name": "Saint Pierre and Miquelon, France",
        "road": null,
        "house_number": null,
        "neighbourhood": null,
        "suburb": null,
        "city_district": null,
        "city": null,
        "state": "Saint Pierre and Miquelon",
        "postcode": null,
        "country": "France",
        "country_code": "fr"
      },
      "address": "241, Saint-Pierre, 11334 Saint Pierre and Miquelon, Saint Pierre and Miquelon"
    },
    {
      "lat": 46.79849214062028,
      "lon": -56.169949347550244,
      "geoinfo": {
        "display_name": "Pointe à Henry, Saint-Pierre, Saint Pierre and Miquelon, 97500, France",
        "road": null,
        "house_number": null,
        "neighbourhood": null,
        "suburb": null,
        "city_district": null,
        "city": "Saint-Pierre",
        "state": "Saint Pierre and Miquelon",
        "postcode": "97500",
        "country": "France",
        "country_code": "fr"
      },
      "address": "169, Saint-Pierre, 97500 Saint Pierre and Miquelon, Saint Pierre and Miquelon"
    },
    {
      "lat": 46.795050673011836,
      "lon": -56.16593394055398,
      "geoinfo": {
        "display_name": "Route de l'étang Thélot, Saint-Pierre, Saint Pierre and Miquelon, 97500, France",
        "road": "Route de l'étang Thélot",
        "house_number": null,
        "neighbourhood": null,
        "suburb": null,
        "city_district": null,
        "city": "Saint-Pierre",
        "state": "Saint Pierre and Miquelon",
        "postcode": "97500",
        "country": "France",
        "country_code": "fr"
      },
      "address": "813, Route de l'étang Thélot, Saint-Pierre, 97500 Saint Pierre and Miquelon, Saint Pierre and Miquelon"
    },
    {
      "lat": 46.738987348177396,
      "lon": -56.148669739408554,
      "geoinfo": {
        "display_name": "Saint Pierre and Miquelon, France",
        "road": null,
        "house_number": null,
        "neighbourhood": null,
        "suburb": null,
        "city_district": null,
        "city": null,
        "state": "Saint Pierre and Miquelon",
        "postcode": null,
        "country": "France",
        "country_code": "fr"
      },
      "address": "570, Saint-Pierre, 42434 Saint Pierre and Miquelon, Saint Pierre and Miquelon"
    },
    {
      "lat": 46.80692163609703,
      "lon": -56.1595413765065,
      "geoinfo": {
        "display_name": "Pointe à Henry, Saint-Pierre, Saint Pierre and Miquelon, 97500, France",
        "road": null,
        "house_number": null,
        "neighbourhood": null,
        "suburb": null,
        "city_district": null,
        "city": "Saint-Pierre",
        "state": "Saint Pierre and Miquelon",
        "postcode": "97500",
        "country": "France",
        "country_code": "fr"
      },
      "address": "356, Saint-Pierre, 97500 Saint Pierre and Miquelon, Saint Pierre and Miquelon"
    },
    {
      "lat": 46.75522281557229,
      "lon": -56.14994736844973,
      "geoinfo": {
        "display_name": "Cap Noir, Saint-Pierre, Saint Pierre and Miquelon, 97500, France",
        "road": null,
        "house_number": null,
        "neighbourhood": null,
        "suburb": null,
        "city_district": null,
        "city": "Saint-Pierre",
        "state": "Saint Pierre and Miquelon",
        "postcode": "97500",
        "country": "France",
        "country_code": "fr"
      },
      "address": "025, Saint-Pierre, 97500 Saint Pierre and Miquelon, Saint Pierre and Miquelon"
    },
    {
      "lat": 46.776470215945864,
      "lon": -56.225902321084845,
      "geoinfo": {
        "display_name": "Cap à la Vierge, Saint-Pierre, Saint Pierre and Miquelon, 97500, France",
        "road": null,
        "house_number": null,
        "neighbourhood": null,
        "suburb": null,
        "city_district": null,
        "city": "Saint-Pierre",
        "state": "Saint Pierre and Miquelon",
        "postcode": "97500",
        "country": "France",
        "country_code": "fr"
      },
      "address": "484, Saint-Pierre, 97500 Saint Pierre and Miquelon, Saint Pierre and Miquelon"
    },
    {
      "lat": 46.80073996075803,
      "lon": -56.13848187362292,
      "geoinfo": {
        "display_name": "Cap à Gordon, Saint-Pierre, Saint Pierre and Miquelon, 97500, France",
        "road": null,
        "house_number": null,
        "neighbourhood": null,
        "suburb": null,
        "city_district": null,
        "city": "Saint-Pierre",
        "state": "Saint Pierre and Miquelon",
        "postcode": "97500",
        "country": "France",
        "country_code": "fr"
      },
      "address": "593, Saint-Pierre, 97500 Saint Pierre and Miquelon, Saint Pierre and Miquelon"
    },
    {
      "lat": 46.76069152189169,
      "lon": -56.21783341331827,
      "geoinfo": {
        "display_name": "Route du Diamant, Saint-Pierre, Saint Pierre and Miquelon, 97500, France",
        "road": "Route du Diamant",
        "house_number": null,
        "neighbourhood": null,
        "suburb": null,
        "city_district": null,
        "city": "Saint-Pierre",
        "state": "Saint Pierre and Miquelon",
        "postcode": "97500",
        "country": "France",
        "country_code": "fr"
      },
      "address": "211, Route du Diamant, Saint-Pierre, 97500 Saint Pierre and Miquelon, Saint Pierre and Miquelon"
    },
    {
      "lat": 46.78869169428846,
      "lon": -56.16960617334133,
      "geoinfo": {
        "display_name": "23, Boulevard Thélot, Saint-Pierre, Saint Pierre and Miquelon, 97500, France",
        "road": "Boulevard Thélot",
        "house_number": "23",
        "neighbourhood": null,
        "suburb": null,
        "city_district": null,
        "city": "Saint-Pierre",
        "state": "Saint Pierre and Miquelon",
        "postcode": "97500",
        "country": "France",
        "country_code": "fr"
      },
      "address": "23, Boulevard Thélot, Saint-Pierre, 97500 Saint Pierre and Miquelon, Saint Pierre and Miquelon"
    },
    {
      "lat": 46.75866133000546,
      "lon": -56.149807841888666,
      "geoinfo": {
        "display_name": "Cap Noir, Saint-Pierre, Saint Pierre and Miquelon, 97500, France",
        "road": null,
        "house_number": null,
        "neighbourhood": null,
        "suburb": null,
        "city_district": null,
        "city": "Saint-Pierre",
        "state": "Saint Pierre and Miquelon",
        "postcode": "97500",
        "country": "France",
        "country_code": "fr"
      },
      "address": "479, Saint-Pierre, 97500 Saint Pierre and Miquelon, Saint Pierre and Miquelon"
    },
    {
      "lat": 46.77144870881634,
      "lon": -56.225430804799814,
      "geoinfo": {
        "display_name": "188, Route de la Cléopâtre, Saint-Pierre, Saint Pierre and Miquelon, 97500, France",
        "road": "Route de la Cléopâtre",
        "house_number": "188",
        "neighbourhood": null,
        "suburb": null,
        "city_district": null,
        "city": "Saint-Pierre",
        "state": "Saint Pierre and Miquelon",
        "postcode": "97500",
        "country": "France",
        "country_code": "fr"
      },
      "address": "188, Route de la Cléopâtre, Saint-Pierre, 97500 Saint Pierre and Miquelon, Saint Pierre and Miquelon"
    },
    {
      "lat": 46.736663806645,
      "lon": -56.164910876401954,
      "geoinfo": {
        "display_name": "Saint Pierre and Miquelon, France",
        "road": null,
        "house_number": null,
        "neighbourhood": null,
        "suburb": null,
        "city_district": null,
        "city": null,
        "state": "Saint Pierre and Miquelon",
        "postcode": null,
        "country": "France",
        "country_code": "fr"
      },
      "address": "753, Saint-Pierre, 84859 Saint Pierre and Miquelon, Saint Pierre and Miquelon"
    },
    {
      "lat": 46.79036126315892,
      "lon": -56.2230251610609,
      "geoinfo": {
        "display_name": "Saint Pierre and Miquelon, France",
        "road": null,
        "house_number": null,
        "neighbourhood": null,
        "suburb": null,
        "city_district": null,
        "city": null,
        "state": "Saint Pierre and Miquelon",
        "postcode": null,
        "country": "France",
        "country_code": "fr"
      },
      "address": "697, Saint-Pierre, 32045 Saint Pierre and Miquelon, Saint Pierre and Miquelon"
    },
    {
      "lat": 46.81763943822694,
      "lon": -56.16047518481083,
      "geoinfo": {
        "display_name": "Pointe à Henry, Saint-Pierre, Saint Pierre and Miquelon, 97500, France",
        "road": null,
        "house_number": null,
        "neighbourhood": null,
        "suburb": null,
        "city_district": null,
        "city": "Saint-Pierre",
        "state": "Saint Pierre and Miquelon",
        "postcode": "97500",
        "country": "France",
        "country_code": "fr"
      },
      "address": "518, Saint-Pierre, 97500 Saint Pierre and Miquelon, Saint Pierre and Miquelon"
    },
    {
      "lat": 46.752617825734006,
      "lon": -56.179701558595916,
      "geoinfo": {
        "display_name": "Saint Pierre and Miquelon, France",
        "road": null,
        "house_number": null,
        "neighbourhood": null,
        "suburb": null,
        "city_district": null,
        "city": null,
        "state": "Saint Pierre and Miquelon",
        "postcode": null,
        "country": "France",
        "country_code": "fr"
      },
      "address": "118, Saint-Pierre, 09255 Saint Pierre and Miquelon, Saint Pierre and Miquelon"
    },
    {
      "lat": 46.7629626025097,
      "lon": -56.225149830753175,
      "geoinfo": {
        "display_name": "Route de la Plage, Saint-Pierre, Saint Pierre and Miquelon, 97500, France",
        "road": "Route de la Plage",
        "house_number": null,
        "neighbourhood": null,
        "suburb": null,
        "city_district": null,
        "city": "Saint-Pierre",
        "state": "Saint Pierre and Miquelon",
        "postcode": "97500",
        "country": "France",
        "country_code": "fr"
      },
      "address": "947, Route de la Plage, Saint-Pierre, 97500 Saint Pierre and Miquelon, Saint Pierre and Miquelon"
    },
    {
      "lat": 46.77475349318325,
      "lon": -56.22845568071104,
      "geoinfo": {
        "display_name": "Cap à la Vierge, Saint-Pierre, Saint Pierre and Miquelon, 97500, France",
        "road": null,
        "house_number": null,
        "neighbourhood": null,
        "suburb": null,
        "city_district": null,
        "city": "Saint-Pierre",
        "state": "Saint Pierre and Miquelon",
        "postcode": "97500",
        "country": "France",
        "country_code": "fr"
      },
      "address": "467, Saint-Pierre, 97500 Saint Pierre and Miquelon, Saint Pierre and Miquelon"
    },
    {
      "lat": 46.744645704839684,
      "lon": -56.199793513968295,
      "geoinfo": {
        "display_name": "Pointe aux Basques, Saint-Pierre, Saint Pierre and Miquelon, 97500, France",
        "road": null,
        "house_number": null,
        "neighbourhood": null,
        "suburb": null,
        "city_district": null,
        "city": "Saint-Pierre",
        "state": "Saint Pierre and Miquelon",
        "postcode": "97500",
        "country": "France",
        "country_code": "fr"
      },
      "address": "015, Saint-Pierre, 97500 Saint Pierre and Miquelon, Saint Pierre and Miquelon"
    },
    {
      "lat": 46.78230527278218,
      "lon": -56.221311257327024,
      "geoinfo": {
        "display_name": "Cap à la Vierge, Saint-Pierre, Saint Pierre and Miquelon, 97500, France",
        "road": null,
        "house_number": null,
        "neighbourhood": null,
        "suburb": null,
        "city_district": null,
        "city": "Saint-Pierre",
        "state": "Saint Pierre and Miquelon",
        "postcode": "97500",
        "country": "France",
        "country_code": "fr"
      },
      "address": "944, Saint-Pierre, 97500 Saint Pierre and Miquelon, Saint Pierre and Miquelon"
    },
    {
      "lat": 46.767592496194965,
      "lon": -56.221000628841715,
      "geoinfo": {
        "display_name": "160, Route de la Cléopâtre, Saint-Pierre, Saint Pierre and Miquelon, 97500, France",
        "road": "Route de la Cléopâtre",
        "house_number": "160",
        "neighbourhood": null,
        "suburb": null,
        "city_district": null,
        "city": "Saint-Pierre",
        "state": "Saint Pierre and Miquelon",
        "postcode": "97500",
        "country": "France",
        "country_code": "fr"
      },
      "address": "160, Route de la Cléopâtre, Saint-Pierre, 97500 Saint Pierre and Miquelon, Saint Pierre and Miquelon"
    },
    {
      "lat": 46.78524748265262,
      "lon": -56.15821864188427,
      "geoinfo": {
        "display_name": "Saint-Pierre, Saint Pierre and Miquelon, 97500, France",
        "road": null,
        "house_number": null,
        "neighbourhood": null,
        "suburb": null,
        "city_district": null,
        "city": "Saint-Pierre",
        "state": "Saint Pierre and Miquelon",
        "postcode": "97500",
        "country": "France",
        "country_code": "fr"
      },
      "address": "264, Saint-Pierre, 97500 Saint Pierre and Miquelon, Saint Pierre and Miquelon"
    },
    {
      "lat": 46.78910114933204,
      "lon": -56.16270325028871,
      "geoinfo": {
        "display_name": "Pont de Courval, Boulevard Thélot, Saint-Pierre, Saint Pierre and Miquelon, 97500, France",
        "road": "Boulevard Thélot",
        "house_number": null,
        "neighbourhood": null,
        "suburb": null,
        "city_district": null,
        "city": "Saint-Pierre",
        "state": "Saint Pierre and Miquelon",
        "postcode": "97500",
        "country": "France",
        "country_code": "fr"
      },
      "address": "058, Boulevard Thélot, Saint-Pierre, 97500 Saint Pierre and Miquelon, Saint Pierre and Miquelon"
    },
    {
      "lat": 46.78534304963115,
      "lon": -56.22933689029958,
      "geoinfo": {
        "display_name": "Cap à la Vierge, Saint-Pierre, Saint Pierre and Miquelon, 97500, France",
        "road": null,
        "house_number": null,
        "neighbourhood": null,
        "suburb": null,
        "city_district": null,
        "city": "Saint-Pierre",
        "state": "Saint Pierre and Miquelon",
        "postcode": "97500",
        "country": "France",
        "country_code": "fr"
      },
      "address": "159, Saint-Pierre, 97500 Saint Pierre and Miquelon, Saint Pierre and Miquelon"
    },
    {
      "lat": 46.748641332848024,
      "lon": -56.170115560006295,
      "geoinfo": {
        "display_name": "Saint Pierre and Miquelon, France",
        "road": null,
        "house_number": null,
        "neighbourhood": null,
        "suburb": null,
        "city_district": null,
        "city": null,
        "state": "Saint Pierre and Miquelon",
        "postcode": null,
        "country": "France",
        "country_code": "fr"
      },
      "address": "810, Saint-Pierre, 10389 Saint Pierre and Miquelon, Saint Pierre and Miquelon"
    },
    {
      "lat": 46.75058308453005,
      "lon": -56.14353725240941,
      "geoinfo": {
        "display_name": "Cap Noir, Saint-Pierre, Saint Pierre and Miquelon, 97500, France",
        "road": null,
        "house_number": null,
        "neighbourhood": null,
        "suburb": null,
        "city_district": null,
        "city": "Saint-Pierre",
        "state": "Saint Pierre and Miquelon",
        "postcode": "97500",
        "country": "France",
        "country_code": "fr"
      },
      "address": "028, Saint-Pierre, 97500 Saint Pierre and Miquelon, Saint Pierre and Miquelon"
    },
    {
      "lat": 46.7678707459518,
      "lon": -56.14429133547166,
      "geoinfo": {
        "display_name": "Cap Noir, Saint-Pierre, Saint Pierre and Miquelon, 97500, France",
        "road": null,
        "house_number": null,
        "neighbourhood": null,
        "suburb": null,
        "city_district": null,
        "city": "Saint-Pierre",
        "state": "Saint Pierre and Miquelon",
        "postcode": "97500",
        "country": "France",
        "country_code": "fr"
      },
      "address": "802, Saint-Pierre, 97500 Saint Pierre and Miquelon, Saint Pierre and Miquelon"
    },
    {
      "lat": 46.77465364024835,
      "lon": -56.23373438295994,
      "geoinfo": {
        "display_name": "Cap à la Vierge, Saint-Pierre, Saint Pierre and Miquelon, 97500, France",
        "road": null,
        "house_number": null,
        "neighbourhood": null,
        "suburb": null,
        "city_district": null,
        "city": "Saint-Pierre",
        "state": "Saint Pierre and Miquelon",
        "postcode": "97500",
        "country": "France",
        "country_code": "fr"
      },
      "address": "032, Saint-Pierre, 97500 Saint Pierre and Miquelon, Saint Pierre and Miquelon"
    },
    {
      "lat": 46.81302500914429,
      "lon": -56.194660919323645,
      "geoinfo": {
        "display_name": "Cap au Diable, Saint-Pierre, Saint Pierre and Miquelon, 97500, France",
        "road": null,
        "house_number": null,
        "neighbourhood": null,
        "suburb": null,
        "city_district": null,
        "city": "Saint-Pierre",
        "state": "Saint Pierre and Miquelon",
        "postcode": "97500",
        "country": "France",
        "country_code": "fr"
      },
      "address": "889, Saint-Pierre, 97500 Saint Pierre and Miquelon, Saint Pierre and Miquelon"
    },
    {
      "lat": 46.81251400693767,
      "lon": -56.18714149634767,
      "geoinfo": {
        "display_name": "Cap au Diable, Saint-Pierre, Saint Pierre and Miquelon, 97500, France",
        "road": null,
        "house_number": null,
        "neighbourhood": null,
        "suburb": null,
        "city_district": null,
        "city": "Saint-Pierre",
        "state": "Saint Pierre and Miquelon",
        "postcode": "97500",
        "country": "France",
        "country_code": "fr"
      },
      "address": "694, Saint-Pierre, 97500 Saint Pierre and Miquelon, Saint Pierre and Miquelon"
    },
    {
      "lat": 46.778490126515045,
      "lon": -56.224630254120086,
      "geoinfo": {
        "display_name": "Cap à la Vierge, Saint-Pierre, Saint Pierre and Miquelon, 97500, France",
        "road": null,
        "house_number": null,
        "neighbourhood": null,
        "suburb": null,
        "city_district": null,
        "city": "Saint-Pierre",
        "state": "Saint Pierre and Miquelon",
        "postcode": "97500",
        "country": "France",
        "country_code": "fr"
      },
      "address": "082, Saint-Pierre, 97500 Saint Pierre and Miquelon, Saint Pierre and Miquelon"
    },
    {
      "lat": 46.798164653577444,
      "lon": -56.232988061039286,
      "geoinfo": {
        "display_name": "Saint Pierre and Miquelon, France",
        "road": null,
        "house_number": null,
        "neighbourhood": null,
        "suburb": null,
        "city_district": null,
        "city": null,
        "state": "Saint Pierre and Miquelon",
        "postcode": null,
        "country": "France",
        "country_code": "fr"
      },
      "address": "010, Saint-Pierre, 11783 Saint Pierre and Miquelon, Saint Pierre and Miquelon"
    },
    {
      "lat": 46.744309394750495,
      "lon": -56.17556440927803,
      "geoinfo": {
        "display_name": "Saint Pierre and Miquelon, France",
        "road": null,
        "house_number": null,
        "neighbourhood": null,
        "suburb": null,
        "city_district": null,
        "city": null,
        "state": "Saint Pierre and Miquelon",
        "postcode": null,
        "country": "France",
        "country_code": "fr"
      },
      "address": "120, Saint-Pierre, 25719 Saint Pierre and Miquelon, Saint Pierre and Miquelon"
    },
    {
      "lat": 46.7682542514487,
      "lon": -56.214288860069665,
      "geoinfo": {
        "display_name": "114, Route de la Cléopâtre, Saint-Pierre, Saint Pierre and Miquelon, 97500, France",
        "road": "Route de la Cléopâtre",
        "house_number": "114",
        "neighbourhood": null,
        "suburb": null,
        "city_district": null,
        "city": "Saint-Pierre",
        "state": "Saint Pierre and Miquelon",
        "postcode": "97500",
        "country": "France",
        "country_code": "fr"
      },
      "address": "114, Route de la Cléopâtre, Saint-Pierre, 97500 Saint Pierre and Miquelon, Saint Pierre and Miquelon"
    },
    {
      "lat": 46.75481034527981,
      "lon": -56.12789550279007,
      "geoinfo": {
        "display_name": "Saint Pierre and Miquelon, France",
        "road": null,
        "house_number": null,
        "neighbourhood": null,
        "suburb": null,
        "city_district": null,
        "city": null,
        "state": "Saint Pierre and Miquelon",
        "postcode": null,
        "country": "France",
        "country_code": "fr"
      },
      "address": "145, Saint-Pierre, 64701 Saint Pierre and Miquelon, Saint Pierre and Miquelon"
    },
    {
      "lat": 46.753095919528306,
      "lon": -56.185036516046424,
      "geoinfo": {
        "display_name": "Saint Pierre and Miquelon, France",
        "road": null,
        "house_number": null,
        "neighbourhood": null,
        "suburb": null,
        "city_district": null,
        "city": null,
        "state": "Saint Pierre and Miquelon",
        "postcode": null,
        "country": "France",
        "country_code": "fr"
      },
      "address": "821, Saint-Pierre, 86986 Saint Pierre and Miquelon, Saint Pierre and Miquelon"
    },
    {
      "lat": 46.79135328021863,
      "lon": -56.2262802579038,
      "geoinfo": {
        "display_name": "Saint Pierre and Miquelon, France",
        "road": null,
        "house_number": null,
        "neighbourhood": null,
        "suburb": null,
        "city_district": null,
        "city": null,
        "state": "Saint Pierre and Miquelon",
        "postcode": null,
        "country": "France",
        "country_code": "fr"
      },
      "address": "034, Saint-Pierre, 92434 Saint Pierre and Miquelon, Saint Pierre and Miquelon"
    },
    {
      "lat": 46.80516166961728,
      "lon": -56.19210176308044,
      "geoinfo": {
        "display_name": "Cap au Diable, Saint-Pierre, Saint Pierre and Miquelon, 97500, France",
        "road": null,
        "house_number": null,
        "neighbourhood": null,
        "suburb": null,
        "city_district": null,
        "city": "Saint-Pierre",
        "state": "Saint Pierre and Miquelon",
        "postcode": "97500",
        "country": "France",
        "country_code": "fr"
      },
      "address": "340, Saint-Pierre, 97500 Saint Pierre and Miquelon, Saint Pierre and Miquelon"
    },
    {
      "lat": 46.764031506527786,
      "lon": -56.218359997936666,
      "geoinfo": {
        "display_name": "Route de la Cléopâtre, Saint-Pierre, Saint Pierre and Miquelon, 97500, France",
        "road": "Route de la Cléopâtre",
        "house_number": null,
        "neighbourhood": null,
        "suburb": null,
        "city_district": null,
        "city": "Saint-Pierre",
        "state": "Saint Pierre and Miquelon",
        "postcode": "97500",
        "country": "France",
        "country_code": "fr"
      },
      "address": "856, Route de la Cléopâtre, Saint-Pierre, 97500 Saint Pierre and Miquelon, Saint Pierre and Miquelon"
    },
    {
      "lat": 46.7663135956791,
      "lon": -56.19393072168562,
      "geoinfo": {
        "display_name": "Route du Cap aux Basques, Saint-Pierre, Saint Pierre and Miquelon, 97500, France",
        "road": "Route du Cap aux Basques",
        "house_number": null,
        "neighbourhood": null,
        "suburb": null,
        "city_district": null,
        "city": "Saint-Pierre",
        "state": "Saint Pierre and Miquelon",
        "postcode": "97500",
        "country": "France",
        "country_code": "fr"
      },
      "address": "515, Route du Cap aux Basques, Saint-Pierre, 97500 Saint Pierre and Miquelon, Saint Pierre and Miquelon"
    },
    {
      "lat": 46.79514071414771,
      "lon": -56.12863504057071,
      "geoinfo": {
        "display_name": "Cap à Gordon, Saint-Pierre, Saint Pierre and Miquelon, 97500, France",
        "road": null,
        "house_number": null,
        "neighbourhood": null,
        "suburb": null,
        "city_district": null,
        "city": "Saint-Pierre",
        "state": "Saint Pierre and Miquelon",
        "postcode": "97500",
        "country": "France",
        "country_code": "fr"
      },
      "address": "781, Saint-Pierre, 97500 Saint Pierre and Miquelon, Saint Pierre and Miquelon"
    },
    {
      "lat": 46.788517065968655,
      "lon": -56.19837144890312,
      "geoinfo": {
        "display_name": "Route de l'Anse à Pierre, Saint-Pierre, Saint Pierre and Miquelon, 97500, France",
        "road": "Route de l'Anse à Pierre",
        "house_number": null,
        "neighbourhood": null,
        "suburb": null,
        "city_district": null,
        "city": "Saint-Pierre",
        "state": "Saint Pierre and Miquelon",
        "postcode": "97500",
        "country": "France",
        "country_code": "fr"
      },
      "address": "186, Route de l'Anse à Pierre, Saint-Pierre, 97500 Saint Pierre and Miquelon, Saint Pierre and Miquelon"
    },
    {
      "lat": 46.79066641834835,
      "lon": -56.174613291258765,
      "geoinfo": {
        "display_name": "Sentier de l'Étang du Trépied, Saint-Pierre, Saint Pierre and Miquelon, 97500, France",
        "road": "Sentier de l'Étang du Trépied",
        "house_number": null,
        "neighbourhood": null,
        "suburb": null,
        "city_district": null,
        "city": "Saint-Pierre",
        "state": "Saint Pierre and Miquelon",
        "postcode": "97500",
        "country": "France",
        "country_code": "fr"
      },
      "address": "123, Sentier de l'Étang du Trépied, Saint-Pierre, 97500 Saint Pierre and Miquelon, Saint Pierre and Miquelon"
    },
    {
      "lat": 46.78953121606163,
      "lon": -56.18433379157793,
      "geoinfo": {
        "display_name": "Sentier de l'Étang du Télégraphe, Saint-Pierre, Saint Pierre and Miquelon, 97500, France",
        "road": "Sentier de l'Étang du Télégraphe",
        "house_number": null,
        "neighbourhood": null,
        "suburb": null,
        "city_district": null,
        "city": "Saint-Pierre",
        "state": "Saint Pierre and Miquelon",
        "postcode": "97500",
        "country": "France",
        "country_code": "fr"
      },
      "address": "329, Sentier de l'Étang du Télégraphe, Saint-Pierre, 97500 Saint Pierre and Miquelon, Saint Pierre and Miquelon"
    },
    {
      "lat": 46.774967492633415,
      "lon": -56.213572154803835,
      "geoinfo": {
        "display_name": "Pointe aux Basques, Saint-Pierre, Saint Pierre and Miquelon, 97500, France",
        "road": null,
        "house_number": null,
        "neighbourhood": null,
        "suburb": null,
        "city_district": null,
        "city": "Saint-Pierre",
        "state": "Saint Pierre and Miquelon",
        "postcode": "97500",
        "country": "France",
        "country_code": "fr"
      },
      "address": "213, Saint-Pierre, 97500 Saint Pierre and Miquelon, Saint Pierre and Miquelon"
    },
    {
      "lat": 46.7807629259978,
      "lon": -56.24098891870347,
      "geoinfo": {
        "display_name": "Cap à la Vierge, Saint-Pierre, Saint Pierre and Miquelon, 97500, France",
        "road": null,
        "house_number": null,
        "neighbourhood": null,
        "suburb": null,
        "city_district": null,
        "city": "Saint-Pierre",
        "state": "Saint Pierre and Miquelon",
        "postcode": "97500",
        "country": "France",
        "country_code": "fr"
      },
      "address": "489, Saint-Pierre, 97500 Saint Pierre and Miquelon, Saint Pierre and Miquelon"
    },
    {
      "lat": 46.73544039970892,
      "lon": -56.18192077616876,
      "geoinfo": {
        "display_name": "Saint Pierre and Miquelon, France",
        "road": null,
        "house_number": null,
        "neighbourhood": null,
        "suburb": null,
        "city_district": null,
        "city": null,
        "state": "Saint Pierre and Miquelon",
        "postcode": null,
        "country": "France",
        "country_code": "fr"
      },
      "address": "503, Saint-Pierre, 05519 Saint Pierre and Miquelon, Saint Pierre and Miquelon"
    },
    {
      "lat": 46.736122009067365,
      "lon": -56.16017659648603,
      "geoinfo": {
        "display_name": "Saint Pierre and Miquelon, France",
        "road": null,
        "house_number": null,
        "neighbourhood": null,
        "suburb": null,
        "city_district": null,
        "city": null,
        "state": "Saint Pierre and Miquelon",
        "postcode": null,
        "country": "France",
        "country_code": "fr"
      },
      "address": "660, Saint-Pierre, 67354 Saint Pierre and Miquelon, Saint Pierre and Miquelon"
    },
    {
      "lat": 46.753811320218986,
      "lon": -56.12630767407518,
      "geoinfo": {
        "display_name": "Saint Pierre and Miquelon, France",
        "road": null,
        "house_number": null,
        "neighbourhood": null,
        "suburb": null,
        "city_district": null,
        "city": null,
        "state": "Saint Pierre and Miquelon",
        "postcode": null,
        "country": "France",
        "country_code": "fr"
      },
      "address": "121, Saint-Pierre, 49248 Saint Pierre and Miquelon, Saint Pierre and Miquelon"
    },
    {
      "lat": 46.78463124023088,
      "lon": -56.166600655604455,
      "geoinfo": {
        "display_name": "Quai Roselys, Quai Interpêche, Saint-Pierre, Saint Pierre and Miquelon, 97500, France",
        "road": "Quai Roselys",
        "house_number": null,
        "neighbourhood": null,
        "suburb": null,
        "city_district": null,
        "city": "Saint-Pierre",
        "state": "Saint Pierre and Miquelon",
        "postcode": "97500",
        "country": "France",
        "country_code": "fr"
      },
      "address": "312, Quai Roselys, Saint-Pierre, 97500 Saint Pierre and Miquelon, Saint Pierre and Miquelon"
    },
    {
      "lat": 46.75060292274193,
      "lon": -56.19218117879079,
      "geoinfo": {
        "display_name": "Pointe aux Basques, Saint-Pierre, Saint Pierre and Miquelon, 97500, France",
        "road": null,
        "house_number": null,
        "neighbourhood": null,
        "suburb": null,
        "city_district": null,
        "city": "Saint-Pierre",
        "state": "Saint Pierre and Miquelon",
        "postcode": "97500",
        "country": "France",
        "country_code": "fr"
      },
      "address": "522, Saint-Pierre, 97500 Saint Pierre and Miquelon, Saint Pierre and Miquelon"
    },
    {
      "lat": 46.75147739311411,
      "lon": -56.13285814111914,
      "geoinfo": {
        "display_name": "Saint Pierre and Miquelon, France",
        "road": null,
        "house_number": null,
        "neighbourhood": null,
        "suburb": null,
        "city_district": null,
        "city": null,
        "state": "Saint Pierre and Miquelon",
        "postcode": null,
        "country": "France",
        "country_code": "fr"
      },
      "address": "942, Saint-Pierre, 04364 Saint Pierre and Miquelon, Saint Pierre and Miquelon"
    },
    {
      "lat": 46.793707072312294,
      "lon": -56.17629099788371,
      "geoinfo": {
        "display_name": "Sentier de l'Étang du Trépied, Saint-Pierre, Saint Pierre and Miquelon, 97500, France",
        "road": "Sentier de l'Étang du Trépied",
        "house_number": null,
        "neighbourhood": null,
        "suburb": null,
        "city_district": null,
        "city": "Saint-Pierre",
        "state": "Saint Pierre and Miquelon",
        "postcode": "97500",
        "country": "France",
        "country_code": "fr"
      },
      "address": "736, Sentier de l'Étang du Trépied, Saint-Pierre, 97500 Saint Pierre and Miquelon, Saint Pierre and Miquelon"
    },
    {
      "lat": 46.77998200415623,
      "lon": -56.204991143614485,
      "geoinfo": {
        "display_name": "Pointe aux Basques, Saint-Pierre, Saint Pierre and Miquelon, 97500, France",
        "road": null,
        "house_number": null,
        "neighbourhood": null,
        "suburb": null,
        "city_district": null,
        "city": "Saint-Pierre",
        "state": "Saint Pierre and Miquelon",
        "postcode": "97500",
        "country": "France",
        "country_code": "fr"
      },
      "address": "330, Saint-Pierre, 97500 Saint Pierre and Miquelon, Saint Pierre and Miquelon"
    },
    {
      "lat": 46.812641337377634,
      "lon": -56.21262732961844,
      "geoinfo": {
        "display_name": "Cap au Diable, Saint-Pierre, Saint Pierre and Miquelon, 97500, France",
        "road": null,
        "house_number": null,
        "neighbourhood": null,
        "suburb": null,
        "city_district": null,
        "city": "Saint-Pierre",
        "state": "Saint Pierre and Miquelon",
        "postcode": "97500",
        "country": "France",
        "country_code": "fr"
      },
      "address": "357, Saint-Pierre, 97500 Saint Pierre and Miquelon, Saint Pierre and Miquelon"
    },
    {
      "lat": 46.78728859320754,
      "lon": -56.16114765479919,
      "geoinfo": {
        "display_name": "Digue Nord-Est, Saint-Pierre, Saint Pierre and Miquelon, 97500, France",
        "road": "Digue Nord-Est",
        "house_number": null,
        "neighbourhood": null,
        "suburb": null,
        "city_district": null,
        "city": "Saint-Pierre",
        "state": "Saint Pierre and Miquelon",
        "postcode": "97500",
        "country": "France",
        "country_code": "fr"
      },
      "address": "066, Digue Nord-Est, Saint-Pierre, 97500 Saint Pierre and Miquelon, Saint Pierre and Miquelon"
    },
    {
      "lat": 46.749908672511474,
      "lon": -56.19462722182397,
      "geoinfo": {
        "display_name": "Pointe aux Basques, Saint-Pierre, Saint Pierre and Miquelon, 97500, France",
        "road": null,
        "house_number": null,
        "neighbourhood": null,
        "suburb": null,
        "city_district": null,
        "city": "Saint-Pierre",
        "state": "Saint Pierre and Miquelon",
        "postcode": "97500",
        "country": "France",
        "country_code": "fr"
      },
      "address": "384, Saint-Pierre, 97500 Saint Pierre and Miquelon, Saint Pierre and Miquelon"
    },
    {
      "lat": 46.76108022971794,
      "lon": -56.224577354476494,
      "geoinfo": {
        "display_name": "Route de la Plage, Saint-Pierre, Saint Pierre and Miquelon, 97500, France",
        "road": "Route de la Plage",
        "house_number": null,
        "neighbourhood": null,
        "suburb": null,
        "city_district": null,
        "city": "Saint-Pierre",
        "state": "Saint Pierre and Miquelon",
        "postcode": "97500",
        "country": "France",
        "country_code": "fr"
      },
      "address": "121, Route de la Plage, Saint-Pierre, 97500 Saint Pierre and Miquelon, Saint Pierre and Miquelon"
    },
    {
      "lat": 46.740344927302246,
      "lon": -56.14737004068684,
      "geoinfo": {
        "display_name": "Saint Pierre and Miquelon, France",
        "road": null,
        "house_number": null,
        "neighbourhood": null,
        "suburb": null,
        "city_district": null,
        "city": null,
        "state": "Saint Pierre and Miquelon",
        "postcode": null,
        "country": "France",
        "country_code": "fr"
      },
      "address": "858, Saint-Pierre, 62443 Saint Pierre and Miquelon, Saint Pierre and Miquelon"
    },
    {
      "lat": 46.75658599503104,
      "lon": -56.18062338033559,
      "geoinfo": {
        "display_name": "Route de la Pointe Blanche, Saint-Pierre, Saint Pierre and Miquelon, 97500, France",
        "road": "Route de la Pointe Blanche",
        "house_number": null,
        "neighbourhood": null,
        "suburb": null,
        "city_district": null,
        "city": "Saint-Pierre",
        "state": "Saint Pierre and Miquelon",
        "postcode": "97500",
        "country": "France",
        "country_code": "fr"
      },
      "address": "149, Route de la Pointe Blanche, Saint-Pierre, 97500 Saint Pierre and Miquelon, Saint Pierre and Miquelon"
    },
    {
      "lat": 46.81954134166843,
      "lon": -56.17423046147772,
      "geoinfo": {
        "display_name": "Pointe à Henry, Saint-Pierre, Saint Pierre and Miquelon, 97500, France",
        "road": null,
        "house_number": null,
        "neighbourhood": null,
        "suburb": null,
        "city_district": null,
        "city": "Saint-Pierre",
        "state": "Saint Pierre and Miquelon",
        "postcode": "97500",
        "country": "France",
        "country_code": "fr"
      },
      "address": "163, Saint-Pierre, 97500 Saint Pierre and Miquelon, Saint Pierre and Miquelon"
    },
    {
      "lat": 46.77764943460411,
      "lon": -56.24138869795341,
      "geoinfo": {
        "display_name": "Cap à Brossard, Saint-Pierre, Saint Pierre and Miquelon, 97500, France",
        "road": null,
        "house_number": null,
        "neighbourhood": null,
        "suburb": null,
        "city_district": null,
        "city": "Saint-Pierre",
        "state": "Saint Pierre and Miquelon",
        "postcode": "97500",
        "country": "France",
        "country_code": "fr"
      },
      "address": "617, Saint-Pierre, 97500 Saint Pierre and Miquelon, Saint Pierre and Miquelon"
    },
    {
      "lat": 46.798983548197974,
      "lon": -56.15789313195854,
      "geoinfo": {
        "display_name": "Route de Frecker, Saint-Pierre, Saint Pierre and Miquelon, 97500, France",
        "road": "Route de Frecker",
        "house_number": null,
        "neighbourhood": null,
        "suburb": null,
        "city_district": null,
        "city": "Saint-Pierre",
        "state": "Saint Pierre and Miquelon",
        "postcode": "97500",
        "country": "France",
        "country_code": "fr"
      },
      "address": "690, Route de Frecker, Saint-Pierre, 97500 Saint Pierre and Miquelon, Saint Pierre and Miquelon"
    }
  ],
  "updated_at": "2025-10-19T05:13:51.654257+00:00",
  "_kind": "geo_samples"
}