{
  "country_code": "AL",
  "country": "Albania",
  "city": "Fier-Çifçi",
  "geonameid": 3185670,
  "target_addresses": 25,
  "samples": [
    {
      "lat": 40.731499076849964,
      "lon": 19.61340182661158,
      "geoinfo": {
        "display_name": "Fshat i Ri, Zharrëz, Bashkia Patos, Fier County, 9317, Albania",
        "road": null,
        "house_number": null,
        "neighbourhood": null,
        "suburb": null,
        "city_district": null,
        "city": "Fshat i Ri",
        "state": null,
        "postcode": "9317",
        "country": "Albania",
        "country_code": "al"
      },
      "address": "Fshat i Ri, Zharrëz, Bashkia Patos, Fier County, 9317, Albania"
    },
    {
      "lat": 40.7032330730825,
      "lon": 19.607077278929303,
      "geoinfo": {
        "display_name": "Grizë, Patos, Bashkia Patos, Fier County, 9307, Albania",
        "road": null,
        "house_number": null,
        "neighbourhood": null,
        "suburb": null,
        "city_district": null,
        "city": "Patos",
        "state": null,
        "postcode": "9307",
        "country": "Albania",
        "country_code": "al"
      },
      "address": "Grizë, Patos, Bashkia Patos, Fier County, 9307, Albania"
    },
    {
      "lat": 40.747426016127015,
      "lon": 19.56090206651518,
      "geoinfo": {
        "display_name": "A2, Daullas, Qendër, Bashkia Fier, Fier County, 9304, Albania",
        "road": "A2",
        "house_number": null,
        "neighbourhood": null,
        "suburb": null,
        "city_district": null,
        "city": "Qendër",
        "state": null,
        "postcode": "9304",
        "country": "Albania",
        "country_code": "al"
      },
      "address": "A2, Daullas, Qendër, Bashkia Fier, Fier County, 9304, Albania"
    },
    {
      "lat": 40.68747576724555,
      "lon": 19.55621380725537,
      "geoinfo": {
        "display_name": "Portëz, Bashkia Fier, Fier County, 9318, Albania",
        "road": null,
        "house_number": null,
        "neighbourhood": null,
        "suburb": null,
        "city_district": null,
        "city": "Portëz",
        "state": null,
        "postcode": "9318",
        "country": "Albania",
        "country_code": "al"
      },
      "address": "Portëz, Bashkia Fier, Fier County, 9318, Albania"
    },
    {
      "lat": 40.726767570932374,
      "lon": 19.585994509115096,
      "geoinfo": {
        "display_name": "Sheq i Madh, Qendër, Bashkia Fier, Fier County, 9300, Albania",
        "road": null,
        "house_number": null,
        "neighbourhood": null,
        "suburb": null,
        "city_district": null,
        "city": "Qendër",
        "state": null,
        "postcode": "9300",
        "country": "Albania",
        "country_code": "al"
      },
      "address": "Sheq i Madh, Qendër, Bashkia Fier, Fier County, 9300, Albania"
    },
    {
      "lat": 40.70426137861508,
      "lon": 19.563700591322423,
      "geoinfo": {
        "display_name": "Mbyet, Portëz, Bashkia Fier, Fier County, 9318, Albania",
        "road": null,
        "house_number": null,
        "neighbourhood": null,
        "suburb": null,
        "city_district": null,
        "city": "Mbyet",
        "state": null,
        "postcode": "9318",
        "country": "Albania",
        "country_code": "al"
      },
      "address": "137, Mbyet, Portëz, Bashkia Fier, Fier County, 9318, Albania"
    },
    {
      "lat": 40.67781318686371,
      "lon": 19.57544037364618,
      "geoinfo": {
        "display_name": "Kraps, Portëz, Bashkia Fier, Fier County, 9318, Albania",
        "road": null,
        "house_number": null,
        "neighbourhood": null,
        "suburb": null,
        "city_district": null,
        "city": "Kraps",
        "state": null,
        "postcode": "9318",
        "country": "Albania",
        "country_code": "al"
      },
      "address": "290, Kraps, Portëz, Bashkia Fier, Fier County, 9318, Albania"
    },
    {
      "lat": 40.735181487804375,
      "lon": 19.54312702865131,
      "geoinfo": {
        "display_name": "Rruga e Beshollëve, Afrim i Ri, Qendër, Bashkia Fier, Fier County, 9301, Albania",
        "road": "Rruga e Beshollëve",
        "house_number": null,
        "neighbourhood": "Afrim i Ri",
        "suburb": null,
        "city_district": null,
        "city": "Qendër",
        "state": null,
        "postcode": "9301",
        "country": "Albania",
        "country_code": "al"
      },
      "address": "035, Rruga e Beshollëve, Afrim i Ri, Qendër, Bashkia Fier, Fier County, 9301, Albania"
    },
    {
      "lat": 40.74014535651217,
      "lon": 19.578065490737,
      "geoinfo": {
        "display_name": "Fier, Bashkia Fier, Fier County, 9300, Albania",
        "road": null,
        "house_number": null,
        "neighbourhood": null,
        "suburb": null,
        "city_district": null,
        "city": "Fier",
        "state": null,
        "postcode": "9300",
        "country": "Albania",
        "country_code": "al"
      },
      "address": "644, Fier, Bashkia Fier, Fier County, 9300, Albania"
    },
    {
      "lat": 40.68676101500501,
      "lon": 19.572153059234257,
      "geoinfo": {
        "display_name": "Kraps, Portëz, Bashkia Fier, Fier County, 9318, Albania",
        "road": null,
        "house_number": null,
        "neighbourhood": null,
        "suburb": null,
        "city_district": null,
        "city": "Kraps",
        "state": null,
        "postcode": "9318",
        "country": "Albania",
        "country_code": "al"
      },
      "address": "364, Kraps, Portëz, Bashkia Fier, Fier County, 9318, Albania"
    },
    {
      "lat": 40.7149001748366,
      "lon": 19.6244183510784,
      "geoinfo": {
        "display_name": "Frashër, Zharrëz, Bashkia Patos, Fier County, 9317, Albania",
        "road": null,
        "house_number": null,
        "neighbourhood": null,
        "suburb": null,
        "city_district": null,
        "city": "Frashër",
        "state": null,
        "postcode": "9317",
        "country": "Albania",
        "country_code": "al"
      },
      "address": "690, Frashër, Zharrëz, Bashkia Patos, Fier County, 9317, Albania"
    },
    {
      "lat": 40.73494028303063,
      "lon": 19.597325999406905,
      "geoinfo": {
        "display_name": "Sheq i Madh, Qendër, Bashkia Fier, Fier County, 9300, Albania",
        "road": null,
        "house_number": null,
        "neighbourhood": null,
        "suburb": null,
        "city_district": null,
        "city": "Qendër",
        "state": null,
        "postcode": "9300",
        "country": "Albania",
        "country_code": "al"
      },
      "address": "681, Sheq i Madh, Qendër, Bashkia Fier, Fier County, 9300, Albania"
    },
    {
      "lat": 40.755279367385626,
      "lon": 19.55163496882738,
      "geoinfo": {
        "display_name": "Daullas, Qendër, Bashkia Fier, Fier County, 9304, Albania",
        "road": null,
        "house_number": null,
        "neighbourhood": null,
        "suburb": null,
        "city_district": null,
        "city": "Qendër",
        "state": null,
        "postcode": "9304",
        "country": "Albania",
        "country_code": "al"
      },
      "address": "787, Daullas, Qendër, Bashkia Fier, Fier County, 9304, Albania"
    },
    {
      "lat": 40.71736167138959,
      "lon": 19.529789963722063,
      "geoinfo": {
        "display_name": "Rruga Zhupan Radostinë, Vadhizë, Qendër, Bashkia Fier, Fier County, 9302, Albania",
        "road": "Rruga Zhupan Radostinë",
        "house_number": null,
        "neighbourhood": null,
        "suburb": null,
        "city_district": null,
        "city": "Qendër",
        "state": null,
        "postcode": "9302",
        "country": "Albania",
        "country_code": "al"
      },
      "address": "810, Rruga Zhupan Radostinë, Vadhizë, Qendër, Bashkia Fier, Fier County, 9302, Albania"
    },
    {
      "lat": 40.74954517666479,
      "lon": 19.55622385280756,
      "geoinfo": {
        "display_name": "Daullas, Qendër, Bashkia Fier, Fier County, 9304, Albania",
        "road": null,
        "house_number": null,
        "neighbourhood": null,
        "suburb": null,
        "city_district": null,
        "city": "Qendër",
        "state": null,
        "postcode": "9304",
        "country": "Albania",
        "country_code": "al"
      },
      "address": "091, Daullas, Qendër, Bashkia Fier, Fier County, 9304, Albania"
    },
    {
      "lat": 40.70056232256678,
      "lon": 19.535253814461054,
      "geoinfo": {
        "display_name": "Zhupan, Qendër, Bashkia Fier, Fier County, 9034, Albania",
        "road": null,
        "house_number": null,
        "neighbourhood": null,
        "suburb": null,
        "city_district": null,
        "city": "Qendër",
        "state": null,
        "postcode": "9034",
        "country": "Albania",
        "country_code": "al"
      },
      "address": "123, Zhupan, Qendër, Bashkia Fier, Fier County, 9034, Albania"
    },
    {
      "lat": 40.73233631340617,
      "lon": 19.52036344774844,
      "geoinfo": {
        "display_name": "Çlirim, Qendër, Bashkia Fier, Fier County, 9302, Albania",
        "road": null,
        "house_number": null,
        "neighbourhood": null,
        "suburb": null,
        "city_district": null,
        "city": "Qendër",
        "state": null,
        "postcode": "9302",
        "country": "Albania",
        "country_code": "al"
      },
      "address": "419, Çlirim, Qendër, Bashkia Fier, Fier County, 9302, Albania"
    },
    {
      "lat": 40.760966177280395,
      "lon": 19.567897511673586,
      "geoinfo": {
        "display_name": "Petovë, Mbrostar Ura, Bashkia Fier, Fier County, 9304, Albania",
        "road": null,
        "house_number": null,
        "neighbourhood": null,
        "suburb": null,
        "city_district": null,
        "city": "Mbrostar Ura",
        "state": null,
        "postcode": "9304",
        "country": "Albania",
        "country_code": "al"
      },
      "address": "797, Petovë, Mbrostar Ura, Bashkia Fier, Fier County, 9304, Albania"
    },
    {
      "lat": 40.68337309232981,
      "lon": 19.544969547046918,
      "geoinfo": {
        "display_name": "Levan, Bashkia Fier, Fier County, 9314, Albania",
        "road": null,
        "house_number": null,
        "neighbourhood": null,
        "suburb": null,
        "city_district": null,
        "city": "Levan",
        "state": null,
        "postcode": "9314",
        "country": "Albania",
        "country_code": "al"
      },
      "address": "863, Levan, Bashkia Fier, Fier County, 9314, Albania"
    },
    {
      "lat": 40.7162643739099,
      "lon": 19.57144845417408,
      "geoinfo": {
        "display_name": "Mbyet, Portëz, Bashkia Fier, Fier County, 9318, Albania",
        "road": null,
        "house_number": null,
        "neighbourhood": null,
        "suburb": null,
        "city_district": null,
        "city": "Mbyet",
        "state": null,
        "postcode": "9318",
        "country": "Albania",
        "country_code": "al"
      },
      "address": "641, Mbyet, Portëz, Bashkia Fier, Fier County, 9318, Albania"
    },
    {
      "lat": 40.74203613263291,
      "lon": 19.54566605584082,
      "geoinfo": {
        "display_name": "Rruga Aleksandra Mano, Mbrostar-Ferko, Qendër, Bashkia Fier, Fier County, 9304, Albania",
        "road": "Rruga Aleksandra Mano",
        "house_number": null,
        "neighbourhood": null,
        "suburb": null,
        "city_district": null,
        "city": "Qendër",
        "state": null,
        "postcode": "9304",
        "country": "Albania",
        "country_code": "al"
      },
      "address": "876, Rruga Aleksandra Mano, Mbrostar-Ferko, Qendër, Bashkia Fier, Fier County, 9304, Albania"
    },
    {
      "lat": 40.74760424386852,
      "lon": 19.583689033371634,
      "geoinfo": {
        "display_name": "Sheq i Madh, Qendër, Bashkia Fier, Fier County, 9304, Albania",
        "road": null,
        "house_number": null,
        "neighbourhood": null,
        "suburb": null,
        "city_district": null,
        "city": "Qendër",
        "state": null,
        "postcode": "9304",
        "country": "Albania",
        "country_code": "al"
      },
      "address": "339, Sheq i Madh, Qendër, Bashkia Fier, Fier County, 9304, Albania"
    },
    {
      "lat": 40.698713048189624,
      "lon": 19.549255673033127,
      "geoinfo": {
        "display_name": "Drizë-Myrteza, Qendër, Bashkia Fier, Fier County, 9318, Albania",
        "road": null,
        "house_number": null,
        "neighbourhood": null,
        "suburb": null,
        "city_district": null,
        "city": "Qendër",
        "state": null,
        "postcode": "9318",
        "country": "Albania",
        "country_code": "al"
      },
      "address": "471, Drizë-Myrteza, Qendër, Bashkia Fier, Fier County, 9318, Albania"
    },
    {
      "lat": 40.68886985778399,
      "lon": 19.558239012110036,
      "geoinfo": {
        "display_name": "Kraps, Portëz, Bashkia Fier, Fier County, 9318, Albania",
        "road": null,
        "house_number": null,
        "neighbourhood": null,
        "suburb": null,
        "city_district": null,
        "city": "Kraps",
        "state": null,
        "postcode": "9318",
        "country": "Albania",
        "country_code": "al"
      },
      "address": "840, Kraps, Portëz, Bashkia Fier, Fier County, 9318, Albania"
    },
    {
      "lat": 40.75352812909456,
      "lon": 19.569696197753586,
      "geoinfo": {
        "display_name": "Daullas, Qendër, Bashkia Fier, Fier County, 9304, Albania",
        "road": null,
        "house_number": null,
        "neighbourhood": null,
        "suburb": null,
        "city_district": null,
        "city": "Qendër",
        "state": null,
        "postcode": "9304",
        "country": "Albania",
        "country_code": "al"
      },
      "address": "133, Daullas, Qendër, Bashkia Fier, Fier County, 9304, Albania"
    }
  ],
  "updated_at": "2025-10-19T03:08:28.279244+00:00",
  "_kind": "geo_samples"
}