{
  "country_code": "AL",
  "country": "Albania",
  "city": "Korçë",
  "geonameid": 782756,
  "target_addresses": 5,
  "samples": [
    {
      "lat": 40.65459632710839,
      "lon": 20.790542387552282,
      "geoinfo": {
        "display_name": "Malavec, Qendër Bulgarec, Bashkia Korçë, Korçë County, Southern Albania, 7001, Albania",
        "road": null,
        "house_number": null,
        "neighbourhood": null,
        "suburb": null,
        "city_district": null,
        "city": "Qendër Bulgarec",
        "state": "Southern Albania",
        "postcode": "7001",
        "country": "Albania",
        "country_code": "al"
      },
      "address": "Korçë, Southern Albania, Albania"
    },
    {
      "lat": 40.62501564131674,
      "lon": 20.74355569871204,
      "geoinfo": {
        "display_name": "SH63, Turan, Drenovë, Bashkia Korçë, Korçë County, Southern Albania, 7023, Albania",
        "road": "SH63",
        "house_number": null,
        "neighbourhood": null,
        "suburb": null,
        "city_district": null,
        "city": "Turan",
        "state": "Southern Albania",
        "postcode": "7023",
        "country": "Albania",
        "country_code": "al"
      },
      "address": "SH63, Korçë, Southern Albania, Albania"
    },
    {
      "lat": 40.58945701212075,
      "lon": 20.8079662906923,
      "geoinfo": {
        "display_name": "Drenovë-Dishnicë, Drenovë, Bashkia Korçë, Korçë County, Southern Albania, 7023, Albania",
        "road": "Drenovë-Dishnicë",
        "house_number": null,
        "neighbourhood": null,
        "suburb": null,
        "city_district": null,
        "city": "Drenovë",
        "state": "Southern Albania",
        "postcode": "7023",
        "country": "Albania",
        "country_code": "al"
      },
      "address": "Drenovë-Dishnicë, Korçë, Southern Albania, Albania"
    },
    {
      "lat": 40.62112290835365,
      "lon": 20.751668060763503,
      "geoinfo": {
        "display_name": "Rruga Desaretët, Turan, Drenovë, Bashkia Korçë, Korçë County, Southern Albania, 7023, Albania",
        "road": "Rruga Desaretët",
        "house_number": null,
        "neighbourhood": null,
        "suburb": null,
        "city_district": null,
        "city": "Turan",
        "state": "Southern Albania",
        "postcode": "7023",
        "country": "Albania",
        "country_code": "al"
      },
      "address": "Rruga Desaretët, Korçë, Southern Albania, Albania"
    },
    {
      "lat": 40.59935326466797,
      "lon": 20.7870607155848,
      "geoinfo": {
        "display_name": "Rruga Sali Butka, Mborje, Drenovë, Bashkia Korçë, Korçë County, Southern Albania, 7023, Albania",
        "road": "Rruga Sali Butka",
        "house_number": null,
        "neighbourhood": null,
        "suburb": null,
        "city_district": null,
        "city": "Mborje",
        "state": "Southern Albania",
        "postcode": "7023",
        "country": "Albania",
        "country_code": "al"
      },
      "address": "Rruga Sali Butka, Korçë, Southern Albania, Albania"
    },
    {
      "lat": 40.64282101192163,
      "lon": 20.81318428122039,
      "geoinfo": {
        "display_name": "Dishnicë, Qendër Bulgarec, Bashkia Korçë, Korçë County, Southern Albania, 7001, Albania",
        "road": null,
        "house_number": null,
        "neighbourhood": null,
        "suburb": null,
        "city_district": null,
        "city": "Qendër Bulgarec",
        "state": "Southern Albania",
        "postcode": "7001",
        "country": "Albania",
        "country_code": "al"
      },
      "address": "184, Dishnicë, Qendër Bulgarec, Bashkia Korçë, Korçë County, Southern Albania, 7001, Albania"
    },
    {
      "lat": 40.65441512625932,
      "lon": 20.77477201349727,
      "geoinfo": {
        "display_name": "Çiflig, Qendër Bulgarec, Bashkia Korçë, Korçë County, Southern Albania, 7001, Albania",
        "road": null,
        "house_number": null,
        "neighbourhood": null,
        "suburb": null,
        "city_district": null,
        "city": "Qendër Bulgarec",
        "state": "Southern Albania",
        "postcode": "7001",
        "country": "Albania",
        "country_code": "al"
      },
      "address": "149, Çiflig, Qendër Bulgarec, Bashkia Korçë, Korçë County, Southern Albania, 7001, Albania"
    },
    {
      "lat": 40.624894880990595,
      "lon": 20.731877050511425,
      "geoinfo": {
        "display_name": "Porodinë, Qendër Bulgarec, Bashkia Korçë, Korçë County, Southern Albania, 7026, Albania",
        "road": null,
        "house_number": null,
        "neighbourhood": null,
        "suburb": null,
        "city_district": null,
        "city": "Qendër Bulgarec",
        "state": "Southern Albania",
        "postcode": "7026",
        "country": "Albania",
        "country_code": "al"
      },
      "address": "804, Porodinë, Qendër Bulgarec, Bashkia Korçë, Korçë County, Southern Albania, 7026, Albania"
    },
    {
      "lat": 40.64851330380638,
      "lon": 20.746911614272847,
      "geoinfo": {
        "display_name": "SH3, Çiflig, Qendër Bulgarec, Bashkia Korçë, Korçë County, Southern Albania, 7001, Albania",
        "road": "SH3",
        "house_number": null,
        "neighbourhood": null,
        "suburb": null,
        "city_district": null,
        "city": "Qendër Bulgarec",
        "state": "Southern Albania",
        "postcode": "7001",
        "country": "Albania",
        "country_code": "al"
      },
      "address": "SH3, Çiflig, Qendër Bulgarec, Bashkia Korçë, Korçë County, Southern Albania, 7001, Albania"
    },
    {
      "lat": 40.62601657105464,
      "lon": 20.82665134295801,
      "geoinfo": {
        "display_name": "Barç, Qendër Bulgarec, Bashkia Korçë, Korçë County, Southern Albania, 7001, Albania",
        "road": null,
        "house_number": null,
        "neighbourhood": null,
        "suburb": null,
        "city_district": null,
        "city": "Qendër Bulgarec",
        "state": "Southern Albania",
        "postcode": "7001",
        "country": "Albania",
        "country_code": "al"
      },
      "address": "316, Barç, Qendër Bulgarec, Bashkia Korçë, Korçë County, Southern Albania, 7001, Albania"
    }
  ],
  "updated_at": "2025-10-19T02:26:07.206690+00:00",
  "_kind": "geo_samples"
}