{
  "country_code": "AL",
  "country": "Albania",
  "city": "Kuçovë",
  "geonameid": 3185060,
  "target_addresses": 34,
  "samples": [
    {
      "lat": 40.78311671687001,
      "lon": 19.91871259074816,
      "geoinfo": {
        "display_name": "K92, Matangasit (Perondi), Perondi, Bashkia Kuçovë, Berat County, 5306, Albania",
        "road": "K92",
        "house_number": null,
        "neighbourhood": null,
        "suburb": null,
        "city_district": null,
        "city": "Perondi",
        "state": null,
        "postcode": "5306",
        "country": "Albania",
        "country_code": "al"
      },
      "address": "K92, Kuçovë, Albania"
    },
    {
      "lat": 40.82672445718991,
      "lon": 19.87437987486527,
      "geoinfo": {
        "display_name": "Ferras Kozarë, Kozare, Bashkia Kuçovë, Berat County, 5305, Albania",
        "road": null,
        "house_number": null,
        "neighbourhood": null,
        "suburb": null,
        "city_district": null,
        "city": "Kozare",
        "state": null,
        "postcode": "5305",
        "country": "Albania",
        "country_code": "al"
      },
      "address": "Kuçovë, Albania"
    },
    {
      "lat": 40.82123697672263,
      "lon": 19.963701113312222,
      "geoinfo": {
        "display_name": "Pashtraj, Lumas, Bashkia Kuçovë, Berat County, Southern Albania, 5013, Albania",
        "road": null,
        "house_number": null,
        "neighbourhood": null,
        "suburb": null,
        "city_district": null,
        "city": "Pashtraj",
        "state": "Southern Albania",
        "postcode": "5013",
        "country": "Albania",
        "country_code": "al"
      },
      "address": "Kuçovë, Southern Albania, Albania"
    },
    {
      "lat": 40.79940130486369,
      "lon": 19.937351974965345,
      "geoinfo": {
        "display_name": "K92, Velagosht, Perondi, Bashkia Kuçovë, Berat County, 5306, Albania",
        "road": "K92",
        "house_number": null,
        "neighbourhood": null,
        "suburb": null,
        "city_district": null,
        "city": "Velagosht",
        "state": null,
        "postcode": "5306",
        "country": "Albania",
        "country_code": "al"
      },
      "address": "K92, Kuçovë, Southern Albania, Albania"
    },
    {
      "lat": 40.75553378057421,
      "lon": 19.917584577277136,
      "geoinfo": {
        "display_name": "Moravë, Otllak, Berat Municipality, Berat County, Southern Albania, 5010, Albania",
        "road": null,
        "house_number": null,
        "neighbourhood": null,
        "suburb": null,
        "city_district": null,
        "city": "Moravë",
        "state": "Southern Albania",
        "postcode": "5010",
        "country": "Albania",
        "country_code": "al"
      },
      "address": "Kuçovë, 26275 Southern Albania, Albania"
    },
    {
      "lat": 40.805974050450324,
      "lon": 19.961989060178183,
      "geoinfo": {
        "display_name": "Sheqez, Lumas, Bashkia Kuçovë, Berat County, 5013, Albania",
        "road": null,
        "house_number": null,
        "neighbourhood": null,
        "suburb": null,
        "city_district": null,
        "city": "Sheqez",
        "state": null,
        "postcode": "5013",
        "country": "Albania",
        "country_code": "al"
      },
      "address": "Kuçovë, 97703 Southern Albania, Albania"
    },
    {
      "lat": 40.82214769693882,
      "lon": 19.905209815094118,
      "geoinfo": {
        "display_name": "Polovinë, Perondi, Bashkia Kuçovë, Berat County, 5306, Albania",
        "road": null,
        "house_number": null,
        "neighbourhood": null,
        "suburb": null,
        "city_district": null,
        "city": "Polovinë",
        "state": null,
        "postcode": "5306",
        "country": "Albania",
        "country_code": "al"
      },
      "address": "Polovinë, Perondi, Bashkia Kuçovë, Berat County, 5306, Albania"
    },
    {
      "lat": 40.833295782751804,
      "lon": 19.90233977019306,
      "geoinfo": {
        "display_name": "Kozarë, Kozare, Bashkia Kuçovë, Berat County, 5305, Albania",
        "road": null,
        "house_number": null,
        "neighbourhood": null,
        "suburb": null,
        "city_district": null,
        "city": "Kozare",
        "state": null,
        "postcode": "5305",
        "country": "Albania",
        "country_code": "al"
      },
      "address": "Kozarë, Kozare, Bashkia Kuçovë, Berat County, 5305, Albania"
    },
    {
      "lat": 40.759860460556,
      "lon": 19.905796873785363,
      "geoinfo": {
        "display_name": "Moravë, Otllak, Berat Municipality, Berat County, 5010, Albania",
        "road": null,
        "house_number": null,
        "neighbourhood": null,
        "suburb": null,
        "city_district": null,
        "city": "Moravë",
        "state": null,
        "postcode": "5010",
        "country": "Albania",
        "country_code": "al"
      },
      "address": "Moravë, Otllak, Berat Municipality, Berat County, 5010, Albania"
    },
    {
      "lat": 40.806070787289755,
      "lon": 19.959669151536776,
      "geoinfo": {
        "display_name": "Pashtraj, Lumas, Bashkia Kuçovë, Berat County, 5013, Albania",
        "road": null,
        "house_number": null,
        "neighbourhood": null,
        "suburb": null,
        "city_district": null,
        "city": "Pashtraj",
        "state": null,
        "postcode": "5013",
        "country": "Albania",
        "country_code": "al"
      },
      "address": "Pashtraj, Lumas, Bashkia Kuçovë, Berat County, 5013, Albania"
    },
    {
      "lat": 40.822031180987786,
      "lon": 19.93574717042691,
      "geoinfo": {
        "display_name": "K92, Velagosht, Perondi, Bashkia Kuçovë, Berat County, 5306, Albania",
        "road": "K92",
        "house_number": null,
        "neighbourhood": null,
        "suburb": null,
        "city_district": null,
        "city": "Velagosht",
        "state": null,
        "postcode": "5306",
        "country": "Albania",
        "country_code": "al"
      },
      "address": "K92, Velagosht, Perondi, Bashkia Kuçovë, Berat County, 5306, Albania"
    },
    {
      "lat": 40.8337127157204,
      "lon": 19.879841400601332,
      "geoinfo": {
        "display_name": "Fier Mimar, Kozare, Bashkia Kuçovë, Berat County, 5305, Albania",
        "road": null,
        "house_number": null,
        "neighbourhood": null,
        "suburb": null,
        "city_district": null,
        "city": "Kozare",
        "state": null,
        "postcode": "5305",
        "country": "Albania",
        "country_code": "al"
      },
      "address": "Fier Mimar, Kozare, Bashkia Kuçovë, Berat County, 5305, Albania"
    },
    {
      "lat": 40.798210329352855,
      "lon": 19.968524565982747,
      "geoinfo": {
        "display_name": "Sheqez, Lumas, Bashkia Kuçovë, Berat County, 5013, Albania",
        "road": null,
        "house_number": null,
        "neighbourhood": null,
        "suburb": null,
        "city_district": null,
        "city": "Sheqez",
        "state": null,
        "postcode": "5013",
        "country": "Albania",
        "country_code": "al"
      },
      "address": "Sheqez, Lumas, Bashkia Kuçovë, Berat County, 5013, Albania"
    },
    {
      "lat": 40.77979789536676,
      "lon": 19.918024211948488,
      "geoinfo": {
        "display_name": "SH92, Matangasit (Perondi), Perondi, Bashkia Kuçovë, Berat County, 5306, Albania",
        "road": "SH92",
        "house_number": null,
        "neighbourhood": null,
        "suburb": null,
        "city_district": null,
        "city": "Perondi",
        "state": null,
        "postcode": "5306",
        "country": "Albania",
        "country_code": "al"
      },
      "address": "SH92, Matangasit (Perondi), Perondi, Bashkia Kuçovë, Berat County, 5306, Albania"
    },
    {
      "lat": 40.841295900749316,
      "lon": 19.902306537031656,
      "geoinfo": {
        "display_name": "K123, Kozarë, Kozare, Bashkia Kuçovë, Berat County, 5305, Albania",
        "road": "K123",
        "house_number": null,
        "neighbourhood": null,
        "suburb": null,
        "city_district": null,
        "city": "Kozare",
        "state": null,
        "postcode": "5305",
        "country": "Albania",
        "country_code": "al"
      },
      "address": "K123, Kozarë, Kozare, Bashkia Kuçovë, Berat County, 5305, Albania"
    },
    {
      "lat": 40.83576250859047,
      "lon": 19.930763863149448,
      "geoinfo": {
        "display_name": "Gegë, Kozare, Bashkia Kuçovë, Berat County, 5305, Albania",
        "road": null,
        "house_number": null,
        "neighbourhood": null,
        "suburb": null,
        "city_district": null,
        "city": "Kozare",
        "state": null,
        "postcode": "5305",
        "country": "Albania",
        "country_code": "al"
      },
      "address": "411, Gegë, Kozare, Bashkia Kuçovë, Berat County, 5305, Albania"
    },
    {
      "lat": 40.79399670462864,
      "lon": 19.96737478526029,
      "geoinfo": {
        "display_name": "Sheqez, Lumas, Bashkia Kuçovë, Berat County, 5013, Albania",
        "road": null,
        "house_number": null,
        "neighbourhood": null,
        "suburb": null,
        "city_district": null,
        "city": "Sheqez",
        "state": null,
        "postcode": "5013",
        "country": "Albania",
        "country_code": "al"
      },
      "address": "200, Sheqez, Lumas, Bashkia Kuçovë, Berat County, 5013, Albania"
    },
    {
      "lat": 40.77110695492004,
      "lon": 19.957511927107635,
      "geoinfo": {
        "display_name": "Qoshkut (Lapardha), Lapardha, Otllak, Berat Municipality, Berat County, 5010, Albania",
        "road": null,
        "house_number": null,
        "neighbourhood": null,
        "suburb": null,
        "city_district": null,
        "city": "Lapardha",
        "state": null,
        "postcode": "5010",
        "country": "Albania",
        "country_code": "al"
      },
      "address": "387, Qoshkut (Lapardha), Lapardha, Otllak, Berat Municipality, Berat County, 5010, Albania"
    },
    {
      "lat": 40.809077060342844,
      "lon": 19.93203144301811,
      "geoinfo": {
        "display_name": "Goraj, Perondi, Bashkia Kuçovë, Berat County, 5306, Albania",
        "road": null,
        "house_number": null,
        "neighbourhood": null,
        "suburb": null,
        "city_district": null,
        "city": "Goraj",
        "state": null,
        "postcode": "5306",
        "country": "Albania",
        "country_code": "al"
      },
      "address": "813, Goraj, Perondi, Bashkia Kuçovë, Berat County, 5306, Albania"
    },
    {
      "lat": 40.842451379292655,
      "lon": 19.913832690203837,
      "geoinfo": {
        "display_name": "Kozarë, Kozare, Bashkia Kuçovë, Berat County, 5305, Albania",
        "road": null,
        "house_number": null,
        "neighbourhood": null,
        "suburb": null,
        "city_district": null,
        "city": "Kozare",
        "state": null,
        "postcode": "5305",
        "country": "Albania",
        "country_code": "al"
      },
      "address": "901, Kozarë, Kozare, Bashkia Kuçovë, Berat County, 5305, Albania"
    },
    {
      "lat": 40.82449734784669,
      "lon": 19.880279255695832,
      "geoinfo": {
        "display_name": "Havaleas, Kozare, Bashkia Kuçovë, Berat County, 5305, Albania",
        "road": null,
        "house_number": null,
        "neighbourhood": null,
        "suburb": null,
        "city_district": null,
        "city": "Kozare",
        "state": null,
        "postcode": "5305",
        "country": "Albania",
        "country_code": "al"
      },
      "address": "717, Havaleas, Kozare, Bashkia Kuçovë, Berat County, 5305, Albania"
    },
    {
      "lat": 40.76970186371129,
      "lon": 19.93788807199824,
      "geoinfo": {
        "display_name": "Qoshkut (Lapardha), Lapardha, Otllak, Berat Municipality, Berat County, 5010, Albania",
        "road": null,
        "house_number": null,
        "neighbourhood": null,
        "suburb": null,
        "city_district": null,
        "city": "Lapardha",
        "state": null,
        "postcode": "5010",
        "country": "Albania",
        "country_code": "al"
      },
      "address": "846, Qoshkut (Lapardha), Lapardha, Otllak, Berat Municipality, Berat County, 5010, Albania"
    },
    {
      "lat": 40.80734317271665,
      "lon": 19.919688257529543,
      "geoinfo": {
        "display_name": "Kuçovë, Bashkia Kuçovë, Berat County, 5301, Albania",
        "road": null,
        "house_number": null,
        "neighbourhood": null,
        "suburb": null,
        "city_district": null,
        "city": "Kuçovë",
        "state": null,
        "postcode": "5301",
        "country": "Albania",
        "country_code": "al"
      },
      "address": "800, Kuçovë, Bashkia Kuçovë, Berat County, 5301, Albania"
    },
    {
      "lat": 40.8240645106363,
      "lon": 19.936156440503026,
      "geoinfo": {
        "display_name": "K92, Velagosht, Perondi, Bashkia Kuçovë, Berat County, 5306, Albania",
        "road": "K92",
        "house_number": null,
        "neighbourhood": null,
        "suburb": null,
        "city_district": null,
        "city": "Velagosht",
        "state": null,
        "postcode": "5306",
        "country": "Albania",
        "country_code": "al"
      },
      "address": "K92, Velagosht, Perondi, Bashkia Kuçovë, Berat County, 5306, Albania"
    },
    {
      "lat": 40.78280415664045,
      "lon": 19.88691578511142,
      "geoinfo": {
        "display_name": "SH91, Tapi, Perondi, Bashkia Kuçovë, Berat County, 5306, Albania",
        "road": "SH91",
        "house_number": null,
        "neighbourhood": null,
        "suburb": null,
        "city_district": null,
        "city": "Tapi",
        "state": null,
        "postcode": "5306",
        "country": "Albania",
        "country_code": "al"
      },
      "address": "SH91, Tapi, Perondi, Bashkia Kuçovë, Berat County, 5306, Albania"
    },
    {
      "lat": 40.763594610223095,
      "lon": 19.907385027816286,
      "geoinfo": {
        "display_name": "Rruga Nacionale Fier-Berat, Moravë, Otllak, Berat Municipality, Berat County, 5010, Albania",
        "road": "Rruga Nacionale Fier-Berat",
        "house_number": null,
        "neighbourhood": null,
        "suburb": null,
        "city_district": null,
        "city": "Moravë",
        "state": null,
        "postcode": "5010",
        "country": "Albania",
        "country_code": "al"
      },
      "address": "102, Rruga Nacionale Fier-Berat, Moravë, Otllak, Berat Municipality, Berat County, 5010, Albania"
    },
    {
      "lat": 40.832176550242245,
      "lon": 19.921396876475043,
      "geoinfo": {
        "display_name": "Gegë, Kozare, Bashkia Kuçovë, Berat County, 5305, Albania",
        "road": null,
        "house_number": null,
        "neighbourhood": null,
        "suburb": null,
        "city_district": null,
        "city": "Kozare",
        "state": null,
        "postcode": "5305",
        "country": "Albania",
        "country_code": "al"
      },
      "address": "737, Gegë, Kozare, Bashkia Kuçovë, Berat County, 5305, Albania"
    },
    {
      "lat": 40.83687811956823,
      "lon": 19.88961379052666,
      "geoinfo": {
        "display_name": "Fier Mimar, Kozare, Bashkia Kuçovë, Berat County, 5305, Albania",
        "road": null,
        "house_number": null,
        "neighbourhood": null,
        "suburb": null,
        "city_district": null,
        "city": "Kozare",
        "state": null,
        "postcode": "5305",
        "country": "Albania",
        "country_code": "al"
      },
      "address": "763, Fier Mimar, Kozare, Bashkia Kuçovë, Berat County, 5305, Albania"
    },
    {
      "lat": 40.78380068962757,
      "lon": 19.868672739957862,
      "geoinfo": {
        "display_name": "Ura Vajgurore, Bashkia Ura Vajgurore, Berat County, 5007, Albania",
        "road": null,
        "house_number": null,
        "neighbourhood": null,
        "suburb": null,
        "city_district": "Ura Vajgurore",
        "city": "Bashkia Ura Vajgurore",
        "state": null,
        "postcode": "5007",
        "country": "Albania",
        "country_code": "al"
      },
      "address": "686, Ura Vajgurore, Bashkia Ura Vajgurore, Berat County, 5007, Albania"
    },
    {
      "lat": 40.82022238898029,
      "lon": 19.913273712799313,
      "geoinfo": {
        "display_name": "Polovinë, Perondi, Bashkia Kuçovë, Berat County, 5306, Albania",
        "road": null,
        "house_number": null,
        "neighbourhood": null,
        "suburb": null,
        "city_district": null,
        "city": "Polovinë",
        "state": null,
        "postcode": "5306",
        "country": "Albania",
        "country_code": "al"
      },
      "address": "610, Polovinë, Perondi, Bashkia Kuçovë, Berat County, 5306, Albania"
    },
    {
      "lat": 40.76764223212035,
      "lon": 19.880818902142835,
      "geoinfo": {
        "display_name": "Ura Vajgurore, Bashkia Ura Vajgurore, Berat County, 5007, Albania",
        "road": null,
        "house_number": null,
        "neighbourhood": null,
        "suburb": null,
        "city_district": "Ura Vajgurore",
        "city": "Bashkia Ura Vajgurore",
        "state": null,
        "postcode": "5007",
        "country": "Albania",
        "country_code": "al"
      },
      "address": "001, Ura Vajgurore, Bashkia Ura Vajgurore, Berat County, 5007, Albania"
    },
    {
      "lat": 40.814805199598304,
      "lon": 19.90139662643839,
      "geoinfo": {
        "display_name": "SH91, Polovinë, Perondi, Bashkia Kuçovë, Berat County, 5306, Albania",
        "road": "SH91",
        "house_number": null,
        "neighbourhood": null,
        "suburb": null,
        "city_district": null,
        "city": "Polovinë",
        "state": null,
        "postcode": "5306",
        "country": "Albania",
        "country_code": "al"
      },
      "address": "SH91, Polovinë, Perondi, Bashkia Kuçovë, Berat County, 5306, Albania"
    },
    {
      "lat": 40.790502253569926,
      "lon": 19.963665991021493,
      "geoinfo": {
        "display_name": "Sheqez, Lumas, Bashkia Kuçovë, Berat County, 5013, Albania",
        "road": null,
        "house_number": null,
        "neighbourhood": null,
        "suburb": null,
        "city_district": null,
        "city": "Sheqez",
        "state": null,
        "postcode": "5013",
        "country": "Albania",
        "country_code": "al"
      },
      "address": "333, Sheqez, Lumas, Bashkia Kuçovë, Berat County, 5013, Albania"
    },
    {
      "lat": 40.83129319402418,
      "lon": 19.916434141056023,
      "geoinfo": {
        "display_name": "Polovinë, Perondi, Bashkia Kuçovë, Berat County, 5306, Albania",
        "road": null,
        "house_number": null,
        "neighbourhood": null,
        "suburb": null,
        "city_district": null,
        "city": "Polovinë",
        "state": null,
        "postcode": "5306",
        "country": "Albania",
        "country_code": "al"
      },
      "address": "031, Polovinë, Perondi, Bashkia Kuçovë, Berat County, 5306, Albania"
    },
    {
      "lat": 40.81740479780832,
      "lon": 19.89234283192352,
      "geoinfo": {
        "display_name": "Kozarë, Kozare, Bashkia Kuçovë, Berat County, 5305, Albania",
        "road": null,
        "house_number": null,
        "neighbourhood": null,
        "suburb": null,
        "city_district": null,
        "city": "Kozare",
        "state": null,
        "postcode": "5305",
        "country": "Albania",
        "country_code": "al"
      },
      "address": "211, Kozarë, Kozare, Bashkia Kuçovë, Berat County, 5305, Albania"
    },
    {
      "lat": 40.796120469854294,
      "lon": 19.95620755828895,
      "geoinfo": {
        "display_name": "Sheqez, Lumas, Bashkia Kuçovë, Berat County, Southern Albania, 5013, Albania",
        "road": null,
        "house_number": null,
        "neighbourhood": null,
        "suburb": null,
        "city_district": null,
        "city": "Sheqez",
        "state": "Southern Albania",
        "postcode": "5013",
        "country": "Albania",
        "country_code": "al"
      },
      "address": "067, Sheqez, Lumas, Bashkia Kuçovë, Berat County, Southern Albania, 5013, Albania"
    }
  ],
  "updated_at": "2025-10-19T03:07:33.902557+00:00",
  "_kind": "geo_samples"
}