{
  "country_code": "AL",
  "country": "Albania",
  "city": "Patos",
  "geonameid": 3184518,
  "target_addresses": 5,
  "samples": [
    {
      "lat": 40.67637969429302,
      "lon": 19.63571655950868,
      "geoinfo": {
        "display_name": "Rrerës, Patos, Bashkia Patos, Fier County, 9307, Albania",
        "road": null,
        "house_number": null,
        "neighbourhood": null,
        "suburb": null,
        "city_district": null,
        "city": "Patos",
        "state": null,
        "postcode": "9307",
        "country": "Albania",
        "country_code": "al"
      },
      "address": "Patos, Albania"
    },
    {
      "lat": 40.69503155056174,
      "lon": 19.591136121085142,
      "geoinfo": {
        "display_name": "Alfa, Rruga Nacionale Fier-Berat, Portëz, Bashkia Fier, Fier County, 9318, Albania",
        "road": "Rruga Nacionale Fier-Berat",
        "house_number": null,
        "neighbourhood": null,
        "suburb": null,
        "city_district": null,
        "city": "Portëz",
        "state": null,
        "postcode": "9318",
        "country": "Albania",
        "country_code": "al"
      },
      "address": "Rruga Nacionale Fier-Berat, Patos, Albania"
    },
    {
      "lat": 40.68292156913658,
      "lon": 19.629829280404458,
      "geoinfo": {
        "display_name": "Rruga Unaza, Dukas, Patos, Bashkia Patos, Fier County, Southern Albania, 9307, Albania",
        "road": "Rruga Unaza",
        "house_number": null,
        "neighbourhood": null,
        "suburb": null,
        "city_district": null,
        "city": "Patos",
        "state": "Southern Albania",
        "postcode": "9307",
        "country": "Albania",
        "country_code": "al"
      },
      "address": "Rruga Unaza, Patos, Southern Albania, Albania"
    },
    {
      "lat": 40.648336625573144,
      "lon": 19.61091391272238,
      "geoinfo": {
        "display_name": "Lalar, Portëz, Bashkia Fier, Fier County, 9318, Albania",
        "road": null,
        "house_number": null,
        "neighbourhood": null,
        "suburb": null,
        "city_district": null,
        "city": "Lalar",
        "state": null,
        "postcode": "9318",
        "country": "Albania",
        "country_code": "al"
      },
      "address": "Patos, Southern Albania, Albania"
    },
    {
      "lat": 40.658987684942474,
      "lon": 19.64156381535688,
      "geoinfo": {
        "display_name": "Rrerës, Patos, Bashkia Patos, Fier County, 9307, Albania",
        "road": null,
        "house_number": null,
        "neighbourhood": null,
        "suburb": null,
        "city_district": null,
        "city": "Patos",
        "state": null,
        "postcode": "9307",
        "country": "Albania",
        "country_code": "al"
      },
      "address": "668, Rrerës, Patos, Bashkia Patos, Fier County, 9307, Albania"
    },
    {
      "lat": 40.646146711147864,
      "lon": 19.614647033056894,
      "geoinfo": {
        "display_name": "Lalar, Portëz, Bashkia Fier, Fier County, 9318, Albania",
        "road": null,
        "house_number": null,
        "neighbourhood": null,
        "suburb": null,
        "city_district": null,
        "city": "Lalar",
        "state": null,
        "postcode": "9318",
        "country": "Albania",
        "country_code": "al"
      },
      "address": "141, Lalar, Portëz, Bashkia Fier, Fier County, 9318, Albania"
    },
    {
      "lat": 40.7073080392143,
      "lon": 19.64289627563956,
      "geoinfo": {
        "display_name": "Rruga Nacionale Fier-Berat, Verbas, Zharrëz, Bashkia Patos, Fier County, 9317, Albania",
        "road": "Rruga Nacionale Fier-Berat",
        "house_number": null,
        "neighbourhood": null,
        "suburb": null,
        "city_district": null,
        "city": "Verbas",
        "state": null,
        "postcode": "9317",
        "country": "Albania",
        "country_code": "al"
      },
      "address": "294, Rruga Nacionale Fier-Berat, Verbas, Zharrëz, Bashkia Patos, Fier County, 9317, Albania"
    },
    {
      "lat": 40.65370658890447,
      "lon": 19.60666140171945,
      "geoinfo": {
        "display_name": "Rruga e Plykut, Kraps, Portëz, Bashkia Fier, Fier County, 9318, Albania",
        "road": "Rruga e Plykut",
        "house_number": null,
        "neighbourhood": null,
        "suburb": null,
        "city_district": null,
        "city": "Kraps",
        "state": null,
        "postcode": "9318",
        "country": "Albania",
        "country_code": "al"
      },
      "address": "584, Rruga e Plykut, Kraps, Portëz, Bashkia Fier, Fier County, 9318, Albania"
    },
    {
      "lat": 40.65816157384471,
      "lon": 19.57318947456337,
      "geoinfo": {
        "display_name": "Levan, Bashkia Fier, Fier County, 9314, Albania",
        "road": null,
        "house_number": null,
        "neighbourhood": null,
        "suburb": null,
        "city_district": null,
        "city": "Levan",
        "state": null,
        "postcode": "9314",
        "country": "Albania",
        "country_code": "al"
      },
      "address": "821, Levan, Bashkia Fier, Fier County, 9314, Albania"
    }
  ],
  "updated_at": "2025-10-19T02:27:50.551280+00:00",
  "_kind": "geo_samples"
}