{
  "country_code": "AL",
  "country": "Albania",
  "city": "Patos Fshat",
  "geonameid": 3184517,
  "target_addresses": 5,
  "samples": [
    {
      "lat": 40.62211257087,
      "lon": 19.637295440646884,
      "geoinfo": {
        "display_name": "Sulaj, Cakran, Bashkia Fier, Fier County, 9311, Albania",
        "road": null,
        "house_number": null,
        "neighbourhood": null,
        "suburb": null,
        "city_district": null,
        "city": "Sulaj",
        "state": null,
        "postcode": "9311",
        "country": "Albania",
        "country_code": "al"
      },
      "address": "131, Sulaj, Cakran, Bashkia Fier, Fier County, 9311, Albania"
    },
    {
      "lat": 40.62733077803004,
      "lon": 19.60113572078663,
      "geoinfo": {
        "display_name": "Malaj (Kreshpan), Kreshpan, Cakran, Bashkia Fier, Fier County, 9311, Albania",
        "road": null,
        "house_number": null,
        "neighbourhood": null,
        "suburb": null,
        "city_district": null,
        "city": "Kreshpan",
        "state": null,
        "postcode": "9311",
        "country": "Albania",
        "country_code": "al"
      },
      "address": "637, Malaj (Kreshpan), Kreshpan, Cakran, Bashkia Fier, Fier County, 9311, Albania"
    },
    {
      "lat": 40.67712212416611,
      "lon": 19.62128073159758,
      "geoinfo": {
        "display_name": "Banaj, Patos, Bashkia Patos, Fier County, 9307, Albania",
        "road": null,
        "house_number": null,
        "neighbourhood": null,
        "suburb": null,
        "city_district": null,
        "city": "Patos",
        "state": null,
        "postcode": "9307",
        "country": "Albania",
        "country_code": "al"
      },
      "address": "015, Banaj, Patos, Bashkia Patos, Fier County, 9307, Albania"
    },
    {
      "lat": 40.638847632818994,
      "lon": 19.683992653620024,
      "geoinfo": {
        "display_name": "Visok, Qendër Dukas, Bashkia Mallakastër, Fier County, 9333, Albania",
        "road": null,
        "house_number": null,
        "neighbourhood": null,
        "suburb": null,
        "city_district": null,
        "city": "Qendër Dukas",
        "state": null,
        "postcode": "9333",
        "country": "Albania",
        "country_code": "al"
      },
      "address": "243, Visok, Qendër Dukas, Bashkia Mallakastër, Fier County, 9333, Albania"
    },
    {
      "lat": 40.678901173530825,
      "lon": 19.66164432620964,
      "geoinfo": {
        "display_name": "Marglliç, Patos, Bashkia Patos, Fier County, 9307, Albania",
        "road": null,
        "house_number": null,
        "neighbourhood": null,
        "suburb": null,
        "city_district": null,
        "city": "Patos",
        "state": null,
        "postcode": "9307",
        "country": "Albania",
        "country_code": "al"
      },
      "address": "422, Marglliç, Patos, Bashkia Patos, Fier County, 9307, Albania"
    }
  ],
  "updated_at": "2025-10-19T02:25:56.170794+00:00",
  "_kind": "geo_samples"
}