{
  "country_code": "AL",
  "country": "Albania",
  "city": "Pogradec",
  "geonameid": 781988,
  "target_addresses": 5,
  "samples": [
    {
      "lat": 40.88099473770442,
      "lon": 20.702881685684222,
      "geoinfo": {
        "display_name": "Gurras, Buçimas, Bashkia Pogradec, Korçë County, Southern Albania, 7304, Albania",
        "road": null,
        "house_number": null,
        "neighbourhood": null,
        "suburb": null,
        "city_district": null,
        "city": "Gurras",
        "state": "Southern Albania",
        "postcode": "7304",
        "country": "Albania",
        "country_code": "al"
      },
      "address": "Pogradec, Southern Albania, Albania"
    },
    {
      "lat": 40.870492476839125,
      "lon": 20.6671968903234,
      "geoinfo": {
        "display_name": "Superstradë Qukës–Qafë Plloçë, Malok (Rëmenj), Rëmenj, Buçimas, Bashkia Pogradec, Korçë County, Southern Albania, 7304, Albania",
        "road": "Superstradë Qukës–Qafë Plloçë",
        "house_number": null,
        "neighbourhood": null,
        "suburb": null,
        "city_district": null,
        "city": "Rëmenj",
        "state": "Southern Albania",
        "postcode": "7304",
        "country": "Albania",
        "country_code": "al"
      },
      "address": "Superstradë Qukës–Qafë Plloçë, Pogradec, Southern Albania, Albania"
    },
    {
      "lat": 40.89103960453883,
      "lon": 20.636942418580563,
      "geoinfo": {
        "display_name": "Karabashit, Vërdovë, Buçimas, Bashkia Pogradec, Korçë County, Southern Albania, 7304, Albania",
        "road": "Karabashit",
        "house_number": null,
        "neighbourhood": null,
        "suburb": null,
        "city_district": null,
        "city": "Vërdovë",
        "state": "Southern Albania",
        "postcode": "7304",
        "country": "Albania",
        "country_code": "al"
      },
      "address": "Karabashit, Pogradec, Southern Albania, Albania"
    },
    {
      "lat": 40.92348303495305,
      "lon": 20.66230901381368,
      "geoinfo": {
        "display_name": "Memelisht, Udenisht, Bashkia Pogradec, Korçë County, Southern Albania, 7305, Albania",
        "road": null,
        "house_number": null,
        "neighbourhood": null,
        "suburb": null,
        "city_district": null,
        "city": "Memelisht",
        "state": "Southern Albania",
        "postcode": "7305",
        "country": "Albania",
        "country_code": "al"
      },
      "address": "115, Memelisht, Udenisht, Bashkia Pogradec, Korçë County, Southern Albania, 7305, Albania"
    },
    {
      "lat": 40.923110432484904,
      "lon": 20.67946766794742,
      "geoinfo": {
        "display_name": "Vërdovë, Buçimas, Bashkia Pogradec, Korçë County, Southern Albania, 7304, Albania",
        "road": null,
        "house_number": null,
        "neighbourhood": null,
        "suburb": null,
        "city_district": null,
        "city": "Vërdovë",
        "state": "Southern Albania",
        "postcode": "7304",
        "country": "Albania",
        "country_code": "al"
      },
      "address": "316, Vërdovë, Buçimas, Bashkia Pogradec, Korçë County, Southern Albania, 7304, Albania"
    },
    {
      "lat": 40.89812602117563,
      "lon": 20.607671955461708,
      "geoinfo": {
        "display_name": "Kalivaç, Trebinjë, Bashkia Pogradec, Korçë County, Southern Albania, 7307, Albania",
        "road": null,
        "house_number": null,
        "neighbourhood": null,
        "suburb": null,
        "city_district": null,
        "city": "Kalivaç",
        "state": "Southern Albania",
        "postcode": "7307",
        "country": "Albania",
        "country_code": "al"
      },
      "address": "230, Kalivaç, Trebinjë, Bashkia Pogradec, Korçë County, Southern Albania, 7307, Albania"
    },
    {
      "lat": 40.898624792258936,
      "lon": 20.68357428955005,
      "geoinfo": {
        "display_name": "Buçimas, Bashkia Pogradec, Korçë County, Southern Albania, 7304, Albania",
        "road": null,
        "house_number": null,
        "neighbourhood": null,
        "suburb": null,
        "city_district": null,
        "city": "Buçimas",
        "state": "Southern Albania",
        "postcode": "7304",
        "country": "Albania",
        "country_code": "al"
      },
      "address": "187, Buçimas, Bashkia Pogradec, Korçë County, Southern Albania, 7304, Albania"
    },
    {
      "lat": 40.86214060411985,
      "lon": 20.661603335205655,
      "geoinfo": {
        "display_name": "Stropckë, Dardhas, Bashkia Pogradec, Korçë County, Southern Albania, 7309, Albania",
        "road": null,
        "house_number": null,
        "neighbourhood": null,
        "suburb": null,
        "city_district": null,
        "city": "Stropckë",
        "state": "Southern Albania",
        "postcode": "7309",
        "country": "Albania",
        "country_code": "al"
      },
      "address": "219, Stropckë, Dardhas, Bashkia Pogradec, Korçë County, Southern Albania, 7309, Albania"
    }
  ],
  "updated_at": "2025-10-19T02:27:00.740431+00:00",
  "_kind": "geo_samples"
}