{
  "country_code": "AL",
  "country": "Albania",
  "city": "Vlorë",
  "geonameid": 3183719,
  "target_addresses": 5,
  "samples": [
    {
      "lat": 40.512533343674114,
      "lon": 19.494629146076154,
      "geoinfo": {
        "display_name": "Bushaj (Grabian), Grabian, Qendër Vlorë, Bashkia Vlorë, Vlorë County, 9406, Albania",
        "road": null,
        "house_number": null,
        "neighbourhood": null,
        "suburb": null,
        "city_district": null,
        "city": "Qendër Vlorë",
        "state": null,
        "postcode": "9406",
        "country": "Albania",
        "country_code": "al"
      },
      "address": "Vlorë, Albania"
    },
    {
      "lat": 40.46521994992843,
      "lon": 19.505223063648305,
      "geoinfo": {
        "display_name": "Rruga Shaban Seferi, Vlora, Bashkia Vlorë, Vlorë County, 9401, Albania",
        "road": "Rruga Shaban Seferi",
        "house_number": null,
        "neighbourhood": null,
        "suburb": null,
        "city_district": null,
        "city": "Vlora",
        "state": null,
        "postcode": "9401",
        "country": "Albania",
        "country_code": "al"
      },
      "address": "Rruga Shaban Seferi, Vlorë, Albania"
    },
    {
      "lat": 40.501994411819965,
      "lon": 19.469570156395637,
      "geoinfo": {
        "display_name": "A2, Nartë, Qendër Vlorë, Bashkia Vlorë, Vlorë County, Southern Albania, 9414, Albania",
        "road": "A2",
        "house_number": null,
        "neighbourhood": null,
        "suburb": null,
        "city_district": null,
        "city": "Qendër Vlorë",
        "state": "Southern Albania",
        "postcode": "9414",
        "country": "Albania",
        "country_code": "al"
      },
      "address": "A2, Vlorë, Southern Albania, Albania"
    },
    {
      "lat": 40.50224090597722,
      "lon": 19.495853371326582,
      "geoinfo": {
        "display_name": "Babicë e Vogël, Qendër Vlorë, Bashkia Vlorë, Vlorë County, 9401, Albania",
        "road": null,
        "house_number": null,
        "neighbourhood": null,
        "suburb": null,
        "city_district": null,
        "city": "Qendër Vlorë",
        "state": null,
        "postcode": "9401",
        "country": "Albania",
        "country_code": "al"
      },
      "address": "Vlorë, Southern Albania, Albania"
    },
    {
      "lat": 40.46979692137335,
      "lon": 19.529117762620555,
      "geoinfo": {
        "display_name": "SH76, Hasanaj (Babicë), Sherishtë, Qendër Vlorë, Bashkia Vlorë, Vlorë County, Albania",
        "road": "SH76",
        "house_number": null,
        "neighbourhood": null,
        "suburb": null,
        "city_district": null,
        "city": "Qendër Vlorë",
        "state": null,
        "postcode": null,
        "country": "Albania",
        "country_code": "al"
      },
      "address": "SH76, Vlorë, Southern Albania, Albania"
    },
    {
      "lat": 40.449602359588624,
      "lon": 19.478160982045818,
      "geoinfo": {
        "display_name": "Rruga Kosova, Lungomare, Vlora, Bashkia Vlorë, Vlorë County, 9401, Albania",
        "road": "Rruga Kosova",
        "house_number": null,
        "neighbourhood": null,
        "suburb": "Lungomare",
        "city_district": null,
        "city": "Vlora",
        "state": null,
        "postcode": "9401",
        "country": "Albania",
        "country_code": "al"
      },
      "address": "592, Rruga Kosova, Lungomare, Vlora, Bashkia Vlorë, Vlorë County, 9401, Albania"
    },
    {
      "lat": 40.508953868328895,
      "lon": 19.460838399963908,
      "geoinfo": {
        "display_name": "A2, Nartë, Qendër Vlorë, Bashkia Vlorë, Vlorë County, Southern Albania, 9414, Albania",
        "road": "A2",
        "house_number": null,
        "neighbourhood": null,
        "suburb": null,
        "city_district": null,
        "city": "Qendër Vlorë",
        "state": "Southern Albania",
        "postcode": "9414",
        "country": "Albania",
        "country_code": "al"
      },
      "address": "A2, Nartë, Qendër Vlorë, Bashkia Vlorë, Vlorë County, Southern Albania, 9414, Albania"
    },
    {
      "lat": 40.44470575444933,
      "lon": 19.510084128413045,
      "geoinfo": {
        "display_name": "Kaninë, Qendër Vlorë, Bashkia Vlorë, Vlorë County, 9400, Albania",
        "road": null,
        "house_number": null,
        "neighbourhood": null,
        "suburb": null,
        "city_district": null,
        "city": "Qendër Vlorë",
        "state": null,
        "postcode": "9400",
        "country": "Albania",
        "country_code": "al"
      },
      "address": "115, Kaninë, Qendër Vlorë, Bashkia Vlorë, Vlorë County, 9400, Albania"
    },
    {
      "lat": 40.46394177339702,
      "lon": 19.534658215865065,
      "geoinfo": {
        "display_name": "Sherishtë, Qendër Vlorë, Bashkia Vlorë, Vlorë County, Albania",
        "road": null,
        "house_number": null,
        "neighbourhood": null,
        "suburb": null,
        "city_district": null,
        "city": "Qendër Vlorë",
        "state": null,
        "postcode": null,
        "country": "Albania",
        "country_code": "al"
      },
      "address": "610, Sherishtë, Qendër Vlorë, Bashkia Vlorë, 34664 Vlorë County, Albania"
    },
    {
      "lat": 40.45086110600774,
      "lon": 19.49549522839404,
      "geoinfo": {
        "display_name": "Lungomare, Vlora, Bashkia Vlorë, Vlorë County, 9401, Albania",
        "road": null,
        "house_number": null,
        "neighbourhood": null,
        "suburb": "Lungomare",
        "city_district": null,
        "city": "Vlora",
        "state": null,
        "postcode": "9401",
        "country": "Albania",
        "country_code": "al"
      },
      "address": "742, Lungomare, Vlora, Bashkia Vlorë, Vlorë County, 9401, Albania"
    }
  ],
  "updated_at": "2025-10-19T02:42:06.525041+00:00",
  "_kind": "geo_samples"
}