{
  "country_code": "MH",
  "country": "Marshall Islands",
  "city": "Majuro",
  "geonameid": 2113779,
  "target_addresses": 100,
  "samples": [
    {
      "lat": 7.060882250374865,
      "lon": 171.350755133506,
      "geoinfo": {
        "display_name": "Delap-Uliga-Darrit, Majuro, Ratak Chain, 96060, Marshall Islands",
        "road": null,
        "house_number": null,
        "neighbourhood": null,
        "suburb": null,
        "city_district": null,
        "city": "Majuro",
        "state": "Ratak Chain",
        "postcode": "96060",
        "country": "Marshall Islands",
        "country_code": "mh"
      },
      "address": "Majuro, Ratak Chain, Marshall Islands"
    },
    {
      "lat": 7.079655054247157,
      "lon": 171.36454289272558,
      "geoinfo": {
        "display_name": "Majuro Bridge Walking Trail, Delap-Uliga-Darrit, Majuro, Ratak Chain, 96060, Marshall Islands",
        "road": "Majuro Bridge Walking Trail",
        "house_number": null,
        "neighbourhood": null,
        "suburb": null,
        "city_district": null,
        "city": "Majuro",
        "state": "Ratak Chain",
        "postcode": "96060",
        "country": "Marshall Islands",
        "country_code": "mh"
      },
      "address": "Majuro Bridge Walking Trail, Majuro, Ratak Chain, Marshall Islands"
    },
    {
      "lat": 7.104574301418604,
      "lon": 171.37372437704695,
      "geoinfo": {
        "display_name": "Lagoon Road, Biggariat, Delap-Uliga-Darrit, Majuro, Ratak Chain, 96960, Marshall Islands",
        "road": "Lagoon Road",
        "house_number": null,
        "neighbourhood": "Biggariat",
        "suburb": null,
        "city_district": null,
        "city": "Majuro",
        "state": "Ratak Chain",
        "postcode": "96960",
        "country": "Marshall Islands",
        "country_code": "mh"
      },
      "address": "Lagoon Road, Majuro, Ratak Chain, Marshall Islands"
    },
    {
      "lat": 7.076227856075864,
      "lon": 171.38742074067378,
      "geoinfo": {
        "display_name": "Lokjab Rōtle, Delap-Uliga-Darrit, Majuro, Ratak Chain, 96060, Marshall Islands",
        "road": null,
        "house_number": null,
        "neighbourhood": "Lokjab Rōtle",
        "suburb": null,
        "city_district": null,
        "city": "Majuro",
        "state": "Ratak Chain",
        "postcode": "96060",
        "country": "Marshall Islands",
        "country_code": "mh"
      },
      "address": "Lokjab Rōtle, Majuro, Ratak Chain, Marshall Islands"
    },
    {
      "lat": 7.118292264504517,
      "lon": 171.38510308279373,
      "geoinfo": {
        "display_name": "Uliga, Delap-Uliga-Darrit, Majuro, Ratak Chain, 96960, Marshall Islands",
        "road": null,
        "house_number": null,
        "neighbourhood": "Uliga",
        "suburb": null,
        "city_district": null,
        "city": "Majuro",
        "state": "Ratak Chain",
        "postcode": "96960",
        "country": "Marshall Islands",
        "country_code": "mh"
      },
      "address": "Uliga, Majuro, Ratak Chain, Marshall Islands"
    },
    {
      "lat": 7.091583290912936,
      "lon": 171.3921237533371,
      "geoinfo": {
        "display_name": "Delap, Delap-Uliga-Darrit, Majuro, Ratak Chain, 96060, Marshall Islands",
        "road": null,
        "house_number": null,
        "neighbourhood": "Delap",
        "suburb": null,
        "city_district": null,
        "city": "Majuro",
        "state": "Ratak Chain",
        "postcode": "96060",
        "country": "Marshall Islands",
        "country_code": "mh"
      },
      "address": "Delap, Majuro, Ratak Chain, Marshall Islands"
    },
    {
      "lat": 7.116887798974381,
      "lon": 171.3546553131145,
      "geoinfo": {
        "display_name": "Rita, Ejit, Majuro, Ratak Chain, 96960, Marshall Islands",
        "road": null,
        "house_number": null,
        "neighbourhood": "Rita",
        "suburb": null,
        "city_district": null,
        "city": "Majuro",
        "state": "Ratak Chain",
        "postcode": "96960",
        "country": "Marshall Islands",
        "country_code": "mh"
      },
      "address": "Rita, Majuro, Ratak Chain, Marshall Islands"
    },
    {
      "lat": 7.102869618087364,
      "lon": 171.39652014118866,
      "geoinfo": {
        "display_name": "Biggariat, Delap-Uliga-Darrit, Majuro, Ratak Chain, 96960, Marshall Islands",
        "road": null,
        "house_number": null,
        "neighbourhood": "Biggariat",
        "suburb": null,
        "city_district": null,
        "city": "Majuro",
        "state": "Ratak Chain",
        "postcode": "96960",
        "country": "Marshall Islands",
        "country_code": "mh"
      },
      "address": "Biggariat, Majuro, Ratak Chain, Marshall Islands"
    },
    {
      "lat": 7.1094109660008495,
      "lon": 171.39129074039533,
      "geoinfo": {
        "display_name": "Eniligere, Delap-Uliga-Darrit, Majuro, Ratak Chain, 96960, Marshall Islands",
        "road": null,
        "house_number": null,
        "neighbourhood": "Eniligere",
        "suburb": null,
        "city_district": null,
        "city": "Majuro",
        "state": "Ratak Chain",
        "postcode": "96960",
        "country": "Marshall Islands",
        "country_code": "mh"
      },
      "address": "Eniligere, Majuro, Ratak Chain, Marshall Islands"
    },
    {
      "lat": 7.083480480487045,
      "lon": 171.38282931745817,
      "geoinfo": {
        "display_name": "Majuro Sea Breeze Suites, Capitol Loop, Delap, Delap-Uliga-Darrit, Majuro, Ratak Chain, 96060, Marshall Islands",
        "road": "Capitol Loop",
        "house_number": null,
        "neighbourhood": "Delap",
        "suburb": null,
        "city_district": null,
        "city": "Majuro",
        "state": "Ratak Chain",
        "postcode": "96060",
        "country": "Marshall Islands",
        "country_code": "mh"
      },
      "address": "Capitol Loop, Majuro, Ratak Chain, Marshall Islands"
    },
    {
      "lat": 7.122686229434699,
      "lon": 171.36469565770142,
      "geoinfo": {
        "display_name": "Rita Back Road, Rita, Ejit, Majuro, Ratak Chain, 96960, Marshall Islands",
        "road": "Rita Back Road",
        "house_number": null,
        "neighbourhood": "Rita",
        "suburb": null,
        "city_district": null,
        "city": "Majuro",
        "state": "Ratak Chain",
        "postcode": "96960",
        "country": "Marshall Islands",
        "country_code": "mh"
      },
      "address": "Rita Back Road, Majuro, Ratak Chain, Marshall Islands"
    },
    {
      "lat": 7.1110339979580495,
      "lon": 171.37489265371678,
      "geoinfo": {
        "display_name": "DAR Coffee Corner, Uliga Back Road, Uliga, Delap-Uliga-Darrit, Majuro, Ratak Chain, 96960, Marshall Islands",
        "road": "Uliga Back Road",
        "house_number": null,
        "neighbourhood": "Uliga",
        "suburb": null,
        "city_district": null,
        "city": "Majuro",
        "state": "Ratak Chain",
        "postcode": "96960",
        "country": "Marshall Islands",
        "country_code": "mh"
      },
      "address": "Uliga Back Road, Majuro, Ratak Chain, Marshall Islands"
    },
    {
      "lat": 7.096841638487972,
      "lon": 171.3842315956165,
      "geoinfo": {
        "display_name": "Loop Street, Delap, Delap-Uliga-Darrit, Majuro, Ratak Chain, 96060, Marshall Islands",
        "road": "Loop Street",
        "house_number": null,
        "neighbourhood": "Delap",
        "suburb": null,
        "city_district": null,
        "city": "Majuro",
        "state": "Ratak Chain",
        "postcode": "96060",
        "country": "Marshall Islands",
        "country_code": "mh"
      },
      "address": "Loop Street, Majuro, Ratak Chain, Marshall Islands"
    },
    {
      "lat": 7.071114649905651,
      "lon": 171.3401832537074,
      "geoinfo": {
        "display_name": "Rairōk, Majuro, Ratak Chain, Marshall Islands",
        "road": null,
        "house_number": null,
        "neighbourhood": "Rairōk",
        "suburb": null,
        "city_district": null,
        "city": "Majuro",
        "state": "Ratak Chain",
        "postcode": null,
        "country": "Marshall Islands",
        "country_code": "mh"
      },
      "address": "Rairōk, Majuro, Ratak Chain, Marshall Islands"
    },
    {
      "lat": 7.117787757530435,
      "lon": 171.36864598319482,
      "geoinfo": {
        "display_name": "Djarrit Back Road, Rita, Delap-Uliga-Darrit, Majuro, Ratak Chain, 96960, Marshall Islands",
        "road": "Djarrit Back Road",
        "house_number": null,
        "neighbourhood": "Rita",
        "suburb": null,
        "city_district": null,
        "city": "Majuro",
        "state": "Ratak Chain",
        "postcode": "96960",
        "country": "Marshall Islands",
        "country_code": "mh"
      },
      "address": "Djarrit Back Road, Majuro, Ratak Chain, Marshall Islands"
    },
    {
      "lat": 7.100768513111819,
      "lon": 171.3856524353427,
      "geoinfo": {
        "display_name": "Biggariat Road, Biggariat, Delap-Uliga-Darrit, Majuro, Ratak Chain, 96960, Marshall Islands",
        "road": "Biggariat Road",
        "house_number": null,
        "neighbourhood": "Biggariat",
        "suburb": null,
        "city_district": null,
        "city": "Majuro",
        "state": "Ratak Chain",
        "postcode": "96960",
        "country": "Marshall Islands",
        "country_code": "mh"
      },
      "address": "Biggariat Road, Majuro, Ratak Chain, Marshall Islands"
    },
    {
      "lat": 7.100789931128522,
      "lon": 171.38098043525733,
      "geoinfo": {
        "display_name": "Enilgere Road, Eniligere, Delap-Uliga-Darrit, Majuro, Ratak Chain, 96960, Marshall Islands",
        "road": "Enilgere Road",
        "house_number": null,
        "neighbourhood": "Eniligere",
        "suburb": null,
        "city_district": null,
        "city": "Majuro",
        "state": "Ratak Chain",
        "postcode": "96960",
        "country": "Marshall Islands",
        "country_code": "mh"
      },
      "address": "Enilgere Road, Majuro, Ratak Chain, Marshall Islands"
    },
    {
      "lat": 7.122954518130742,
      "lon": 171.38040417041663,
      "geoinfo": {
        "display_name": "Rita, Ejit, Majuro, Ratak Chain, 96960, Marshall Islands",
        "road": null,
        "house_number": null,
        "neighbourhood": "Rita",
        "suburb": null,
        "city_district": null,
        "city": "Majuro",
        "state": "Ratak Chain",
        "postcode": "96960",
        "country": "Marshall Islands",
        "country_code": "mh"
      },
      "address": "236, Rita, Ejit, Majuro, Ratak Chain, 96960, Marshall Islands"
    },
    {
      "lat": 7.0801747410537725,
      "lon": 171.36182828574613,
      "geoinfo": {
        "display_name": "Majuro Bridge Walking Trail, Delap-Uliga-Darrit, Majuro, Ratak Chain, 96060, Marshall Islands",
        "road": "Majuro Bridge Walking Trail",
        "house_number": null,
        "neighbourhood": null,
        "suburb": null,
        "city_district": null,
        "city": "Majuro",
        "state": "Ratak Chain",
        "postcode": "96060",
        "country": "Marshall Islands",
        "country_code": "mh"
      },
      "address": "011, Majuro Bridge Walking Trail, Delap-Uliga-Darrit, Majuro, Ratak Chain, 96060, Marshall Islands"
    },
    {
      "lat": 7.059111487267697,
      "lon": 171.35681004489513,
      "geoinfo": {
        "display_name": "Delap-Uliga-Darrit, Majuro, Ratak Chain, 96060, Marshall Islands",
        "road": null,
        "house_number": null,
        "neighbourhood": null,
        "suburb": null,
        "city_district": null,
        "city": "Majuro",
        "state": "Ratak Chain",
        "postcode": "96060",
        "country": "Marshall Islands",
        "country_code": "mh"
      },
      "address": "231, Delap-Uliga-Darrit, Majuro, Ratak Chain, 96060, Marshall Islands"
    },
    {
      "lat": 7.091365666178138,
      "lon": 171.4045751219333,
      "geoinfo": {
        "display_name": "Delap-Uliga-Darrit, Majuro, Ratak Chain, 96060, Marshall Islands",
        "road": null,
        "house_number": null,
        "neighbourhood": null,
        "suburb": null,
        "city_district": null,
        "city": "Majuro",
        "state": "Ratak Chain",
        "postcode": "96060",
        "country": "Marshall Islands",
        "country_code": "mh"
      },
      "address": "021, Delap-Uliga-Darrit, Majuro, Ratak Chain, 96060, Marshall Islands"
    },
    {
      "lat": 7.115038668916854,
      "lon": 171.39841585569002,
      "geoinfo": {
        "display_name": "Delap-Uliga-Darrit, Majuro, Ratak Chain, 96060, Marshall Islands",
        "road": null,
        "house_number": null,
        "neighbourhood": null,
        "suburb": null,
        "city_district": null,
        "city": "Majuro",
        "state": "Ratak Chain",
        "postcode": "96060",
        "country": "Marshall Islands",
        "country_code": "mh"
      },
      "address": "161, Delap-Uliga-Darrit, Majuro, Ratak Chain, 96060, Marshall Islands"
    },
    {
      "lat": 7.093522678244508,
      "lon": 171.37751924679574,
      "geoinfo": {
        "display_name": "Biggariat, Delap-Uliga-Darrit, Majuro, Ratak Chain, 96060, Marshall Islands",
        "road": null,
        "house_number": null,
        "neighbourhood": "Biggariat",
        "suburb": null,
        "city_district": null,
        "city": "Majuro",
        "state": "Ratak Chain",
        "postcode": "96060",
        "country": "Marshall Islands",
        "country_code": "mh"
      },
      "address": "268, Biggariat, Delap-Uliga-Darrit, Majuro, Ratak Chain, 96060, Marshall Islands"
    },
    {
      "lat": 7.10886464738928,
      "lon": 171.39735160647203,
      "geoinfo": {
        "display_name": "Delap-Uliga-Darrit, Majuro, Ratak Chain, 96060, Marshall Islands",
        "road": null,
        "house_number": null,
        "neighbourhood": null,
        "suburb": null,
        "city_district": null,
        "city": "Majuro",
        "state": "Ratak Chain",
        "postcode": "96060",
        "country": "Marshall Islands",
        "country_code": "mh"
      },
      "address": "199, Delap-Uliga-Darrit, Majuro, Ratak Chain, 96060, Marshall Islands"
    },
    {
      "lat": 7.119436727325843,
      "lon": 171.4038343331833,
      "geoinfo": {
        "display_name": "Delap-Uliga-Darrit, Majuro, Ratak Chain, 96060, Marshall Islands",
        "road": null,
        "house_number": null,
        "neighbourhood": null,
        "suburb": null,
        "city_district": null,
        "city": "Majuro",
        "state": "Ratak Chain",
        "postcode": "96060",
        "country": "Marshall Islands",
        "country_code": "mh"
      },
      "address": "287, Delap-Uliga-Darrit, Majuro, Ratak Chain, 96060, Marshall Islands"
    },
    {
      "lat": 7.120719489172716,
      "lon": 171.37957793121828,
      "geoinfo": {
        "display_name": "Uliga, Delap-Uliga-Darrit, Majuro, Ratak Chain, 96960, Marshall Islands",
        "road": null,
        "house_number": null,
        "neighbourhood": "Uliga",
        "suburb": null,
        "city_district": null,
        "city": "Majuro",
        "state": "Ratak Chain",
        "postcode": "96960",
        "country": "Marshall Islands",
        "country_code": "mh"
      },
      "address": "364, Uliga, Delap-Uliga-Darrit, Majuro, Ratak Chain, 96960, Marshall Islands"
    },
    {
      "lat": 7.105983611080046,
      "lon": 171.3656170264608,
      "geoinfo": {
        "display_name": "Lagoon Road, Biggariat, Delap-Uliga-Darrit, Majuro, Ratak Chain, 96960, Marshall Islands",
        "road": "Lagoon Road",
        "house_number": null,
        "neighbourhood": "Biggariat",
        "suburb": null,
        "city_district": null,
        "city": "Majuro",
        "state": "Ratak Chain",
        "postcode": "96960",
        "country": "Marshall Islands",
        "country_code": "mh"
      },
      "address": "890, Lagoon Road, Biggariat, Delap-Uliga-Darrit, Majuro, Ratak Chain, 96960, Marshall Islands"
    },
    {
      "lat": 7.106924490624302,
      "lon": 171.40866875644235,
      "geoinfo": {
        "display_name": "Delap-Uliga-Darrit, Majuro, Ratak Chain, 96060, Marshall Islands",
        "road": null,
        "house_number": null,
        "neighbourhood": null,
        "suburb": null,
        "city_district": null,
        "city": "Majuro",
        "state": "Ratak Chain",
        "postcode": "96060",
        "country": "Marshall Islands",
        "country_code": "mh"
      },
      "address": "993, Delap-Uliga-Darrit, Majuro, Ratak Chain, 96060, Marshall Islands"
    },
    {
      "lat": 7.127072628570338,
      "lon": 171.36786020834705,
      "geoinfo": {
        "display_name": "Rita, Ejit, Majuro, Ratak Chain, 96960, Marshall Islands",
        "road": null,
        "house_number": null,
        "neighbourhood": "Rita",
        "suburb": null,
        "city_district": null,
        "city": "Majuro",
        "state": "Ratak Chain",
        "postcode": "96960",
        "country": "Marshall Islands",
        "country_code": "mh"
      },
      "address": "105, Rita, Ejit, Majuro, Ratak Chain, 96960, Marshall Islands"
    },
    {
      "lat": 7.105249187998526,
      "lon": 171.36279783294165,
      "geoinfo": {
        "display_name": "Uliga, Delap-Uliga-Darrit, Majuro, Ratak Chain, 96960, Marshall Islands",
        "road": null,
        "house_number": null,
        "neighbourhood": "Uliga",
        "suburb": null,
        "city_district": null,
        "city": "Majuro",
        "state": "Ratak Chain",
        "postcode": "96960",
        "country": "Marshall Islands",
        "country_code": "mh"
      },
      "address": "372, Uliga, Delap-Uliga-Darrit, Majuro, Ratak Chain, 96960, Marshall Islands"
    },
    {
      "lat": 7.115252494470172,
      "lon": 171.3928831090725,
      "geoinfo": {
        "display_name": "Uliga, Delap-Uliga-Darrit, Majuro, Ratak Chain, 96960, Marshall Islands",
        "road": null,
        "house_number": null,
        "neighbourhood": "Uliga",
        "suburb": null,
        "city_district": null,
        "city": "Majuro",
        "state": "Ratak Chain",
        "postcode": "96960",
        "country": "Marshall Islands",
        "country_code": "mh"
      },
      "address": "096, Uliga, Delap-Uliga-Darrit, Majuro, Ratak Chain, 96960, Marshall Islands"
    },
    {
      "lat": 7.08723249403965,
      "lon": 171.3471451526059,
      "geoinfo": {
        "display_name": "Lagoon Road, Ajeltake, Majuro, Ratak Chain, 96060, Marshall Islands",
        "road": "Lagoon Road",
        "house_number": null,
        "neighbourhood": "Ajeltake",
        "suburb": null,
        "city_district": null,
        "city": "Majuro",
        "state": "Ratak Chain",
        "postcode": "96060",
        "country": "Marshall Islands",
        "country_code": "mh"
      },
      "address": "131, Lagoon Road, Ajeltake, Majuro, Ratak Chain, 96060, Marshall Islands"
    },
    {
      "lat": 7.110956376063214,
      "lon": 171.39391513626657,
      "geoinfo": {
        "display_name": "Eniligere, Delap-Uliga-Darrit, Majuro, Ratak Chain, 96960, Marshall Islands",
        "road": null,
        "house_number": null,
        "neighbourhood": "Eniligere",
        "suburb": null,
        "city_district": null,
        "city": "Majuro",
        "state": "Ratak Chain",
        "postcode": "96960",
        "country": "Marshall Islands",
        "country_code": "mh"
      },
      "address": "336, Eniligere, Delap-Uliga-Darrit, Majuro, Ratak Chain, 96960, Marshall Islands"
    },
    {
      "lat": 7.111854537206365,
      "lon": 171.36814595116297,
      "geoinfo": {
        "display_name": "Lagoon Road, Biggariat, Delap-Uliga-Darrit, Majuro, Ratak Chain, 96960, Marshall Islands",
        "road": "Lagoon Road",
        "house_number": null,
        "neighbourhood": "Biggariat",
        "suburb": null,
        "city_district": null,
        "city": "Majuro",
        "state": "Ratak Chain",
        "postcode": "96960",
        "country": "Marshall Islands",
        "country_code": "mh"
      },
      "address": "904, Lagoon Road, Biggariat, Delap-Uliga-Darrit, Majuro, Ratak Chain, 96960, Marshall Islands"
    },
    {
      "lat": 7.100191941268371,
      "lon": 171.3943662285847,
      "geoinfo": {
        "display_name": "Biggariat, Delap-Uliga-Darrit, Majuro, Ratak Chain, 96960, Marshall Islands",
        "road": null,
        "house_number": null,
        "neighbourhood": "Biggariat",
        "suburb": null,
        "city_district": null,
        "city": "Majuro",
        "state": "Ratak Chain",
        "postcode": "96960",
        "country": "Marshall Islands",
        "country_code": "mh"
      },
      "address": "592, Biggariat, Delap-Uliga-Darrit, Majuro, Ratak Chain, 96960, Marshall Islands"
    },
    {
      "lat": 7.057646321495996,
      "lon": 171.40256304014085,
      "geoinfo": {
        "display_name": "Delap-Uliga-Darrit, Majuro, Ratak Chain, 96060, Marshall Islands",
        "road": null,
        "house_number": null,
        "neighbourhood": null,
        "suburb": null,
        "city_district": null,
        "city": "Majuro",
        "state": "Ratak Chain",
        "postcode": "96060",
        "country": "Marshall Islands",
        "country_code": "mh"
      },
      "address": "409, Delap-Uliga-Darrit, Majuro, Ratak Chain, 96060, Marshall Islands"
    },
    {
      "lat": 7.056523472523739,
      "lon": 171.3563961507355,
      "geoinfo": {
        "display_name": "Delap-Uliga-Darrit, Majuro, Ratak Chain, 96060, Marshall Islands",
        "road": null,
        "house_number": null,
        "neighbourhood": null,
        "suburb": null,
        "city_district": null,
        "city": "Majuro",
        "state": "Ratak Chain",
        "postcode": "96060",
        "country": "Marshall Islands",
        "country_code": "mh"
      },
      "address": "849, Delap-Uliga-Darrit, Majuro, Ratak Chain, 96060, Marshall Islands"
    },
    {
      "lat": 7.05580746313436,
      "lon": 171.40328869262638,
      "geoinfo": {
        "display_name": "Delap-Uliga-Darrit, Majuro, Ratak Chain, 96060, Marshall Islands",
        "road": null,
        "house_number": null,
        "neighbourhood": null,
        "suburb": null,
        "city_district": null,
        "city": "Majuro",
        "state": "Ratak Chain",
        "postcode": "96060",
        "country": "Marshall Islands",
        "country_code": "mh"
      },
      "address": "094, Delap-Uliga-Darrit, Majuro, Ratak Chain, 96060, Marshall Islands"
    },
    {
      "lat": 7.07240997196562,
      "lon": 171.39938631058433,
      "geoinfo": {
        "display_name": "Delap-Uliga-Darrit, Majuro, Ratak Chain, 96060, Marshall Islands",
        "road": null,
        "house_number": null,
        "neighbourhood": null,
        "suburb": null,
        "city_district": null,
        "city": "Majuro",
        "state": "Ratak Chain",
        "postcode": "96060",
        "country": "Marshall Islands",
        "country_code": "mh"
      },
      "address": "213, Delap-Uliga-Darrit, Majuro, Ratak Chain, 96060, Marshall Islands"
    },
    {
      "lat": 7.104905066564842,
      "lon": 171.4099457009358,
      "geoinfo": {
        "display_name": "Delap-Uliga-Darrit, Majuro, Ratak Chain, 96060, Marshall Islands",
        "road": null,
        "house_number": null,
        "neighbourhood": null,
        "suburb": null,
        "city_district": null,
        "city": "Majuro",
        "state": "Ratak Chain",
        "postcode": "96060",
        "country": "Marshall Islands",
        "country_code": "mh"
      },
      "address": "314, Delap-Uliga-Darrit, Majuro, Ratak Chain, 96060, Marshall Islands"
    },
    {
      "lat": 7.087534096272442,
      "lon": 171.34121116330184,
      "geoinfo": {
        "display_name": "Ejit, Majuro, Ratak Chain, 96960, Marshall Islands",
        "road": null,
        "house_number": null,
        "neighbourhood": null,
        "suburb": null,
        "city_district": null,
        "city": "Majuro",
        "state": "Ratak Chain",
        "postcode": "96960",
        "country": "Marshall Islands",
        "country_code": "mh"
      },
      "address": "124, Ejit, Majuro, Ratak Chain, 96960, Marshall Islands"
    },
    {
      "lat": 7.087889897744656,
      "lon": 171.3799358224715,
      "geoinfo": {
        "display_name": "Lokjab Rōtle, Delap-Uliga-Darrit, Majuro, Ratak Chain, 96060, Marshall Islands",
        "road": null,
        "house_number": null,
        "neighbourhood": "Lokjab Rōtle",
        "suburb": null,
        "city_district": null,
        "city": "Majuro",
        "state": "Ratak Chain",
        "postcode": "96060",
        "country": "Marshall Islands",
        "country_code": "mh"
      },
      "address": "287, Lokjab Rōtle, Delap-Uliga-Darrit, Majuro, Ratak Chain, 96060, Marshall Islands"
    },
    {
      "lat": 7.117520640907409,
      "lon": 171.3569443920274,
      "geoinfo": {
        "display_name": "Rita, Ejit, Majuro, Ratak Chain, 96960, Marshall Islands",
        "road": null,
        "house_number": null,
        "neighbourhood": "Rita",
        "suburb": null,
        "city_district": null,
        "city": "Majuro",
        "state": "Ratak Chain",
        "postcode": "96960",
        "country": "Marshall Islands",
        "country_code": "mh"
      },
      "address": "197, Rita, Ejit, Majuro, Ratak Chain, 96960, Marshall Islands"
    },
    {
      "lat": 7.105135202691624,
      "lon": 171.39304776264262,
      "geoinfo": {
        "display_name": "Biggariat, Delap-Uliga-Darrit, Majuro, Ratak Chain, 96960, Marshall Islands",
        "road": null,
        "house_number": null,
        "neighbourhood": "Biggariat",
        "suburb": null,
        "city_district": null,
        "city": "Majuro",
        "state": "Ratak Chain",
        "postcode": "96960",
        "country": "Marshall Islands",
        "country_code": "mh"
      },
      "address": "818, Biggariat, Delap-Uliga-Darrit, Majuro, Ratak Chain, 96960, Marshall Islands"
    },
    {
      "lat": 7.089100435754488,
      "lon": 171.34200906488022,
      "geoinfo": {
        "display_name": "Ejit, Majuro, Ratak Chain, 96960, Marshall Islands",
        "road": null,
        "house_number": null,
        "neighbourhood": null,
        "suburb": null,
        "city_district": null,
        "city": "Majuro",
        "state": "Ratak Chain",
        "postcode": "96960",
        "country": "Marshall Islands",
        "country_code": "mh"
      },
      "address": "660, Ejit, Majuro, Ratak Chain, 96960, Marshall Islands"
    },
    {
      "lat": 7.130076970515298,
      "lon": 171.3950119881827,
      "geoinfo": {
        "display_name": "Delap-Uliga-Darrit, Majuro, Ratak Chain, 96060, Marshall Islands",
        "road": null,
        "house_number": null,
        "neighbourhood": null,
        "suburb": null,
        "city_district": null,
        "city": "Majuro",
        "state": "Ratak Chain",
        "postcode": "96060",
        "country": "Marshall Islands",
        "country_code": "mh"
      },
      "address": "363, Delap-Uliga-Darrit, Majuro, Ratak Chain, 96060, Marshall Islands"
    },
    {
      "lat": 7.109344992307134,
      "lon": 171.4052455932496,
      "geoinfo": {
        "display_name": "Delap-Uliga-Darrit, Majuro, Ratak Chain, 96060, Marshall Islands",
        "road": null,
        "house_number": null,
        "neighbourhood": null,
        "suburb": null,
        "city_district": null,
        "city": "Majuro",
        "state": "Ratak Chain",
        "postcode": "96060",
        "country": "Marshall Islands",
        "country_code": "mh"
      },
      "address": "770, Delap-Uliga-Darrit, Majuro, Ratak Chain, 96060, Marshall Islands"
    },
    {
      "lat": 7.096504963922471,
      "lon": 171.3399475883377,
      "geoinfo": {
        "display_name": "Ejit, Majuro, Ratak Chain, 96960, Marshall Islands",
        "road": null,
        "house_number": null,
        "neighbourhood": null,
        "suburb": null,
        "city_district": null,
        "city": "Majuro",
        "state": "Ratak Chain",
        "postcode": "96960",
        "country": "Marshall Islands",
        "country_code": "mh"
      },
      "address": "229, Ejit, Majuro, Ratak Chain, 96960, Marshall Islands"
    },
    {
      "lat": 7.108310354901448,
      "lon": 171.3625698258501,
      "geoinfo": {
        "display_name": "Uliga, Delap-Uliga-Darrit, Majuro, Ratak Chain, 96960, Marshall Islands",
        "road": null,
        "house_number": null,
        "neighbourhood": "Uliga",
        "suburb": null,
        "city_district": null,
        "city": "Majuro",
        "state": "Ratak Chain",
        "postcode": "96960",
        "country": "Marshall Islands",
        "country_code": "mh"
      },
      "address": "736, Uliga, Delap-Uliga-Darrit, Majuro, Ratak Chain, 96960, Marshall Islands"
    },
    {
      "lat": 7.101124908767944,
      "lon": 171.4072184602509,
      "geoinfo": {
        "display_name": "Delap-Uliga-Darrit, Majuro, Ratak Chain, 96060, Marshall Islands",
        "road": null,
        "house_number": null,
        "neighbourhood": null,
        "suburb": null,
        "city_district": null,
        "city": "Majuro",
        "state": "Ratak Chain",
        "postcode": "96060",
        "country": "Marshall Islands",
        "country_code": "mh"
      },
      "address": "617, Delap-Uliga-Darrit, Majuro, Ratak Chain, 96060, Marshall Islands"
    },
    {
      "lat": 7.065095676081341,
      "lon": 171.36202344758883,
      "geoinfo": {
        "display_name": "Delap-Uliga-Darrit, Majuro, Ratak Chain, 96060, Marshall Islands",
        "road": null,
        "house_number": null,
        "neighbourhood": null,
        "suburb": null,
        "city_district": null,
        "city": "Majuro",
        "state": "Ratak Chain",
        "postcode": "96060",
        "country": "Marshall Islands",
        "country_code": "mh"
      },
      "address": "751, Delap-Uliga-Darrit, Majuro, Ratak Chain, 96060, Marshall Islands"
    },
    {
      "lat": 7.100065931604317,
      "lon": 171.41937653566515,
      "geoinfo": {
        "display_name": "Delap-Uliga-Darrit, Majuro, Ratak Chain, 96060, Marshall Islands",
        "road": null,
        "house_number": null,
        "neighbourhood": null,
        "suburb": null,
        "city_district": null,
        "city": "Majuro",
        "state": "Ratak Chain",
        "postcode": "96060",
        "country": "Marshall Islands",
        "country_code": "mh"
      },
      "address": "454, Delap-Uliga-Darrit, Majuro, Ratak Chain, 96060, Marshall Islands"
    },
    {
      "lat": 7.094689343169493,
      "lon": 171.40577733086792,
      "geoinfo": {
        "display_name": "Delap-Uliga-Darrit, Majuro, Ratak Chain, 96060, Marshall Islands",
        "road": null,
        "house_number": null,
        "neighbourhood": null,
        "suburb": null,
        "city_district": null,
        "city": "Majuro",
        "state": "Ratak Chain",
        "postcode": "96060",
        "country": "Marshall Islands",
        "country_code": "mh"
      },
      "address": "759, Delap-Uliga-Darrit, Majuro, Ratak Chain, 96060, Marshall Islands"
    },
    {
      "lat": 7.068751864687149,
      "lon": 171.36526511274607,
      "geoinfo": {
        "display_name": "Delap-Uliga-Darrit, Majuro, Ratak Chain, 96060, Marshall Islands",
        "road": null,
        "house_number": null,
        "neighbourhood": null,
        "suburb": null,
        "city_district": null,
        "city": "Majuro",
        "state": "Ratak Chain",
        "postcode": "96060",
        "country": "Marshall Islands",
        "country_code": "mh"
      },
      "address": "988, Delap-Uliga-Darrit, Majuro, Ratak Chain, 96060, Marshall Islands"
    },
    {
      "lat": 7.092265506682778,
      "lon": 171.41200153535647,
      "geoinfo": {
        "display_name": "Delap-Uliga-Darrit, Majuro, Ratak Chain, 96060, Marshall Islands",
        "road": null,
        "house_number": null,
        "neighbourhood": null,
        "suburb": null,
        "city_district": null,
        "city": "Majuro",
        "state": "Ratak Chain",
        "postcode": "96060",
        "country": "Marshall Islands",
        "country_code": "mh"
      },
      "address": "176, Delap-Uliga-Darrit, Majuro, Ratak Chain, 96060, Marshall Islands"
    },
    {
      "lat": 7.114037917081948,
      "lon": 171.41303295113704,
      "geoinfo": {
        "display_name": "Delap-Uliga-Darrit, Majuro, Ratak Chain, 96060, Marshall Islands",
        "road": null,
        "house_number": null,
        "neighbourhood": null,
        "suburb": null,
        "city_district": null,
        "city": "Majuro",
        "state": "Ratak Chain",
        "postcode": "96060",
        "country": "Marshall Islands",
        "country_code": "mh"
      },
      "address": "086, Delap-Uliga-Darrit, Majuro, Ratak Chain, 96060, Marshall Islands"
    },
    {
      "lat": 7.098188413811662,
      "lon": 171.36393469726488,
      "geoinfo": {
        "display_name": "Uliga, Delap-Uliga-Darrit, Majuro, Ratak Chain, 96960, Marshall Islands",
        "road": null,
        "house_number": null,
        "neighbourhood": "Uliga",
        "suburb": null,
        "city_district": null,
        "city": "Majuro",
        "state": "Ratak Chain",
        "postcode": "96960",
        "country": "Marshall Islands",
        "country_code": "mh"
      },
      "address": "715, Uliga, Delap-Uliga-Darrit, Majuro, Ratak Chain, 96960, Marshall Islands"
    },
    {
      "lat": 7.095985070450864,
      "lon": 171.36166174117315,
      "geoinfo": {
        "display_name": "Uliga, Delap-Uliga-Darrit, Majuro, Ratak Chain, 96960, Marshall Islands",
        "road": null,
        "house_number": null,
        "neighbourhood": "Uliga",
        "suburb": null,
        "city_district": null,
        "city": "Majuro",
        "state": "Ratak Chain",
        "postcode": "96960",
        "country": "Marshall Islands",
        "country_code": "mh"
      },
      "address": "179, Uliga, Delap-Uliga-Darrit, Majuro, Ratak Chain, 96960, Marshall Islands"
    },
    {
      "lat": 7.081976517137309,
      "lon": 171.35513032271245,
      "geoinfo": {
        "display_name": "Majuro Bridge Walking Trail, Delap-Uliga-Darrit, Majuro, Ratak Chain, 96060, Marshall Islands",
        "road": "Majuro Bridge Walking Trail",
        "house_number": null,
        "neighbourhood": null,
        "suburb": null,
        "city_district": null,
        "city": "Majuro",
        "state": "Ratak Chain",
        "postcode": "96060",
        "country": "Marshall Islands",
        "country_code": "mh"
      },
      "address": "565, Majuro Bridge Walking Trail, Delap-Uliga-Darrit, Majuro, Ratak Chain, 96060, Marshall Islands"
    },
    {
      "lat": 7.1263574914822625,
      "lon": 171.36503370048192,
      "geoinfo": {
        "display_name": "Rita, Ejit, Majuro, Ratak Chain, 96960, Marshall Islands",
        "road": null,
        "house_number": null,
        "neighbourhood": "Rita",
        "suburb": null,
        "city_district": null,
        "city": "Majuro",
        "state": "Ratak Chain",
        "postcode": "96960",
        "country": "Marshall Islands",
        "country_code": "mh"
      },
      "address": "339, Rita, Ejit, Majuro, Ratak Chain, 96960, Marshall Islands"
    },
    {
      "lat": 7.125933505971935,
      "lon": 171.37126171971678,
      "geoinfo": {
        "display_name": "Rita, Ejit, Majuro, Ratak Chain, 96960, Marshall Islands",
        "road": null,
        "house_number": null,
        "neighbourhood": "Rita",
        "suburb": null,
        "city_district": null,
        "city": "Majuro",
        "state": "Ratak Chain",
        "postcode": "96960",
        "country": "Marshall Islands",
        "country_code": "mh"
      },
      "address": "182, Rita, Ejit, Majuro, Ratak Chain, 96960, Marshall Islands"
    },
    {
      "lat": 7.04648600810847,
      "lon": 171.38203390609522,
      "geoinfo": {
        "display_name": "Delap-Uliga-Darrit, Majuro, Ratak Chain, 96060, Marshall Islands",
        "road": null,
        "house_number": null,
        "neighbourhood": null,
        "suburb": null,
        "city_district": null,
        "city": "Majuro",
        "state": "Ratak Chain",
        "postcode": "96060",
        "country": "Marshall Islands",
        "country_code": "mh"
      },
      "address": "604, Delap-Uliga-Darrit, Majuro, Ratak Chain, 96060, Marshall Islands"
    },
    {
      "lat": 7.081343194676137,
      "lon": 171.3857502748381,
      "geoinfo": {
        "display_name": "Delap, Delap-Uliga-Darrit, Majuro, Ratak Chain, 96060, Marshall Islands",
        "road": null,
        "house_number": null,
        "neighbourhood": "Delap",
        "suburb": null,
        "city_district": null,
        "city": "Majuro",
        "state": "Ratak Chain",
        "postcode": "96060",
        "country": "Marshall Islands",
        "country_code": "mh"
      },
      "address": "621, Delap, Delap-Uliga-Darrit, Majuro, Ratak Chain, 96060, Marshall Islands"
    },
    {
      "lat": 7.068059130550131,
      "lon": 171.36597576517227,
      "geoinfo": {
        "display_name": "Delap-Uliga-Darrit, Majuro, Ratak Chain, 96060, Marshall Islands",
        "road": null,
        "house_number": null,
        "neighbourhood": null,
        "suburb": null,
        "city_district": null,
        "city": "Majuro",
        "state": "Ratak Chain",
        "postcode": "96060",
        "country": "Marshall Islands",
        "country_code": "mh"
      },
      "address": "841, Delap-Uliga-Darrit, Majuro, Ratak Chain, 96060, Marshall Islands"
    },
    {
      "lat": 7.093049739418756,
      "lon": 171.34267738171877,
      "geoinfo": {
        "display_name": "Ejit, Majuro, Ratak Chain, 96960, Marshall Islands",
        "road": null,
        "house_number": null,
        "neighbourhood": null,
        "suburb": null,
        "city_district": null,
        "city": "Majuro",
        "state": "Ratak Chain",
        "postcode": "96960",
        "country": "Marshall Islands",
        "country_code": "mh"
      },
      "address": "107, Ejit, Majuro, Ratak Chain, 96960, Marshall Islands"
    },
    {
      "lat": 7.061062420641202,
      "lon": 171.40080520301183,
      "geoinfo": {
        "display_name": "Delap-Uliga-Darrit, Majuro, Ratak Chain, 96060, Marshall Islands",
        "road": null,
        "house_number": null,
        "neighbourhood": null,
        "suburb": null,
        "city_district": null,
        "city": "Majuro",
        "state": "Ratak Chain",
        "postcode": "96060",
        "country": "Marshall Islands",
        "country_code": "mh"
      },
      "address": "265, Delap-Uliga-Darrit, Majuro, Ratak Chain, 96060, Marshall Islands"
    },
    {
      "lat": 7.125446718988771,
      "lon": 171.35614317106163,
      "geoinfo": {
        "display_name": "Rita Back Road, Rita, Ejit, Majuro, Ratak Chain, 96960, Marshall Islands",
        "road": "Rita Back Road",
        "house_number": null,
        "neighbourhood": "Rita",
        "suburb": null,
        "city_district": null,
        "city": "Majuro",
        "state": "Ratak Chain",
        "postcode": "96960",
        "country": "Marshall Islands",
        "country_code": "mh"
      },
      "address": "756, Rita Back Road, Rita, Ejit, Majuro, Ratak Chain, 96960, Marshall Islands"
    },
    {
      "lat": 7.080724943642036,
      "lon": 171.3656295744528,
      "geoinfo": {
        "display_name": "Majuro Bridge Walking Trail, Delap-Uliga-Darrit, Majuro, Ratak Chain, 96060, Marshall Islands",
        "road": "Majuro Bridge Walking Trail",
        "house_number": null,
        "neighbourhood": null,
        "suburb": null,
        "city_district": null,
        "city": "Majuro",
        "state": "Ratak Chain",
        "postcode": "96060",
        "country": "Marshall Islands",
        "country_code": "mh"
      },
      "address": "613, Majuro Bridge Walking Trail, Delap-Uliga-Darrit, Majuro, Ratak Chain, 96060, Marshall Islands"
    },
    {
      "lat": 7.06640290034235,
      "lon": 171.36740350844735,
      "geoinfo": {
        "display_name": "Delap-Uliga-Darrit, Majuro, Ratak Chain, 96060, Marshall Islands",
        "road": null,
        "house_number": null,
        "neighbourhood": null,
        "suburb": null,
        "city_district": null,
        "city": "Majuro",
        "state": "Ratak Chain",
        "postcode": "96060",
        "country": "Marshall Islands",
        "country_code": "mh"
      },
      "address": "944, Delap-Uliga-Darrit, Majuro, Ratak Chain, 96060, Marshall Islands"
    },
    {
      "lat": 7.069555863103666,
      "lon": 171.41466554910815,
      "geoinfo": {
        "display_name": "Delap-Uliga-Darrit, Majuro, Ratak Chain, 96060, Marshall Islands",
        "road": null,
        "house_number": null,
        "neighbourhood": null,
        "suburb": null,
        "city_district": null,
        "city": "Majuro",
        "state": "Ratak Chain",
        "postcode": "96060",
        "country": "Marshall Islands",
        "country_code": "mh"
      },
      "address": "761, Delap-Uliga-Darrit, Majuro, Ratak Chain, 96060, Marshall Islands"
    },
    {
      "lat": 7.104903637944053,
      "lon": 171.3642979707423,
      "geoinfo": {
        "display_name": "Uliga, Delap-Uliga-Darrit, Majuro, Ratak Chain, 96960, Marshall Islands",
        "road": null,
        "house_number": null,
        "neighbourhood": "Uliga",
        "suburb": null,
        "city_district": null,
        "city": "Majuro",
        "state": "Ratak Chain",
        "postcode": "96960",
        "country": "Marshall Islands",
        "country_code": "mh"
      },
      "address": "964, Uliga, Delap-Uliga-Darrit, Majuro, Ratak Chain, 96960, Marshall Islands"
    },
    {
      "lat": 7.089938608792589,
      "lon": 171.34364909060554,
      "geoinfo": {
        "display_name": "Ejit, Majuro, Ratak Chain, 96960, Marshall Islands",
        "road": null,
        "house_number": null,
        "neighbourhood": null,
        "suburb": null,
        "city_district": null,
        "city": "Majuro",
        "state": "Ratak Chain",
        "postcode": "96960",
        "country": "Marshall Islands",
        "country_code": "mh"
      },
      "address": "448, Ejit, Majuro, Ratak Chain, 96960, Marshall Islands"
    },
    {
      "lat": 7.061709599208336,
      "lon": 171.37343390683225,
      "geoinfo": {
        "display_name": "Delap-Uliga-Darrit, Majuro, Ratak Chain, 96060, Marshall Islands",
        "road": null,
        "house_number": null,
        "neighbourhood": null,
        "suburb": null,
        "city_district": null,
        "city": "Majuro",
        "state": "Ratak Chain",
        "postcode": "96060",
        "country": "Marshall Islands",
        "country_code": "mh"
      },
      "address": "973, Delap-Uliga-Darrit, Majuro, Ratak Chain, 96060, Marshall Islands"
    },
    {
      "lat": 7.096797598664985,
      "lon": 171.38605361273002,
      "geoinfo": {
        "display_name": "Loop Street, Delap, Delap-Uliga-Darrit, Majuro, Ratak Chain, 96060, Marshall Islands",
        "road": "Loop Street",
        "house_number": null,
        "neighbourhood": "Delap",
        "suburb": null,
        "city_district": null,
        "city": "Majuro",
        "state": "Ratak Chain",
        "postcode": "96060",
        "country": "Marshall Islands",
        "country_code": "mh"
      },
      "address": "265, Loop Street, Delap, Delap-Uliga-Darrit, Majuro, Ratak Chain, 96060, Marshall Islands"
    },
    {
      "lat": 7.1111438096963795,
      "lon": 171.38153643495522,
      "geoinfo": {
        "display_name": "Uliga, Delap-Uliga-Darrit, Majuro, Ratak Chain, 96960, Marshall Islands",
        "road": null,
        "house_number": null,
        "neighbourhood": "Uliga",
        "suburb": null,
        "city_district": null,
        "city": "Majuro",
        "state": "Ratak Chain",
        "postcode": "96960",
        "country": "Marshall Islands",
        "country_code": "mh"
      },
      "address": "149, Uliga, Delap-Uliga-Darrit, Majuro, Ratak Chain, 96960, Marshall Islands"
    },
    {
      "lat": 7.097726645136852,
      "lon": 171.36854165012676,
      "geoinfo": {
        "display_name": "Uliga, Delap-Uliga-Darrit, Majuro, Ratak Chain, 96960, Marshall Islands",
        "road": null,
        "house_number": null,
        "neighbourhood": "Uliga",
        "suburb": null,
        "city_district": null,
        "city": "Majuro",
        "state": "Ratak Chain",
        "postcode": "96960",
        "country": "Marshall Islands",
        "country_code": "mh"
      },
      "address": "515, Uliga, Delap-Uliga-Darrit, Majuro, Ratak Chain, 96960, Marshall Islands"
    },
    {
      "lat": 7.064449798234467,
      "lon": 171.3692225090383,
      "geoinfo": {
        "display_name": "Delap-Uliga-Darrit, Majuro, Ratak Chain, 96060, Marshall Islands",
        "road": null,
        "house_number": null,
        "neighbourhood": null,
        "suburb": null,
        "city_district": null,
        "city": "Majuro",
        "state": "Ratak Chain",
        "postcode": "96060",
        "country": "Marshall Islands",
        "country_code": "mh"
      },
      "address": "183, Delap-Uliga-Darrit, Majuro, Ratak Chain, 96060, Marshall Islands"
    },
    {
      "lat": 7.059854097615461,
      "lon": 171.35504694162242,
      "geoinfo": {
        "display_name": "Delap-Uliga-Darrit, Majuro, Ratak Chain, 96060, Marshall Islands",
        "road": null,
        "house_number": null,
        "neighbourhood": null,
        "suburb": null,
        "city_district": null,
        "city": "Majuro",
        "state": "Ratak Chain",
        "postcode": "96060",
        "country": "Marshall Islands",
        "country_code": "mh"
      },
      "address": "774, Delap-Uliga-Darrit, Majuro, Ratak Chain, 96060, Marshall Islands"
    },
    {
      "lat": 7.096746400598434,
      "lon": 171.3662867875272,
      "geoinfo": {
        "display_name": "Uliga, Delap-Uliga-Darrit, Majuro, Ratak Chain, 96960, Marshall Islands",
        "road": null,
        "house_number": null,
        "neighbourhood": "Uliga",
        "suburb": null,
        "city_district": null,
        "city": "Majuro",
        "state": "Ratak Chain",
        "postcode": "96960",
        "country": "Marshall Islands",
        "country_code": "mh"
      },
      "address": "528, Uliga, Delap-Uliga-Darrit, Majuro, Ratak Chain, 96960, Marshall Islands"
    },
    {
      "lat": 7.074687724103636,
      "lon": 171.4135525391021,
      "geoinfo": {
        "display_name": "Delap-Uliga-Darrit, Majuro, Ratak Chain, 96060, Marshall Islands",
        "road": null,
        "house_number": null,
        "neighbourhood": null,
        "suburb": null,
        "city_district": null,
        "city": "Majuro",
        "state": "Ratak Chain",
        "postcode": "96060",
        "country": "Marshall Islands",
        "country_code": "mh"
      },
      "address": "491, Delap-Uliga-Darrit, Majuro, Ratak Chain, 96060, Marshall Islands"
    },
    {
      "lat": 7.079776129293218,
      "lon": 171.38402870500025,
      "geoinfo": {
        "display_name": "Lokjab Rōtle, Delap-Uliga-Darrit, Majuro, Ratak Chain, 96060, Marshall Islands",
        "road": null,
        "house_number": null,
        "neighbourhood": "Lokjab Rōtle",
        "suburb": null,
        "city_district": null,
        "city": "Majuro",
        "state": "Ratak Chain",
        "postcode": "96060",
        "country": "Marshall Islands",
        "country_code": "mh"
      },
      "address": "699, Lokjab Rōtle, Delap-Uliga-Darrit, Majuro, Ratak Chain, 96060, Marshall Islands"
    },
    {
      "lat": 7.047123570303187,
      "lon": 171.36728213873423,
      "geoinfo": {
        "display_name": "Delap-Uliga-Darrit, Majuro, Ratak Chain, 96060, Marshall Islands",
        "road": null,
        "house_number": null,
        "neighbourhood": null,
        "suburb": null,
        "city_district": null,
        "city": "Majuro",
        "state": "Ratak Chain",
        "postcode": "96060",
        "country": "Marshall Islands",
        "country_code": "mh"
      },
      "address": "595, Delap-Uliga-Darrit, Majuro, Ratak Chain, 96060, Marshall Islands"
    },
    {
      "lat": 7.107844373180797,
      "lon": 171.36814152871892,
      "geoinfo": {
        "display_name": "Lagoon Road, Biggariat, Delap-Uliga-Darrit, Majuro, Ratak Chain, 96960, Marshall Islands",
        "road": "Lagoon Road",
        "house_number": null,
        "neighbourhood": "Biggariat",
        "suburb": null,
        "city_district": null,
        "city": "Majuro",
        "state": "Ratak Chain",
        "postcode": "96960",
        "country": "Marshall Islands",
        "country_code": "mh"
      },
      "address": "095, Lagoon Road, Biggariat, Delap-Uliga-Darrit, Majuro, Ratak Chain, 96960, Marshall Islands"
    },
    {
      "lat": 7.109322227636372,
      "lon": 171.36527110518665,
      "geoinfo": {
        "display_name": "Lagoon Road, Biggariat, Delap-Uliga-Darrit, Majuro, Ratak Chain, 96960, Marshall Islands",
        "road": "Lagoon Road",
        "house_number": null,
        "neighbourhood": "Biggariat",
        "suburb": null,
        "city_district": null,
        "city": "Majuro",
        "state": "Ratak Chain",
        "postcode": "96960",
        "country": "Marshall Islands",
        "country_code": "mh"
      },
      "address": "124, Lagoon Road, Biggariat, Delap-Uliga-Darrit, Majuro, Ratak Chain, 96960, Marshall Islands"
    },
    {
      "lat": 7.093265396299879,
      "lon": 171.35163568079744,
      "geoinfo": {
        "display_name": "Ejit, Majuro, Ratak Chain, 96960, Marshall Islands",
        "road": null,
        "house_number": null,
        "neighbourhood": null,
        "suburb": null,
        "city_district": null,
        "city": "Majuro",
        "state": "Ratak Chain",
        "postcode": "96960",
        "country": "Marshall Islands",
        "country_code": "mh"
      },
      "address": "319, Ejit, Majuro, Ratak Chain, 96960, Marshall Islands"
    },
    {
      "lat": 7.1175199131170395,
      "lon": 171.36291772220233,
      "geoinfo": {
        "display_name": "Lagoon Road, Biggariat, Delap-Uliga-Darrit, Majuro, Ratak Chain, 96960, Marshall Islands",
        "road": "Lagoon Road",
        "house_number": null,
        "neighbourhood": "Biggariat",
        "suburb": null,
        "city_district": null,
        "city": "Majuro",
        "state": "Ratak Chain",
        "postcode": "96960",
        "country": "Marshall Islands",
        "country_code": "mh"
      },
      "address": "879, Lagoon Road, Biggariat, Delap-Uliga-Darrit, Majuro, Ratak Chain, 96960, Marshall Islands"
    },
    {
      "lat": 7.066869531287061,
      "lon": 171.3733725181887,
      "geoinfo": {
        "display_name": "Lokjab Rōtle, Delap-Uliga-Darrit, Majuro, Ratak Chain, 96060, Marshall Islands",
        "road": null,
        "house_number": null,
        "neighbourhood": "Lokjab Rōtle",
        "suburb": null,
        "city_district": null,
        "city": "Majuro",
        "state": "Ratak Chain",
        "postcode": "96060",
        "country": "Marshall Islands",
        "country_code": "mh"
      },
      "address": "034, Lokjab Rōtle, Delap-Uliga-Darrit, Majuro, Ratak Chain, 96060, Marshall Islands"
    },
    {
      "lat": 7.100707272313745,
      "lon": 171.37839252521943,
      "geoinfo": {
        "display_name": "Lagoon Road, Biggariat, Delap-Uliga-Darrit, Majuro, Ratak Chain, 96960, Marshall Islands",
        "road": "Lagoon Road",
        "house_number": null,
        "neighbourhood": "Biggariat",
        "suburb": null,
        "city_district": null,
        "city": "Majuro",
        "state": "Ratak Chain",
        "postcode": "96960",
        "country": "Marshall Islands",
        "country_code": "mh"
      },
      "address": "232, Lagoon Road, Biggariat, Delap-Uliga-Darrit, Majuro, Ratak Chain, 96960, Marshall Islands"
    },
    {
      "lat": 7.091463336631369,
      "lon": 171.40198739282593,
      "geoinfo": {
        "display_name": "Delap, Delap-Uliga-Darrit, Majuro, Ratak Chain, 96060, Marshall Islands",
        "road": null,
        "house_number": null,
        "neighbourhood": "Delap",
        "suburb": null,
        "city_district": null,
        "city": "Majuro",
        "state": "Ratak Chain",
        "postcode": "96060",
        "country": "Marshall Islands",
        "country_code": "mh"
      },
      "address": "855, Delap, Delap-Uliga-Darrit, Majuro, Ratak Chain, 96060, Marshall Islands"
    },
    {
      "lat": 7.069846673500236,
      "lon": 171.37484534683617,
      "geoinfo": {
        "display_name": "Lokjab Rōtle, Delap-Uliga-Darrit, Majuro, Ratak Chain, 96060, Marshall Islands",
        "road": null,
        "house_number": null,
        "neighbourhood": "Lokjab Rōtle",
        "suburb": null,
        "city_district": null,
        "city": "Majuro",
        "state": "Ratak Chain",
        "postcode": "96060",
        "country": "Marshall Islands",
        "country_code": "mh"
      },
      "address": "331, Lokjab Rōtle, Delap-Uliga-Darrit, Majuro, Ratak Chain, 96060, Marshall Islands"
    },
    {
      "lat": 7.067365154534749,
      "lon": 171.41330080781603,
      "geoinfo": {
        "display_name": "Delap-Uliga-Darrit, Majuro, Ratak Chain, 96060, Marshall Islands",
        "road": null,
        "house_number": null,
        "neighbourhood": null,
        "suburb": null,
        "city_district": null,
        "city": "Majuro",
        "state": "Ratak Chain",
        "postcode": "96060",
        "country": "Marshall Islands",
        "country_code": "mh"
      },
      "address": "652, Delap-Uliga-Darrit, Majuro, Ratak Chain, 96060, Marshall Islands"
    },
    {
      "lat": 7.130142627613778,
      "lon": 171.3621218641324,
      "geoinfo": {
        "display_name": "Rita Back Road, Rita, Ejit, Majuro, Ratak Chain, 96960, Marshall Islands",
        "road": "Rita Back Road",
        "house_number": null,
        "neighbourhood": "Rita",
        "suburb": null,
        "city_district": null,
        "city": "Majuro",
        "state": "Ratak Chain",
        "postcode": "96960",
        "country": "Marshall Islands",
        "country_code": "mh"
      },
      "address": "585, Rita Back Road, Rita, Ejit, Majuro, Ratak Chain, 96960, Marshall Islands"
    },
    {
      "lat": 7.120977493933241,
      "lon": 171.3505496936068,
      "geoinfo": {
        "display_name": "Rita Back Road, Rita, Ejit, Majuro, Ratak Chain, 96960, Marshall Islands",
        "road": "Rita Back Road",
        "house_number": null,
        "neighbourhood": "Rita",
        "suburb": null,
        "city_district": null,
        "city": "Majuro",
        "state": "Ratak Chain",
        "postcode": "96960",
        "country": "Marshall Islands",
        "country_code": "mh"
      },
      "address": "906, Rita Back Road, Rita, Ejit, Majuro, Ratak Chain, 96960, Marshall Islands"
    },
    {
      "lat": 7.086860766580636,
      "lon": 171.38289498192637,
      "geoinfo": {
        "display_name": "Capitol Loop, Delap, Delap-Uliga-Darrit, Majuro, Ratak Chain, 96060, Marshall Islands",
        "road": "Capitol Loop",
        "house_number": null,
        "neighbourhood": "Delap",
        "suburb": null,
        "city_district": null,
        "city": "Majuro",
        "state": "Ratak Chain",
        "postcode": "96060",
        "country": "Marshall Islands",
        "country_code": "mh"
      },
      "address": "539, Capitol Loop, Delap, Delap-Uliga-Darrit, Majuro, Ratak Chain, 96060, Marshall Islands"
    },
    {
      "lat": 7.109211290231029,
      "lon": 171.38741763317915,
      "geoinfo": {
        "display_name": "Uliga, Delap-Uliga-Darrit, Majuro, Ratak Chain, 96960, Marshall Islands",
        "road": null,
        "house_number": null,
        "neighbourhood": "Uliga",
        "suburb": null,
        "city_district": null,
        "city": "Majuro",
        "state": "Ratak Chain",
        "postcode": "96960",
        "country": "Marshall Islands",
        "country_code": "mh"
      },
      "address": "258, Uliga, Delap-Uliga-Darrit, Majuro, Ratak Chain, 96960, Marshall Islands"
    },
    {
      "lat": 7.085833443208975,
      "lon": 171.40622961640534,
      "geoinfo": {
        "display_name": "Delap-Uliga-Darrit, Majuro, Ratak Chain, 96060, Marshall Islands",
        "road": null,
        "house_number": null,
        "neighbourhood": null,
        "suburb": null,
        "city_district": null,
        "city": "Majuro",
        "state": "Ratak Chain",
        "postcode": "96060",
        "country": "Marshall Islands",
        "country_code": "mh"
      },
      "address": "214, Delap-Uliga-Darrit, Majuro, Ratak Chain, 96060, Marshall Islands"
    },
    {
      "lat": 7.071301846789633,
      "lon": 171.40215688121285,
      "geoinfo": {
        "display_name": "Delap-Uliga-Darrit, Majuro, Ratak Chain, 96060, Marshall Islands",
        "road": null,
        "house_number": null,
        "neighbourhood": null,
        "suburb": null,
        "city_district": null,
        "city": "Majuro",
        "state": "Ratak Chain",
        "postcode": "96060",
        "country": "Marshall Islands",
        "country_code": "mh"
      },
      "address": "833, Delap-Uliga-Darrit, Majuro, Ratak Chain, 96060, Marshall Islands"
    },
    {
      "lat": 7.081072770222392,
      "lon": 171.35073148574742,
      "geoinfo": {
        "display_name": "Lagoon Road, Ajeltake, Majuro, Ratak Chain, Marshall Islands",
        "road": "Lagoon Road",
        "house_number": null,
        "neighbourhood": "Ajeltake",
        "suburb": null,
        "city_district": null,
        "city": "Majuro",
        "state": "Ratak Chain",
        "postcode": null,
        "country": "Marshall Islands",
        "country_code": "mh"
      },
      "address": "637, Lagoon Road, Ajeltake, Majuro, 77295 Ratak Chain, Marshall Islands"
    },
    {
      "lat": 7.063737410875024,
      "lon": 171.3630365297025,
      "geoinfo": {
        "display_name": "Delap-Uliga-Darrit, Majuro, Ratak Chain, 96060, Marshall Islands",
        "road": null,
        "house_number": null,
        "neighbourhood": null,
        "suburb": null,
        "city_district": null,
        "city": "Majuro",
        "state": "Ratak Chain",
        "postcode": "96060",
        "country": "Marshall Islands",
        "country_code": "mh"
      },
      "address": "588, Delap-Uliga-Darrit, Majuro, Ratak Chain, 96060, Marshall Islands"
    },
    {
      "lat": 7.065501498155009,
      "lon": 171.38026589106775,
      "geoinfo": {
        "display_name": "Delap-Uliga-Darrit, Majuro, Ratak Chain, 96060, Marshall Islands",
        "road": null,
        "house_number": null,
        "neighbourhood": null,
        "suburb": null,
        "city_district": null,
        "city": "Majuro",
        "state": "Ratak Chain",
        "postcode": "96060",
        "country": "Marshall Islands",
        "country_code": "mh"
      },
      "address": "979, Delap-Uliga-Darrit, Majuro, Ratak Chain, 96060, Marshall Islands"
    },
    {
      "lat": 7.07538453271384,
      "lon": 171.4156539061578,
      "geoinfo": {
        "display_name": "Delap-Uliga-Darrit, Majuro, Ratak Chain, 96060, Marshall Islands",
        "road": null,
        "house_number": null,
        "neighbourhood": null,
        "suburb": null,
        "city_district": null,
        "city": "Majuro",
        "state": "Ratak Chain",
        "postcode": "96060",
        "country": "Marshall Islands",
        "country_code": "mh"
      },
      "address": "785, Delap-Uliga-Darrit, Majuro, Ratak Chain, 96060, Marshall Islands"
    },
    {
      "lat": 7.099929335702744,
      "lon": 171.35603014060675,
      "geoinfo": {
        "display_name": "Ejit, Majuro, Ratak Chain, 96960, Marshall Islands",
        "road": null,
        "house_number": null,
        "neighbourhood": null,
        "suburb": null,
        "city_district": null,
        "city": "Majuro",
        "state": "Ratak Chain",
        "postcode": "96960",
        "country": "Marshall Islands",
        "country_code": "mh"
      },
      "address": "113, Ejit, Majuro, Ratak Chain, 96960, Marshall Islands"
    },
    {
      "lat": 7.068893561205826,
      "lon": 171.3765672592168,
      "geoinfo": {
        "display_name": "Lokjab Rōtle, Delap-Uliga-Darrit, Majuro, Ratak Chain, 96060, Marshall Islands",
        "road": null,
        "house_number": null,
        "neighbourhood": "Lokjab Rōtle",
        "suburb": null,
        "city_district": null,
        "city": "Majuro",
        "state": "Ratak Chain",
        "postcode": "96060",
        "country": "Marshall Islands",
        "country_code": "mh"
      },
      "address": "505, Lokjab Rōtle, Delap-Uliga-Darrit, Majuro, Ratak Chain, 96060, Marshall Islands"
    },
    {
      "lat": 7.11878379601891,
      "lon": 171.3587371925844,
      "geoinfo": {
        "display_name": "Rita, Ejit, Majuro, Ratak Chain, 96960, Marshall Islands",
        "road": null,
        "house_number": null,
        "neighbourhood": "Rita",
        "suburb": null,
        "city_district": null,
        "city": "Majuro",
        "state": "Ratak Chain",
        "postcode": "96960",
        "country": "Marshall Islands",
        "country_code": "mh"
      },
      "address": "668, Rita, Ejit, Majuro, Ratak Chain, 96960, Marshall Islands"
    },
    {
      "lat": 7.0517169932579815,
      "lon": 171.39501318438698,
      "geoinfo": {
        "display_name": "Delap-Uliga-Darrit, Majuro, Ratak Chain, 96060, Marshall Islands",
        "road": null,
        "house_number": null,
        "neighbourhood": null,
        "suburb": null,
        "city_district": null,
        "city": "Majuro",
        "state": "Ratak Chain",
        "postcode": "96060",
        "country": "Marshall Islands",
        "country_code": "mh"
      },
      "address": "030, Delap-Uliga-Darrit, Majuro, Ratak Chain, 96060, Marshall Islands"
    },
    {
      "lat": 7.052184969530867,
      "lon": 171.38763569168012,
      "geoinfo": {
        "display_name": "Delap-Uliga-Darrit, Majuro, Ratak Chain, 96060, Marshall Islands",
        "road": null,
        "house_number": null,
        "neighbourhood": null,
        "suburb": null,
        "city_district": null,
        "city": "Majuro",
        "state": "Ratak Chain",
        "postcode": "96060",
        "country": "Marshall Islands",
        "country_code": "mh"
      },
      "address": "289, Delap-Uliga-Darrit, Majuro, Ratak Chain, 96060, Marshall Islands"
    },
    {
      "lat": 7.091275978279994,
      "lon": 171.38647466356647,
      "geoinfo": {
        "display_name": "Majuro Cooperative School, Capitol Loop, Delap, Delap-Uliga-Darrit, Majuro, Ratak Chain, 96060, Marshall Islands",
        "road": "Capitol Loop",
        "house_number": null,
        "neighbourhood": "Delap",
        "suburb": null,
        "city_district": null,
        "city": "Majuro",
        "state": "Ratak Chain",
        "postcode": "96060",
        "country": "Marshall Islands",
        "country_code": "mh"
      },
      "address": "010, Capitol Loop, Majuro, 96060 Ratak Chain, Marshall Islands"
    },
    {
      "lat": 7.074552945421728,
      "lon": 171.4033586433545,
      "geoinfo": {
        "display_name": "Delap-Uliga-Darrit, Majuro, Ratak Chain, 96060, Marshall Islands",
        "road": null,
        "house_number": null,
        "neighbourhood": null,
        "suburb": null,
        "city_district": null,
        "city": "Majuro",
        "state": "Ratak Chain",
        "postcode": "96060",
        "country": "Marshall Islands",
        "country_code": "mh"
      },
      "address": "068, Delap-Uliga-Darrit, Majuro, Ratak Chain, 96060, Marshall Islands"
    },
    {
      "lat": 7.073440686146151,
      "lon": 171.37526738914724,
      "geoinfo": {
        "display_name": "Lokjab Rōtle, Delap-Uliga-Darrit, Majuro, Ratak Chain, 96060, Marshall Islands",
        "road": null,
        "house_number": null,
        "neighbourhood": "Lokjab Rōtle",
        "suburb": null,
        "city_district": null,
        "city": "Majuro",
        "state": "Ratak Chain",
        "postcode": "96060",
        "country": "Marshall Islands",
        "country_code": "mh"
      },
      "address": "535, Lokjab Rōtle, Delap-Uliga-Darrit, Majuro, Ratak Chain, 96060, Marshall Islands"
    },
    {
      "lat": 7.118021169176383,
      "lon": 171.37637446610225,
      "geoinfo": {
        "display_name": "Uliga, Delap-Uliga-Darrit, Majuro, Ratak Chain, 96960, Marshall Islands",
        "road": null,
        "house_number": null,
        "neighbourhood": "Uliga",
        "suburb": null,
        "city_district": null,
        "city": "Majuro",
        "state": "Ratak Chain",
        "postcode": "96960",
        "country": "Marshall Islands",
        "country_code": "mh"
      },
      "address": "884, Uliga, Delap-Uliga-Darrit, Majuro, Ratak Chain, 96960, Marshall Islands"
    },
    {
      "lat": 7.085299946840812,
      "lon": 171.33582332654282,
      "geoinfo": {
        "display_name": "Lagoon Road, Ajeltake, Majuro, Ratak Chain, Marshall Islands",
        "road": "Lagoon Road",
        "house_number": null,
        "neighbourhood": "Ajeltake",
        "suburb": null,
        "city_district": null,
        "city": "Majuro",
        "state": "Ratak Chain",
        "postcode": null,
        "country": "Marshall Islands",
        "country_code": "mh"
      },
      "address": "919, Lagoon Road, Ajeltake, Majuro, 79644 Ratak Chain, Marshall Islands"
    },
    {
      "lat": 7.0710571079751166,
      "lon": 171.40859594428724,
      "geoinfo": {
        "display_name": "Delap-Uliga-Darrit, Majuro, Ratak Chain, 96060, Marshall Islands",
        "road": null,
        "house_number": null,
        "neighbourhood": null,
        "suburb": null,
        "city_district": null,
        "city": "Majuro",
        "state": "Ratak Chain",
        "postcode": "96060",
        "country": "Marshall Islands",
        "country_code": "mh"
      },
      "address": "135, Delap-Uliga-Darrit, Majuro, Ratak Chain, 96060, Marshall Islands"
    },
    {
      "lat": 7.096753720385916,
      "lon": 171.38915681676121,
      "geoinfo": {
        "display_name": "Delap, Delap-Uliga-Darrit, Majuro, Ratak Chain, 96060, Marshall Islands",
        "road": null,
        "house_number": null,
        "neighbourhood": "Delap",
        "suburb": null,
        "city_district": null,
        "city": "Majuro",
        "state": "Ratak Chain",
        "postcode": "96060",
        "country": "Marshall Islands",
        "country_code": "mh"
      },
      "address": "700, Delap, Delap-Uliga-Darrit, Majuro, Ratak Chain, 96060, Marshall Islands"
    },
    {
      "lat": 7.114646889257052,
      "lon": 171.39928207497505,
      "geoinfo": {
        "display_name": "Delap-Uliga-Darrit, Majuro, Ratak Chain, 96060, Marshall Islands",
        "road": null,
        "house_number": null,
        "neighbourhood": null,
        "suburb": null,
        "city_district": null,
        "city": "Majuro",
        "state": "Ratak Chain",
        "postcode": "96060",
        "country": "Marshall Islands",
        "country_code": "mh"
      },
      "address": "667, Delap-Uliga-Darrit, Majuro, Ratak Chain, 96060, Marshall Islands"
    },
    {
      "lat": 7.082188629174866,
      "lon": 171.38686137862257,
      "geoinfo": {
        "display_name": "Delap, Delap-Uliga-Darrit, Majuro, Ratak Chain, 96060, Marshall Islands",
        "road": null,
        "house_number": null,
        "neighbourhood": "Delap",
        "suburb": null,
        "city_district": null,
        "city": "Majuro",
        "state": "Ratak Chain",
        "postcode": "96060",
        "country": "Marshall Islands",
        "country_code": "mh"
      },
      "address": "188, Delap, Delap-Uliga-Darrit, Majuro, Ratak Chain, 96060, Marshall Islands"
    },
    {
      "lat": 7.117009905197927,
      "lon": 171.383808859714,
      "geoinfo": {
        "display_name": "Uliga, Delap-Uliga-Darrit, Majuro, Ratak Chain, 96960, Marshall Islands",
        "road": null,
        "house_number": null,
        "neighbourhood": "Uliga",
        "suburb": null,
        "city_district": null,
        "city": "Majuro",
        "state": "Ratak Chain",
        "postcode": "96960",
        "country": "Marshall Islands",
        "country_code": "mh"
      },
      "address": "997, Uliga, Delap-Uliga-Darrit, Majuro, Ratak Chain, 96960, Marshall Islands"
    },
    {
      "lat": 7.080847935167544,
      "lon": 171.41592067089425,
      "geoinfo": {
        "display_name": "Delap-Uliga-Darrit, Majuro, Ratak Chain, 96060, Marshall Islands",
        "road": null,
        "house_number": null,
        "neighbourhood": null,
        "suburb": null,
        "city_district": null,
        "city": "Majuro",
        "state": "Ratak Chain",
        "postcode": "96060",
        "country": "Marshall Islands",
        "country_code": "mh"
      },
      "address": "106, Delap-Uliga-Darrit, Majuro, Ratak Chain, 96060, Marshall Islands"
    }
  ],
  "updated_at": "2025-10-19T06:01:41.749268+00:00",
  "_kind": "geo_samples"
}