{
  "country_code": "YT",
  "country": "Mayotte",
  "city": "Kaouéni",
  "geonameid": 1090239,
  "target_addresses": 17,
  "samples": [
    {
      "lat": -12.773995405437777,
      "lon": 45.19399705218084,
      "geoinfo": {
        "display_name": "Piste maison du gouverneur, Kawéni, Mamoudzou, Mayotte, 97600, France",
        "road": "Piste maison du gouverneur",
        "house_number": null,
        "neighbourhood": null,
        "suburb": null,
        "city_district": null,
        "city": "Kawéni",
        "state": "Mayotte",
        "postcode": "97600",
        "country": "France",
        "country_code": "fr"
      },
      "address": "Piste maison du gouverneur, Kaouéni, Mayotte, Mayotte"
    },
    {
      "lat": -12.78140660853575,
      "lon": 45.24525892901368,
      "geoinfo": {
        "display_name": "M'Gombani, Cavani, Mamoudzou, Mayotte, 96700, France",
        "road": null,
        "house_number": null,
        "neighbourhood": null,
        "suburb": null,
        "city_district": null,
        "city": "Mamoudzou",
        "state": "Mayotte",
        "postcode": "96700",
        "country": "France",
        "country_code": "fr"
      },
      "address": "Kaouéni, Mayotte, Mayotte"
    },
    {
      "lat": -12.783534112102135,
      "lon": 45.22472698935817,
      "geoinfo": {
        "display_name": "Avenue Zéna Mdéré, Les Hauts de Mamoudzou, Cavani, Mamoudzou, Mayotte, 96700, France",
        "road": "Avenue Zéna Mdéré",
        "house_number": null,
        "neighbourhood": null,
        "suburb": null,
        "city_district": null,
        "city": "Mamoudzou",
        "state": "Mayotte",
        "postcode": "96700",
        "country": "France",
        "country_code": "fr"
      },
      "address": "Avenue Zéna Mdéré, Kaouéni, Mayotte, Mayotte"
    },
    {
      "lat": -12.767794959388791,
      "lon": 45.240493384377224,
      "geoinfo": {
        "display_name": "Rue du Clair de Lune, Kawéni, Mamoudzou, Mayotte, 97690, France",
        "road": "Rue du Clair de Lune",
        "house_number": null,
        "neighbourhood": null,
        "suburb": null,
        "city_district": null,
        "city": "Kawéni",
        "state": "Mayotte",
        "postcode": "97690",
        "country": "France",
        "country_code": "fr"
      },
      "address": "Rue du Clair de Lune, Kaouéni, Mayotte, Mayotte"
    },
    {
      "lat": -12.791213937077297,
      "lon": 45.22636268290082,
      "geoinfo": {
        "display_name": "Boulevard Mawana-Madi, Kalafouba, M'Tsapéré, Mamoudzou, Mayotte, 97605, France",
        "road": "Boulevard Mawana-Madi",
        "house_number": null,
        "neighbourhood": null,
        "suburb": null,
        "city_district": null,
        "city": "Mamoudzou",
        "state": "Mayotte",
        "postcode": "97605",
        "country": "France",
        "country_code": "fr"
      },
      "address": "Boulevard Mawana-Madi, Kaouéni, Mayotte, Mayotte"
    },
    {
      "lat": -12.767241822010918,
      "lon": 45.21657894909389,
      "geoinfo": {
        "display_name": "Rue Bambao, Bandrajou, Kawéni, Mamoudzou, Mayotte, 97600, France",
        "road": "Rue Bambao",
        "house_number": null,
        "neighbourhood": null,
        "suburb": "Bandrajou",
        "city_district": null,
        "city": "Kawéni",
        "state": "Mayotte",
        "postcode": "97600",
        "country": "France",
        "country_code": "fr"
      },
      "address": "Rue Bambao, Kaouéni, Mayotte, Mayotte"
    },
    {
      "lat": -12.773288020552947,
      "lon": 45.223024135370366,
      "geoinfo": {
        "display_name": "N 1, ZI de Kawéni, Kawéni, Mamoudzou, Mayotte, 96700, France",
        "road": "N 1",
        "house_number": null,
        "neighbourhood": null,
        "suburb": null,
        "city_district": null,
        "city": "Kawéni",
        "state": "Mayotte",
        "postcode": "96700",
        "country": "France",
        "country_code": "fr"
      },
      "address": "N 1, Kaouéni, Mayotte, Mayotte"
    },
    {
      "lat": -12.77238668016611,
      "lon": 45.23985602186868,
      "geoinfo": {
        "display_name": "ZI Nel, Zone Nel, ZI de Kawéni, Kawéni, Mamoudzou, Mayotte, 97600, France",
        "road": null,
        "house_number": null,
        "neighbourhood": null,
        "suburb": "Zone Nel",
        "city_district": null,
        "city": "Kawéni",
        "state": "Mayotte",
        "postcode": "97600",
        "country": "France",
        "country_code": "fr"
      },
      "address": "Zone Nel, Kaouéni, Mayotte, Mayotte"
    },
    {
      "lat": -12.80927216192045,
      "lon": 45.21270273475451,
      "geoinfo": {
        "display_name": "N 2, Passamainty, Mamoudzou, Mayotte, 97605, France",
        "road": "N 2",
        "house_number": null,
        "neighbourhood": null,
        "suburb": null,
        "city_district": null,
        "city": "Mamoudzou",
        "state": "Mayotte",
        "postcode": "97605",
        "country": "France",
        "country_code": "fr"
      },
      "address": "N 2, Kaouéni, Mayotte, Mayotte"
    },
    {
      "lat": -12.797964367133714,
      "lon": 45.19757676050237,
      "geoinfo": {
        "display_name": "Rue Bassin Gouloue, Rivière des Manguiers, Passamainty, Mamoudzou, Mayotte, 97605, France",
        "road": "Rue Bassin Gouloue",
        "house_number": null,
        "neighbourhood": null,
        "suburb": null,
        "city_district": null,
        "city": "Mamoudzou",
        "state": "Mayotte",
        "postcode": "97605",
        "country": "France",
        "country_code": "fr"
      },
      "address": "Rue Bassin Gouloue, Kaouéni, Mayotte, Mayotte"
    },
    {
      "lat": -12.785641838361759,
      "lon": 45.18899994518264,
      "geoinfo": {
        "display_name": "D 3, Rivière des Manguiers, Vahibé, Mamoudzou, Mayotte, 97605, France",
        "road": "D 3",
        "house_number": null,
        "neighbourhood": null,
        "suburb": null,
        "city_district": null,
        "city": "Mamoudzou",
        "state": "Mayotte",
        "postcode": "97605",
        "country": "France",
        "country_code": "fr"
      },
      "address": "D 3, Kaouéni, Mayotte, Mayotte"
    },
    {
      "lat": -12.752258173903305,
      "lon": 45.230017342514905,
      "geoinfo": {
        "display_name": "Val Fleuri, Les Hauts Vallons, Majicavo-Lamir, Koungou, Mayotte, 97600, France",
        "road": null,
        "house_number": null,
        "neighbourhood": null,
        "suburb": "Les Hauts Vallons",
        "city_district": null,
        "city": "Koungou",
        "state": "Mayotte",
        "postcode": "97600",
        "country": "France",
        "country_code": "fr"
      },
      "address": "Les Hauts Vallons, Kaouéni, Mayotte, Mayotte"
    },
    {
      "lat": -12.781518126761116,
      "lon": 45.225767888855366,
      "geoinfo": {
        "display_name": "317, Avenue Irène Angleme, Les Hauts de Mamoudzou, Cavani, Mamoudzou, Mayotte, 97600, France",
        "road": "Avenue Irène Angleme",
        "house_number": "317",
        "neighbourhood": null,
        "suburb": null,
        "city_district": null,
        "city": "Mamoudzou",
        "state": "Mayotte",
        "postcode": "97600",
        "country": "France",
        "country_code": "fr"
      },
      "address": "317 Avenue Irène Angleme, Kaouéni, Mayotte, Mayotte"
    },
    {
      "lat": -12.788517172747929,
      "lon": 45.2365982094456,
      "geoinfo": {
        "display_name": "Rond-Point Mahabou, M'Gombani, Kawéni, Mamoudzou, Mayotte, 96700, France",
        "road": "Rond-Point Mahabou",
        "house_number": null,
        "neighbourhood": null,
        "suburb": null,
        "city_district": null,
        "city": "Kawéni",
        "state": "Mayotte",
        "postcode": "96700",
        "country": "France",
        "country_code": "fr"
      },
      "address": "Rond-Point Mahabou, Kaouéni, Mayotte, Mayotte"
    },
    {
      "lat": -12.762415315030701,
      "lon": 45.22931967119622,
      "geoinfo": {
        "display_name": "370, Rue du Clair de Lune, ZI de Kawéni, Disma Bas, Kawéni, Mamoudzou, Mayotte, 97600, France",
        "road": "Rue du Clair de Lune",
        "house_number": "370",
        "neighbourhood": null,
        "suburb": "Disma Bas",
        "city_district": null,
        "city": "Kawéni",
        "state": "Mayotte",
        "postcode": "97600",
        "country": "France",
        "country_code": "fr"
      },
      "address": "370 Rue du Clair de Lune, Kaouéni, Mayotte, Mayotte"
    },
    {
      "lat": -12.775509124817402,
      "lon": 45.21933642848559,
      "geoinfo": {
        "display_name": "Chemin Fleur d'Iris, Jardins du Collège, Kawéni, Mamoudzou, Mayotte, 96700, France",
        "road": "Chemin Fleur d'Iris",
        "house_number": null,
        "neighbourhood": null,
        "suburb": null,
        "city_district": null,
        "city": "Kawéni",
        "state": "Mayotte",
        "postcode": "96700",
        "country": "France",
        "country_code": "fr"
      },
      "address": "Chemin Fleur d'Iris, Kaouéni, Mayotte, Mayotte"
    },
    {
      "lat": -12.759804964467117,
      "lon": 45.231311277338214,
      "geoinfo": {
        "display_name": "161, Route de la Plage Hamaha, Kawéni, Mamoudzou, Mayotte, 97600, France",
        "road": "Route de la Plage Hamaha",
        "house_number": "161",
        "neighbourhood": null,
        "suburb": null,
        "city_district": null,
        "city": "Kawéni",
        "state": "Mayotte",
        "postcode": "97600",
        "country": "France",
        "country_code": "fr"
      },
      "address": "161 Route de la Plage Hamaha, Kaouéni, Mayotte, Mayotte"
    },
    {
      "lat": -12.759447587299935,
      "lon": 45.195842274980514,
      "geoinfo": {
        "display_name": "Trévani, Koungou, Mayotte, 97600, France",
        "road": null,
        "house_number": null,
        "neighbourhood": null,
        "suburb": null,
        "city_district": null,
        "city": "Koungou",
        "state": "Mayotte",
        "postcode": "97600",
        "country": "France",
        "country_code": "fr"
      },
      "address": "448, Kaouéni, 97600 Mayotte, Mayotte"
    },
    {
      "lat": -12.768154659584534,
      "lon": 45.23760912924395,
      "geoinfo": {
        "display_name": "Rue du Clair de Lune, Kawéni, Mamoudzou, Mayotte, 97690, France",
        "road": "Rue du Clair de Lune",
        "house_number": null,
        "neighbourhood": null,
        "suburb": null,
        "city_district": null,
        "city": "Kawéni",
        "state": "Mayotte",
        "postcode": "97690",
        "country": "France",
        "country_code": "fr"
      },
      "address": "457, Rue du Clair de Lune, Kaouéni, 97690 Mayotte, Mayotte"
    },
    {
      "lat": -12.729966235248291,
      "lon": 45.22975912097724,
      "geoinfo": {
        "display_name": "Quartier Moiou, Bandrajou, Majicavo-Koropa, Koungou, Mayotte, 97600, France",
        "road": null,
        "house_number": null,
        "neighbourhood": null,
        "suburb": "Bandrajou",
        "city_district": null,
        "city": "Majicavo-Koropa",
        "state": "Mayotte",
        "postcode": "97600",
        "country": "France",
        "country_code": "fr"
      },
      "address": "464, Bandrajou, Kaouéni, 97600 Mayotte, Mayotte"
    },
    {
      "lat": -12.790610164579917,
      "lon": 45.23604752598599,
      "geoinfo": {
        "display_name": "Rond-Point Mahabou, M'Gombani, Kawéni, Mamoudzou, Mayotte, 96700, France",
        "road": "Rond-Point Mahabou",
        "house_number": null,
        "neighbourhood": null,
        "suburb": null,
        "city_district": null,
        "city": "Kawéni",
        "state": "Mayotte",
        "postcode": "96700",
        "country": "France",
        "country_code": "fr"
      },
      "address": "301, Rond-Point Mahabou, Kaouéni, 96700 Mayotte, Mayotte"
    },
    {
      "lat": -12.75620387612566,
      "lon": 45.213219902738096,
      "geoinfo": {
        "display_name": "Massimoni, Majicavo-Koropa, Koungou, Mayotte, 97600, France",
        "road": null,
        "house_number": null,
        "neighbourhood": null,
        "suburb": null,
        "city_district": null,
        "city": "Majicavo-Koropa",
        "state": "Mayotte",
        "postcode": "97600",
        "country": "France",
        "country_code": "fr"
      },
      "address": "066, Kaouéni, 97600 Mayotte, Mayotte"
    },
    {
      "lat": -12.769979515396098,
      "lon": 45.200271979955346,
      "geoinfo": {
        "display_name": "Piste maison du gouverneur, Kawéni, Mamoudzou, Mayotte, 97600, France",
        "road": "Piste maison du gouverneur",
        "house_number": null,
        "neighbourhood": null,
        "suburb": null,
        "city_district": null,
        "city": "Kawéni",
        "state": "Mayotte",
        "postcode": "97600",
        "country": "France",
        "country_code": "fr"
      },
      "address": "863, Piste maison du gouverneur, Kaouéni, 97600 Mayotte, Mayotte"
    },
    {
      "lat": -12.755117127519236,
      "lon": 45.26090534146054,
      "geoinfo": {
        "display_name": "Le Taureau (Chissioua Gnombé N'Droumé), Dzaoudzi, Mayotte, 97610, France",
        "road": null,
        "house_number": null,
        "neighbourhood": null,
        "suburb": null,
        "city_district": null,
        "city": "Dzaoudzi",
        "state": "Mayotte",
        "postcode": "97610",
        "country": "France",
        "country_code": "fr"
      },
      "address": "985, Kaouéni, 97610 Mayotte, Mayotte"
    },
    {
      "lat": -12.771115164626465,
      "lon": 45.25673528020408,
      "geoinfo": {
        "display_name": "Les 4 Frères (Zissoua Ziné), Kawéni, Mayotte, 97690, France",
        "road": null,
        "house_number": null,
        "neighbourhood": null,
        "suburb": null,
        "city_district": null,
        "city": "Kawéni",
        "state": "Mayotte",
        "postcode": "97690",
        "country": "France",
        "country_code": "fr"
      },
      "address": "874, Kaouéni, 97690 Mayotte, Mayotte"
    },
    {
      "lat": -12.761540107254852,
      "lon": 45.21307352996532,
      "geoinfo": {
        "display_name": "Massimoni, Majicavo-Koropa, Koungou, Mayotte, 97600, France",
        "road": null,
        "house_number": null,
        "neighbourhood": null,
        "suburb": null,
        "city_district": null,
        "city": "Majicavo-Koropa",
        "state": "Mayotte",
        "postcode": "97600",
        "country": "France",
        "country_code": "fr"
      },
      "address": "831, Kaouéni, 97600 Mayotte, Mayotte"
    },
    {
      "lat": -12.745545198465836,
      "lon": 45.20472977881454,
      "geoinfo": {
        "display_name": "54, Rue de la Carrière, Trévani, Koungou, Mayotte, 97600, France",
        "road": "Rue de la Carrière",
        "house_number": "54",
        "neighbourhood": null,
        "suburb": null,
        "city_district": null,
        "city": "Koungou",
        "state": "Mayotte",
        "postcode": "97600",
        "country": "France",
        "country_code": "fr"
      },
      "address": "54, Rue de la Carrière, Kaouéni, 97600 Mayotte, Mayotte"
    },
    {
      "lat": -12.75147396525238,
      "lon": 45.23708412471819,
      "geoinfo": {
        "display_name": "MIM LOC, Route Nationale 1, Kawéni, Mamoudzou, Mayotte, 97690, France",
        "road": "Route Nationale 1",
        "house_number": null,
        "neighbourhood": null,
        "suburb": null,
        "city_district": null,
        "city": "Kawéni",
        "state": "Mayotte",
        "postcode": "97690",
        "country": "France",
        "country_code": "fr"
      },
      "address": "Route Nationale 1, Kaouéni, 97690 Mayotte, Mayotte"
    },
    {
      "lat": -12.781025919595065,
      "lon": 45.187226587368144,
      "geoinfo": {
        "display_name": "D 3, Rivière des Manguiers, Vahibé, Mamoudzou, Mayotte, 97605, France",
        "road": "D 3",
        "house_number": null,
        "neighbourhood": null,
        "suburb": null,
        "city_district": null,
        "city": "Mamoudzou",
        "state": "Mayotte",
        "postcode": "97605",
        "country": "France",
        "country_code": "fr"
      },
      "address": "D 3, Kaouéni, 97605 Mayotte, Mayotte"
    },
    {
      "lat": -12.796068758136222,
      "lon": 45.249492266136265,
      "geoinfo": {
        "display_name": "Foungoujou, Labattoir, Dzaoudzi, Mayotte, 97615, France",
        "road": null,
        "house_number": null,
        "neighbourhood": null,
        "suburb": null,
        "city_district": null,
        "city": "Dzaoudzi",
        "state": "Mayotte",
        "postcode": "97615",
        "country": "France",
        "country_code": "fr"
      },
      "address": "271, Kaouéni, 97615 Mayotte, Mayotte"
    },
    {
      "lat": -12.771925044352109,
      "lon": 45.17871104375099,
      "geoinfo": {
        "display_name": "Kouale Dzindzano, Vahibé, Mamoudzou, Mayotte, 97605, France",
        "road": null,
        "house_number": null,
        "neighbourhood": null,
        "suburb": null,
        "city_district": null,
        "city": "Mamoudzou",
        "state": "Mayotte",
        "postcode": "97605",
        "country": "France",
        "country_code": "fr"
      },
      "address": "165, Kaouéni, 97605 Mayotte, Mayotte"
    },
    {
      "lat": -12.736622118285052,
      "lon": 45.2329217953755,
      "geoinfo": {
        "display_name": "Massimoni, Majicavo-Koropa, Koungou, Mayotte, 97600, France",
        "road": null,
        "house_number": null,
        "neighbourhood": null,
        "suburb": null,
        "city_district": null,
        "city": "Majicavo-Koropa",
        "state": "Mayotte",
        "postcode": "97600",
        "country": "France",
        "country_code": "fr"
      },
      "address": "294, Kaouéni, 97600 Mayotte, Mayotte"
    },
    {
      "lat": -12.748345370115404,
      "lon": 45.23750770622129,
      "geoinfo": {
        "display_name": "Les 4 Frères (Zissoua Ziné), Kawéni, Mayotte, 97690, France",
        "road": null,
        "house_number": null,
        "neighbourhood": null,
        "suburb": null,
        "city_district": null,
        "city": "Kawéni",
        "state": "Mayotte",
        "postcode": "97690",
        "country": "France",
        "country_code": "fr"
      },
      "address": "069, Kaouéni, 97690 Mayotte, Mayotte"
    }
  ],
  "updated_at": "2025-10-19T07:55:39.500351+00:00",
  "_kind": "geo_samples"
}