{
  "country_code": "YT",
  "country": "Mayotte",
  "city": "Labattoir",
  "geonameid": 1090275,
  "target_addresses": 17,
  "samples": [
    {
      "lat": -12.765172306814566,
      "lon": 45.24945473471705,
      "geoinfo": {
        "display_name": "Les 4 Frères (Zissoua Ziné), Kawéni, Mayotte, 97690, France",
        "road": null,
        "house_number": null,
        "neighbourhood": null,
        "suburb": null,
        "city_district": null,
        "city": "Kawéni",
        "state": "Mayotte",
        "postcode": "97690",
        "country": "France",
        "country_code": "fr"
      },
      "address": "Labattoir, Mayotte, Mayotte"
    },
    {
      "lat": -12.80021838497508,
      "lon": 45.302910164367916,
      "geoinfo": {
        "display_name": "La Vigie, Labattoir, Dzaoudzi, Mayotte, 97615, France",
        "road": null,
        "house_number": null,
        "neighbourhood": null,
        "suburb": "La Vigie",
        "city_district": null,
        "city": "Dzaoudzi",
        "state": "Mayotte",
        "postcode": "97615",
        "country": "France",
        "country_code": "fr"
      },
      "address": "La Vigie, Labattoir, Mayotte, Mayotte"
    },
    {
      "lat": -12.792531186987718,
      "lon": 45.26748397359962,
      "geoinfo": {
        "display_name": "N 4, Bambao, La Vigie, Labattoir, Dzaoudzi, Mayotte, 97615, France",
        "road": "N 4",
        "house_number": null,
        "neighbourhood": null,
        "suburb": "La Vigie",
        "city_district": null,
        "city": "Dzaoudzi",
        "state": "Mayotte",
        "postcode": "97615",
        "country": "France",
        "country_code": "fr"
      },
      "address": "N 4, Labattoir, Mayotte, Mayotte"
    },
    {
      "lat": -12.781929542695499,
      "lon": 45.27392783204243,
      "geoinfo": {
        "display_name": "1, Rue Ali Salimini, Marzoukou, La Vigie, Labattoir, Dzaoudzi, Mayotte, 97615, France",
        "road": "Rue Ali Salimini",
        "house_number": "1",
        "neighbourhood": null,
        "suburb": "La Vigie",
        "city_district": null,
        "city": "Dzaoudzi",
        "state": "Mayotte",
        "postcode": "97615",
        "country": "France",
        "country_code": "fr"
      },
      "address": "1 Rue Ali Salimini, Labattoir, Mayotte, Mayotte"
    },
    {
      "lat": -12.784877783317121,
      "lon": 45.26523284324446,
      "geoinfo": {
        "display_name": "Ecole maternelle de Dzaoudzi (APPEM), 4, Boulevard des Crabes, Foungoujou, Labattoir, Dzaoudzi, Mayotte, 97615, France",
        "road": "Boulevard des Crabes",
        "house_number": "4",
        "neighbourhood": null,
        "suburb": null,
        "city_district": null,
        "city": "Dzaoudzi",
        "state": "Mayotte",
        "postcode": "97615",
        "country": "France",
        "country_code": "fr"
      },
      "address": "4 Boulevard des Crabes, Labattoir, Mayotte, Mayotte"
    },
    {
      "lat": -12.759800258931003,
      "lon": 45.2837908953271,
      "geoinfo": {
        "display_name": "Route des Badamiers, Les Badamiers, Dzaoudzi, Mayotte, 97610, France",
        "road": "Route des Badamiers",
        "house_number": null,
        "neighbourhood": "Les Badamiers",
        "suburb": null,
        "city_district": null,
        "city": "Dzaoudzi",
        "state": "Mayotte",
        "postcode": "97610",
        "country": "France",
        "country_code": "fr"
      },
      "address": "Route des Badamiers, Labattoir, Mayotte, Mayotte"
    },
    {
      "lat": -12.782187130426298,
      "lon": 45.273758932997026,
      "geoinfo": {
        "display_name": "12, Rue Marzoukou, Marzoukou, La Vigie, Labattoir, Dzaoudzi, Mayotte, 97615, France",
        "road": "Rue Marzoukou",
        "house_number": "12",
        "neighbourhood": null,
        "suburb": "La Vigie",
        "city_district": null,
        "city": "Dzaoudzi",
        "state": "Mayotte",
        "postcode": "97615",
        "country": "France",
        "country_code": "fr"
      },
      "address": "12 Rue Marzoukou, Labattoir, Mayotte, Mayotte"
    },
    {
      "lat": -12.769575919435018,
      "lon": 45.294351578491074,
      "geoinfo": {
        "display_name": "Sentier Cratère Dziani, Toutourcha, La Vigie, Labattoir, Dzaoudzi, Mayotte, 97615, France",
        "road": "Sentier Cratère Dziani",
        "house_number": null,
        "neighbourhood": null,
        "suburb": "La Vigie",
        "city_district": null,
        "city": "Dzaoudzi",
        "state": "Mayotte",
        "postcode": "97615",
        "country": "France",
        "country_code": "fr"
      },
      "address": "Sentier Cratère Dziani, Labattoir, Mayotte, Mayotte"
    },
    {
      "lat": -12.780963943895863,
      "lon": 45.27214902085256,
      "geoinfo": {
        "display_name": "Rue Marzoukou, Marzoukou, La Vigie, Labattoir, Dzaoudzi, Mayotte, 97615, France",
        "road": "Rue Marzoukou",
        "house_number": null,
        "neighbourhood": null,
        "suburb": "La Vigie",
        "city_district": null,
        "city": "Dzaoudzi",
        "state": "Mayotte",
        "postcode": "97615",
        "country": "France",
        "country_code": "fr"
      },
      "address": "Rue Marzoukou, Labattoir, Mayotte, Mayotte"
    },
    {
      "lat": -12.767136726898707,
      "lon": 45.27837319507098,
      "geoinfo": {
        "display_name": "999, Route des Badamiers, Dépôt pétrolier des Badamiers, Dzaoudzi, Mayotte, 97615, France",
        "road": "Route des Badamiers",
        "house_number": "999",
        "neighbourhood": null,
        "suburb": null,
        "city_district": null,
        "city": "Dzaoudzi",
        "state": "Mayotte",
        "postcode": "97615",
        "country": "France",
        "country_code": "fr"
      },
      "address": "999 Route des Badamiers, Labattoir, Mayotte, Mayotte"
    },
    {
      "lat": -12.785938409816726,
      "lon": 45.2783261208484,
      "geoinfo": {
        "display_name": "Rue du Manguier, Marzoukou, La Vigie, Labattoir, Dzaoudzi, Mayotte, 97615, France",
        "road": "Rue du Manguier",
        "house_number": null,
        "neighbourhood": null,
        "suburb": "La Vigie",
        "city_district": null,
        "city": "Dzaoudzi",
        "state": "Mayotte",
        "postcode": "97615",
        "country": "France",
        "country_code": "fr"
      },
      "address": "Rue du Manguier, Labattoir, Mayotte, Mayotte"
    },
    {
      "lat": -12.78906674096214,
      "lon": 45.2661073578021,
      "geoinfo": {
        "display_name": "1, Boulevard des Crabes, Bambao, Labattoir, Dzaoudzi, Mayotte, 97615, France",
        "road": "Boulevard des Crabes",
        "house_number": "1",
        "neighbourhood": null,
        "suburb": null,
        "city_district": null,
        "city": "Dzaoudzi",
        "state": "Mayotte",
        "postcode": "97615",
        "country": "France",
        "country_code": "fr"
      },
      "address": "1 Boulevard des Crabes, Labattoir, Mayotte, Mayotte"
    },
    {
      "lat": -12.790144900216424,
      "lon": 45.26131440593322,
      "geoinfo": {
        "display_name": "Rue des Frangipaniers, Foungoujou, Labattoir, Dzaoudzi, Mayotte, 97615, France",
        "road": "Rue des Frangipaniers",
        "house_number": null,
        "neighbourhood": null,
        "suburb": null,
        "city_district": null,
        "city": "Dzaoudzi",
        "state": "Mayotte",
        "postcode": "97615",
        "country": "France",
        "country_code": "fr"
      },
      "address": "Rue des Frangipaniers, Labattoir, Mayotte, Mayotte"
    },
    {
      "lat": -12.796829149230593,
      "lon": 45.27868251250447,
      "geoinfo": {
        "display_name": "25, Rue du Stade, Bandrabassi, Pamandzi, Mayotte, 97615, France",
        "road": "Rue du Stade",
        "house_number": "25",
        "neighbourhood": null,
        "suburb": null,
        "city_district": null,
        "city": "Pamandzi",
        "state": "Mayotte",
        "postcode": "97615",
        "country": "France",
        "country_code": "fr"
      },
      "address": "25 Rue du Stade, Labattoir, Mayotte, Mayotte"
    },
    {
      "lat": -12.79531409522319,
      "lon": 45.30499234167595,
      "geoinfo": {
        "display_name": "La Vigie, Labattoir, Dzaoudzi, Mayotte, 97615, France",
        "road": null,
        "house_number": null,
        "neighbourhood": null,
        "suburb": "La Vigie",
        "city_district": null,
        "city": "Dzaoudzi",
        "state": "Mayotte",
        "postcode": "97615",
        "country": "France",
        "country_code": "fr"
      },
      "address": "776, La Vigie, Labattoir, 97615 Mayotte, Mayotte"
    },
    {
      "lat": -12.763304112699254,
      "lon": 45.30159413701797,
      "geoinfo": {
        "display_name": "Piscines de Papani, Mayotte, 97510, France",
        "road": null,
        "house_number": null,
        "neighbourhood": null,
        "suburb": null,
        "city_district": null,
        "city": null,
        "state": "Mayotte",
        "postcode": "97510",
        "country": "France",
        "country_code": "fr"
      },
      "address": "087, Labattoir, 97510 Mayotte, Mayotte"
    },
    {
      "lat": -12.770344503738661,
      "lon": 45.28932665486453,
      "geoinfo": {
        "display_name": "Sentier Cratère Dziani, Toutourcha, La Vigie, Labattoir, Dzaoudzi, Mayotte, 97615, France",
        "road": "Sentier Cratère Dziani",
        "house_number": null,
        "neighbourhood": null,
        "suburb": "La Vigie",
        "city_district": null,
        "city": "Dzaoudzi",
        "state": "Mayotte",
        "postcode": "97615",
        "country": "France",
        "country_code": "fr"
      },
      "address": "950, Sentier Cratère Dziani, Labattoir, 97615 Mayotte, Mayotte"
    },
    {
      "lat": -12.764966543214449,
      "lon": 45.321551699048186,
      "geoinfo": {
        "display_name": "Mayotte, France",
        "road": null,
        "house_number": null,
        "neighbourhood": null,
        "suburb": null,
        "city_district": null,
        "city": null,
        "state": "Mayotte",
        "postcode": null,
        "country": "France",
        "country_code": "fr"
      },
      "address": "686, Labattoir, 50514 Mayotte, Mayotte"
    },
    {
      "lat": -12.785513122725426,
      "lon": 45.31499223419807,
      "geoinfo": {
        "display_name": "La Vigie, Labattoir, Dzaoudzi, Mayotte, 97615, France",
        "road": null,
        "house_number": null,
        "neighbourhood": null,
        "suburb": "La Vigie",
        "city_district": null,
        "city": "Dzaoudzi",
        "state": "Mayotte",
        "postcode": "97615",
        "country": "France",
        "country_code": "fr"
      },
      "address": "181, La Vigie, Labattoir, 97615 Mayotte, Mayotte"
    },
    {
      "lat": -12.81211757901805,
      "lon": 45.297194407523236,
      "geoinfo": {
        "display_name": "La Vigie, Labattoir, Dzaoudzi, Mayotte, 97615, France",
        "road": null,
        "house_number": null,
        "neighbourhood": null,
        "suburb": "La Vigie",
        "city_district": null,
        "city": "Dzaoudzi",
        "state": "Mayotte",
        "postcode": "97615",
        "country": "France",
        "country_code": "fr"
      },
      "address": "184, La Vigie, Labattoir, 97615 Mayotte, Mayotte"
    },
    {
      "lat": -12.775239666188993,
      "lon": 45.283444562560774,
      "geoinfo": {
        "display_name": "Sentier Cratère Dziani, Toutourcha, Dzaoudzi, Mayotte, 97615, France",
        "road": "Sentier Cratère Dziani",
        "house_number": null,
        "neighbourhood": null,
        "suburb": null,
        "city_district": null,
        "city": "Dzaoudzi",
        "state": "Mayotte",
        "postcode": "97615",
        "country": "France",
        "country_code": "fr"
      },
      "address": "854, Sentier Cratère Dziani, Labattoir, 97615 Mayotte, Mayotte"
    },
    {
      "lat": -12.745832522085475,
      "lon": 45.28103397109964,
      "geoinfo": {
        "display_name": "Le Taureau (Chissioua Gnombé N'Droumé), Dzaoudzi, Mayotte, 97610, France",
        "road": null,
        "house_number": null,
        "neighbourhood": null,
        "suburb": null,
        "city_district": null,
        "city": "Dzaoudzi",
        "state": "Mayotte",
        "postcode": "97610",
        "country": "France",
        "country_code": "fr"
      },
      "address": "493, Labattoir, 97610 Mayotte, Mayotte"
    },
    {
      "lat": -12.754832550767834,
      "lon": 45.26201983958723,
      "geoinfo": {
        "display_name": "Le Taureau (Chissioua Gnombé N'Droumé), Dzaoudzi, Mayotte, 97610, France",
        "road": null,
        "house_number": null,
        "neighbourhood": null,
        "suburb": null,
        "city_district": null,
        "city": "Dzaoudzi",
        "state": "Mayotte",
        "postcode": "97610",
        "country": "France",
        "country_code": "fr"
      },
      "address": "447, Labattoir, 97610 Mayotte, Mayotte"
    },
    {
      "lat": -12.748881990765124,
      "lon": 45.25713681820611,
      "geoinfo": {
        "display_name": "Les 4 Frères (Zissoua Ziné), Kawéni, Mayotte, 97690, France",
        "road": null,
        "house_number": null,
        "neighbourhood": null,
        "suburb": null,
        "city_district": null,
        "city": "Kawéni",
        "state": "Mayotte",
        "postcode": "97690",
        "country": "France",
        "country_code": "fr"
      },
      "address": "887, Labattoir, 97690 Mayotte, Mayotte"
    },
    {
      "lat": -12.743080257159852,
      "lon": 45.293071312006276,
      "geoinfo": {
        "display_name": "Majicavo-Koropa, Koungou, Mayotte, 97600, France",
        "road": null,
        "house_number": null,
        "neighbourhood": null,
        "suburb": null,
        "city_district": null,
        "city": "Majicavo-Koropa",
        "state": "Mayotte",
        "postcode": "97600",
        "country": "France",
        "country_code": "fr"
      },
      "address": "358, Labattoir, 97600 Mayotte, Mayotte"
    },
    {
      "lat": -12.758151410831156,
      "lon": 45.263494630251174,
      "geoinfo": {
        "display_name": "Le Taureau (Chissioua Gnombé N'Droumé), Dzaoudzi, Mayotte, 97610, France",
        "road": null,
        "house_number": null,
        "neighbourhood": null,
        "suburb": null,
        "city_district": null,
        "city": "Dzaoudzi",
        "state": "Mayotte",
        "postcode": "97610",
        "country": "France",
        "country_code": "fr"
      },
      "address": "029, Labattoir, 97610 Mayotte, Mayotte"
    },
    {
      "lat": -12.758356090925949,
      "lon": 45.250709446135765,
      "geoinfo": {
        "display_name": "Les 4 Frères (Zissoua Ziné), Kawéni, Mayotte, 97690, France",
        "road": null,
        "house_number": null,
        "neighbourhood": null,
        "suburb": null,
        "city_district": null,
        "city": "Kawéni",
        "state": "Mayotte",
        "postcode": "97690",
        "country": "France",
        "country_code": "fr"
      },
      "address": "575, Labattoir, 97690 Mayotte, Mayotte"
    },
    {
      "lat": -12.781822659985767,
      "lon": 45.28455493482526,
      "geoinfo": {
        "display_name": "97, Route de Moya, Marzoukou, La Ferme, Labattoir, Dzaoudzi, Mayotte, 97615, France",
        "road": "Route de Moya",
        "house_number": "97",
        "neighbourhood": null,
        "suburb": null,
        "city_district": null,
        "city": "Dzaoudzi",
        "state": "Mayotte",
        "postcode": "97615",
        "country": "France",
        "country_code": "fr"
      },
      "address": "97, Route de Moya, Labattoir, 97615 Mayotte, Mayotte"
    }
  ],
  "updated_at": "2025-10-19T07:56:03.913291+00:00",
  "_kind": "geo_samples"
}