{
  "country_code": "YT",
  "country": "Mayotte",
  "city": "Mamoudzou",
  "geonameid": 921815,
  "target_addresses": 17,
  "samples": [
    {
      "lat": -12.754481299865256,
      "lon": 45.25995891061099,
      "geoinfo": {
        "display_name": "Le Taureau (Chissioua Gnombé N'Droumé), Dzaoudzi, Mayotte, 97610, France",
        "road": null,
        "house_number": null,
        "neighbourhood": null,
        "suburb": null,
        "city_district": null,
        "city": "Dzaoudzi",
        "state": "Mayotte",
        "postcode": "97610",
        "country": "France",
        "country_code": "fr"
      },
      "address": "Mamoudzou, Mayotte, Mayotte"
    },
    {
      "lat": -12.810200843882553,
      "lon": 45.19528958902576,
      "geoinfo": {
        "display_name": "220, Impasse Konokono, Tsoundzou 1, Mamoudzou, Mayotte, 97600, France",
        "road": "Impasse Konokono",
        "house_number": "220",
        "neighbourhood": null,
        "suburb": null,
        "city_district": null,
        "city": "Mamoudzou",
        "state": "Mayotte",
        "postcode": "97600",
        "country": "France",
        "country_code": "fr"
      },
      "address": "220 Impasse Konokono, Mamoudzou, Mayotte, Mayotte"
    },
    {
      "lat": -12.750254149702135,
      "lon": 45.22921207713254,
      "geoinfo": {
        "display_name": "N 1, Quartier Machaka, Majicavo-Lamir, Koungou, Mayotte, 97600, France",
        "road": "N 1",
        "house_number": null,
        "neighbourhood": null,
        "suburb": "Quartier Machaka",
        "city_district": null,
        "city": "Koungou",
        "state": "Mayotte",
        "postcode": "97600",
        "country": "France",
        "country_code": "fr"
      },
      "address": "N 1, Mamoudzou, Mayotte, Mayotte"
    },
    {
      "lat": -12.761730452604146,
      "lon": 45.23237293933876,
      "geoinfo": {
        "display_name": "368, Route de la Plage Hamaha, Kawéni, Mamoudzou, Mayotte, 97600, France",
        "road": "Route de la Plage Hamaha",
        "house_number": "368",
        "neighbourhood": null,
        "suburb": null,
        "city_district": null,
        "city": "Kawéni",
        "state": "Mayotte",
        "postcode": "97600",
        "country": "France",
        "country_code": "fr"
      },
      "address": "368 Route de la Plage Hamaha, Mamoudzou, Mayotte, Mayotte"
    },
    {
      "lat": -12.780057421154588,
      "lon": 45.24898371343371,
      "geoinfo": {
        "display_name": "Quai Ballou, Avenue de la Préfecture, Dzaoudzi, Mayotte, 97610, France",
        "road": "Avenue de la Préfecture",
        "house_number": null,
        "neighbourhood": null,
        "suburb": null,
        "city_district": null,
        "city": "Dzaoudzi",
        "state": "Mayotte",
        "postcode": "97610",
        "country": "France",
        "country_code": "fr"
      },
      "address": "Avenue de la Préfecture, Mamoudzou, Mayotte, Mayotte"
    },
    {
      "lat": -12.778097791388186,
      "lon": 45.239627077588835,
      "geoinfo": {
        "display_name": "Boulevard Mawana-Madi, M'Gombani, Kawéni, Mamoudzou, Mayotte, 96700, France",
        "road": "Boulevard Mawana-Madi",
        "house_number": null,
        "neighbourhood": null,
        "suburb": null,
        "city_district": null,
        "city": "Kawéni",
        "state": "Mayotte",
        "postcode": "96700",
        "country": "France",
        "country_code": "fr"
      },
      "address": "Boulevard Mawana-Madi, Mamoudzou, Mayotte, Mayotte"
    },
    {
      "lat": -12.79574361029345,
      "lon": 45.18565801985618,
      "geoinfo": {
        "display_name": "Route de Kwale, Rivière des Manguiers, Tsoundzou 1, Mamoudzou, Mayotte, 97605, France",
        "road": "Route de Kwale",
        "house_number": null,
        "neighbourhood": null,
        "suburb": null,
        "city_district": null,
        "city": "Mamoudzou",
        "state": "Mayotte",
        "postcode": "97605",
        "country": "France",
        "country_code": "fr"
      },
      "address": "Route de Kwale, Mamoudzou, Mayotte, Mayotte"
    },
    {
      "lat": -12.803919347350277,
      "lon": 45.20320300696454,
      "geoinfo": {
        "display_name": "Chemin M'colo Hani, Rivière des Manguiers, Tsoundzou 1, Mamoudzou, Mayotte, 97605, France",
        "road": "Chemin M'colo Hani",
        "house_number": null,
        "neighbourhood": null,
        "suburb": null,
        "city_district": null,
        "city": "Mamoudzou",
        "state": "Mayotte",
        "postcode": "97605",
        "country": "France",
        "country_code": "fr"
      },
      "address": "Chemin M'colo Hani, Mamoudzou, Mayotte, Mayotte"
    },
    {
      "lat": -12.784750815567223,
      "lon": 45.189495010375985,
      "geoinfo": {
        "display_name": "D 3, Rivière des Manguiers, Vahibé, Mamoudzou, Mayotte, 97605, France",
        "road": "D 3",
        "house_number": null,
        "neighbourhood": null,
        "suburb": null,
        "city_district": null,
        "city": "Mamoudzou",
        "state": "Mayotte",
        "postcode": "97605",
        "country": "France",
        "country_code": "fr"
      },
      "address": "D 3, Mamoudzou, Mayotte, Mayotte"
    },
    {
      "lat": -12.793465541517252,
      "lon": 45.21160201742428,
      "geoinfo": {
        "display_name": "Rue Abdoul-Kader, Kalafouba, Doujani, Mamoudzou, Mayotte, 97600, France",
        "road": "Rue Abdoul-Kader",
        "house_number": null,
        "neighbourhood": null,
        "suburb": null,
        "city_district": null,
        "city": "Mamoudzou",
        "state": "Mayotte",
        "postcode": "97600",
        "country": "France",
        "country_code": "fr"
      },
      "address": "Rue Abdoul-Kader, Mamoudzou, Mayotte, Mayotte"
    },
    {
      "lat": -12.80514908232293,
      "lon": 45.203266492815864,
      "geoinfo": {
        "display_name": "3, Chemin M'colo Hani, Rivière des Manguiers, Tsoundzou 1, Mamoudzou, Mayotte, 97605, France",
        "road": "Chemin M'colo Hani",
        "house_number": "3",
        "neighbourhood": null,
        "suburb": null,
        "city_district": null,
        "city": "Mamoudzou",
        "state": "Mayotte",
        "postcode": "97605",
        "country": "France",
        "country_code": "fr"
      },
      "address": "3 Chemin M'colo Hani, Mamoudzou, Mayotte, Mayotte"
    },
    {
      "lat": -12.774102781423231,
      "lon": 45.224489982789784,
      "geoinfo": {
        "display_name": "PCI Informatique, Impasse du Lagon, ZI de Kawéni, Kawéni, Mamoudzou, Mayotte, 96700, France",
        "road": "Impasse du Lagon",
        "house_number": null,
        "neighbourhood": null,
        "suburb": null,
        "city_district": null,
        "city": "Kawéni",
        "state": "Mayotte",
        "postcode": "96700",
        "country": "France",
        "country_code": "fr"
      },
      "address": "Impasse du Lagon, Mamoudzou, Mayotte, Mayotte"
    },
    {
      "lat": -12.756095235830726,
      "lon": 45.20126749722597,
      "geoinfo": {
        "display_name": "Faret, Côte de Bugna, Val Fleuri, Les Hauts Vallons, Majicavo-Lamir, Koungou, Mayotte, 97600, France",
        "road": "Côte de Bugna",
        "house_number": null,
        "neighbourhood": null,
        "suburb": "Les Hauts Vallons",
        "city_district": null,
        "city": "Koungou",
        "state": "Mayotte",
        "postcode": "97600",
        "country": "France",
        "country_code": "fr"
      },
      "address": "Côte de Bugna, Mamoudzou, Mayotte, Mayotte"
    },
    {
      "lat": -12.759757083879313,
      "lon": 45.216538593697,
      "geoinfo": {
        "display_name": "930, Rue de la SPPM, La Géole, Bandrajou, Kawéni, Mamoudzou, Mayotte, 97600, France",
        "road": "Rue de la SPPM",
        "house_number": "930",
        "neighbourhood": null,
        "suburb": "La Géole",
        "city_district": null,
        "city": "Kawéni",
        "state": "Mayotte",
        "postcode": "97600",
        "country": "France",
        "country_code": "fr"
      },
      "address": "930 Rue de la SPPM, Mamoudzou, Mayotte, Mayotte"
    },
    {
      "lat": -12.762910162948906,
      "lon": 45.21292110382103,
      "geoinfo": {
        "display_name": "ZI Nel, Zone Nel, ZI de Kawéni, Kawéni, Mamoudzou, Mayotte, 97600, France",
        "road": null,
        "house_number": null,
        "neighbourhood": null,
        "suburb": "Zone Nel",
        "city_district": null,
        "city": "Kawéni",
        "state": "Mayotte",
        "postcode": "97600",
        "country": "France",
        "country_code": "fr"
      },
      "address": "Zone Nel, Mamoudzou, Mayotte, Mayotte"
    },
    {
      "lat": -12.789775627614782,
      "lon": 45.231335129149876,
      "geoinfo": {
        "display_name": "15, Rue Rassi Boina Kaïm, Rassi Boina Kaïme, Cavani, Mamoudzou, Mayotte, 97600, France",
        "road": "Rue Rassi Boina Kaïm",
        "house_number": "15",
        "neighbourhood": null,
        "suburb": null,
        "city_district": null,
        "city": "Mamoudzou",
        "state": "Mayotte",
        "postcode": "97600",
        "country": "France",
        "country_code": "fr"
      },
      "address": "15 Rue Rassi Boina Kaïm, Mamoudzou, Mayotte, Mayotte"
    },
    {
      "lat": -12.784000882808737,
      "lon": 45.20977885288035,
      "geoinfo": {
        "display_name": "Piste Majimbini, M'Tsapéré, Mamoudzou, Mayotte, 97605, France",
        "road": "Piste Majimbini",
        "house_number": null,
        "neighbourhood": null,
        "suburb": null,
        "city_district": null,
        "city": "Mamoudzou",
        "state": "Mayotte",
        "postcode": "97605",
        "country": "France",
        "country_code": "fr"
      },
      "address": "Piste Majimbini, Mamoudzou, Mayotte, Mayotte"
    },
    {
      "lat": -12.791557865287981,
      "lon": 45.227075300874226,
      "geoinfo": {
        "display_name": "Boulevard Mawana-Madi, Kalafouba, M'Tsapéré, Mamoudzou, Mayotte, 97605, France",
        "road": "Boulevard Mawana-Madi",
        "house_number": null,
        "neighbourhood": null,
        "suburb": null,
        "city_district": null,
        "city": "Mamoudzou",
        "state": "Mayotte",
        "postcode": "97605",
        "country": "France",
        "country_code": "fr"
      },
      "address": "691, Boulevard Mawana-Madi, Mamoudzou, 97605 Mayotte, Mayotte"
    },
    {
      "lat": -12.778608155219455,
      "lon": 45.20922269094253,
      "geoinfo": {
        "display_name": "Piste maison du gouverneur, Les Hauts de Mamoudzou, Cavani, Mamoudzou, Mayotte, 97600, France",
        "road": "Piste maison du gouverneur",
        "house_number": null,
        "neighbourhood": null,
        "suburb": null,
        "city_district": null,
        "city": "Mamoudzou",
        "state": "Mayotte",
        "postcode": "97600",
        "country": "France",
        "country_code": "fr"
      },
      "address": "145, Piste maison du gouverneur, Mamoudzou, 97600 Mayotte, Mayotte"
    },
    {
      "lat": -12.803552742168346,
      "lon": 45.23370624478617,
      "geoinfo": {
        "display_name": "Kalafouba, M'Tsapéré, Mamoudzou, Mayotte, 97605, France",
        "road": null,
        "house_number": null,
        "neighbourhood": null,
        "suburb": null,
        "city_district": null,
        "city": "Mamoudzou",
        "state": "Mayotte",
        "postcode": "97605",
        "country": "France",
        "country_code": "fr"
      },
      "address": "650, Mamoudzou, 97605 Mayotte, Mayotte"
    },
    {
      "lat": -12.81328235768599,
      "lon": 45.21720036028009,
      "geoinfo": {
        "display_name": "Viillage relais, Tsoundzou 2, Mamoudzou, Mayotte, 97605, France",
        "road": null,
        "house_number": null,
        "neighbourhood": null,
        "suburb": null,
        "city_district": null,
        "city": "Mamoudzou",
        "state": "Mayotte",
        "postcode": "97605",
        "country": "France",
        "country_code": "fr"
      },
      "address": "649, Mamoudzou, 97605 Mayotte, Mayotte"
    },
    {
      "lat": -12.815482772405597,
      "lon": 45.2400869313967,
      "geoinfo": {
        "display_name": "Doujani, Mamoudzou, Mayotte, 97600, France",
        "road": null,
        "house_number": null,
        "neighbourhood": null,
        "suburb": null,
        "city_district": null,
        "city": "Mamoudzou",
        "state": "Mayotte",
        "postcode": "97600",
        "country": "France",
        "country_code": "fr"
      },
      "address": "020, Mamoudzou, 97600 Mayotte, Mayotte"
    },
    {
      "lat": -12.742394993485728,
      "lon": 45.244316810911805,
      "geoinfo": {
        "display_name": "Les 4 Frères (Zissoua Ziné), Kawéni, Mayotte, 97690, France",
        "road": null,
        "house_number": null,
        "neighbourhood": null,
        "suburb": null,
        "city_district": null,
        "city": "Kawéni",
        "state": "Mayotte",
        "postcode": "97690",
        "country": "France",
        "country_code": "fr"
      },
      "address": "834, Mamoudzou, 97690 Mayotte, Mayotte"
    },
    {
      "lat": -12.789508340439566,
      "lon": 45.186108544149825,
      "geoinfo": {
        "display_name": "D 3, Rivière des Manguiers, Vahibé, Mamoudzou, Mayotte, 97605, France",
        "road": "D 3",
        "house_number": null,
        "neighbourhood": null,
        "suburb": null,
        "city_district": null,
        "city": "Mamoudzou",
        "state": "Mayotte",
        "postcode": "97605",
        "country": "France",
        "country_code": "fr"
      },
      "address": "D 3, Mamoudzou, 97605 Mayotte, Mayotte"
    },
    {
      "lat": -12.795520616772,
      "lon": 45.266081202178356,
      "geoinfo": {
        "display_name": "N 4, Bambao, La Vigie, Labattoir, Dzaoudzi, Mayotte, 97615, France",
        "road": "N 4",
        "house_number": null,
        "neighbourhood": null,
        "suburb": "La Vigie",
        "city_district": null,
        "city": "Dzaoudzi",
        "state": "Mayotte",
        "postcode": "97615",
        "country": "France",
        "country_code": "fr"
      },
      "address": "N 4, Mamoudzou, 97615 Mayotte, Mayotte"
    },
    {
      "lat": -12.822497544962518,
      "lon": 45.22444510933294,
      "geoinfo": {
        "display_name": "Tsoundzou 1, Mamoudzou, Mayotte, 97605, France",
        "road": null,
        "house_number": null,
        "neighbourhood": null,
        "suburb": null,
        "city_district": null,
        "city": "Mamoudzou",
        "state": "Mayotte",
        "postcode": "97605",
        "country": "France",
        "country_code": "fr"
      },
      "address": "358, Mamoudzou, 97605 Mayotte, Mayotte"
    },
    {
      "lat": -12.813972832764888,
      "lon": 45.232161136863425,
      "geoinfo": {
        "display_name": "Doujani, Mamoudzou, Mayotte, 97600, France",
        "road": null,
        "house_number": null,
        "neighbourhood": null,
        "suburb": null,
        "city_district": null,
        "city": "Mamoudzou",
        "state": "Mayotte",
        "postcode": "97600",
        "country": "France",
        "country_code": "fr"
      },
      "address": "537, Mamoudzou, 97600 Mayotte, Mayotte"
    },
    {
      "lat": -12.773214070188965,
      "lon": 45.20841392537497,
      "geoinfo": {
        "display_name": "Piste maison du gouverneur, Kawéni, Mamoudzou, Mayotte, 97600, France",
        "road": "Piste maison du gouverneur",
        "house_number": null,
        "neighbourhood": null,
        "suburb": null,
        "city_district": null,
        "city": "Kawéni",
        "state": "Mayotte",
        "postcode": "97600",
        "country": "France",
        "country_code": "fr"
      },
      "address": "737, Piste maison du gouverneur, Mamoudzou, 97600 Mayotte, Mayotte"
    },
    {
      "lat": -12.809450395778631,
      "lon": 45.234484375778855,
      "geoinfo": {
        "display_name": "Doujani, Mamoudzou, Mayotte, 97600, France",
        "road": null,
        "house_number": null,
        "neighbourhood": null,
        "suburb": null,
        "city_district": null,
        "city": "Mamoudzou",
        "state": "Mayotte",
        "postcode": "97600",
        "country": "France",
        "country_code": "fr"
      },
      "address": "361, Mamoudzou, 97600 Mayotte, Mayotte"
    },
    {
      "lat": -12.77814327176921,
      "lon": 45.22084492787206,
      "geoinfo": {
        "display_name": "451, Route de la Convalescence, Jardins du Collège, Cavani, Mamoudzou, Mayotte, 97600, France",
        "road": "Route de la Convalescence",
        "house_number": "451",
        "neighbourhood": null,
        "suburb": null,
        "city_district": null,
        "city": "Mamoudzou",
        "state": "Mayotte",
        "postcode": "97600",
        "country": "France",
        "country_code": "fr"
      },
      "address": "451, Route de la Convalescence, Mamoudzou, 97600 Mayotte, Mayotte"
    },
    {
      "lat": -12.765462677338947,
      "lon": 45.21414405780602,
      "geoinfo": {
        "display_name": "Rue Bambao, Bandrajou, Kawéni, Mamoudzou, Mayotte, 97600, France",
        "road": "Rue Bambao",
        "house_number": null,
        "neighbourhood": null,
        "suburb": "Bandrajou",
        "city_district": null,
        "city": "Kawéni",
        "state": "Mayotte",
        "postcode": "97600",
        "country": "France",
        "country_code": "fr"
      },
      "address": "476, Rue Bambao, Mamoudzou, 97600 Mayotte, Mayotte"
    },
    {
      "lat": -12.75468693352735,
      "lon": 45.21611646366153,
      "geoinfo": {
        "display_name": "Côte de Bugna, Val Fleuri, Les Hauts Vallons, Majicavo-Lamir, Koungou, Mayotte, 97600, France",
        "road": "Côte de Bugna",
        "house_number": null,
        "neighbourhood": null,
        "suburb": "Les Hauts Vallons",
        "city_district": null,
        "city": "Koungou",
        "state": "Mayotte",
        "postcode": "97600",
        "country": "France",
        "country_code": "fr"
      },
      "address": "536, Côte de Bugna, Mamoudzou, 97600 Mayotte, Mayotte"
    },
    {
      "lat": -12.741564411998542,
      "lon": 45.214104752822024,
      "geoinfo": {
        "display_name": "N 1, Quartier Machaka, Montlegun, Majicavo-Koropa, Koungou, Mayotte, 97600, France",
        "road": "N 1",
        "house_number": null,
        "neighbourhood": null,
        "suburb": null,
        "city_district": null,
        "city": "Majicavo-Koropa",
        "state": "Mayotte",
        "postcode": "97600",
        "country": "France",
        "country_code": "fr"
      },
      "address": "N 1, Mamoudzou, 97600 Mayotte, Mayotte"
    }
  ],
  "updated_at": "2025-10-19T07:54:02.861933+00:00",
  "_kind": "geo_samples"
}