{
  "country_code": "RW",
  "country": "Rwanda",
  "city": "Gitarama",
  "geonameid": 202217,
  "target_addresses": 3,
  "samples": [
    {
      "lat": -2.1082939106856204,
      "lon": 29.747732662409177,
      "geoinfo": {
        "display_name": "Kabgayi, Nyamabuye, Muhanga District, Southern Province, Rwanda",
        "road": null,
        "house_number": null,
        "neighbourhood": null,
        "suburb": null,
        "city_district": null,
        "city": "Nyamabuye",
        "state": "Southern Province",
        "postcode": null,
        "country": "Rwanda",
        "country_code": "rw"
      },
      "address": "Gitarama, Southern Province, Rwanda"
    },
    {
      "lat": -2.1118779807424195,
      "lon": 29.749300468271798,
      "geoinfo": {
        "display_name": "NR1, Kabgayi, Nyamabuye, Muhanga District, Southern Province, Rwanda",
        "road": "NR1",
        "house_number": null,
        "neighbourhood": null,
        "suburb": null,
        "city_district": null,
        "city": "Nyamabuye",
        "state": "Southern Province",
        "postcode": null,
        "country": "Rwanda",
        "country_code": "rw"
      },
      "address": "NR1, Gitarama, Southern Province, Rwanda"
    },
    {
      "lat": -2.053640769960455,
      "lon": 29.74117683467847,
      "geoinfo": {
        "display_name": "NR16, Muhanga, Muhanga District, Southern Province, Rwanda",
        "road": "NR16",
        "house_number": null,
        "neighbourhood": null,
        "suburb": null,
        "city_district": null,
        "city": "Muhanga",
        "state": "Southern Province",
        "postcode": null,
        "country": "Rwanda",
        "country_code": "rw"
      },
      "address": "NR16, Gitarama, Southern Province, Rwanda"
    },
    {
      "lat": -2.10977998298354,
      "lon": 29.77809389758461,
      "geoinfo": {
        "display_name": "Shyogwe, Muhanga District, Southern Province, Rwanda",
        "road": null,
        "house_number": null,
        "neighbourhood": null,
        "suburb": null,
        "city_district": null,
        "city": "Shyogwe",
        "state": "Southern Province",
        "postcode": null,
        "country": "Rwanda",
        "country_code": "rw"
      },
      "address": "553, Shyogwe, Muhanga District, 57687 Southern Province, Rwanda"
    },
    {
      "lat": -2.068525357116523,
      "lon": 29.715531423528112,
      "geoinfo": {
        "display_name": "Muhanga, Muhanga District, Southern Province, Rwanda",
        "road": null,
        "house_number": null,
        "neighbourhood": null,
        "suburb": null,
        "city_district": null,
        "city": "Muhanga",
        "state": "Southern Province",
        "postcode": null,
        "country": "Rwanda",
        "country_code": "rw"
      },
      "address": "261, Muhanga, Muhanga District, 08092 Southern Province, Rwanda"
    },
    {
      "lat": -2.0961393215715556,
      "lon": 29.7907658828303,
      "geoinfo": {
        "display_name": "Shyogwe, Muhanga District, Southern Province, Rwanda",
        "road": null,
        "house_number": null,
        "neighbourhood": null,
        "suburb": null,
        "city_district": null,
        "city": "Shyogwe",
        "state": "Southern Province",
        "postcode": null,
        "country": "Rwanda",
        "country_code": "rw"
      },
      "address": "116, Shyogwe, Muhanga District, 95962 Southern Province, Rwanda"
    }
  ],
  "updated_at": "2025-10-19T09:42:36.136396+00:00",
  "_kind": "geo_samples"
}