{
  "country_code": "RW",
  "country": "Rwanda",
  "city": "Macuba",
  "geonameid": 7021270,
  "target_addresses": 7,
  "samples": [
    {
      "lat": -2.3183669642598317,
      "lon": 29.196805925926192,
      "geoinfo": {
        "display_name": "Macuba, Nyamasheke, Western Province, Rwanda",
        "road": null,
        "house_number": null,
        "neighbourhood": null,
        "suburb": null,
        "city_district": null,
        "city": "Macuba",
        "state": "Western Province",
        "postcode": null,
        "country": "Rwanda",
        "country_code": "rw"
      },
      "address": "Macuba, Western Province, Rwanda"
    },
    {
      "lat": -2.2650110832955215,
      "lon": 29.169200864913925,
      "geoinfo": {
        "display_name": "Macuba, Nyamasheke, Western Province, Rwanda",
        "road": null,
        "house_number": null,
        "neighbourhood": null,
        "suburb": null,
        "city_district": null,
        "city": "Macuba",
        "state": "Western Province",
        "postcode": null,
        "country": "Rwanda",
        "country_code": "rw"
      },
      "address": "Macuba, Nyamasheke, 52832 Western Province, Rwanda"
    },
    {
      "lat": -2.27785440640852,
      "lon": 29.202699571994234,
      "geoinfo": {
        "display_name": "NR11, Kagwa, Jarama, Kirimbi, Nyamasheke, Western Province, Rwanda",
        "road": "NR11",
        "house_number": null,
        "neighbourhood": null,
        "suburb": null,
        "city_district": null,
        "city": "Kirimbi",
        "state": "Western Province",
        "postcode": null,
        "country": "Rwanda",
        "country_code": "rw"
      },
      "address": "NR11, Kagwa, Jarama, Kirimbi, Nyamasheke, 95917 Western Province, Rwanda"
    },
    {
      "lat": -2.319332638906675,
      "lon": 29.193050567171042,
      "geoinfo": {
        "display_name": "Macuba, Nyamasheke, Western Province, Rwanda",
        "road": null,
        "house_number": null,
        "neighbourhood": null,
        "suburb": null,
        "city_district": null,
        "city": "Macuba",
        "state": "Western Province",
        "postcode": null,
        "country": "Rwanda",
        "country_code": "rw"
      },
      "address": "967, Macuba, Nyamasheke, 49979 Western Province, Rwanda"
    },
    {
      "lat": -2.3153945910205103,
      "lon": 29.22634614145632,
      "geoinfo": {
        "display_name": "Karambi, Nyamasheke, Western Province, Rwanda",
        "road": null,
        "house_number": null,
        "neighbourhood": null,
        "suburb": null,
        "city_district": null,
        "city": "Karambi",
        "state": "Western Province",
        "postcode": null,
        "country": "Rwanda",
        "country_code": "rw"
      },
      "address": "131, Karambi, Nyamasheke, 99067 Western Province, Rwanda"
    },
    {
      "lat": -2.3138184905004597,
      "lon": 29.171488072969115,
      "geoinfo": {
        "display_name": "Kanjongo, Nyamasheke, Western Province, Rwanda",
        "road": null,
        "house_number": null,
        "neighbourhood": null,
        "suburb": null,
        "city_district": null,
        "city": "Kanjongo",
        "state": "Western Province",
        "postcode": null,
        "country": "Rwanda",
        "country_code": "rw"
      },
      "address": "984, Macuba, 67537 Western Province, Rwanda"
    },
    {
      "lat": -2.2833314865002663,
      "lon": 29.204692054001658,
      "geoinfo": {
        "display_name": "Macuba, Nyamasheke, Western Province, Rwanda",
        "road": null,
        "house_number": null,
        "neighbourhood": null,
        "suburb": null,
        "city_district": null,
        "city": "Macuba",
        "state": "Western Province",
        "postcode": null,
        "country": "Rwanda",
        "country_code": "rw"
      },
      "address": "166, Macuba, Nyamasheke, 83884 Western Province, Rwanda"
    }
  ],
  "updated_at": "2025-10-19T06:14:01.177917+00:00",
  "_kind": "geo_samples"
}