{
  "country_code": "GF",
  "country": "French Guiana",
  "city": "Cayenne",
  "geonameid": 3382160,
  "target_addresses": 106,
  "samples": [
    {
      "lat": 4.965382264870984,
      "lon": -52.345959647511286,
      "geoinfo": {
        "display_name": "French Guiana, France",
        "road": null,
        "house_number": null,
        "neighbourhood": null,
        "suburb": null,
        "city_district": null,
        "city": null,
        "state": "French Guiana",
        "postcode": null,
        "country": "France",
        "country_code": "fr"
      },
      "address": "Cayenne, French Guiana, French Guiana"
    },
    {
      "lat": 4.924723384827808,
      "lon": -52.31726571267435,
      "geoinfo": {
        "display_name": "Cité Pascaline, Cayenne, French Guiana, 97300, France",
        "road": null,
        "house_number": null,
        "neighbourhood": "Cité Pascaline",
        "suburb": null,
        "city_district": null,
        "city": "Cayenne",
        "state": "French Guiana",
        "postcode": "97300",
        "country": "France",
        "country_code": "fr"
      },
      "address": "Cité Pascaline, Cayenne, French Guiana, French Guiana"
    },
    {
      "lat": 4.942321767660781,
      "lon": -52.33199017925598,
      "geoinfo": {
        "display_name": "Direction de la Jeunesse, des Sports et de la Cohésion Sociale, 19, Rue Victor Schœlcher, Inini, Cayenne, French Guiana, 97300, France",
        "road": "Rue Victor Schœlcher",
        "house_number": "19",
        "neighbourhood": "Inini",
        "suburb": null,
        "city_district": null,
        "city": "Cayenne",
        "state": "French Guiana",
        "postcode": "97300",
        "country": "France",
        "country_code": "fr"
      },
      "address": "19 Rue Victor Schœlcher, Cayenne, French Guiana, French Guiana"
    },
    {
      "lat": 4.961479393727914,
      "lon": -52.319580810266984,
      "geoinfo": {
        "display_name": "Résidence Auguste Horth, Cayenne, French Guiana, 97300, France",
        "road": null,
        "house_number": null,
        "neighbourhood": "Résidence Auguste Horth",
        "suburb": null,
        "city_district": null,
        "city": "Cayenne",
        "state": "French Guiana",
        "postcode": "97300",
        "country": "France",
        "country_code": "fr"
      },
      "address": "Résidence Auguste Horth, Cayenne, French Guiana, French Guiana"
    },
    {
      "lat": 4.916730519971912,
      "lon": -52.33293622816416,
      "geoinfo": {
        "display_name": "N 1, Résidence A Pou Nou, Cayenne, French Guiana, 97300, France",
        "road": "N 1",
        "house_number": null,
        "neighbourhood": "Résidence A Pou Nou",
        "suburb": null,
        "city_district": null,
        "city": "Cayenne",
        "state": "French Guiana",
        "postcode": "97300",
        "country": "France",
        "country_code": "fr"
      },
      "address": "N 1, Cayenne, French Guiana, French Guiana"
    },
    {
      "lat": 4.924415564083379,
      "lon": -52.29462703694013,
      "geoinfo": {
        "display_name": "Ratier, Lotissement Simarouba, Cayenne, French Guiana, 97300, France",
        "road": null,
        "house_number": null,
        "neighbourhood": "Ratier",
        "suburb": null,
        "city_district": null,
        "city": "Cayenne",
        "state": "French Guiana",
        "postcode": "97300",
        "country": "France",
        "country_code": "fr"
      },
      "address": "Ratier, Cayenne, French Guiana, French Guiana"
    },
    {
      "lat": 4.929558541159981,
      "lon": -52.32611628636638,
      "geoinfo": {
        "display_name": "294, Avenue Justin Catayée, Cité Lafaurie, Cayenne, French Guiana, 97300, France",
        "road": "Avenue Justin Catayée",
        "house_number": "294",
        "neighbourhood": "Cité Lafaurie",
        "suburb": null,
        "city_district": null,
        "city": "Cayenne",
        "state": "French Guiana",
        "postcode": "97300",
        "country": "France",
        "country_code": "fr"
      },
      "address": "294 Avenue Justin Catayée, Cayenne, French Guiana, French Guiana"
    },
    {
      "lat": 4.917089525555363,
      "lon": -52.32342945325646,
      "geoinfo": {
        "display_name": "17, Route de la Madeleine, Lotissement Patient, Cayenne, French Guiana, 97300, France",
        "road": "Route de la Madeleine",
        "house_number": "17",
        "neighbourhood": "Lotissement Patient",
        "suburb": null,
        "city_district": null,
        "city": "Cayenne",
        "state": "French Guiana",
        "postcode": "97300",
        "country": "France",
        "country_code": "fr"
      },
      "address": "17 Route de la Madeleine, Cayenne, French Guiana, French Guiana"
    },
    {
      "lat": 4.900141660548099,
      "lon": -52.318724482114064,
      "geoinfo": {
        "display_name": "Rue des Libellules, Zone industrielle Collery Est, Cayenne, French Guiana, 97300, France",
        "road": "Rue des Libellules",
        "house_number": null,
        "neighbourhood": null,
        "suburb": null,
        "city_district": null,
        "city": "Cayenne",
        "state": "French Guiana",
        "postcode": "97300",
        "country": "France",
        "country_code": "fr"
      },
      "address": "Rue des Libellules, Cayenne, French Guiana, French Guiana"
    },
    {
      "lat": 4.931665129656375,
      "lon": -52.35337158084694,
      "geoinfo": {
        "display_name": "Pointe Saint-François, Inini, Cayenne, French Guiana, 97300, France",
        "road": null,
        "house_number": null,
        "neighbourhood": "Inini",
        "suburb": null,
        "city_district": null,
        "city": "Cayenne",
        "state": "French Guiana",
        "postcode": "97300",
        "country": "France",
        "country_code": "fr"
      },
      "address": "Inini, Cayenne, French Guiana, French Guiana"
    },
    {
      "lat": 4.938415278630902,
      "lon": -52.2982955529294,
      "geoinfo": {
        "display_name": "Résidence Coriandre, 4, Rue Matamata, Lotissement Gippet, Cayenne, French Guiana, 97300, France",
        "road": "Rue Matamata",
        "house_number": "4",
        "neighbourhood": "Lotissement Gippet",
        "suburb": null,
        "city_district": null,
        "city": "Cayenne",
        "state": "French Guiana",
        "postcode": "97300",
        "country": "France",
        "country_code": "fr"
      },
      "address": "4 Rue Matamata, Cayenne, French Guiana, French Guiana"
    },
    {
      "lat": 4.938219065045692,
      "lon": -52.33365159571918,
      "geoinfo": {
        "display_name": "14, Avenue du Général de Gaulle, Village Chinois, Cayenne, French Guiana, 97300, France",
        "road": "Avenue du Général de Gaulle",
        "house_number": "14",
        "neighbourhood": null,
        "suburb": null,
        "city_district": null,
        "city": "Cayenne",
        "state": "French Guiana",
        "postcode": "97300",
        "country": "France",
        "country_code": "fr"
      },
      "address": "14 Avenue du Général de Gaulle, Cayenne, French Guiana, French Guiana"
    },
    {
      "lat": 4.9509731061161135,
      "lon": -52.303491006815506,
      "geoinfo": {
        "display_name": "Sentier de Montabo, Lotissement Fruit à Pain, Cayenne, French Guiana, 97300, France",
        "road": "Sentier de Montabo",
        "house_number": null,
        "neighbourhood": "Lotissement Fruit à Pain",
        "suburb": null,
        "city_district": null,
        "city": "Cayenne",
        "state": "French Guiana",
        "postcode": "97300",
        "country": "France",
        "country_code": "fr"
      },
      "address": "Sentier de Montabo, Cayenne, French Guiana, French Guiana"
    },
    {
      "lat": 4.925885593686176,
      "lon": -52.337284908104465,
      "geoinfo": {
        "display_name": "Impasse Fleur de Lotus, Îlet Malouin, Cayenne, French Guiana, 97300, France",
        "road": "Impasse Fleur de Lotus",
        "house_number": null,
        "neighbourhood": "Îlet Malouin",
        "suburb": null,
        "city_district": null,
        "city": "Cayenne",
        "state": "French Guiana",
        "postcode": "97300",
        "country": "France",
        "country_code": "fr"
      },
      "address": "Impasse Fleur de Lotus, Cayenne, French Guiana, French Guiana"
    },
    {
      "lat": 4.898743308622335,
      "lon": -52.32324952491443,
      "geoinfo": {
        "display_name": "Rue des Fourmis Manioc, Zone industrielle Collery Est, Cayenne, French Guiana, 97300, France",
        "road": "Rue des Fourmis Manioc",
        "house_number": null,
        "neighbourhood": null,
        "suburb": null,
        "city_district": null,
        "city": "Cayenne",
        "state": "French Guiana",
        "postcode": "97300",
        "country": "France",
        "country_code": "fr"
      },
      "address": "Rue des Fourmis Manioc, Cayenne, French Guiana, French Guiana"
    },
    {
      "lat": 4.912476417431136,
      "lon": -52.34649565669541,
      "geoinfo": {
        "display_name": "Amphithéâtre, Résidence Zénith, Matoury, Cayenne, French Guiana, 97351, France",
        "road": null,
        "house_number": null,
        "neighbourhood": "Résidence Zénith",
        "suburb": null,
        "city_district": null,
        "city": "Matoury",
        "state": "French Guiana",
        "postcode": "97351",
        "country": "France",
        "country_code": "fr"
      },
      "address": "Résidence Zénith, Cayenne, French Guiana, French Guiana"
    },
    {
      "lat": 4.929167535147163,
      "lon": -52.311547259433524,
      "geoinfo": {
        "display_name": "21, Rue du Docteur Clément, Lotissement Victor, Cayenne, French Guiana, 97300, France",
        "road": "Rue du Docteur Clément",
        "house_number": "21",
        "neighbourhood": "Lotissement Victor",
        "suburb": null,
        "city_district": null,
        "city": "Cayenne",
        "state": "French Guiana",
        "postcode": "97300",
        "country": "France",
        "country_code": "fr"
      },
      "address": "21 Rue du Docteur Clément, Cayenne, French Guiana, French Guiana"
    },
    {
      "lat": 4.911206905247546,
      "lon": -52.32259627208018,
      "geoinfo": {
        "display_name": "Résidence A Pou Nou, Cayenne, French Guiana, 97300, France",
        "road": null,
        "house_number": null,
        "neighbourhood": "Résidence A Pou Nou",
        "suburb": null,
        "city_district": null,
        "city": "Cayenne",
        "state": "French Guiana",
        "postcode": "97300",
        "country": "France",
        "country_code": "fr"
      },
      "address": "Résidence A Pou Nou, Cayenne, French Guiana, French Guiana"
    },
    {
      "lat": 4.925737961364457,
      "lon": -52.29456421065848,
      "geoinfo": {
        "display_name": "Groupe Scolaire Mont-Lucas, Allée Thélus Thébia, Ratier, Résidence Colibris, Cayenne, French Guiana, 97300, France",
        "road": "Allée Thélus Thébia",
        "house_number": null,
        "neighbourhood": "Ratier",
        "suburb": null,
        "city_district": null,
        "city": "Cayenne",
        "state": "French Guiana",
        "postcode": "97300",
        "country": "France",
        "country_code": "fr"
      },
      "address": "Allée Thélus Thébia, Cayenne, French Guiana, French Guiana"
    },
    {
      "lat": 4.937473501967304,
      "lon": -52.332594637962984,
      "geoinfo": {
        "display_name": "15, Rue Louis Molé, Village Chinois, Cayenne, French Guiana, 97300, France",
        "road": "Rue Louis Molé",
        "house_number": "15",
        "neighbourhood": null,
        "suburb": null,
        "city_district": null,
        "city": "Cayenne",
        "state": "French Guiana",
        "postcode": "97300",
        "country": "France",
        "country_code": "fr"
      },
      "address": "15 Rue Louis Molé, Cayenne, French Guiana, French Guiana"
    },
    {
      "lat": 4.954267224401756,
      "lon": -52.3272735413242,
      "geoinfo": {
        "display_name": "Pointe Saint-Joseph, Inini, Cayenne, French Guiana, 97300, France",
        "road": null,
        "house_number": null,
        "neighbourhood": "Inini",
        "suburb": null,
        "city_district": null,
        "city": "Cayenne",
        "state": "French Guiana",
        "postcode": "97300",
        "country": "France",
        "country_code": "fr"
      },
      "address": "Inini, Cayenne, 24770 French Guiana, French Guiana"
    },
    {
      "lat": 4.958360109237395,
      "lon": -52.3461327334066,
      "geoinfo": {
        "display_name": "Pointe Saint-Joseph, Inini, Cayenne, French Guiana, 97300, France",
        "road": null,
        "house_number": null,
        "neighbourhood": "Inini",
        "suburb": null,
        "city_district": null,
        "city": "Cayenne",
        "state": "French Guiana",
        "postcode": "97300",
        "country": "France",
        "country_code": "fr"
      },
      "address": "Inini, Cayenne, 60257 French Guiana, French Guiana"
    },
    {
      "lat": 4.935358427138117,
      "lon": -52.33827409462222,
      "geoinfo": {
        "display_name": "Rue du Vieux Port, Inini, Cayenne, French Guiana, 97300, France",
        "road": "Rue du Vieux Port",
        "house_number": null,
        "neighbourhood": "Inini",
        "suburb": null,
        "city_district": null,
        "city": "Cayenne",
        "state": "French Guiana",
        "postcode": "97300",
        "country": "France",
        "country_code": "fr"
      },
      "address": "Rue du Vieux Port, Cayenne, 95893 French Guiana, French Guiana"
    },
    {
      "lat": 4.945670766429317,
      "lon": -52.31848392449339,
      "geoinfo": {
        "display_name": "ONF, 91, Route de Montabo, Cité Castor, Cayenne, French Guiana, 97300, France",
        "road": "Route de Montabo",
        "house_number": "91",
        "neighbourhood": "Cité Castor",
        "suburb": null,
        "city_district": null,
        "city": "Cayenne",
        "state": "French Guiana",
        "postcode": "97300",
        "country": "France",
        "country_code": "fr"
      },
      "address": "91 Route de Montabo, Cayenne, 89862 French Guiana, French Guiana"
    },
    {
      "lat": 4.907797515573658,
      "lon": -52.30568779147074,
      "geoinfo": {
        "display_name": "Route du Tigre, Remire-Montjoly, Cayenne, French Guiana, 97354, France",
        "road": "Route du Tigre",
        "house_number": null,
        "neighbourhood": null,
        "suburb": null,
        "city_district": null,
        "city": "Remire-Montjoly",
        "state": "French Guiana",
        "postcode": "97354",
        "country": "France",
        "country_code": "fr"
      },
      "address": "Route du Tigre, Cayenne, 26447 French Guiana, French Guiana"
    },
    {
      "lat": 4.915712130358329,
      "lon": -52.31412496151983,
      "geoinfo": {
        "display_name": "Route de Cabassou, Lotissement Calimbé, Cayenne, French Guiana, 97300, France",
        "road": "Route de Cabassou",
        "house_number": null,
        "neighbourhood": "Lotissement Calimbé",
        "suburb": null,
        "city_district": null,
        "city": "Cayenne",
        "state": "French Guiana",
        "postcode": "97300",
        "country": "France",
        "country_code": "fr"
      },
      "address": "Route de Cabassou, Cayenne, 48688 French Guiana, French Guiana"
    },
    {
      "lat": 4.939131205137529,
      "lon": -52.29826806209476,
      "geoinfo": {
        "display_name": "4, Rue des Étoiles de Mer, Lotissement Saint-Julien, Cayenne, French Guiana, 97300, France",
        "road": "Rue des Étoiles de Mer",
        "house_number": "4",
        "neighbourhood": "Lotissement Saint-Julien",
        "suburb": null,
        "city_district": null,
        "city": "Cayenne",
        "state": "French Guiana",
        "postcode": "97300",
        "country": "France",
        "country_code": "fr"
      },
      "address": "4 Rue des Étoiles de Mer, Cayenne, 42416 French Guiana, French Guiana"
    },
    {
      "lat": 4.9383272281836295,
      "lon": -52.32060268787888,
      "geoinfo": {
        "display_name": "Collège Auxence Contout, Boulevard de la République, Cité Nzilla, Cayenne, French Guiana, 97300, France",
        "road": "Boulevard de la République",
        "house_number": null,
        "neighbourhood": "Cité Nzilla",
        "suburb": null,
        "city_district": null,
        "city": "Cayenne",
        "state": "French Guiana",
        "postcode": "97300",
        "country": "France",
        "country_code": "fr"
      },
      "address": "Boulevard de la République, Cayenne, 76877 French Guiana, French Guiana"
    },
    {
      "lat": 4.949412708188493,
      "lon": -52.34335068826333,
      "geoinfo": {
        "display_name": "Pointe Saint-Joseph, Inini, Cayenne, French Guiana, 97300, France",
        "road": null,
        "house_number": null,
        "neighbourhood": "Inini",
        "suburb": null,
        "city_district": null,
        "city": "Cayenne",
        "state": "French Guiana",
        "postcode": "97300",
        "country": "France",
        "country_code": "fr"
      },
      "address": "Inini, Cayenne, 90741 French Guiana, French Guiana"
    },
    {
      "lat": 4.911879798970176,
      "lon": -52.30231030591123,
      "geoinfo": {
        "display_name": "Remire-Montjoly, Cayenne, French Guiana, 97354, France",
        "road": null,
        "house_number": null,
        "neighbourhood": null,
        "suburb": null,
        "city_district": null,
        "city": "Remire-Montjoly",
        "state": "French Guiana",
        "postcode": "97354",
        "country": "France",
        "country_code": "fr"
      },
      "address": "Cayenne, 02708 French Guiana, French Guiana"
    },
    {
      "lat": 4.931832674795371,
      "lon": -52.301863144875156,
      "geoinfo": {
        "display_name": "Université de Guyane, Campus de Troubiran, Cayenne, French Guiana, 97300, France",
        "road": null,
        "house_number": null,
        "neighbourhood": null,
        "suburb": null,
        "city_district": null,
        "city": "Cayenne",
        "state": "French Guiana",
        "postcode": "97300",
        "country": "France",
        "country_code": "fr"
      },
      "address": "Cayenne, 42443 French Guiana, French Guiana"
    },
    {
      "lat": 4.9772916475591416,
      "lon": -52.35207422755773,
      "geoinfo": {
        "display_name": "French Guiana, France",
        "road": null,
        "house_number": null,
        "neighbourhood": null,
        "suburb": null,
        "city_district": null,
        "city": null,
        "state": "French Guiana",
        "postcode": null,
        "country": "France",
        "country_code": "fr"
      },
      "address": "Cayenne, 30980 French Guiana, French Guiana"
    },
    {
      "lat": 4.963778593654075,
      "lon": -52.33244938537832,
      "geoinfo": {
        "display_name": "French Guiana, France",
        "road": null,
        "house_number": null,
        "neighbourhood": null,
        "suburb": null,
        "city_district": null,
        "city": null,
        "state": "French Guiana",
        "postcode": null,
        "country": "France",
        "country_code": "fr"
      },
      "address": "Cayenne, 82868 French Guiana, French Guiana"
    },
    {
      "lat": 4.904090624017256,
      "lon": -52.324967699235756,
      "geoinfo": {
        "display_name": "Renov Construction, 10, Rue des Bourdons, Z.I. Collery Ouest, Cayenne, French Guiana, 97300, France",
        "road": "Rue des Bourdons",
        "house_number": "10",
        "neighbourhood": null,
        "suburb": null,
        "city_district": null,
        "city": "Cayenne",
        "state": "French Guiana",
        "postcode": "97300",
        "country": "France",
        "country_code": "fr"
      },
      "address": "10 Rue des Bourdons, Cayenne, 88864 French Guiana, French Guiana"
    },
    {
      "lat": 4.94574241752561,
      "lon": -52.36460144732957,
      "geoinfo": {
        "display_name": "French Guiana, France",
        "road": null,
        "house_number": null,
        "neighbourhood": null,
        "suburb": null,
        "city_district": null,
        "city": null,
        "state": "French Guiana",
        "postcode": null,
        "country": "France",
        "country_code": "fr"
      },
      "address": "250, Cayenne, 59062 French Guiana, French Guiana"
    },
    {
      "lat": 4.963380659788729,
      "lon": -52.32058672061755,
      "geoinfo": {
        "display_name": "Résidence Auguste Horth, Cayenne, French Guiana, 97300, France",
        "road": null,
        "house_number": null,
        "neighbourhood": "Résidence Auguste Horth",
        "suburb": null,
        "city_district": null,
        "city": "Cayenne",
        "state": "French Guiana",
        "postcode": "97300",
        "country": "France",
        "country_code": "fr"
      },
      "address": "027, Résidence Auguste Horth, Cayenne, 97300 French Guiana, French Guiana"
    },
    {
      "lat": 4.957815893343065,
      "lon": -52.349516581546574,
      "geoinfo": {
        "display_name": "Pointe Saint-Joseph, Inini, Cayenne, French Guiana, 97300, France",
        "road": null,
        "house_number": null,
        "neighbourhood": "Inini",
        "suburb": null,
        "city_district": null,
        "city": "Cayenne",
        "state": "French Guiana",
        "postcode": "97300",
        "country": "France",
        "country_code": "fr"
      },
      "address": "603, Inini, Cayenne, 97300 French Guiana, French Guiana"
    },
    {
      "lat": 4.937823329280459,
      "lon": -52.32776734014898,
      "geoinfo": {
        "display_name": "37, Rue Roland Barrat, ex Cité Floralies, Cayenne, French Guiana, 97300, France",
        "road": "Rue Roland Barrat",
        "house_number": "37",
        "neighbourhood": "ex Cité Floralies",
        "suburb": null,
        "city_district": null,
        "city": "Cayenne",
        "state": "French Guiana",
        "postcode": "97300",
        "country": "France",
        "country_code": "fr"
      },
      "address": "37, Rue Roland Barrat, Cayenne, 97300 French Guiana, French Guiana"
    },
    {
      "lat": 4.898495162065503,
      "lon": -52.32111554157886,
      "geoinfo": {
        "display_name": "Rue des Libellules, Zone industrielle Collery Est, Cayenne, French Guiana, 97300, France",
        "road": "Rue des Libellules",
        "house_number": null,
        "neighbourhood": null,
        "suburb": null,
        "city_district": null,
        "city": "Cayenne",
        "state": "French Guiana",
        "postcode": "97300",
        "country": "France",
        "country_code": "fr"
      },
      "address": "124, Rue des Libellules, Cayenne, 97300 French Guiana, French Guiana"
    },
    {
      "lat": 4.915382251838305,
      "lon": -52.355542427253894,
      "geoinfo": {
        "display_name": "Avenue du Débarcadère, Macouria, Cayenne, French Guiana, 97355, France",
        "road": "Avenue du Débarcadère",
        "house_number": null,
        "neighbourhood": null,
        "suburb": null,
        "city_district": null,
        "city": "Macouria",
        "state": "French Guiana",
        "postcode": "97355",
        "country": "France",
        "country_code": "fr"
      },
      "address": "359, Avenue du Débarcadère, Cayenne, 97355 French Guiana, French Guiana"
    },
    {
      "lat": 4.940541050880778,
      "lon": -52.35978347616816,
      "geoinfo": {
        "display_name": "French Guiana, France",
        "road": null,
        "house_number": null,
        "neighbourhood": null,
        "suburb": null,
        "city_district": null,
        "city": null,
        "state": "French Guiana",
        "postcode": null,
        "country": "France",
        "country_code": "fr"
      },
      "address": "069, Cayenne, 95310 French Guiana, French Guiana"
    },
    {
      "lat": 4.896149214305805,
      "lon": -52.32778349600102,
      "geoinfo": {
        "display_name": "Rond-Point Crique Fouillée, Zone Industrielle Collery 2, Cayenne, French Guiana, 97300, France",
        "road": "Rond-Point Crique Fouillée",
        "house_number": null,
        "neighbourhood": null,
        "suburb": null,
        "city_district": null,
        "city": "Cayenne",
        "state": "French Guiana",
        "postcode": "97300",
        "country": "France",
        "country_code": "fr"
      },
      "address": "409, Rond-Point Crique Fouillée, Cayenne, 97300 French Guiana, French Guiana"
    },
    {
      "lat": 4.915816879723895,
      "lon": -52.33135058906098,
      "geoinfo": {
        "display_name": "N 1, Résidence A Pou Nou, Cayenne, French Guiana, 97300, France",
        "road": "N 1",
        "house_number": null,
        "neighbourhood": "Résidence A Pou Nou",
        "suburb": null,
        "city_district": null,
        "city": "Cayenne",
        "state": "French Guiana",
        "postcode": "97300",
        "country": "France",
        "country_code": "fr"
      },
      "address": "N 1, Cayenne, 97300 French Guiana, French Guiana"
    },
    {
      "lat": 4.957927929792712,
      "lon": -52.30295634850857,
      "geoinfo": {
        "display_name": "Lotissement Mont Joyeux, Cayenne, French Guiana, 97300, France",
        "road": null,
        "house_number": null,
        "neighbourhood": "Lotissement Mont Joyeux",
        "suburb": null,
        "city_district": null,
        "city": "Cayenne",
        "state": "French Guiana",
        "postcode": "97300",
        "country": "France",
        "country_code": "fr"
      },
      "address": "243, Lotissement Mont Joyeux, Cayenne, 97300 French Guiana, French Guiana"
    },
    {
      "lat": 4.941457663702971,
      "lon": -52.32353448684196,
      "geoinfo": {
        "display_name": "57, Rue Vermont Polycarpe, Résidence La Grande Consoude, Cayenne, French Guiana, 97300, France",
        "road": "Rue Vermont Polycarpe",
        "house_number": "57",
        "neighbourhood": "Résidence La Grande Consoude",
        "suburb": null,
        "city_district": null,
        "city": "Cayenne",
        "state": "French Guiana",
        "postcode": "97300",
        "country": "France",
        "country_code": "fr"
      },
      "address": "57, Rue Vermont Polycarpe, Cayenne, 97300 French Guiana, French Guiana"
    },
    {
      "lat": 4.936794430210763,
      "lon": -52.35777986050651,
      "geoinfo": {
        "display_name": "Pointe Saint-François, Inini, Cayenne, French Guiana, 97300, France",
        "road": null,
        "house_number": null,
        "neighbourhood": "Inini",
        "suburb": null,
        "city_district": null,
        "city": "Cayenne",
        "state": "French Guiana",
        "postcode": "97300",
        "country": "France",
        "country_code": "fr"
      },
      "address": "968, Inini, Cayenne, 97300 French Guiana, French Guiana"
    },
    {
      "lat": 4.909595555055129,
      "lon": -52.31640651483053,
      "geoinfo": {
        "display_name": "Centre d'Accueil d'Urgence Les Carrières, Impasse du Cœur Brun-Noir, Lotissement Castor, Cayenne, French Guiana, 97300, France",
        "road": "Impasse du Cœur Brun-Noir",
        "house_number": null,
        "neighbourhood": "Lotissement Castor",
        "suburb": null,
        "city_district": null,
        "city": "Cayenne",
        "state": "French Guiana",
        "postcode": "97300",
        "country": "France",
        "country_code": "fr"
      },
      "address": "600, Impasse du Cœur Brun-Noir, Cayenne, 97300 French Guiana, French Guiana"
    },
    {
      "lat": 4.942286780711349,
      "lon": -52.320777351745235,
      "geoinfo": {
        "display_name": "Lycée Professionnel Max Joséphine, Avenue François Voltaire, Résidence La Grande Consoude, Cayenne, French Guiana, 97300, France",
        "road": "Avenue François Voltaire",
        "house_number": null,
        "neighbourhood": "Résidence La Grande Consoude",
        "suburb": null,
        "city_district": null,
        "city": "Cayenne",
        "state": "French Guiana",
        "postcode": "97300",
        "country": "France",
        "country_code": "fr"
      },
      "address": "131, Avenue François Voltaire, Cayenne, 97300 French Guiana, French Guiana"
    },
    {
      "lat": 4.9378249252544295,
      "lon": -52.337753117558826,
      "geoinfo": {
        "display_name": "Rue du Port, Inini, Cayenne, French Guiana, 97300, France",
        "road": "Rue du Port",
        "house_number": null,
        "neighbourhood": "Inini",
        "suburb": null,
        "city_district": null,
        "city": "Cayenne",
        "state": "French Guiana",
        "postcode": "97300",
        "country": "France",
        "country_code": "fr"
      },
      "address": "675, Rue du Port, Cayenne, 97300 French Guiana, French Guiana"
    },
    {
      "lat": 4.957796184878844,
      "lon": -52.343985493463165,
      "geoinfo": {
        "display_name": "Pointe Saint-Joseph, Inini, Cayenne, French Guiana, 97300, France",
        "road": null,
        "house_number": null,
        "neighbourhood": "Inini",
        "suburb": null,
        "city_district": null,
        "city": "Cayenne",
        "state": "French Guiana",
        "postcode": "97300",
        "country": "France",
        "country_code": "fr"
      },
      "address": "899, Inini, Cayenne, 97300 French Guiana, French Guiana"
    },
    {
      "lat": 4.921246755130385,
      "lon": -52.29532359358555,
      "geoinfo": {
        "display_name": "Rue d'Andromède, Ratier, Lotissement Sabrina, Cayenne, French Guiana, 97300, France",
        "road": "Rue d'Andromède",
        "house_number": null,
        "neighbourhood": "Ratier",
        "suburb": null,
        "city_district": null,
        "city": "Cayenne",
        "state": "French Guiana",
        "postcode": "97300",
        "country": "France",
        "country_code": "fr"
      },
      "address": "393, Rue d'Andromède, Cayenne, 97300 French Guiana, French Guiana"
    },
    {
      "lat": 4.944588880650749,
      "lon": -52.34560868821281,
      "geoinfo": {
        "display_name": "Pointe Saint-François, Inini, Cayenne, French Guiana, 97300, France",
        "road": null,
        "house_number": null,
        "neighbourhood": "Inini",
        "suburb": null,
        "city_district": null,
        "city": "Cayenne",
        "state": "French Guiana",
        "postcode": "97300",
        "country": "France",
        "country_code": "fr"
      },
      "address": "246, Inini, Cayenne, 97300 French Guiana, French Guiana"
    },
    {
      "lat": 4.9250493581123,
      "lon": -52.344166661994045,
      "geoinfo": {
        "display_name": "Place du Marché, Village Chinois, Cayenne, French Guiana, 97300, France",
        "road": null,
        "house_number": null,
        "neighbourhood": null,
        "suburb": null,
        "city_district": null,
        "city": "Cayenne",
        "state": "French Guiana",
        "postcode": "97300",
        "country": "France",
        "country_code": "fr"
      },
      "address": "810, Cayenne, 97300 French Guiana, French Guiana"
    },
    {
      "lat": 4.954420168548393,
      "lon": -52.336380881500304,
      "geoinfo": {
        "display_name": "Pointe Saint-Joseph, Inini, Cayenne, French Guiana, 97300, France",
        "road": null,
        "house_number": null,
        "neighbourhood": "Inini",
        "suburb": null,
        "city_district": null,
        "city": "Cayenne",
        "state": "French Guiana",
        "postcode": "97300",
        "country": "France",
        "country_code": "fr"
      },
      "address": "359, Inini, Cayenne, 97300 French Guiana, French Guiana"
    },
    {
      "lat": 4.943567758992373,
      "lon": -52.327063715286386,
      "geoinfo": {
        "display_name": "Impasse Anacaona, Cité Nzilla, Cayenne, French Guiana, 97300, France",
        "road": "Impasse Anacaona",
        "house_number": null,
        "neighbourhood": "Cité Nzilla",
        "suburb": null,
        "city_district": null,
        "city": "Cayenne",
        "state": "French Guiana",
        "postcode": "97300",
        "country": "France",
        "country_code": "fr"
      },
      "address": "931, Impasse Anacaona, Cayenne, 97300 French Guiana, French Guiana"
    },
    {
      "lat": 4.941609466705747,
      "lon": -52.37427601003685,
      "geoinfo": {
        "display_name": "French Guiana, France",
        "road": null,
        "house_number": null,
        "neighbourhood": null,
        "suburb": null,
        "city_district": null,
        "city": null,
        "state": "French Guiana",
        "postcode": null,
        "country": "France",
        "country_code": "fr"
      },
      "address": "830, Cayenne, 19937 French Guiana, French Guiana"
    },
    {
      "lat": 4.974075233135615,
      "lon": -52.31345091157341,
      "geoinfo": {
        "display_name": "French Guiana, France",
        "road": null,
        "house_number": null,
        "neighbourhood": null,
        "suburb": null,
        "city_district": null,
        "city": null,
        "state": "French Guiana",
        "postcode": null,
        "country": "France",
        "country_code": "fr"
      },
      "address": "760, Cayenne, 04108 French Guiana, French Guiana"
    },
    {
      "lat": 4.963936922404077,
      "lon": -52.306068228626984,
      "geoinfo": {
        "display_name": "Lotissement Mont Joyeux, Cayenne, French Guiana, 97300, France",
        "road": null,
        "house_number": null,
        "neighbourhood": "Lotissement Mont Joyeux",
        "suburb": null,
        "city_district": null,
        "city": "Cayenne",
        "state": "French Guiana",
        "postcode": "97300",
        "country": "France",
        "country_code": "fr"
      },
      "address": "658, Lotissement Mont Joyeux, Cayenne, 97300 French Guiana, French Guiana"
    },
    {
      "lat": 4.908679586131849,
      "lon": -52.361869306981916,
      "geoinfo": {
        "display_name": "Route du Larivot, Le Larivot, Matoury, Cayenne, French Guiana, 97351, France",
        "road": "Route du Larivot",
        "house_number": null,
        "neighbourhood": null,
        "suburb": null,
        "city_district": null,
        "city": "Matoury",
        "state": "French Guiana",
        "postcode": "97351",
        "country": "France",
        "country_code": "fr"
      },
      "address": "208, Route du Larivot, Cayenne, 97351 French Guiana, French Guiana"
    },
    {
      "lat": 4.955024882829735,
      "lon": -52.322185889122096,
      "geoinfo": {
        "display_name": "Pointe Saint-Joseph, Inini, Cayenne, French Guiana, 97300, France",
        "road": null,
        "house_number": null,
        "neighbourhood": "Inini",
        "suburb": null,
        "city_district": null,
        "city": "Cayenne",
        "state": "French Guiana",
        "postcode": "97300",
        "country": "France",
        "country_code": "fr"
      },
      "address": "173, Inini, Cayenne, 97300 French Guiana, French Guiana"
    },
    {
      "lat": 4.90785787282022,
      "lon": -52.32357906823927,
      "geoinfo": {
        "display_name": "2, Rue des Abeilles, Z.I. Collery Ouest, Cayenne, French Guiana, 97300, France",
        "road": "Rue des Abeilles",
        "house_number": "2",
        "neighbourhood": null,
        "suburb": null,
        "city_district": null,
        "city": "Cayenne",
        "state": "French Guiana",
        "postcode": "97300",
        "country": "France",
        "country_code": "fr"
      },
      "address": "2, Rue des Abeilles, Cayenne, 97300 French Guiana, French Guiana"
    },
    {
      "lat": 4.911745362640181,
      "lon": -52.371017597412035,
      "geoinfo": {
        "display_name": "N 1, Résidence la Rougerie, Macouria, Cayenne, French Guiana, 97355, France",
        "road": "N 1",
        "house_number": null,
        "neighbourhood": "Résidence la Rougerie",
        "suburb": null,
        "city_district": null,
        "city": "Macouria",
        "state": "French Guiana",
        "postcode": "97355",
        "country": "France",
        "country_code": "fr"
      },
      "address": "N 1, Cayenne, 97355 French Guiana, French Guiana"
    },
    {
      "lat": 4.912468535860785,
      "lon": -52.345535832407286,
      "geoinfo": {
        "display_name": "Amphithéâtre, Résidence Zénith, Matoury, Cayenne, French Guiana, 97351, France",
        "road": null,
        "house_number": null,
        "neighbourhood": "Résidence Zénith",
        "suburb": null,
        "city_district": null,
        "city": "Matoury",
        "state": "French Guiana",
        "postcode": "97351",
        "country": "France",
        "country_code": "fr"
      },
      "address": "648, Résidence Zénith, Cayenne, 97351 French Guiana, French Guiana"
    },
    {
      "lat": 4.923146345704392,
      "lon": -52.36720785382895,
      "geoinfo": {
        "display_name": "Résidence la Rougerie, Belle Humeur, Macouria, Cayenne, French Guiana, 97355, France",
        "road": null,
        "house_number": null,
        "neighbourhood": "Résidence la Rougerie",
        "suburb": null,
        "city_district": null,
        "city": "Macouria",
        "state": "French Guiana",
        "postcode": "97355",
        "country": "France",
        "country_code": "fr"
      },
      "address": "291, Résidence la Rougerie, Cayenne, 97355 French Guiana, French Guiana"
    },
    {
      "lat": 4.91505773664674,
      "lon": -52.31613624556818,
      "geoinfo": {
        "display_name": "44, Rue de l'Arbre à Pain, Lotissement Jasmin, Cayenne, French Guiana, 97300, France",
        "road": "Rue de l'Arbre à Pain",
        "house_number": "44",
        "neighbourhood": "Lotissement Jasmin",
        "suburb": null,
        "city_district": null,
        "city": "Cayenne",
        "state": "French Guiana",
        "postcode": "97300",
        "country": "France",
        "country_code": "fr"
      },
      "address": "44, Rue de l'Arbre à Pain, Cayenne, 97300 French Guiana, French Guiana"
    },
    {
      "lat": 4.966549177518514,
      "lon": -52.367910539142635,
      "geoinfo": {
        "display_name": "French Guiana, France",
        "road": null,
        "house_number": null,
        "neighbourhood": null,
        "suburb": null,
        "city_district": null,
        "city": null,
        "state": "French Guiana",
        "postcode": null,
        "country": "France",
        "country_code": "fr"
      },
      "address": "144, Cayenne, 60528 French Guiana, French Guiana"
    },
    {
      "lat": 4.957998993205652,
      "lon": -52.31431557030252,
      "geoinfo": {
        "display_name": "Résidence Auguste Horth, Cayenne, French Guiana, 97300, France",
        "road": null,
        "house_number": null,
        "neighbourhood": "Résidence Auguste Horth",
        "suburb": null,
        "city_district": null,
        "city": "Cayenne",
        "state": "French Guiana",
        "postcode": "97300",
        "country": "France",
        "country_code": "fr"
      },
      "address": "481, Résidence Auguste Horth, Cayenne, 97300 French Guiana, French Guiana"
    },
    {
      "lat": 4.9641823759269315,
      "lon": -52.316722454009685,
      "geoinfo": {
        "display_name": "Résidence Auguste Horth, Cayenne, French Guiana, 97300, France",
        "road": null,
        "house_number": null,
        "neighbourhood": "Résidence Auguste Horth",
        "suburb": null,
        "city_district": null,
        "city": "Cayenne",
        "state": "French Guiana",
        "postcode": "97300",
        "country": "France",
        "country_code": "fr"
      },
      "address": "328, Résidence Auguste Horth, Cayenne, 97300 French Guiana, French Guiana"
    },
    {
      "lat": 4.949602162996019,
      "lon": -52.34793023143492,
      "geoinfo": {
        "display_name": "Pointe Saint-Joseph, Inini, Cayenne, French Guiana, 97300, France",
        "road": null,
        "house_number": null,
        "neighbourhood": "Inini",
        "suburb": null,
        "city_district": null,
        "city": "Cayenne",
        "state": "French Guiana",
        "postcode": "97300",
        "country": "France",
        "country_code": "fr"
      },
      "address": "747, Inini, Cayenne, 97300 French Guiana, French Guiana"
    },
    {
      "lat": 4.963111977078305,
      "lon": -52.32825136917026,
      "geoinfo": {
        "display_name": "French Guiana, France",
        "road": null,
        "house_number": null,
        "neighbourhood": null,
        "suburb": null,
        "city_district": null,
        "city": null,
        "state": "French Guiana",
        "postcode": null,
        "country": "France",
        "country_code": "fr"
      },
      "address": "453, Cayenne, 48968 French Guiana, French Guiana"
    },
    {
      "lat": 4.9387969398708105,
      "lon": -52.34006677513113,
      "geoinfo": {
        "display_name": "Vieux Port, Inini, Cayenne, French Guiana, 97300, France",
        "road": "Vieux Port",
        "house_number": null,
        "neighbourhood": "Inini",
        "suburb": null,
        "city_district": null,
        "city": "Cayenne",
        "state": "French Guiana",
        "postcode": "97300",
        "country": "France",
        "country_code": "fr"
      },
      "address": "721, Vieux Port, Cayenne, 97300 French Guiana, French Guiana"
    },
    {
      "lat": 4.930183440997543,
      "lon": -52.31343775732933,
      "geoinfo": {
        "display_name": "954, Avenue Mère Teresa, Lotissement Hidair, Cayenne, French Guiana, 97300, France",
        "road": "Avenue Mère Teresa",
        "house_number": "954",
        "neighbourhood": "Lotissement Hidair",
        "suburb": null,
        "city_district": null,
        "city": "Cayenne",
        "state": "French Guiana",
        "postcode": "97300",
        "country": "France",
        "country_code": "fr"
      },
      "address": "954, Avenue Mère Teresa, Cayenne, 97300 French Guiana, French Guiana"
    },
    {
      "lat": 4.913253346018432,
      "lon": -52.30663376009996,
      "geoinfo": {
        "display_name": "Piscine du Tigre, Allée des Harpies, Remire-Montjoly, Cayenne, French Guiana, 97354, France",
        "road": "Allée des Harpies",
        "house_number": null,
        "neighbourhood": null,
        "suburb": null,
        "city_district": null,
        "city": "Remire-Montjoly",
        "state": "French Guiana",
        "postcode": "97354",
        "country": "France",
        "country_code": "fr"
      },
      "address": "991, Allée des Harpies, Cayenne, 97354 French Guiana, French Guiana"
    },
    {
      "lat": 4.967852906193141,
      "lon": -52.3356668221794,
      "geoinfo": {
        "display_name": "French Guiana, France",
        "road": null,
        "house_number": null,
        "neighbourhood": null,
        "suburb": null,
        "city_district": null,
        "city": null,
        "state": "French Guiana",
        "postcode": null,
        "country": "France",
        "country_code": "fr"
      },
      "address": "893, Cayenne, 78750 French Guiana, French Guiana"
    },
    {
      "lat": 4.974052334769397,
      "lon": -52.35852364161817,
      "geoinfo": {
        "display_name": "French Guiana, France",
        "road": null,
        "house_number": null,
        "neighbourhood": null,
        "suburb": null,
        "city_district": null,
        "city": null,
        "state": "French Guiana",
        "postcode": null,
        "country": "France",
        "country_code": "fr"
      },
      "address": "224, Cayenne, 15161 French Guiana, French Guiana"
    },
    {
      "lat": 4.929666752621967,
      "lon": -52.293080049428106,
      "geoinfo": {
        "display_name": "7, Impasse Zabulon, Lotissement Zabulon, Cayenne, French Guiana, 97300, France",
        "road": "Impasse Zabulon",
        "house_number": "7",
        "neighbourhood": "Lotissement Zabulon",
        "suburb": null,
        "city_district": null,
        "city": "Cayenne",
        "state": "French Guiana",
        "postcode": "97300",
        "country": "France",
        "country_code": "fr"
      },
      "address": "7, Impasse Zabulon, Cayenne, 97300 French Guiana, French Guiana"
    },
    {
      "lat": 4.967421541926727,
      "lon": -52.359656449150464,
      "geoinfo": {
        "display_name": "French Guiana, France",
        "road": null,
        "house_number": null,
        "neighbourhood": null,
        "suburb": null,
        "city_district": null,
        "city": null,
        "state": "French Guiana",
        "postcode": null,
        "country": "France",
        "country_code": "fr"
      },
      "address": "264, Cayenne, 06317 French Guiana, French Guiana"
    },
    {
      "lat": 4.913129953345688,
      "lon": -52.309794010989904,
      "geoinfo": {
        "display_name": "Camp La Verdure, Route du Tigre, Cayenne, French Guiana, 97354, France",
        "road": "Route du Tigre",
        "house_number": null,
        "neighbourhood": null,
        "suburb": null,
        "city_district": null,
        "city": "Cayenne",
        "state": "French Guiana",
        "postcode": "97354",
        "country": "France",
        "country_code": "fr"
      },
      "address": "454, Route du Tigre, Cayenne, 97354 French Guiana, French Guiana"
    },
    {
      "lat": 4.97748700678484,
      "lon": -52.33643891608576,
      "geoinfo": {
        "display_name": "French Guiana, France",
        "road": null,
        "house_number": null,
        "neighbourhood": null,
        "suburb": null,
        "city_district": null,
        "city": null,
        "state": "French Guiana",
        "postcode": null,
        "country": "France",
        "country_code": "fr"
      },
      "address": "090, Cayenne, 48149 French Guiana, French Guiana"
    },
    {
      "lat": 4.96681374902657,
      "lon": -52.366788251804536,
      "geoinfo": {
        "display_name": "French Guiana, France",
        "road": null,
        "house_number": null,
        "neighbourhood": null,
        "suburb": null,
        "city_district": null,
        "city": null,
        "state": "French Guiana",
        "postcode": null,
        "country": "France",
        "country_code": "fr"
      },
      "address": "763, Cayenne, 98982 French Guiana, French Guiana"
    },
    {
      "lat": 4.976226676719586,
      "lon": -52.31576423336897,
      "geoinfo": {
        "display_name": "French Guiana, France",
        "road": null,
        "house_number": null,
        "neighbourhood": null,
        "suburb": null,
        "city_district": null,
        "city": null,
        "state": "French Guiana",
        "postcode": null,
        "country": "France",
        "country_code": "fr"
      },
      "address": "560, Cayenne, 35574 French Guiana, French Guiana"
    },
    {
      "lat": 4.9590582209324205,
      "lon": -52.36525810118562,
      "geoinfo": {
        "display_name": "French Guiana, France",
        "road": null,
        "house_number": null,
        "neighbourhood": null,
        "suburb": null,
        "city_district": null,
        "city": null,
        "state": "French Guiana",
        "postcode": null,
        "country": "France",
        "country_code": "fr"
      },
      "address": "046, Cayenne, 30952 French Guiana, French Guiana"
    },
    {
      "lat": 4.92418978844562,
      "lon": -52.31468259680941,
      "geoinfo": {
        "display_name": "Rue des Étoiles, Novaparc, Cayenne, French Guiana, 97300, France",
        "road": "Rue des Étoiles",
        "house_number": null,
        "neighbourhood": null,
        "suburb": null,
        "city_district": null,
        "city": "Cayenne",
        "state": "French Guiana",
        "postcode": "97300",
        "country": "France",
        "country_code": "fr"
      },
      "address": "999, Rue des Étoiles, Cayenne, 97300 French Guiana, French Guiana"
    },
    {
      "lat": 4.928353556234244,
      "lon": -52.34310110882782,
      "geoinfo": {
        "display_name": "Place du Marché, Village Chinois, Cayenne, French Guiana, 97300, France",
        "road": null,
        "house_number": null,
        "neighbourhood": null,
        "suburb": null,
        "city_district": null,
        "city": "Cayenne",
        "state": "French Guiana",
        "postcode": "97300",
        "country": "France",
        "country_code": "fr"
      },
      "address": "971, Cayenne, 97300 French Guiana, French Guiana"
    },
    {
      "lat": 4.9425886509074655,
      "lon": -52.34702083012556,
      "geoinfo": {
        "display_name": "Pointe Saint-François, Inini, Cayenne, French Guiana, 97300, France",
        "road": null,
        "house_number": null,
        "neighbourhood": "Inini",
        "suburb": null,
        "city_district": null,
        "city": "Cayenne",
        "state": "French Guiana",
        "postcode": "97300",
        "country": "France",
        "country_code": "fr"
      },
      "address": "745, Inini, Cayenne, 97300 French Guiana, French Guiana"
    },
    {
      "lat": 4.953345620586218,
      "lon": -52.33925916300667,
      "geoinfo": {
        "display_name": "Pointe Saint-Joseph, Inini, Cayenne, French Guiana, 97300, France",
        "road": null,
        "house_number": null,
        "neighbourhood": "Inini",
        "suburb": null,
        "city_district": null,
        "city": "Cayenne",
        "state": "French Guiana",
        "postcode": "97300",
        "country": "France",
        "country_code": "fr"
      },
      "address": "407, Inini, Cayenne, 97300 French Guiana, French Guiana"
    },
    {
      "lat": 4.9393706493412735,
      "lon": -52.30658362965001,
      "geoinfo": {
        "display_name": "Impasse d'Abreu, Résidence Les Pépites, Cayenne, French Guiana, 97300, France",
        "road": "Impasse d'Abreu",
        "house_number": null,
        "neighbourhood": "Résidence Les Pépites",
        "suburb": null,
        "city_district": null,
        "city": "Cayenne",
        "state": "French Guiana",
        "postcode": "97300",
        "country": "France",
        "country_code": "fr"
      },
      "address": "936, Impasse d'Abreu, Cayenne, 97300 French Guiana, French Guiana"
    },
    {
      "lat": 4.911711488590713,
      "lon": -52.33874544493527,
      "geoinfo": {
        "display_name": "Amphithéâtre, Résidence Zénith, Matoury, Cayenne, French Guiana, 97351, France",
        "road": null,
        "house_number": null,
        "neighbourhood": "Résidence Zénith",
        "suburb": null,
        "city_district": null,
        "city": "Matoury",
        "state": "French Guiana",
        "postcode": "97351",
        "country": "France",
        "country_code": "fr"
      },
      "address": "968, Résidence Zénith, Cayenne, 97351 French Guiana, French Guiana"
    },
    {
      "lat": 4.957512786704179,
      "lon": -52.314325431534144,
      "geoinfo": {
        "display_name": "Résidence Auguste Horth, Cayenne, French Guiana, 97300, France",
        "road": null,
        "house_number": null,
        "neighbourhood": "Résidence Auguste Horth",
        "suburb": null,
        "city_district": null,
        "city": "Cayenne",
        "state": "French Guiana",
        "postcode": "97300",
        "country": "France",
        "country_code": "fr"
      },
      "address": "384, Résidence Auguste Horth, Cayenne, 97300 French Guiana, French Guiana"
    },
    {
      "lat": 4.9545119122731585,
      "lon": -52.30189798756439,
      "geoinfo": {
        "display_name": "Chemin Sadeki, Lotissement Mont Joyeux, Cayenne, French Guiana, 97300, France",
        "road": "Chemin Sadeki",
        "house_number": null,
        "neighbourhood": "Lotissement Mont Joyeux",
        "suburb": null,
        "city_district": null,
        "city": "Cayenne",
        "state": "French Guiana",
        "postcode": "97300",
        "country": "France",
        "country_code": "fr"
      },
      "address": "221, Chemin Sadeki, Cayenne, 97300 French Guiana, French Guiana"
    },
    {
      "lat": 4.960385184159919,
      "lon": -52.29985033260359,
      "geoinfo": {
        "display_name": "Lotissement Mont Joyeux, Cayenne, French Guiana, 97300, France",
        "road": null,
        "house_number": null,
        "neighbourhood": "Lotissement Mont Joyeux",
        "suburb": null,
        "city_district": null,
        "city": "Cayenne",
        "state": "French Guiana",
        "postcode": "97300",
        "country": "France",
        "country_code": "fr"
      },
      "address": "740, Lotissement Mont Joyeux, Cayenne, 97300 French Guiana, French Guiana"
    },
    {
      "lat": 4.915310029362913,
      "lon": -52.31171130976609,
      "geoinfo": {
        "display_name": "Route du Tigre, Lotissement Kalimbé, Cayenne, French Guiana, 97300, France",
        "road": "Route du Tigre",
        "house_number": null,
        "neighbourhood": "Lotissement Kalimbé",
        "suburb": null,
        "city_district": null,
        "city": "Cayenne",
        "state": "French Guiana",
        "postcode": "97300",
        "country": "France",
        "country_code": "fr"
      },
      "address": "764, Route du Tigre, Cayenne, 97300 French Guiana, French Guiana"
    },
    {
      "lat": 4.948387841113139,
      "lon": -52.31554030820083,
      "geoinfo": {
        "display_name": "Sentier de Montabo, Lotissement Fruit à Pain, Cayenne, French Guiana, 97300, France",
        "road": "Sentier de Montabo",
        "house_number": null,
        "neighbourhood": "Lotissement Fruit à Pain",
        "suburb": null,
        "city_district": null,
        "city": "Cayenne",
        "state": "French Guiana",
        "postcode": "97300",
        "country": "France",
        "country_code": "fr"
      },
      "address": "883, Sentier de Montabo, Cayenne, 97300 French Guiana, French Guiana"
    },
    {
      "lat": 4.923159644776004,
      "lon": -52.335392238989655,
      "geoinfo": {
        "display_name": "Rue de la Rivière de Cayenne, Cité Mortin, Cayenne, French Guiana, 97300, France",
        "road": "Rue de la Rivière de Cayenne",
        "house_number": null,
        "neighbourhood": "Cité Mortin",
        "suburb": null,
        "city_district": null,
        "city": "Cayenne",
        "state": "French Guiana",
        "postcode": "97300",
        "country": "France",
        "country_code": "fr"
      },
      "address": "180, Rue de la Rivière de Cayenne, Cayenne, 97300 French Guiana, French Guiana"
    },
    {
      "lat": 4.926876480199203,
      "lon": -52.29733083536615,
      "geoinfo": {
        "display_name": "Rue Niagara, Ratier, Lotissement Simarouba, Cayenne, French Guiana, 97300, France",
        "road": "Rue Niagara",
        "house_number": null,
        "neighbourhood": "Ratier",
        "suburb": null,
        "city_district": null,
        "city": "Cayenne",
        "state": "French Guiana",
        "postcode": "97300",
        "country": "France",
        "country_code": "fr"
      },
      "address": "582, Rue Niagara, Cayenne, 97300 French Guiana, French Guiana"
    },
    {
      "lat": 4.951123752128662,
      "lon": -52.33043825574773,
      "geoinfo": {
        "display_name": "Pointe Saint-Joseph, Inini, Cayenne, French Guiana, 97300, France",
        "road": null,
        "house_number": null,
        "neighbourhood": "Inini",
        "suburb": null,
        "city_district": null,
        "city": "Cayenne",
        "state": "French Guiana",
        "postcode": "97300",
        "country": "France",
        "country_code": "fr"
      },
      "address": "273, Inini, Cayenne, 97300 French Guiana, French Guiana"
    },
    {
      "lat": 4.965853414547126,
      "lon": -52.35948143174176,
      "geoinfo": {
        "display_name": "French Guiana, France",
        "road": null,
        "house_number": null,
        "neighbourhood": null,
        "suburb": null,
        "city_district": null,
        "city": null,
        "state": "French Guiana",
        "postcode": null,
        "country": "France",
        "country_code": "fr"
      },
      "address": "131, Cayenne, 08085 French Guiana, French Guiana"
    },
    {
      "lat": 4.941851643179303,
      "lon": -52.34184331688057,
      "geoinfo": {
        "display_name": "Vieux Port, Inini, Cayenne, French Guiana, 97300, France",
        "road": "Vieux Port",
        "house_number": null,
        "neighbourhood": "Inini",
        "suburb": null,
        "city_district": null,
        "city": "Cayenne",
        "state": "French Guiana",
        "postcode": "97300",
        "country": "France",
        "country_code": "fr"
      },
      "address": "382, Vieux Port, Cayenne, 97300 French Guiana, French Guiana"
    },
    {
      "lat": 4.925265655143848,
      "lon": -52.37417734038807,
      "geoinfo": {
        "display_name": "Belle Terre, Macouria, Cayenne, French Guiana, 97355, France",
        "road": null,
        "house_number": null,
        "neighbourhood": null,
        "suburb": null,
        "city_district": null,
        "city": "Macouria",
        "state": "French Guiana",
        "postcode": "97355",
        "country": "France",
        "country_code": "fr"
      },
      "address": "910, Cayenne, 97355 French Guiana, French Guiana"
    },
    {
      "lat": 4.9297620088306005,
      "lon": -52.32743287634997,
      "geoinfo": {
        "display_name": "Centre de Formation d'Apprentis de la Chambre des Métiers de la Guyane, 41, Rue Simon, Zone Artisanale Galmot, Cayenne, French Guiana, 97300, France",
        "road": "Rue Simon",
        "house_number": "41",
        "neighbourhood": "Zone Artisanale Galmot",
        "suburb": null,
        "city_district": null,
        "city": "Cayenne",
        "state": "French Guiana",
        "postcode": "97300",
        "country": "France",
        "country_code": "fr"
      },
      "address": "41, Rue Simon, Cayenne, 97300 French Guiana, French Guiana"
    },
    {
      "lat": 4.9659409278514905,
      "lon": -52.31607607450283,
      "geoinfo": {
        "display_name": "French Guiana, France",
        "road": null,
        "house_number": null,
        "neighbourhood": null,
        "suburb": null,
        "city_district": null,
        "city": null,
        "state": "French Guiana",
        "postcode": null,
        "country": "France",
        "country_code": "fr"
      },
      "address": "720, Cayenne, 12934 French Guiana, French Guiana"
    },
    {
      "lat": 4.897949282922853,
      "lon": -52.334091109199456,
      "geoinfo": {
        "display_name": "Le Bâtiment Guyanais, Route du Larivot, Z. A. Cogneau-Lamirande, Matoury, Cayenne, French Guiana, 97351, France",
        "road": "Route du Larivot",
        "house_number": null,
        "neighbourhood": null,
        "suburb": null,
        "city_district": null,
        "city": "Matoury",
        "state": "French Guiana",
        "postcode": "97351",
        "country": "France",
        "country_code": "fr"
      },
      "address": "462, Route du Larivot, Cayenne, 97351 French Guiana, French Guiana"
    },
    {
      "lat": 4.908169672434876,
      "lon": -52.33098067235942,
      "geoinfo": {
        "display_name": "Impasse des Potofios, Z.I. Collery Ouest, Cayenne, French Guiana, 97300, France",
        "road": "Impasse des Potofios",
        "house_number": null,
        "neighbourhood": null,
        "suburb": null,
        "city_district": null,
        "city": "Cayenne",
        "state": "French Guiana",
        "postcode": "97300",
        "country": "France",
        "country_code": "fr"
      },
      "address": "588, Impasse des Potofios, Cayenne, 97300 French Guiana, French Guiana"
    },
    {
      "lat": 4.965255925441084,
      "lon": -52.36670472278991,
      "geoinfo": {
        "display_name": "French Guiana, France",
        "road": null,
        "house_number": null,
        "neighbourhood": null,
        "suburb": null,
        "city_district": null,
        "city": null,
        "state": "French Guiana",
        "postcode": null,
        "country": "France",
        "country_code": "fr"
      },
      "address": "178, Cayenne, 39432 French Guiana, French Guiana"
    }
  ],
  "updated_at": "2025-10-19T04:33:52.739298+00:00",
  "_kind": "geo_samples"
}