{
  "country_code": "GF",
  "country": "French Guiana",
  "city": "Kourou",
  "geonameid": 3381303,
  "target_addresses": 20,
  "samples": [
    {
      "lat": 5.159131270394715,
      "lon": -52.64321798435748,
      "geoinfo": {
        "display_name": "Place Malouet, Goupi, Kourou, Cayenne, French Guiana, 97310, France",
        "road": "Place Malouet",
        "house_number": null,
        "neighbourhood": "Goupi",
        "suburb": null,
        "city_district": null,
        "city": "Kourou",
        "state": "French Guiana",
        "postcode": "97310",
        "country": "France",
        "country_code": "fr"
      },
      "address": "Place Malouet, Kourou, French Guiana, French Guiana"
    },
    {
      "lat": 5.176191744201374,
      "lon": -52.59965834902791,
      "geoinfo": {
        "display_name": "French Guiana, France",
        "road": null,
        "house_number": null,
        "neighbourhood": null,
        "suburb": null,
        "city_district": null,
        "city": null,
        "state": "French Guiana",
        "postcode": null,
        "country": "France",
        "country_code": "fr"
      },
      "address": "Kourou, French Guiana, French Guiana"
    },
    {
      "lat": 5.153970430540418,
      "lon": -52.68409559304916,
      "geoinfo": {
        "display_name": "N 1, Kourou, Cayenne, French Guiana, 97310, France",
        "road": "N 1",
        "house_number": null,
        "neighbourhood": null,
        "suburb": null,
        "city_district": null,
        "city": "Kourou",
        "state": "French Guiana",
        "postcode": "97310",
        "country": "France",
        "country_code": "fr"
      },
      "address": "N 1, Kourou, French Guiana, French Guiana"
    },
    {
      "lat": 5.1588473711263685,
      "lon": -52.66889047566676,
      "geoinfo": {
        "display_name": "17, Rue Zénobe Gramme, Zone industrielle de Pariacabo, Kourou, Cayenne, French Guiana, 97310, France",
        "road": "Rue Zénobe Gramme",
        "house_number": "17",
        "neighbourhood": null,
        "suburb": null,
        "city_district": null,
        "city": "Kourou",
        "state": "French Guiana",
        "postcode": "97310",
        "country": "France",
        "country_code": "fr"
      },
      "address": "17 Rue Zénobe Gramme, Kourou, French Guiana, French Guiana"
    },
    {
      "lat": 5.163562283494439,
      "lon": -52.631697327995965,
      "geoinfo": {
        "display_name": "Avenue des Roches, Quartier des Roches, Kourou, Cayenne, French Guiana, 97310, France",
        "road": "Avenue des Roches",
        "house_number": null,
        "neighbourhood": "Quartier des Roches",
        "suburb": null,
        "city_district": null,
        "city": "Kourou",
        "state": "French Guiana",
        "postcode": "97310",
        "country": "France",
        "country_code": "fr"
      },
      "address": "Avenue des Roches, Kourou, French Guiana, French Guiana"
    },
    {
      "lat": 5.1593218488569885,
      "lon": -52.67505562548249,
      "geoinfo": {
        "display_name": "Route du Dégrad Saramaca, Zone industrielle de Pariacabo, Kourou, Cayenne, French Guiana, 97310, France",
        "road": "Route du Dégrad Saramaca",
        "house_number": null,
        "neighbourhood": null,
        "suburb": null,
        "city_district": null,
        "city": "Kourou",
        "state": "French Guiana",
        "postcode": "97310",
        "country": "France",
        "country_code": "fr"
      },
      "address": "Route du Dégrad Saramaca, Kourou, French Guiana, French Guiana"
    },
    {
      "lat": 5.148638477553975,
      "lon": -52.67756387976917,
      "geoinfo": {
        "display_name": "Accès Centre de Loisirs Pariacabo, Kourou, Cayenne, French Guiana, 97310, France",
        "road": "Accès Centre de Loisirs Pariacabo",
        "house_number": null,
        "neighbourhood": null,
        "suburb": null,
        "city_district": null,
        "city": "Kourou",
        "state": "French Guiana",
        "postcode": "97310",
        "country": "France",
        "country_code": "fr"
      },
      "address": "Accès Centre de Loisirs Pariacabo, Kourou, French Guiana, French Guiana"
    },
    {
      "lat": 5.157076291181534,
      "lon": -52.63432202445428,
      "geoinfo": {
        "display_name": "122, Boulevard Emmanuel Bellony, Quartier des Roches, Kourou, Cayenne, French Guiana, 97310, France",
        "road": "Boulevard Emmanuel Bellony",
        "house_number": "122",
        "neighbourhood": "Quartier des Roches",
        "suburb": null,
        "city_district": null,
        "city": "Kourou",
        "state": "French Guiana",
        "postcode": "97310",
        "country": "France",
        "country_code": "fr"
      },
      "address": "122 Boulevard Emmanuel Bellony, Kourou, French Guiana, French Guiana"
    },
    {
      "lat": 5.17134998954225,
      "lon": -52.65944170714987,
      "geoinfo": {
        "display_name": "Collège Joseph Ho-Ten-You, Avenue Léopold Sédar Senghor, Quartier de Saint-Exupéry, Kourou, Cayenne, French Guiana, 97310, France",
        "road": "Avenue Léopold Sédar Senghor",
        "house_number": null,
        "neighbourhood": "Quartier de Saint-Exupéry",
        "suburb": null,
        "city_district": null,
        "city": "Kourou",
        "state": "French Guiana",
        "postcode": "97310",
        "country": "France",
        "country_code": "fr"
      },
      "address": "Avenue Léopold Sédar Senghor, Kourou, French Guiana, French Guiana"
    },
    {
      "lat": 5.141823918650473,
      "lon": -52.64863014152655,
      "geoinfo": {
        "display_name": "Cité Lumière 2, Kourou, Cayenne, French Guiana, 97310, France",
        "road": null,
        "house_number": null,
        "neighbourhood": "Cité Lumière 2",
        "suburb": null,
        "city_district": null,
        "city": "Kourou",
        "state": "French Guiana",
        "postcode": "97310",
        "country": "France",
        "country_code": "fr"
      },
      "address": "Cité Lumière 2, Kourou, French Guiana, French Guiana"
    },
    {
      "lat": 5.18433240910097,
      "lon": -52.657154798219416,
      "geoinfo": {
        "display_name": "Rue François Thomas, Quartier de Saint-Exupéry, Kourou, Cayenne, French Guiana, 97310, France",
        "road": "Rue François Thomas",
        "house_number": null,
        "neighbourhood": "Quartier de Saint-Exupéry",
        "suburb": null,
        "city_district": null,
        "city": "Kourou",
        "state": "French Guiana",
        "postcode": "97310",
        "country": "France",
        "country_code": "fr"
      },
      "address": "Rue François Thomas, Kourou, French Guiana, French Guiana"
    },
    {
      "lat": 5.168826188235822,
      "lon": -52.652341928598936,
      "geoinfo": {
        "display_name": "3, Rue Jean Paul Sartre, Quartier Monnerville, Kourou, Cayenne, French Guiana, 97310, France",
        "road": "Rue Jean Paul Sartre",
        "house_number": "3",
        "neighbourhood": "Quartier Monnerville",
        "suburb": null,
        "city_district": null,
        "city": "Kourou",
        "state": "French Guiana",
        "postcode": "97310",
        "country": "France",
        "country_code": "fr"
      },
      "address": "3 Rue Jean Paul Sartre, Kourou, French Guiana, French Guiana"
    },
    {
      "lat": 5.189393798056093,
      "lon": -52.64733964328099,
      "geoinfo": {
        "display_name": "Quartier de l'Anse, Kourou, Cayenne, French Guiana, 97310, France",
        "road": null,
        "house_number": null,
        "neighbourhood": "Quartier de l'Anse",
        "suburb": null,
        "city_district": null,
        "city": "Kourou",
        "state": "French Guiana",
        "postcode": "97310",
        "country": "France",
        "country_code": "fr"
      },
      "address": "Quartier de l'Anse, Kourou, French Guiana, French Guiana"
    },
    {
      "lat": 5.127065245219639,
      "lon": -52.616410141141756,
      "geoinfo": {
        "display_name": "Route de Guatemala, Guatemala, Kourou, Cayenne, French Guiana, 97310, France",
        "road": "Route de Guatemala",
        "house_number": null,
        "neighbourhood": null,
        "suburb": null,
        "city_district": null,
        "city": "Kourou",
        "state": "French Guiana",
        "postcode": "97310",
        "country": "France",
        "country_code": "fr"
      },
      "address": "Route de Guatemala, Kourou, French Guiana, French Guiana"
    },
    {
      "lat": 5.187304951542991,
      "lon": -52.6564414738994,
      "geoinfo": {
        "display_name": "Quartier de Saint-Exupéry, Kourou, Cayenne, French Guiana, 97310, France",
        "road": null,
        "house_number": null,
        "neighbourhood": "Quartier de Saint-Exupéry",
        "suburb": null,
        "city_district": null,
        "city": "Kourou",
        "state": "French Guiana",
        "postcode": "97310",
        "country": "France",
        "country_code": "fr"
      },
      "address": "Quartier de Saint-Exupéry, Kourou, French Guiana, French Guiana"
    },
    {
      "lat": 5.173341643832815,
      "lon": -52.65320739973011,
      "geoinfo": {
        "display_name": "AgroParisTech, Sentier botanique, Quartier Monnerville, Kourou, Cayenne, French Guiana, 97310, France",
        "road": "Sentier botanique",
        "house_number": null,
        "neighbourhood": "Quartier Monnerville",
        "suburb": null,
        "city_district": null,
        "city": "Kourou",
        "state": "French Guiana",
        "postcode": "97310",
        "country": "France",
        "country_code": "fr"
      },
      "address": "Sentier botanique, Kourou, French Guiana, French Guiana"
    },
    {
      "lat": 5.161014380729851,
      "lon": -52.63309505161265,
      "geoinfo": {
        "display_name": "6, Rue Toussaint Louverture, Quartier des Roches, Kourou, Cayenne, French Guiana, 97310, France",
        "road": "Rue Toussaint Louverture",
        "house_number": "6",
        "neighbourhood": "Quartier des Roches",
        "suburb": null,
        "city_district": null,
        "city": "Kourou",
        "state": "French Guiana",
        "postcode": "97310",
        "country": "France",
        "country_code": "fr"
      },
      "address": "6 Rue Toussaint Louverture, Kourou, French Guiana, French Guiana"
    },
    {
      "lat": 5.17503899182338,
      "lon": -52.6364442104828,
      "geoinfo": {
        "display_name": "La Pointe Pollux, Cité Koualis, Kourou, Cayenne, French Guiana, 97310, France",
        "road": null,
        "house_number": null,
        "neighbourhood": "Cité Koualis",
        "suburb": null,
        "city_district": null,
        "city": "Kourou",
        "state": "French Guiana",
        "postcode": "97310",
        "country": "France",
        "country_code": "fr"
      },
      "address": "Cité Koualis, Kourou, French Guiana, French Guiana"
    },
    {
      "lat": 5.15425353296733,
      "lon": -52.637523472401455,
      "geoinfo": {
        "display_name": "16, Impasse Pripri, Village Saramaca, Kourou, Cayenne, French Guiana, 97310, France",
        "road": "Impasse Pripri",
        "house_number": "16",
        "neighbourhood": "Village Saramaca",
        "suburb": null,
        "city_district": null,
        "city": "Kourou",
        "state": "French Guiana",
        "postcode": "97310",
        "country": "France",
        "country_code": "fr"
      },
      "address": "16 Impasse Pripri, Kourou, French Guiana, French Guiana"
    },
    {
      "lat": 5.17452434320506,
      "lon": -52.654998706687415,
      "geoinfo": {
        "display_name": "12, Avenue Léon Gontran Damas, Résidence, Kourou, Cayenne, French Guiana, 97310, France",
        "road": "Avenue Léon Gontran Damas",
        "house_number": "12",
        "neighbourhood": null,
        "suburb": null,
        "city_district": null,
        "city": "Kourou",
        "state": "French Guiana",
        "postcode": "97310",
        "country": "France",
        "country_code": "fr"
      },
      "address": "12 Avenue Léon Gontran Damas, Kourou, French Guiana, French Guiana"
    },
    {
      "lat": 5.1750663815039974,
      "lon": -52.67095971913056,
      "geoinfo": {
        "display_name": "Sentier du Golf, Quartier de Saint-Exupéry, Kourou, Cayenne, French Guiana, 97310, France",
        "road": "Sentier du Golf",
        "house_number": null,
        "neighbourhood": "Quartier de Saint-Exupéry",
        "suburb": null,
        "city_district": null,
        "city": "Kourou",
        "state": "French Guiana",
        "postcode": "97310",
        "country": "France",
        "country_code": "fr"
      },
      "address": "648, Sentier du Golf, Kourou, 97310 French Guiana, French Guiana"
    },
    {
      "lat": 5.127254962245532,
      "lon": -52.65832048757105,
      "geoinfo": {
        "display_name": "N 1, Kourou, Cayenne, French Guiana, 97310, France",
        "road": "N 1",
        "house_number": null,
        "neighbourhood": null,
        "suburb": null,
        "city_district": null,
        "city": "Kourou",
        "state": "French Guiana",
        "postcode": "97310",
        "country": "France",
        "country_code": "fr"
      },
      "address": "N 1, Kourou, 97310 French Guiana, French Guiana"
    },
    {
      "lat": 5.160226879313801,
      "lon": -52.641456713344134,
      "geoinfo": {
        "display_name": "18, Rue Serjus Canut, Cité Awara, Kourou, Cayenne, French Guiana, 97310, France",
        "road": "Rue Serjus Canut",
        "house_number": "18",
        "neighbourhood": "Cité Awara",
        "suburb": null,
        "city_district": null,
        "city": "Kourou",
        "state": "French Guiana",
        "postcode": "97310",
        "country": "France",
        "country_code": "fr"
      },
      "address": "18, Rue Serjus Canut, Kourou, 97310 French Guiana, French Guiana"
    },
    {
      "lat": 5.174304870873163,
      "lon": -52.6283709291115,
      "geoinfo": {
        "display_name": "La Pointe de l'État Major, Quartier des Roches, Kourou, Cayenne, French Guiana, 97310, France",
        "road": null,
        "house_number": null,
        "neighbourhood": "Quartier des Roches",
        "suburb": null,
        "city_district": null,
        "city": "Kourou",
        "state": "French Guiana",
        "postcode": "97310",
        "country": "France",
        "country_code": "fr"
      },
      "address": "254, Quartier des Roches, Kourou, 97310 French Guiana, French Guiana"
    },
    {
      "lat": 5.192597672326887,
      "lon": -52.651420096706914,
      "geoinfo": {
        "display_name": "Quartier de l'Anse, Kourou, Cayenne, French Guiana, 97310, France",
        "road": null,
        "house_number": null,
        "neighbourhood": "Quartier de l'Anse",
        "suburb": null,
        "city_district": null,
        "city": "Kourou",
        "state": "French Guiana",
        "postcode": "97310",
        "country": "France",
        "country_code": "fr"
      },
      "address": "376, Quartier de l'Anse, Kourou, 97310 French Guiana, French Guiana"
    },
    {
      "lat": 5.1673906444415865,
      "lon": -52.63598761943007,
      "geoinfo": {
        "display_name": "Avenue Félix Eboué, Cité Amarylis 1, Kourou, Cayenne, French Guiana, 97310, France",
        "road": "Avenue Félix Eboué",
        "house_number": null,
        "neighbourhood": "Cité Amarylis 1",
        "suburb": null,
        "city_district": null,
        "city": "Kourou",
        "state": "French Guiana",
        "postcode": "97310",
        "country": "France",
        "country_code": "fr"
      },
      "address": "181, Avenue Félix Eboué, Kourou, 97310 French Guiana, French Guiana"
    },
    {
      "lat": 5.142932810041335,
      "lon": -52.65957548212643,
      "geoinfo": {
        "display_name": "Cité Lumière 2, Kourou, Cayenne, French Guiana, 97310, France",
        "road": null,
        "house_number": null,
        "neighbourhood": "Cité Lumière 2",
        "suburb": null,
        "city_district": null,
        "city": "Kourou",
        "state": "French Guiana",
        "postcode": "97310",
        "country": "France",
        "country_code": "fr"
      },
      "address": "Cité Lumière 2, Kourou, 97310 French Guiana, French Guiana"
    },
    {
      "lat": 5.122489129638686,
      "lon": -52.633345545479585,
      "geoinfo": {
        "display_name": "Montagne des Pères, Kourou, Cayenne, French Guiana, 97310, France",
        "road": null,
        "house_number": null,
        "neighbourhood": null,
        "suburb": null,
        "city_district": null,
        "city": "Kourou",
        "state": "French Guiana",
        "postcode": "97310",
        "country": "France",
        "country_code": "fr"
      },
      "address": "015, Kourou, 97310 French Guiana, French Guiana"
    },
    {
      "lat": 5.198038972819326,
      "lon": -52.65937139734341,
      "geoinfo": {
        "display_name": "French Guiana, France",
        "road": null,
        "house_number": null,
        "neighbourhood": null,
        "suburb": null,
        "city_district": null,
        "city": null,
        "state": "French Guiana",
        "postcode": null,
        "country": "France",
        "country_code": "fr"
      },
      "address": "562, Kourou, 05671 French Guiana, French Guiana"
    },
    {
      "lat": 5.152950113274297,
      "lon": -52.679663216761796,
      "geoinfo": {
        "display_name": "Accès Centre de Loisirs Pariacabo, Kourou, Cayenne, French Guiana, 97310, France",
        "road": "Accès Centre de Loisirs Pariacabo",
        "house_number": null,
        "neighbourhood": null,
        "suburb": null,
        "city_district": null,
        "city": "Kourou",
        "state": "French Guiana",
        "postcode": "97310",
        "country": "France",
        "country_code": "fr"
      },
      "address": "318, Accès Centre de Loisirs Pariacabo, Kourou, 97310 French Guiana, French Guiana"
    },
    {
      "lat": 5.131897814921232,
      "lon": -52.628201772662386,
      "geoinfo": {
        "display_name": "Guatemala, Kourou, Cayenne, French Guiana, 97310, France",
        "road": null,
        "house_number": null,
        "neighbourhood": null,
        "suburb": null,
        "city_district": null,
        "city": "Kourou",
        "state": "French Guiana",
        "postcode": "97310",
        "country": "France",
        "country_code": "fr"
      },
      "address": "465, Kourou, 97310 French Guiana, French Guiana"
    },
    {
      "lat": 5.189114422740299,
      "lon": -52.661267308596,
      "geoinfo": {
        "display_name": "Quartier de Saint-Exupéry, Kourou, Cayenne, French Guiana, 97310, France",
        "road": null,
        "house_number": null,
        "neighbourhood": "Quartier de Saint-Exupéry",
        "suburb": null,
        "city_district": null,
        "city": "Kourou",
        "state": "French Guiana",
        "postcode": "97310",
        "country": "France",
        "country_code": "fr"
      },
      "address": "282, Quartier de Saint-Exupéry, Kourou, 97310 French Guiana, French Guiana"
    },
    {
      "lat": 5.153466153978498,
      "lon": -52.621268925774174,
      "geoinfo": {
        "display_name": "La Pointe des Roches, Kourou, Cayenne, French Guiana, 97310, France",
        "road": null,
        "house_number": null,
        "neighbourhood": null,
        "suburb": null,
        "city_district": null,
        "city": "Kourou",
        "state": "French Guiana",
        "postcode": "97310",
        "country": "France",
        "country_code": "fr"
      },
      "address": "569, Kourou, 97310 French Guiana, French Guiana"
    },
    {
      "lat": 5.131516526399016,
      "lon": -52.674444442455346,
      "geoinfo": {
        "display_name": "Kourou, Cayenne, French Guiana, 97310, France",
        "road": null,
        "house_number": null,
        "neighbourhood": null,
        "suburb": null,
        "city_district": null,
        "city": "Kourou",
        "state": "French Guiana",
        "postcode": "97310",
        "country": "France",
        "country_code": "fr"
      },
      "address": "567, Kourou, 97310 French Guiana, French Guiana"
    },
    {
      "lat": 5.139511646124059,
      "lon": -52.61406143439316,
      "geoinfo": {
        "display_name": "Guatemala, Kourou, Cayenne, French Guiana, 97310, France",
        "road": null,
        "house_number": null,
        "neighbourhood": null,
        "suburb": null,
        "city_district": null,
        "city": "Kourou",
        "state": "French Guiana",
        "postcode": "97310",
        "country": "France",
        "country_code": "fr"
      },
      "address": "596, Kourou, 97310 French Guiana, French Guiana"
    },
    {
      "lat": 5.180101224788438,
      "lon": -52.64502492267179,
      "geoinfo": {
        "display_name": "Avenue de l'Anse, Quartier de l'Anse, Kourou, Cayenne, French Guiana, 97310, France",
        "road": "Avenue de l'Anse",
        "house_number": null,
        "neighbourhood": "Quartier de l'Anse",
        "suburb": null,
        "city_district": null,
        "city": "Kourou",
        "state": "French Guiana",
        "postcode": "97310",
        "country": "France",
        "country_code": "fr"
      },
      "address": "555, Avenue de l'Anse, Kourou, 97310 French Guiana, French Guiana"
    },
    {
      "lat": 5.190514535894006,
      "lon": -52.67795940591031,
      "geoinfo": {
        "display_name": "Kourou, Cayenne, French Guiana, 97310, France",
        "road": null,
        "house_number": null,
        "neighbourhood": null,
        "suburb": null,
        "city_district": null,
        "city": "Kourou",
        "state": "French Guiana",
        "postcode": "97310",
        "country": "France",
        "country_code": "fr"
      },
      "address": "221, Kourou, 97310 French Guiana, French Guiana"
    },
    {
      "lat": 5.177443882290954,
      "lon": -52.6814989937727,
      "geoinfo": {
        "display_name": "Kourou, Cayenne, French Guiana, 97310, France",
        "road": null,
        "house_number": null,
        "neighbourhood": null,
        "suburb": null,
        "city_district": null,
        "city": "Kourou",
        "state": "French Guiana",
        "postcode": "97310",
        "country": "France",
        "country_code": "fr"
      },
      "address": "766, Kourou, 97310 French Guiana, French Guiana"
    }
  ],
  "updated_at": "2025-10-19T02:28:22.208550+00:00",
  "_kind": "geo_samples"
}