{
  "country_code": "GF",
  "country": "French Guiana",
  "city": "Matoury",
  "geonameid": 3380965,
  "target_addresses": 20,
  "samples": [
    {
      "lat": 4.884470032415777,
      "lon": -52.3399856163313,
      "geoinfo": {
        "display_name": "Rue Kalina, Balata Ouest, Matoury, Cayenne, French Guiana, 97351, France",
        "road": "Rue Kalina",
        "house_number": null,
        "neighbourhood": null,
        "suburb": null,
        "city_district": null,
        "city": "Matoury",
        "state": "French Guiana",
        "postcode": "97351",
        "country": "France",
        "country_code": "fr"
      },
      "address": "Rue Kalina, Matoury, French Guiana, French Guiana"
    },
    {
      "lat": 4.882047182835328,
      "lon": -52.32511894445241,
      "geoinfo": {
        "display_name": "Impasse du Labourage, Cogneau Lamirande, Matoury, Cayenne, French Guiana, 97351, France",
        "road": "Impasse du Labourage",
        "house_number": null,
        "neighbourhood": null,
        "suburb": null,
        "city_district": null,
        "city": "Matoury",
        "state": "French Guiana",
        "postcode": "97351",
        "country": "France",
        "country_code": "fr"
      },
      "address": "Impasse du Labourage, Matoury, French Guiana, French Guiana"
    },
    {
      "lat": 4.822675698797467,
      "lon": -52.339433958879916,
      "geoinfo": {
        "display_name": "Rue Joseph Belony, Matoury, Cayenne, French Guiana, 97351, France",
        "road": "Rue Joseph Belony",
        "house_number": null,
        "neighbourhood": null,
        "suburb": null,
        "city_district": null,
        "city": "Matoury",
        "state": "French Guiana",
        "postcode": "97351",
        "country": "France",
        "country_code": "fr"
      },
      "address": "Rue Joseph Belony, Matoury, French Guiana, French Guiana"
    },
    {
      "lat": 4.8363112119783365,
      "lon": -52.35271259876978,
      "geoinfo": {
        "display_name": "Collège Maurice Dumesnil, Rue Jean Mermoz, Concorde, Matoury, Cayenne, French Guiana, 97351, France",
        "road": "Rue Jean Mermoz",
        "house_number": null,
        "neighbourhood": null,
        "suburb": null,
        "city_district": null,
        "city": "Matoury",
        "state": "French Guiana",
        "postcode": "97351",
        "country": "France",
        "country_code": "fr"
      },
      "address": "Rue Jean Mermoz, Matoury, French Guiana, French Guiana"
    },
    {
      "lat": 4.860710951300021,
      "lon": -52.36622005974287,
      "geoinfo": {
        "display_name": "La Fontaine, Matoury, Cayenne, French Guiana, 97351, France",
        "road": null,
        "house_number": null,
        "neighbourhood": null,
        "suburb": null,
        "city_district": null,
        "city": "Matoury",
        "state": "French Guiana",
        "postcode": "97351",
        "country": "France",
        "country_code": "fr"
      },
      "address": "Matoury, French Guiana, French Guiana"
    },
    {
      "lat": 4.833789393125628,
      "lon": -52.32097422072981,
      "geoinfo": {
        "display_name": "Chemin de la Levée, La Valère, Matoury, Cayenne, French Guiana, 97351, France",
        "road": "Chemin de la Levée",
        "house_number": null,
        "neighbourhood": null,
        "suburb": null,
        "city_district": null,
        "city": "Matoury",
        "state": "French Guiana",
        "postcode": "97351",
        "country": "France",
        "country_code": "fr"
      },
      "address": "Chemin de la Levée, Matoury, French Guiana, French Guiana"
    },
    {
      "lat": 4.854328748585038,
      "lon": -52.311388624743664,
      "geoinfo": {
        "display_name": "La Matourienne, Barbadine, Matoury, Cayenne, French Guiana, 97351, France",
        "road": "La Matourienne",
        "house_number": null,
        "neighbourhood": null,
        "suburb": null,
        "city_district": null,
        "city": "Matoury",
        "state": "French Guiana",
        "postcode": "97351",
        "country": "France",
        "country_code": "fr"
      },
      "address": "La Matourienne, Matoury, French Guiana, French Guiana"
    },
    {
      "lat": 4.889042470966445,
      "lon": -52.338716167244876,
      "geoinfo": {
        "display_name": "Rue des Caraïbes, Lotissement Abriba, Matoury, Cayenne, French Guiana, 97351, France",
        "road": "Rue des Caraïbes",
        "house_number": null,
        "neighbourhood": "Lotissement Abriba",
        "suburb": null,
        "city_district": null,
        "city": "Matoury",
        "state": "French Guiana",
        "postcode": "97351",
        "country": "France",
        "country_code": "fr"
      },
      "address": "Rue des Caraïbes, Matoury, French Guiana, French Guiana"
    },
    {
      "lat": 4.84406169871046,
      "lon": -52.3488488580736,
      "geoinfo": {
        "display_name": "Chemin de la Désirée, Lotissement La Cotonnière, Matoury, Cayenne, French Guiana, 97351, France",
        "road": "Chemin de la Désirée",
        "house_number": null,
        "neighbourhood": null,
        "suburb": null,
        "city_district": null,
        "city": "Matoury",
        "state": "French Guiana",
        "postcode": "97351",
        "country": "France",
        "country_code": "fr"
      },
      "address": "Chemin de la Désirée, Matoury, French Guiana, French Guiana"
    },
    {
      "lat": 4.833181338257828,
      "lon": -52.339577520339255,
      "geoinfo": {
        "display_name": "Route de l'Est, Village Indien Sainte-Rose de Lima, Matoury, Cayenne, French Guiana, 97351, France",
        "road": "Route de l'Est",
        "house_number": null,
        "neighbourhood": null,
        "suburb": null,
        "city_district": null,
        "city": "Matoury",
        "state": "French Guiana",
        "postcode": "97351",
        "country": "France",
        "country_code": "fr"
      },
      "address": "Route de l'Est, Matoury, French Guiana, French Guiana"
    },
    {
      "lat": 4.832728184610277,
      "lon": -52.31751881723102,
      "geoinfo": {
        "display_name": "905, Chemin de la Levée, La Valère, Matoury, Cayenne, French Guiana, 97351, France",
        "road": "Chemin de la Levée",
        "house_number": "905",
        "neighbourhood": null,
        "suburb": null,
        "city_district": null,
        "city": "Matoury",
        "state": "French Guiana",
        "postcode": "97351",
        "country": "France",
        "country_code": "fr"
      },
      "address": "905 Chemin de la Levée, Matoury, French Guiana, French Guiana"
    },
    {
      "lat": 4.870595229737108,
      "lon": -52.31899186463399,
      "geoinfo": {
        "display_name": "Rue du Pressoir, Cogneau Lamirande, Matoury, Cayenne, French Guiana, 97351, France",
        "road": "Rue du Pressoir",
        "house_number": null,
        "neighbourhood": null,
        "suburb": null,
        "city_district": null,
        "city": "Matoury",
        "state": "French Guiana",
        "postcode": "97351",
        "country": "France",
        "country_code": "fr"
      },
      "address": "Rue du Pressoir, Matoury, French Guiana, French Guiana"
    },
    {
      "lat": 4.844589460827609,
      "lon": -52.36825063952378,
      "geoinfo": {
        "display_name": "Le Bourg, Matoury, Cayenne, French Guiana, 97351, France",
        "road": null,
        "house_number": null,
        "neighbourhood": null,
        "suburb": "Le Bourg",
        "city_district": null,
        "city": "Matoury",
        "state": "French Guiana",
        "postcode": "97351",
        "country": "France",
        "country_code": "fr"
      },
      "address": "Le Bourg, Matoury, French Guiana, French Guiana"
    },
    {
      "lat": 4.890848037042,
      "lon": -52.33267751731563,
      "geoinfo": {
        "display_name": "Carrefour Balata, Parc d'Activité, Matoury, Cayenne, French Guiana, 97351, France",
        "road": "Carrefour Balata",
        "house_number": null,
        "neighbourhood": null,
        "suburb": null,
        "city_district": null,
        "city": "Matoury",
        "state": "French Guiana",
        "postcode": "97351",
        "country": "France",
        "country_code": "fr"
      },
      "address": "Carrefour Balata, Matoury, French Guiana, French Guiana"
    },
    {
      "lat": 4.844532604774161,
      "lon": -52.321706631487494,
      "geoinfo": {
        "display_name": "Rue Wacapou, Copaya, Le Bourg, Matoury, Cayenne, French Guiana, 97351, France",
        "road": "Rue Wacapou",
        "house_number": null,
        "neighbourhood": null,
        "suburb": "Le Bourg",
        "city_district": null,
        "city": "Matoury",
        "state": "French Guiana",
        "postcode": "97351",
        "country": "France",
        "country_code": "fr"
      },
      "address": "Rue Wacapou, Matoury, French Guiana, French Guiana"
    },
    {
      "lat": 4.857304871846821,
      "lon": -52.31633278049787,
      "geoinfo": {
        "display_name": "Chemin de Gibelin, Barbadines II, Le Bourg, Matoury, Cayenne, French Guiana, 97351, France",
        "road": "Chemin de Gibelin",
        "house_number": null,
        "neighbourhood": null,
        "suburb": "Le Bourg",
        "city_district": null,
        "city": "Matoury",
        "state": "French Guiana",
        "postcode": "97351",
        "country": "France",
        "country_code": "fr"
      },
      "address": "Chemin de Gibelin, Matoury, French Guiana, French Guiana"
    },
    {
      "lat": 4.870406176905486,
      "lon": -52.34732666355473,
      "geoinfo": {
        "display_name": "Boucle Paypayo, Matoury, Cayenne, French Guiana, 97351, France",
        "road": "Boucle Paypayo",
        "house_number": null,
        "neighbourhood": null,
        "suburb": null,
        "city_district": null,
        "city": "Matoury",
        "state": "French Guiana",
        "postcode": "97351",
        "country": "France",
        "country_code": "fr"
      },
      "address": "Boucle Paypayo, Matoury, French Guiana, French Guiana"
    },
    {
      "lat": 4.8664752133171,
      "lon": -52.34299150728255,
      "geoinfo": {
        "display_name": "L'arbre est mort..., Piste Lamirande, Matoury, Cayenne, French Guiana, 97351, France",
        "road": "Piste Lamirande",
        "house_number": null,
        "neighbourhood": null,
        "suburb": null,
        "city_district": null,
        "city": "Matoury",
        "state": "French Guiana",
        "postcode": "97351",
        "country": "France",
        "country_code": "fr"
      },
      "address": "Piste Lamirande, Matoury, French Guiana, French Guiana"
    },
    {
      "lat": 4.871666320922721,
      "lon": -52.32068559958632,
      "geoinfo": {
        "display_name": "Route de la Distillerie, Cogneau Lamirande, Matoury, Cayenne, French Guiana, 97351, France",
        "road": "Route de la Distillerie",
        "house_number": null,
        "neighbourhood": null,
        "suburb": null,
        "city_district": null,
        "city": "Matoury",
        "state": "French Guiana",
        "postcode": "97351",
        "country": "France",
        "country_code": "fr"
      },
      "address": "Route de la Distillerie, Matoury, French Guiana, French Guiana"
    },
    {
      "lat": 4.878458047447351,
      "lon": -52.31930115216053,
      "geoinfo": {
        "display_name": "Rue des Négociants, Cogneau Lamirande, Matoury, Cayenne, French Guiana, 97351, France",
        "road": "Rue des Négociants",
        "house_number": null,
        "neighbourhood": null,
        "suburb": null,
        "city_district": null,
        "city": "Matoury",
        "state": "French Guiana",
        "postcode": "97351",
        "country": "France",
        "country_code": "fr"
      },
      "address": "Rue des Négociants, Matoury, French Guiana, French Guiana"
    },
    {
      "lat": 4.887106927412079,
      "lon": -52.315095689735635,
      "geoinfo": {
        "display_name": "Matoury, Cayenne, French Guiana, 97351, France",
        "road": null,
        "house_number": null,
        "neighbourhood": null,
        "suburb": null,
        "city_district": null,
        "city": "Matoury",
        "state": "French Guiana",
        "postcode": "97351",
        "country": "France",
        "country_code": "fr"
      },
      "address": "431, Matoury, 97351 French Guiana, French Guiana"
    },
    {
      "lat": 4.890453694203135,
      "lon": -52.323555399875566,
      "geoinfo": {
        "display_name": "Matoury, Cayenne, French Guiana, 97351, France",
        "road": null,
        "house_number": null,
        "neighbourhood": null,
        "suburb": null,
        "city_district": null,
        "city": "Matoury",
        "state": "French Guiana",
        "postcode": "97351",
        "country": "France",
        "country_code": "fr"
      },
      "address": "301, Matoury, 97351 French Guiana, French Guiana"
    },
    {
      "lat": 4.82420183366905,
      "lon": -52.293507146050906,
      "geoinfo": {
        "display_name": "Roura, Cayenne, French Guiana, France",
        "road": null,
        "house_number": null,
        "neighbourhood": null,
        "suburb": null,
        "city_district": null,
        "city": "Roura",
        "state": "French Guiana",
        "postcode": null,
        "country": "France",
        "country_code": "fr"
      },
      "address": "882, Matoury, 50637 French Guiana, French Guiana"
    },
    {
      "lat": 4.84118657105697,
      "lon": -52.287261522159966,
      "geoinfo": {
        "display_name": "French Guiana, France",
        "road": null,
        "house_number": null,
        "neighbourhood": null,
        "suburb": null,
        "city_district": null,
        "city": null,
        "state": "French Guiana",
        "postcode": null,
        "country": "France",
        "country_code": "fr"
      },
      "address": "426, Matoury, 37184 French Guiana, French Guiana"
    },
    {
      "lat": 4.811785513616322,
      "lon": -52.345011653451806,
      "geoinfo": {
        "display_name": "Impasse des Aciotis, Résidence Pako, Matoury, Cayenne, French Guiana, 97351, France",
        "road": "Impasse des Aciotis",
        "house_number": null,
        "neighbourhood": "Résidence Pako",
        "suburb": null,
        "city_district": null,
        "city": "Matoury",
        "state": "French Guiana",
        "postcode": "97351",
        "country": "France",
        "country_code": "fr"
      },
      "address": "275, Impasse des Aciotis, Matoury, 97351 French Guiana, French Guiana"
    },
    {
      "lat": 4.836208012577915,
      "lon": -52.3619705468414,
      "geoinfo": {
        "display_name": "Le Califourchon, Concorde, Le Bourg, Matoury, Cayenne, French Guiana, 97351, France",
        "road": null,
        "house_number": null,
        "neighbourhood": null,
        "suburb": "Le Bourg",
        "city_district": null,
        "city": "Matoury",
        "state": "French Guiana",
        "postcode": "97351",
        "country": "France",
        "country_code": "fr"
      },
      "address": "617, Le Bourg, Matoury, 97351 French Guiana, French Guiana"
    },
    {
      "lat": 4.843440375678127,
      "lon": -52.30090716417919,
      "geoinfo": {
        "display_name": "Carrefour des Barbadines, Barbadine, Matoury, Cayenne, French Guiana, 97351, France",
        "road": null,
        "house_number": null,
        "neighbourhood": null,
        "suburb": null,
        "city_district": null,
        "city": "Matoury",
        "state": "French Guiana",
        "postcode": "97351",
        "country": "France",
        "country_code": "fr"
      },
      "address": "185, Matoury, 97351 French Guiana, French Guiana"
    },
    {
      "lat": 4.88604055058263,
      "lon": -52.313489490730746,
      "geoinfo": {
        "display_name": "Matoury, Cayenne, French Guiana, 97351, France",
        "road": null,
        "house_number": null,
        "neighbourhood": null,
        "suburb": null,
        "city_district": null,
        "city": "Matoury",
        "state": "French Guiana",
        "postcode": "97351",
        "country": "France",
        "country_code": "fr"
      },
      "address": "969, Matoury, 97351 French Guiana, French Guiana"
    },
    {
      "lat": 4.84075332554988,
      "lon": -52.35937956142098,
      "geoinfo": {
        "display_name": "Le Califourchon, Concorde, Le Bourg, Matoury, Cayenne, French Guiana, 97351, France",
        "road": null,
        "house_number": null,
        "neighbourhood": null,
        "suburb": "Le Bourg",
        "city_district": null,
        "city": "Matoury",
        "state": "French Guiana",
        "postcode": "97351",
        "country": "France",
        "country_code": "fr"
      },
      "address": "449, Le Bourg, Matoury, 97351 French Guiana, French Guiana"
    },
    {
      "lat": 4.811139049115071,
      "lon": -52.3155528482238,
      "geoinfo": {
        "display_name": "Paramana, Matoury, Cayenne, French Guiana, 97351, France",
        "road": null,
        "house_number": null,
        "neighbourhood": null,
        "suburb": null,
        "city_district": null,
        "city": "Matoury",
        "state": "French Guiana",
        "postcode": "97351",
        "country": "France",
        "country_code": "fr"
      },
      "address": "201, Matoury, 97351 French Guiana, French Guiana"
    },
    {
      "lat": 4.882862239929169,
      "lon": -52.32685177207619,
      "geoinfo": {
        "display_name": "Rue des Yanomamis, Balata Est, Matoury, Cayenne, French Guiana, 97351, France",
        "road": "Rue des Yanomamis",
        "house_number": null,
        "neighbourhood": null,
        "suburb": null,
        "city_district": null,
        "city": "Matoury",
        "state": "French Guiana",
        "postcode": "97351",
        "country": "France",
        "country_code": "fr"
      },
      "address": "208, Rue des Yanomamis, Matoury, 97351 French Guiana, French Guiana"
    },
    {
      "lat": 4.8533246903998295,
      "lon": -52.298351155364074,
      "geoinfo": {
        "display_name": "Carrefour des Barbadines, Barbadine, Matoury, Cayenne, French Guiana, 97351, France",
        "road": null,
        "house_number": null,
        "neighbourhood": null,
        "suburb": null,
        "city_district": null,
        "city": "Matoury",
        "state": "French Guiana",
        "postcode": "97351",
        "country": "France",
        "country_code": "fr"
      },
      "address": "886, Matoury, 97351 French Guiana, French Guiana"
    },
    {
      "lat": 4.870463157341514,
      "lon": -52.362705390350705,
      "geoinfo": {
        "display_name": "Allée de la Crique Austerlitz, La Chaumière, Matoury, Cayenne, French Guiana, 97351, France",
        "road": "Allée de la Crique Austerlitz",
        "house_number": null,
        "neighbourhood": null,
        "suburb": null,
        "city_district": null,
        "city": "Matoury",
        "state": "French Guiana",
        "postcode": "97351",
        "country": "France",
        "country_code": "fr"
      },
      "address": "610, Allée de la Crique Austerlitz, Matoury, 97351 French Guiana, French Guiana"
    },
    {
      "lat": 4.8753763893640985,
      "lon": -52.341342868356406,
      "geoinfo": {
        "display_name": "Rue des Flamboyants, Balata Est, Matoury, Cayenne, French Guiana, 97351, France",
        "road": "Rue des Flamboyants",
        "house_number": null,
        "neighbourhood": null,
        "suburb": null,
        "city_district": null,
        "city": "Matoury",
        "state": "French Guiana",
        "postcode": "97351",
        "country": "France",
        "country_code": "fr"
      },
      "address": "596, Rue des Flamboyants, Matoury, 97351 French Guiana, French Guiana"
    },
    {
      "lat": 4.8103029925615,
      "lon": -52.32619870086847,
      "geoinfo": {
        "display_name": "Matoury, Cayenne, French Guiana, 97351, France",
        "road": null,
        "house_number": null,
        "neighbourhood": null,
        "suburb": null,
        "city_district": null,
        "city": "Matoury",
        "state": "French Guiana",
        "postcode": "97351",
        "country": "France",
        "country_code": "fr"
      },
      "address": "222, Matoury, 97351 French Guiana, French Guiana"
    },
    {
      "lat": 4.876402292794993,
      "lon": -52.32158600668881,
      "geoinfo": {
        "display_name": "Rue Citron Vert, Cogneau Lamirande, Matoury, Cayenne, French Guiana, 97351, France",
        "road": "Rue Citron Vert",
        "house_number": null,
        "neighbourhood": null,
        "suburb": null,
        "city_district": null,
        "city": "Matoury",
        "state": "French Guiana",
        "postcode": "97351",
        "country": "France",
        "country_code": "fr"
      },
      "address": "706, Rue Citron Vert, Matoury, 97351 French Guiana, French Guiana"
    },
    {
      "lat": 4.860749084450467,
      "lon": -52.36552783529591,
      "geoinfo": {
        "display_name": "La Fontaine, Matoury, Cayenne, French Guiana, 97351, France",
        "road": null,
        "house_number": null,
        "neighbourhood": null,
        "suburb": null,
        "city_district": null,
        "city": "Matoury",
        "state": "French Guiana",
        "postcode": "97351",
        "country": "France",
        "country_code": "fr"
      },
      "address": "640, Matoury, 97351 French Guiana, French Guiana"
    },
    {
      "lat": 4.873953427295222,
      "lon": -52.31947953325767,
      "geoinfo": {
        "display_name": "Lotissement Bois-Jolis, Cogneau Lamirande, Matoury, Cayenne, French Guiana, 97351, France",
        "road": "Lotissement Bois-Jolis",
        "house_number": null,
        "neighbourhood": null,
        "suburb": null,
        "city_district": null,
        "city": "Matoury",
        "state": "French Guiana",
        "postcode": "97351",
        "country": "France",
        "country_code": "fr"
      },
      "address": "622, Lotissement Bois-Jolis, Matoury, 97351 French Guiana, French Guiana"
    }
  ],
  "updated_at": "2025-10-19T04:25:57.414807+00:00",
  "_kind": "geo_samples"
}