{
  "country_code": "GF",
  "country": "French Guiana",
  "city": "Rémire-Montjoly",
  "geonameid": 3380892,
  "target_addresses": 20,
  "samples": [
    {
      "lat": 4.921811383722763,
      "lon": -52.25904882608208,
      "geoinfo": {
        "display_name": "Plage Sainte-Rita, Montjoly, Remire-Montjoly, Cayenne, French Guiana, 97354, France",
        "road": null,
        "house_number": null,
        "neighbourhood": null,
        "suburb": null,
        "city_district": null,
        "city": "Remire-Montjoly",
        "state": "French Guiana",
        "postcode": "97354",
        "country": "France",
        "country_code": "fr"
      },
      "address": "008, Rémire-Montjoly, 97354 French Guiana, French Guiana"
    },
    {
      "lat": 4.903671773270862,
      "lon": -52.3069671065889,
      "geoinfo": {
        "display_name": "Route du Tigre, Remire-Montjoly, Cayenne, French Guiana, 97354, France",
        "road": "Route du Tigre",
        "house_number": null,
        "neighbourhood": null,
        "suburb": null,
        "city_district": null,
        "city": "Remire-Montjoly",
        "state": "French Guiana",
        "postcode": "97354",
        "country": "France",
        "country_code": "fr"
      },
      "address": "040, Route du Tigre, Rémire-Montjoly, 97354 French Guiana, French Guiana"
    },
    {
      "lat": 4.8831083888255185,
      "lon": -52.27334420348309,
      "geoinfo": {
        "display_name": "Rémire, Remire-Montjoly, Cayenne, French Guiana, 97354, France",
        "road": null,
        "house_number": null,
        "neighbourhood": null,
        "suburb": null,
        "city_district": null,
        "city": "Remire-Montjoly",
        "state": "French Guiana",
        "postcode": "97354",
        "country": "France",
        "country_code": "fr"
      },
      "address": "478, Rémire-Montjoly, 97354 French Guiana, French Guiana"
    },
    {
      "lat": 4.925352109088155,
      "lon": -52.28674775665006,
      "geoinfo": {
        "display_name": "Axa Assurance, Route de Montjoly, Résidence Noko, Remire-Montjoly, Cayenne, French Guiana, 97354, France",
        "road": "Route de Montjoly",
        "house_number": null,
        "neighbourhood": "Résidence Noko",
        "suburb": null,
        "city_district": null,
        "city": "Remire-Montjoly",
        "state": "French Guiana",
        "postcode": "97354",
        "country": "France",
        "country_code": "fr"
      },
      "address": "319, Route de Montjoly, Rémire-Montjoly, 97354 French Guiana, French Guiana"
    },
    {
      "lat": 4.948255878011925,
      "lon": -52.257417827266664,
      "geoinfo": {
        "display_name": "French Guiana, France",
        "road": null,
        "house_number": null,
        "neighbourhood": null,
        "suburb": null,
        "city_district": null,
        "city": null,
        "state": "French Guiana",
        "postcode": null,
        "country": "France",
        "country_code": "fr"
      },
      "address": "402, Rémire-Montjoly, 26507 French Guiana, French Guiana"
    },
    {
      "lat": 4.928456267416608,
      "lon": -52.233290685195726,
      "geoinfo": {
        "display_name": "French Guiana, France",
        "road": null,
        "house_number": null,
        "neighbourhood": null,
        "suburb": null,
        "city_district": null,
        "city": null,
        "state": "French Guiana",
        "postcode": null,
        "country": "France",
        "country_code": "fr"
      },
      "address": "045, Rémire-Montjoly, 72915 French Guiana, French Guiana"
    },
    {
      "lat": 4.912503496789401,
      "lon": -52.25718238919689,
      "geoinfo": {
        "display_name": "Point de vue du sentier des pêcheurs, Sentier des Pêcheurs, Remire-Montjoly, Cayenne, French Guiana, 97354, France",
        "road": "Sentier des Pêcheurs",
        "house_number": null,
        "neighbourhood": null,
        "suburb": null,
        "city_district": null,
        "city": "Remire-Montjoly",
        "state": "French Guiana",
        "postcode": "97354",
        "country": "France",
        "country_code": "fr"
      },
      "address": "215, Sentier des Pêcheurs, Rémire-Montjoly, 97354 French Guiana, French Guiana"
    },
    {
      "lat": 4.946544327435219,
      "lon": -52.28440259484803,
      "geoinfo": {
        "display_name": "Route de Bourda, Lotissement Pacheco, Cayenne, French Guiana, 97300, France",
        "road": "Route de Bourda",
        "house_number": null,
        "neighbourhood": "Lotissement Pacheco",
        "suburb": null,
        "city_district": null,
        "city": "Cayenne",
        "state": "French Guiana",
        "postcode": "97300",
        "country": "France",
        "country_code": "fr"
      },
      "address": "426, Route de Bourda, Rémire-Montjoly, 97300 French Guiana, French Guiana"
    },
    {
      "lat": 4.912690809198643,
      "lon": -52.31105042256322,
      "geoinfo": {
        "display_name": "Camp La Verdure, Route du Tigre, Cayenne, French Guiana, 97354, France",
        "road": "Route du Tigre",
        "house_number": null,
        "neighbourhood": null,
        "suburb": null,
        "city_district": null,
        "city": "Cayenne",
        "state": "French Guiana",
        "postcode": "97354",
        "country": "France",
        "country_code": "fr"
      },
      "address": "312, Route du Tigre, Rémire-Montjoly, 97354 French Guiana, French Guiana"
    },
    {
      "lat": 4.952289905978492,
      "lon": -52.27281049238039,
      "geoinfo": {
        "display_name": "French Guiana, France",
        "road": null,
        "house_number": null,
        "neighbourhood": null,
        "suburb": null,
        "city_district": null,
        "city": null,
        "state": "French Guiana",
        "postcode": null,
        "country": "France",
        "country_code": "fr"
      },
      "address": "837, Rémire-Montjoly, 90137 French Guiana, French Guiana"
    },
    {
      "lat": 4.899052404812137,
      "lon": -52.302727964473405,
      "geoinfo": {
        "display_name": "Résidence Bois d'Ambre, Remire-Montjoly, Cayenne, French Guiana, 97354, France",
        "road": null,
        "house_number": null,
        "neighbourhood": "Résidence Bois d'Ambre",
        "suburb": null,
        "city_district": null,
        "city": "Remire-Montjoly",
        "state": "French Guiana",
        "postcode": "97354",
        "country": "France",
        "country_code": "fr"
      },
      "address": "969, Résidence Bois d'Ambre, Rémire-Montjoly, 97354 French Guiana, French Guiana"
    },
    {
      "lat": 4.954441592215042,
      "lon": -52.253169562917776,
      "geoinfo": {
        "display_name": "French Guiana, France",
        "road": null,
        "house_number": null,
        "neighbourhood": null,
        "suburb": null,
        "city_district": null,
        "city": null,
        "state": "French Guiana",
        "postcode": null,
        "country": "France",
        "country_code": "fr"
      },
      "address": "662, Rémire-Montjoly, 49351 French Guiana, French Guiana"
    },
    {
      "lat": 4.92316802525211,
      "lon": -52.2869620625441,
      "geoinfo": {
        "display_name": "R.A.S, 13b, Lotissement Saint-Martin 2, Résidence Noko, Remire-Montjoly, Cayenne, French Guiana, 97354, France",
        "road": "Lotissement Saint-Martin 2",
        "house_number": "13b",
        "neighbourhood": "Résidence Noko",
        "suburb": null,
        "city_district": null,
        "city": "Remire-Montjoly",
        "state": "French Guiana",
        "postcode": "97354",
        "country": "France",
        "country_code": "fr"
      },
      "address": "Lotissement Saint-Martin 2, Rémire-Montjoly, 97354 French Guiana, French Guiana"
    },
    {
      "lat": 4.921059228975783,
      "lon": -52.288983307034925,
      "geoinfo": {
        "display_name": "Impasse du Mont Saint-Martin, Résidence Eden Vert, Remire-Montjoly, Cayenne, French Guiana, 97354, France",
        "road": "Impasse du Mont Saint-Martin",
        "house_number": null,
        "neighbourhood": "Résidence Eden Vert",
        "suburb": null,
        "city_district": null,
        "city": "Remire-Montjoly",
        "state": "French Guiana",
        "postcode": "97354",
        "country": "France",
        "country_code": "fr"
      },
      "address": "753, Impasse du Mont Saint-Martin, Rémire-Montjoly, 97354 French Guiana, French Guiana"
    },
    {
      "lat": 4.910704485391804,
      "lon": -52.22845691597634,
      "geoinfo": {
        "display_name": "French Guiana, France",
        "road": null,
        "house_number": null,
        "neighbourhood": null,
        "suburb": null,
        "city_district": null,
        "city": null,
        "state": "French Guiana",
        "postcode": null,
        "country": "France",
        "country_code": "fr"
      },
      "address": "278, Rémire-Montjoly, 62586 French Guiana, French Guiana"
    }
  ],
  "updated_at": "2025-10-19T04:02:38.697729+00:00",
  "_kind": "geo_samples"
}