{
  "country_code": "CW",
  "country": "Curacao",
  "city": "Willemstad",
  "geonameid": 3513090,
  "target_addresses": 187,
  "samples": [
    {
      "lat": 12.126194697587016,
      "lon": -68.92717175018007,
      "geoinfo": {
        "display_name": "Direkteurswoning (voormalig SHELL), 2, Dokweg, Asiento, Willemstad, Curacao, 0000 NA, Netherlands",
        "road": "Dokweg",
        "house_number": "2",
        "neighbourhood": "Asiento",
        "suburb": null,
        "city_district": null,
        "city": "Willemstad",
        "state": null,
        "postcode": "0000 NA",
        "country": "Curacao",
        "country_code": "nl"
      },
      "address": "2 Dokweg, Willemstad, Curacao"
    },
    {
      "lat": 12.130067399779358,
      "lon": -68.84228669160909,
      "geoinfo": {
        "display_name": "Oostpunt, Curacao, Netherlands",
        "road": null,
        "house_number": null,
        "neighbourhood": "Oostpunt",
        "suburb": null,
        "city_district": null,
        "city": null,
        "state": null,
        "postcode": null,
        "country": "Curacao",
        "country_code": "nl"
      },
      "address": "Oostpunt, Willemstad, Curacao"
    },
    {
      "lat": 12.107195188056838,
      "lon": -68.91395271400994,
      "geoinfo": {
        "display_name": "POWER HOUSE CURACAO, 16, Nieuwe Pareraweg, Paradijs bij Hel, Berg Altena, Willemstad, Curacao, 0000 NA, Netherlands",
        "road": "Nieuwe Pareraweg",
        "house_number": "16",
        "neighbourhood": "Paradijs bij Hel",
        "suburb": "Berg Altena",
        "city_district": null,
        "city": "Willemstad",
        "state": null,
        "postcode": "0000 NA",
        "country": "Curacao",
        "country_code": "nl"
      },
      "address": "16 Nieuwe Pareraweg, Willemstad, Curacao"
    },
    {
      "lat": 12.095836741852533,
      "lon": -68.88674419527811,
      "geoinfo": {
        "display_name": "Bottelier, Koraal Specht, Curacao, Netherlands",
        "road": null,
        "house_number": null,
        "neighbourhood": "Bottelier",
        "suburb": "Koraal Specht",
        "city_district": null,
        "city": null,
        "state": null,
        "postcode": null,
        "country": "Curacao",
        "country_code": "nl"
      },
      "address": "Bottelier, Willemstad, Curacao"
    },
    {
      "lat": 12.11644612456565,
      "lon": -68.91991892788428,
      "geoinfo": {
        "display_name": "Parera, Abattoirweg, Parera, Berg Altena, Willemstad, Curacao, 0000 NA, Netherlands",
        "road": "Abattoirweg",
        "house_number": null,
        "neighbourhood": "Parera",
        "suburb": "Berg Altena",
        "city_district": null,
        "city": "Willemstad",
        "state": null,
        "postcode": "0000 NA",
        "country": "Curacao",
        "country_code": "nl"
      },
      "address": "Abattoirweg, Willemstad, Curacao"
    },
    {
      "lat": 12.12610346566911,
      "lon": -68.8699954221079,
      "geoinfo": {
        "display_name": "Santa Rosa, Sapate, Curacao, Netherlands",
        "road": null,
        "house_number": null,
        "neighbourhood": "Santa Rosa",
        "suburb": "Sapate",
        "city_district": null,
        "city": null,
        "state": null,
        "postcode": null,
        "country": "Curacao",
        "country_code": "nl"
      },
      "address": "Santa Rosa, Willemstad, Curacao"
    },
    {
      "lat": 12.135520222291229,
      "lon": -68.903839341215,
      "geoinfo": {
        "display_name": "Blenchiweg, Diennoortje, Francia, Curacao, 0000 CW, Netherlands",
        "road": "Blenchiweg",
        "house_number": null,
        "neighbourhood": "Diennoortje",
        "suburb": null,
        "city_district": null,
        "city": null,
        "state": null,
        "postcode": "0000 CW",
        "country": "Curacao",
        "country_code": "nl"
      },
      "address": "Blenchiweg, Willemstad, Curacao"
    },
    {
      "lat": 12.111136610524538,
      "lon": -68.84663408066632,
      "geoinfo": {
        "display_name": "Kaminda Jose Papa Liberia, Gustavia, Montaña Rey, Curacao, Netherlands",
        "road": "Kaminda Jose Papa Liberia",
        "house_number": null,
        "neighbourhood": "Gustavia",
        "suburb": null,
        "city_district": null,
        "city": null,
        "state": null,
        "postcode": null,
        "country": "Curacao",
        "country_code": "nl"
      },
      "address": "Kaminda Jose Papa Liberia, Willemstad, Curacao"
    },
    {
      "lat": 12.094427472613598,
      "lon": -68.92223197975461,
      "geoinfo": {
        "display_name": "Avila Beach Hotel, 130, Penstraat, Nieuw Nederland, Berg Altena, Willemstad, Curacao, 0000 NA, Netherlands",
        "road": "Penstraat",
        "house_number": "130",
        "neighbourhood": "Nieuw Nederland",
        "suburb": "Berg Altena",
        "city_district": null,
        "city": "Willemstad",
        "state": null,
        "postcode": "0000 NA",
        "country": "Curacao",
        "country_code": "nl"
      },
      "address": "130 Penstraat, Willemstad, Curacao"
    },
    {
      "lat": 12.100925314483149,
      "lon": -68.91603711073881,
      "geoinfo": {
        "display_name": "Steenrijk Mini-Market, Wageningenstraat, Cher Asile, Berg Altena, Willemstad, Curacao, 0000 NA, Netherlands",
        "road": "Wageningenstraat",
        "house_number": null,
        "neighbourhood": "Cher Asile",
        "suburb": "Berg Altena",
        "city_district": null,
        "city": "Willemstad",
        "state": null,
        "postcode": "0000 NA",
        "country": "Curacao",
        "country_code": "nl"
      },
      "address": "Wageningenstraat, Willemstad, Curacao"
    },
    {
      "lat": 12.098589025249174,
      "lon": -68.90849186864709,
      "geoinfo": {
        "display_name": "18, Oostburgstraat, Steenrijk, Berg Altena, Willemstad, Curacao, 0000 NA, Netherlands",
        "road": "Oostburgstraat",
        "house_number": "18",
        "neighbourhood": "Steenrijk",
        "suburb": "Berg Altena",
        "city_district": null,
        "city": "Willemstad",
        "state": null,
        "postcode": "0000 NA",
        "country": "Curacao",
        "country_code": "nl"
      },
      "address": "18 Oostburgstraat, Willemstad, Curacao"
    },
    {
      "lat": 12.112571118556618,
      "lon": -68.92497290255675,
      "geoinfo": {
        "display_name": "Pletterijweg, Arrarat, Berg Altena, Willemstad, Curacao, 0000 NA, Netherlands",
        "road": "Pletterijweg",
        "house_number": null,
        "neighbourhood": "Arrarat",
        "suburb": "Berg Altena",
        "city_district": null,
        "city": "Willemstad",
        "state": null,
        "postcode": "0000 NA",
        "country": "Curacao",
        "country_code": "nl"
      },
      "address": "Pletterijweg, Willemstad, Curacao"
    },
    {
      "lat": 12.133811718135854,
      "lon": -68.90797025039379,
      "geoinfo": {
        "display_name": "Kaya Dominico F. ‘Don’ Martina, Rust en Burgh, Emmastad, Curacao, 0000 CW, Netherlands",
        "road": "Kaya Dominico F. ‘Don’ Martina",
        "house_number": null,
        "neighbourhood": "Rust en Burgh",
        "suburb": null,
        "city_district": null,
        "city": null,
        "state": null,
        "postcode": "0000 CW",
        "country": "Curacao",
        "country_code": "nl"
      },
      "address": "Kaya Dominico F. ‘Don’ Martina, Willemstad, Curacao"
    },
    {
      "lat": 12.115865788127406,
      "lon": -68.8950850688023,
      "geoinfo": {
        "display_name": "Girouette, Seru Lora, Curacao, 0000 NA, Netherlands",
        "road": null,
        "house_number": null,
        "neighbourhood": "Girouette",
        "suburb": "Seru Lora",
        "city_district": null,
        "city": null,
        "state": null,
        "postcode": "0000 NA",
        "country": "Curacao",
        "country_code": "nl"
      },
      "address": "Girouette, Willemstad, Curacao"
    },
    {
      "lat": 12.095356385992297,
      "lon": -68.90255977357711,
      "geoinfo": {
        "display_name": "43, Telamonstraat, Vredenberg bij Kintjan, Koraal Specht, Willemstad, Curacao, 0000 NA, Netherlands",
        "road": "Telamonstraat",
        "house_number": "43",
        "neighbourhood": "Vredenberg bij Kintjan",
        "suburb": "Koraal Specht",
        "city_district": null,
        "city": "Willemstad",
        "state": null,
        "postcode": "0000 NA",
        "country": "Curacao",
        "country_code": "nl"
      },
      "address": "43 Telamonstraat, Willemstad, Curacao"
    },
    {
      "lat": 12.092394806463952,
      "lon": -68.90885602350686,
      "geoinfo": {
        "display_name": "Sentro di deporte Marie Pampoen, Dokter Martin Luther King Boulevard, Marie Pampoen, Koraal Specht, Curacao, 0000 NA, Netherlands",
        "road": "Dokter Martin Luther King Boulevard",
        "house_number": null,
        "neighbourhood": "Marie Pampoen",
        "suburb": "Koraal Specht",
        "city_district": null,
        "city": null,
        "state": null,
        "postcode": "0000 NA",
        "country": "Curacao",
        "country_code": "nl"
      },
      "address": "Dokter Martin Luther King Boulevard, Willemstad, Curacao"
    },
    {
      "lat": 12.098780250476445,
      "lon": -68.91200067722949,
      "geoinfo": {
        "display_name": "Piet Kegelstraat, Steenrijk, Berg Altena, Willemstad, Curacao, 0000 NA, Netherlands",
        "road": "Piet Kegelstraat",
        "house_number": null,
        "neighbourhood": "Steenrijk",
        "suburb": "Berg Altena",
        "city_district": null,
        "city": "Willemstad",
        "state": null,
        "postcode": "0000 NA",
        "country": "Curacao",
        "country_code": "nl"
      },
      "address": "Piet Kegelstraat, Willemstad, Curacao"
    },
    {
      "lat": 12.102710427879371,
      "lon": -68.90873441340185,
      "geoinfo": {
        "display_name": "Bramendiweg, Kintjan, Berg Altena, Willemstad, Curacao, 0000 NA, Netherlands",
        "road": "Bramendiweg",
        "house_number": null,
        "neighbourhood": "Kintjan",
        "suburb": "Berg Altena",
        "city_district": null,
        "city": "Willemstad",
        "state": null,
        "postcode": "0000 NA",
        "country": "Curacao",
        "country_code": "nl"
      },
      "address": "Bramendiweg, Willemstad, Curacao"
    },
    {
      "lat": 12.08317335787989,
      "lon": -68.90754806455719,
      "geoinfo": {
        "display_name": "Steen Wijk, Koraal Specht, Curacao, 0000 NA, Netherlands",
        "road": null,
        "house_number": null,
        "neighbourhood": "Steen Wijk",
        "suburb": "Koraal Specht",
        "city_district": null,
        "city": null,
        "state": null,
        "postcode": "0000 NA",
        "country": "Curacao",
        "country_code": "nl"
      },
      "address": "Steen Wijk, Willemstad, Curacao"
    },
    {
      "lat": 12.1086549924313,
      "lon": -68.88173505838553,
      "geoinfo": {
        "display_name": "Scherpenheuvel, Seru Lora, Curacao, Netherlands",
        "road": null,
        "house_number": null,
        "neighbourhood": "Scherpenheuvel",
        "suburb": "Seru Lora",
        "city_district": null,
        "city": null,
        "state": null,
        "postcode": null,
        "country": "Curacao",
        "country_code": "nl"
      },
      "address": "Scherpenheuvel, Willemstad, Curacao"
    },
    {
      "lat": 12.122116273722055,
      "lon": -68.91212839879488,
      "geoinfo": {
        "display_name": "Dokweg, Nieuwe Haven, Willemstad, Curacao, 0000 NA, Netherlands",
        "road": "Dokweg",
        "house_number": null,
        "neighbourhood": "Nieuwe Haven",
        "suburb": null,
        "city_district": null,
        "city": "Willemstad",
        "state": null,
        "postcode": "0000 NA",
        "country": "Curacao",
        "country_code": "nl"
      },
      "address": "Dokweg, Willemstad, Curacao"
    },
    {
      "lat": 12.125563290548344,
      "lon": -68.90286167369811,
      "geoinfo": {
        "display_name": "Rooi Catochi, Curacao, 0000 NA, Netherlands",
        "road": null,
        "house_number": null,
        "neighbourhood": "Rooi Catochi",
        "suburb": null,
        "city_district": null,
        "city": null,
        "state": null,
        "postcode": "0000 NA",
        "country": "Curacao",
        "country_code": "nl"
      },
      "address": "Rooi Catochi, Willemstad, Curacao"
    },
    {
      "lat": 12.082665277318567,
      "lon": -68.90143549715212,
      "geoinfo": {
        "display_name": "Bapor Kibra, Steen Wijk, Curacao, Netherlands",
        "road": "Bapor Kibra",
        "house_number": null,
        "neighbourhood": "Steen Wijk",
        "suburb": null,
        "city_district": null,
        "city": null,
        "state": null,
        "postcode": null,
        "country": "Curacao",
        "country_code": "nl"
      },
      "address": "Bapor Kibra, Willemstad, Curacao"
    },
    {
      "lat": 12.08982153045129,
      "lon": -68.91705841458484,
      "geoinfo": {
        "display_name": "Coco, Berg Altena, Willemstad, Curacao, 0000 NA, Netherlands",
        "road": null,
        "house_number": null,
        "neighbourhood": "Coco",
        "suburb": "Berg Altena",
        "city_district": null,
        "city": "Willemstad",
        "state": null,
        "postcode": "0000 NA",
        "country": "Curacao",
        "country_code": "nl"
      },
      "address": "Coco, Willemstad, Curacao"
    },
    {
      "lat": 12.100943043798859,
      "lon": -68.88984307962536,
      "geoinfo": {
        "display_name": "Curinjo Apartments, Mamayaweg, Bottelier, Koraal Specht, Curacao, Netherlands",
        "road": "Mamayaweg",
        "house_number": null,
        "neighbourhood": "Bottelier",
        "suburb": "Koraal Specht",
        "city_district": null,
        "city": null,
        "state": null,
        "postcode": null,
        "country": "Curacao",
        "country_code": "nl"
      },
      "address": "Mamayaweg, Willemstad, Curacao"
    },
    {
      "lat": 12.124760869258726,
      "lon": -68.87811489868324,
      "geoinfo": {
        "display_name": "Plastico Janella, Sta Rosaweg, Sint Jansberg, Seru Lora, Curacao, Netherlands",
        "road": "Sta Rosaweg",
        "house_number": null,
        "neighbourhood": "Sint Jansberg",
        "suburb": "Seru Lora",
        "city_district": null,
        "city": null,
        "state": null,
        "postcode": null,
        "country": "Curacao",
        "country_code": "nl"
      },
      "address": "Sta Rosaweg, Willemstad, Curacao"
    },
    {
      "lat": 12.09596706237394,
      "lon": -68.8956766528734,
      "geoinfo": {
        "display_name": "Kaya Shers, Wastuin, Koraal Specht, Curacao, 0000 NA, Netherlands",
        "road": "Kaya Shers",
        "house_number": null,
        "neighbourhood": "Wastuin",
        "suburb": "Koraal Specht",
        "city_district": null,
        "city": null,
        "state": null,
        "postcode": "0000 NA",
        "country": "Curacao",
        "country_code": "nl"
      },
      "address": "Kaya Shers, Willemstad, Curacao"
    },
    {
      "lat": 12.11311855732725,
      "lon": -68.90859588836702,
      "geoinfo": {
        "display_name": "LA CURACAO, Kaya Jacob Posner, Zeelandia, Berg Altena, Willemstad, Curacao, 0000 NA, Netherlands",
        "road": "Kaya Jacob Posner",
        "house_number": null,
        "neighbourhood": "Zeelandia",
        "suburb": "Berg Altena",
        "city_district": null,
        "city": "Willemstad",
        "state": null,
        "postcode": "0000 NA",
        "country": "Curacao",
        "country_code": "nl"
      },
      "address": "Kaya Jacob Posner, Willemstad, Curacao"
    },
    {
      "lat": 12.108416487476536,
      "lon": -68.9135230668789,
      "geoinfo": {
        "display_name": "Schottegatweg Zuid, Zeelandia, Berg Altena, Curacao, 0000 NA, Netherlands",
        "road": "Schottegatweg Zuid",
        "house_number": null,
        "neighbourhood": "Zeelandia",
        "suburb": "Berg Altena",
        "city_district": null,
        "city": null,
        "state": null,
        "postcode": "0000 NA",
        "country": "Curacao",
        "country_code": "nl"
      },
      "address": "Schottegatweg Zuid, Willemstad, Curacao"
    },
    {
      "lat": 12.111906977237652,
      "lon": -68.93084364858372,
      "geoinfo": {
        "display_name": "Koningin Julianabrug, Scharloo, Berg Altena, Willemstad, Curacao, 0000 NA, Netherlands",
        "road": "Koningin Julianabrug",
        "house_number": null,
        "neighbourhood": "Scharloo",
        "suburb": "Berg Altena",
        "city_district": null,
        "city": "Willemstad",
        "state": null,
        "postcode": "0000 NA",
        "country": "Curacao",
        "country_code": "nl"
      },
      "address": "Koningin Julianabrug, Willemstad, Curacao"
    },
    {
      "lat": 12.104948546852027,
      "lon": -68.9168793823095,
      "geoinfo": {
        "display_name": "35, Kaminda Saliña, Paradijs bij Hel, Berg Altena, Willemstad, Curacao, 0000 NA, Netherlands",
        "road": "Kaminda Saliña",
        "house_number": "35",
        "neighbourhood": "Paradijs bij Hel",
        "suburb": "Berg Altena",
        "city_district": null,
        "city": "Willemstad",
        "state": null,
        "postcode": "0000 NA",
        "country": "Curacao",
        "country_code": "nl"
      },
      "address": "35 Kaminda Saliña, Willemstad, Curacao"
    },
    {
      "lat": 12.100408727731072,
      "lon": -68.91614644443852,
      "geoinfo": {
        "display_name": "5, Wageningenstraat, Cher Asile, Berg Altena, Willemstad, Curacao, 0000 NA, Netherlands",
        "road": "Wageningenstraat",
        "house_number": "5",
        "neighbourhood": "Cher Asile",
        "suburb": "Berg Altena",
        "city_district": null,
        "city": "Willemstad",
        "state": null,
        "postcode": "0000 NA",
        "country": "Curacao",
        "country_code": "nl"
      },
      "address": "5 Wageningenstraat, Willemstad, Curacao"
    },
    {
      "lat": 12.10589452517029,
      "lon": -68.89674355811782,
      "geoinfo": {
        "display_name": "9, Dominguitoweg, Dominguito, Koraal Specht, Willemstad, Curacao, 0000 NA, Netherlands",
        "road": "Dominguitoweg",
        "house_number": "9",
        "neighbourhood": "Dominguito",
        "suburb": "Koraal Specht",
        "city_district": null,
        "city": "Willemstad",
        "state": null,
        "postcode": "0000 NA",
        "country": "Curacao",
        "country_code": "nl"
      },
      "address": "9 Dominguitoweg, Willemstad, Curacao"
    },
    {
      "lat": 12.107031317817935,
      "lon": -68.92311120975334,
      "geoinfo": {
        "display_name": "Ararat, Arrarat, Berg Altena, Willemstad, Curacao, 0000 NA, Netherlands",
        "road": "Ararat",
        "house_number": null,
        "neighbourhood": "Arrarat",
        "suburb": "Berg Altena",
        "city_district": null,
        "city": "Willemstad",
        "state": null,
        "postcode": "0000 NA",
        "country": "Curacao",
        "country_code": "nl"
      },
      "address": "Ararat, Willemstad, Curacao"
    },
    {
      "lat": 12.106025297394295,
      "lon": -68.8933270450604,
      "geoinfo": {
        "display_name": "190, Caracasbaaiweg, Dominguito, Koraal Specht, Willemstad, Curacao, 0000 NA, Netherlands",
        "road": "Caracasbaaiweg",
        "house_number": "190",
        "neighbourhood": "Dominguito",
        "suburb": "Koraal Specht",
        "city_district": null,
        "city": "Willemstad",
        "state": null,
        "postcode": "0000 NA",
        "country": "Curacao",
        "country_code": "nl"
      },
      "address": "190 Caracasbaaiweg, Willemstad, Curacao"
    },
    {
      "lat": 12.089859802133693,
      "lon": -68.91383723356128,
      "geoinfo": {
        "display_name": "Baoase Luxury Resort, 2, Winterswijkstraat, Marie Pampoen, Berg Altena, Willemstad, Curacao, 0000 NA, Netherlands",
        "road": "Winterswijkstraat",
        "house_number": "2",
        "neighbourhood": "Marie Pampoen",
        "suburb": "Berg Altena",
        "city_district": null,
        "city": "Willemstad",
        "state": null,
        "postcode": "0000 NA",
        "country": "Curacao",
        "country_code": "nl"
      },
      "address": "2 Winterswijkstraat, Willemstad, Curacao"
    },
    {
      "lat": 12.11935343907872,
      "lon": -68.92805898733968,
      "geoinfo": {
        "display_name": "Fort Nassau Restaurant, Fort Nassauweg, Arrarat, Berg Altena, Willemstad, Curacao, 0000 NA, Netherlands",
        "road": "Fort Nassauweg",
        "house_number": null,
        "neighbourhood": "Arrarat",
        "suburb": "Berg Altena",
        "city_district": null,
        "city": "Willemstad",
        "state": null,
        "postcode": "0000 NA",
        "country": "Curacao",
        "country_code": "nl"
      },
      "address": "Fort Nassauweg, Willemstad, Curacao"
    },
    {
      "lat": 12.100497222858529,
      "lon": -68.87613646988785,
      "geoinfo": {
        "display_name": "Caracasbaaiweg, Rooi Santu, Curacao, Netherlands",
        "road": "Caracasbaaiweg",
        "house_number": null,
        "neighbourhood": "Rooi Santu",
        "suburb": null,
        "city_district": null,
        "city": null,
        "state": null,
        "postcode": null,
        "country": "Curacao",
        "country_code": "nl"
      },
      "address": "Caracasbaaiweg, Willemstad, Curacao"
    },
    {
      "lat": 12.134045287569595,
      "lon": -68.90377369165991,
      "geoinfo": {
        "display_name": "Diennoortje, Francia, Curacao, 0000 CW, Netherlands",
        "road": null,
        "house_number": null,
        "neighbourhood": "Diennoortje",
        "suburb": null,
        "city_district": null,
        "city": null,
        "state": null,
        "postcode": "0000 CW",
        "country": "Curacao",
        "country_code": "nl"
      },
      "address": "Diennoortje, Willemstad, Curacao"
    },
    {
      "lat": 12.124735634921716,
      "lon": -68.88983434844809,
      "geoinfo": {
        "display_name": "Multitronics, 89C, Santa Rosaweg, Vergenoegen bij Kolonchi, Seru Lora, Willemstad, Curacao, Netherlands",
        "road": "Santa Rosaweg",
        "house_number": "89C",
        "neighbourhood": "Vergenoegen bij Kolonchi",
        "suburb": "Seru Lora",
        "city_district": null,
        "city": "Willemstad",
        "state": null,
        "postcode": null,
        "country": "Curacao",
        "country_code": "nl"
      },
      "address": "89C Santa Rosaweg, Willemstad, Curacao"
    },
    {
      "lat": 12.129279466159879,
      "lon": -68.9305417270805,
      "geoinfo": {
        "display_name": "Schottegatweg West, Asiento, Curacao, 0000 CW, Netherlands",
        "road": "Schottegatweg West",
        "house_number": null,
        "neighbourhood": "Asiento",
        "suburb": null,
        "city_district": null,
        "city": null,
        "state": null,
        "postcode": "0000 CW",
        "country": "Curacao",
        "country_code": "nl"
      },
      "address": "Schottegatweg West, Willemstad, Curacao"
    },
    {
      "lat": 12.090296995602078,
      "lon": -68.90508144115226,
      "geoinfo": {
        "display_name": "Sea Trek Curaçao Helmet Diving, Surf & Turf, Dokter Martin Luther King Boulevard, Marie Pampoen, Koraal Specht, Curacao, 0000 NA, Netherlands",
        "road": "Dokter Martin Luther King Boulevard",
        "house_number": "Surf & Turf",
        "neighbourhood": "Marie Pampoen",
        "suburb": "Koraal Specht",
        "city_district": null,
        "city": null,
        "state": null,
        "postcode": "0000 NA",
        "country": "Curacao",
        "country_code": "nl"
      },
      "address": "Surf & Turf Dokter Martin Luther King Boulevard, Willemstad, Curacao"
    },
    {
      "lat": 12.12112599722762,
      "lon": -68.87440819177174,
      "geoinfo": {
        "display_name": "312, Seru Loraweg, Vreugdenberg, Santa Rosa, Seru Lora, Curacao, Netherlands",
        "road": "Seru Loraweg",
        "house_number": "312",
        "neighbourhood": "Vreugdenberg",
        "suburb": "Seru Lora",
        "city_district": null,
        "city": null,
        "state": null,
        "postcode": null,
        "country": "Curacao",
        "country_code": "nl"
      },
      "address": "312 Seru Loraweg, Willemstad, Curacao"
    },
    {
      "lat": 12.095444712022744,
      "lon": -68.91942005889138,
      "geoinfo": {
        "display_name": "Steenrijk, Berg Altena, Willemstad, Curacao, 0000 NA, Netherlands",
        "road": null,
        "house_number": null,
        "neighbourhood": "Steenrijk",
        "suburb": "Berg Altena",
        "city_district": null,
        "city": "Willemstad",
        "state": null,
        "postcode": "0000 NA",
        "country": "Curacao",
        "country_code": "nl"
      },
      "address": "Steenrijk, Willemstad, Curacao"
    },
    {
      "lat": 12.111210938947101,
      "lon": -68.89167014474268,
      "geoinfo": {
        "display_name": "Klein Kwartier, Seru Lora, Curacao, 0000 NA, Netherlands",
        "road": null,
        "house_number": null,
        "neighbourhood": "Klein Kwartier",
        "suburb": "Seru Lora",
        "city_district": null,
        "city": null,
        "state": null,
        "postcode": "0000 NA",
        "country": "Curacao",
        "country_code": "nl"
      },
      "address": "Klein Kwartier, Willemstad, Curacao"
    },
    {
      "lat": 12.120183487001185,
      "lon": -68.85016271357804,
      "geoinfo": {
        "display_name": "Oudewater, Oostpunt, Curacao, Netherlands",
        "road": null,
        "house_number": null,
        "neighbourhood": "Oudewater",
        "suburb": null,
        "city_district": null,
        "city": null,
        "state": null,
        "postcode": null,
        "country": "Curacao",
        "country_code": "nl"
      },
      "address": "Oudewater, Willemstad, Curacao"
    },
    {
      "lat": 12.131620251727972,
      "lon": -68.84511274199915,
      "geoinfo": {
        "display_name": "Aloe Vera Farm Curacao, 138, Kaminda Mitologia, Oudewater, Oostpunt, Willemstad, Curacao, Netherlands",
        "road": "Kaminda Mitologia",
        "house_number": "138",
        "neighbourhood": "Oudewater",
        "suburb": null,
        "city_district": null,
        "city": "Willemstad",
        "state": null,
        "postcode": null,
        "country": "Curacao",
        "country_code": "nl"
      },
      "address": "138 Kaminda Mitologia, Willemstad, Curacao"
    },
    {
      "lat": 12.129200139203826,
      "lon": -68.84709496146158,
      "geoinfo": {
        "display_name": "Kaminda Mitologia, Oudewater, Oostpunt, Curacao, Netherlands",
        "road": "Kaminda Mitologia",
        "house_number": null,
        "neighbourhood": "Oudewater",
        "suburb": null,
        "city_district": null,
        "city": null,
        "state": null,
        "postcode": null,
        "country": "Curacao",
        "country_code": "nl"
      },
      "address": "Kaminda Mitologia, Willemstad, Curacao"
    },
    {
      "lat": 12.098526120284838,
      "lon": -68.9196696641887,
      "geoinfo": {
        "display_name": "nultwintig, 300, Penstraat, Nieuw Nederland, Berg Altena, Willemstad, Curacao, 0000 NA, Netherlands",
        "road": "Penstraat",
        "house_number": "300",
        "neighbourhood": "Nieuw Nederland",
        "suburb": "Berg Altena",
        "city_district": null,
        "city": "Willemstad",
        "state": null,
        "postcode": "0000 NA",
        "country": "Curacao",
        "country_code": "nl"
      },
      "address": "300 Penstraat, Willemstad, Curacao"
    },
    {
      "lat": 12.124611986076468,
      "lon": -68.88232142773437,
      "geoinfo": {
        "display_name": "146, Sta Rosaweg, Barbouquet, Seru Lora, Curacao, Netherlands",
        "road": "Sta Rosaweg",
        "house_number": "146",
        "neighbourhood": "Barbouquet",
        "suburb": "Seru Lora",
        "city_district": null,
        "city": null,
        "state": null,
        "postcode": null,
        "country": "Curacao",
        "country_code": "nl"
      },
      "address": "146 Sta Rosaweg, Willemstad, Curacao"
    },
    {
      "lat": 12.105939276910652,
      "lon": -68.92101015747824,
      "geoinfo": {
        "display_name": "Kadaster en Openbare Registers Curaçao, 4, Presidente Rómulo Betancourt Boulevard, Arrarat, Berg Altena, Willemstad, Curacao, 0000 NA, Netherlands",
        "road": "Presidente Rómulo Betancourt Boulevard",
        "house_number": "4",
        "neighbourhood": "Arrarat",
        "suburb": "Berg Altena",
        "city_district": null,
        "city": "Willemstad",
        "state": null,
        "postcode": "0000 NA",
        "country": "Curacao",
        "country_code": "nl"
      },
      "address": "4 Presidente Rómulo Betancourt Boulevard, Willemstad, Curacao"
    },
    {
      "lat": 12.100204060925673,
      "lon": -68.9184658733553,
      "geoinfo": {
        "display_name": "156, Oranjestraat, Cher Asile, Berg Altena, Willemstad, Curacao, 0000 NA, Netherlands",
        "road": "Oranjestraat",
        "house_number": "156",
        "neighbourhood": "Cher Asile",
        "suburb": "Berg Altena",
        "city_district": null,
        "city": "Willemstad",
        "state": null,
        "postcode": "0000 NA",
        "country": "Curacao",
        "country_code": "nl"
      },
      "address": "156 Oranjestraat, Willemstad, Curacao"
    },
    {
      "lat": 12.100096194175526,
      "lon": -68.89843239869471,
      "geoinfo": {
        "display_name": "25, Amandelweg, Jonisberg, Koraal Specht, Willemstad, Curacao, 0000 NA, Netherlands",
        "road": "Amandelweg",
        "house_number": "25",
        "neighbourhood": "Jonisberg",
        "suburb": "Koraal Specht",
        "city_district": null,
        "city": "Willemstad",
        "state": null,
        "postcode": "0000 NA",
        "country": "Curacao",
        "country_code": "nl"
      },
      "address": "25 Amandelweg, Willemstad, Curacao"
    },
    {
      "lat": 12.123976523314658,
      "lon": -68.90225510545969,
      "geoinfo": {
        "display_name": "Children's Museum Curaçao, 1, Zuikertuintjeweg, Rooi Catochi, Willemstad, Curacao, 0000 NA, Netherlands",
        "road": "Zuikertuintjeweg",
        "house_number": "1",
        "neighbourhood": "Rooi Catochi",
        "suburb": null,
        "city_district": null,
        "city": "Willemstad",
        "state": null,
        "postcode": "0000 NA",
        "country": "Curacao",
        "country_code": "nl"
      },
      "address": "1 Zuikertuintjeweg, Willemstad, Curacao"
    },
    {
      "lat": 12.10438974795125,
      "lon": -68.91389889738055,
      "geoinfo": {
        "display_name": "StudentenAutoverhuur.com, 84, Grebbelinieweg, Kintjan, Berg Altena, Willemstad, Curacao, 0000 NA, Netherlands",
        "road": "Grebbelinieweg",
        "house_number": "84",
        "neighbourhood": "Kintjan",
        "suburb": "Berg Altena",
        "city_district": null,
        "city": "Willemstad",
        "state": null,
        "postcode": "0000 NA",
        "country": "Curacao",
        "country_code": "nl"
      },
      "address": "84 Grebbelinieweg, Willemstad, Curacao"
    },
    {
      "lat": 12.104014472859786,
      "lon": -68.88242280742675,
      "geoinfo": {
        "display_name": "Botica Sorsaka, 274, Caracasbaaiweg, Korporaal, Seru Lora, Curacao, Netherlands",
        "road": "Caracasbaaiweg",
        "house_number": "274",
        "neighbourhood": "Korporaal",
        "suburb": "Seru Lora",
        "city_district": null,
        "city": null,
        "state": null,
        "postcode": null,
        "country": "Curacao",
        "country_code": "nl"
      },
      "address": "274 Caracasbaaiweg, Willemstad, Curacao"
    },
    {
      "lat": 12.091977679422099,
      "lon": -68.87225396683615,
      "geoinfo": {
        "display_name": "PMI Curacao - CBW  366 Holiday Apartments and Penthouses, 366, Caracasbaaiweg, Jan Thiel Oost, Jan Thiel, Curacao, Netherlands",
        "road": "Caracasbaaiweg",
        "house_number": "366",
        "neighbourhood": "Jan Thiel Oost",
        "suburb": null,
        "city_district": null,
        "city": null,
        "state": null,
        "postcode": null,
        "country": "Curacao",
        "country_code": "nl"
      },
      "address": "366 Caracasbaaiweg, Willemstad, Curacao"
    },
    {
      "lat": 12.117712559804797,
      "lon": -68.87859361732771,
      "geoinfo": {
        "display_name": "218, Seru Loraweg, Vreugdenberg, Scherpenheuvel, Seru Lora, Curacao, Netherlands",
        "road": "Seru Loraweg",
        "house_number": "218",
        "neighbourhood": "Vreugdenberg",
        "suburb": "Seru Lora",
        "city_district": null,
        "city": null,
        "state": null,
        "postcode": null,
        "country": "Curacao",
        "country_code": "nl"
      },
      "address": "218 Seru Loraweg, Willemstad, Curacao"
    },
    {
      "lat": 12.08224184219611,
      "lon": -68.86727012138977,
      "geoinfo": {
        "display_name": "PMI Curacao Tropical Treasure Penthouse, 403, Caracasbaaiweg, Vista Royal, Jan Thiel, Curacao, Netherlands",
        "road": "Caracasbaaiweg",
        "house_number": "403",
        "neighbourhood": "Vista Royal",
        "suburb": null,
        "city_district": null,
        "city": null,
        "state": null,
        "postcode": null,
        "country": "Curacao",
        "country_code": "nl"
      },
      "address": "403 Caracasbaaiweg, Willemstad, Curacao"
    },
    {
      "lat": 12.131351359886695,
      "lon": -68.85008423645768,
      "geoinfo": {
        "display_name": "Apartment Sjouk Curacao, 10, Kaya Progreso, Koraal Partier, Willemstad, Curacao, Netherlands",
        "road": "Kaya Progreso",
        "house_number": "10",
        "neighbourhood": "Koraal Partier",
        "suburb": null,
        "city_district": null,
        "city": "Willemstad",
        "state": null,
        "postcode": null,
        "country": "Curacao",
        "country_code": "nl"
      },
      "address": "10 Kaya Progreso, Willemstad, Curacao"
    },
    {
      "lat": 12.107860950554025,
      "lon": -68.89855762138113,
      "geoinfo": {
        "display_name": "2, Dividiviweg, Saliña, Koraal Specht, Willemstad, Curacao, 0000 NA, Netherlands",
        "road": "Dividiviweg",
        "house_number": "2",
        "neighbourhood": "Saliña",
        "suburb": "Koraal Specht",
        "city_district": null,
        "city": "Willemstad",
        "state": null,
        "postcode": "0000 NA",
        "country": "Curacao",
        "country_code": "nl"
      },
      "address": "2 Dividiviweg, Willemstad, Curacao"
    },
    {
      "lat": 12.106243367882477,
      "lon": -68.91449856881357,
      "geoinfo": {
        "display_name": "26, Nieuwe Pareraweg, Paradijs bij Hel, Berg Altena, Willemstad, Curacao, 0000 NA, Netherlands",
        "road": "Nieuwe Pareraweg",
        "house_number": "26",
        "neighbourhood": "Paradijs bij Hel",
        "suburb": "Berg Altena",
        "city_district": null,
        "city": "Willemstad",
        "state": null,
        "postcode": "0000 NA",
        "country": "Curacao",
        "country_code": "nl"
      },
      "address": "26 Nieuwe Pareraweg, Willemstad, Curacao"
    },
    {
      "lat": 12.099206878426758,
      "lon": -68.90843244157143,
      "geoinfo": {
        "display_name": "1, Djadostraat, Kustbatterij, Berg Altena, Willemstad, Curacao, 0000 NA, Netherlands",
        "road": "Djadostraat",
        "house_number": "1",
        "neighbourhood": "Kustbatterij",
        "suburb": "Berg Altena",
        "city_district": null,
        "city": "Willemstad",
        "state": null,
        "postcode": "0000 NA",
        "country": "Curacao",
        "country_code": "nl"
      },
      "address": "1 Djadostraat, Willemstad, Curacao"
    },
    {
      "lat": 12.103682249601258,
      "lon": -68.90974109870835,
      "geoinfo": {
        "display_name": "3, Kintjanweg, Kintjan, Berg Altena, Willemstad, Curacao, 0000 NA, Netherlands",
        "road": "Kintjanweg",
        "house_number": "3",
        "neighbourhood": "Kintjan",
        "suburb": "Berg Altena",
        "city_district": null,
        "city": "Willemstad",
        "state": null,
        "postcode": "0000 NA",
        "country": "Curacao",
        "country_code": "nl"
      },
      "address": "3 Kintjanweg, Willemstad, Curacao"
    },
    {
      "lat": 12.114324901870921,
      "lon": -68.9032431552192,
      "geoinfo": {
        "display_name": "Vista Bike, 7, Kaya Willem Mensing, Zeelandia, Curacao, 0000 NA, Netherlands",
        "road": "Kaya Willem Mensing",
        "house_number": "7",
        "neighbourhood": "Zeelandia",
        "suburb": null,
        "city_district": null,
        "city": null,
        "state": null,
        "postcode": "0000 NA",
        "country": "Curacao",
        "country_code": "nl"
      },
      "address": "7 Kaya Willem Mensing, Willemstad, Curacao"
    },
    {
      "lat": 12.12385623882436,
      "lon": -68.87851311696177,
      "geoinfo": {
        "display_name": "173, Sta Rosaweg, Sint Jansberg, Seru Lora, Curacao, Netherlands",
        "road": "Sta Rosaweg",
        "house_number": "173",
        "neighbourhood": "Sint Jansberg",
        "suburb": "Seru Lora",
        "city_district": null,
        "city": null,
        "state": null,
        "postcode": null,
        "country": "Curacao",
        "country_code": "nl"
      },
      "address": "173 Sta Rosaweg, Willemstad, Curacao"
    },
    {
      "lat": 12.108220184123502,
      "lon": -68.92431828313802,
      "geoinfo": {
        "display_name": "Blockchain Labs, 16, Presidente Rómulo Betancourt Boulevard, Arrarat, Berg Altena, Willemstad, Curacao, 0000 NA, Netherlands",
        "road": "Presidente Rómulo Betancourt Boulevard",
        "house_number": "16",
        "neighbourhood": "Arrarat",
        "suburb": "Berg Altena",
        "city_district": null,
        "city": "Willemstad",
        "state": null,
        "postcode": "0000 NA",
        "country": "Curacao",
        "country_code": "nl"
      },
      "address": "16 Presidente Rómulo Betancourt Boulevard, Willemstad, Curacao"
    },
    {
      "lat": 12.091694216989643,
      "lon": -68.90675630840173,
      "geoinfo": {
        "display_name": "87, Dokter Martin Luther King Boulevard, Marie Pampoen, Koraal Specht, Willemstad, Curacao, 0000 NA, Netherlands",
        "road": "Dokter Martin Luther King Boulevard",
        "house_number": "87",
        "neighbourhood": "Marie Pampoen",
        "suburb": "Koraal Specht",
        "city_district": null,
        "city": "Willemstad",
        "state": null,
        "postcode": "0000 NA",
        "country": "Curacao",
        "country_code": "nl"
      },
      "address": "87 Dokter Martin Luther King Boulevard, Willemstad, Curacao"
    },
    {
      "lat": 12.107819685692451,
      "lon": -68.91130873643569,
      "geoinfo": {
        "display_name": "Schottegatweg Zuid, Zeelandia, Berg Altena, Willemstad, Curacao, 0000 NA, Netherlands",
        "road": "Schottegatweg Zuid",
        "house_number": null,
        "neighbourhood": "Zeelandia",
        "suburb": "Berg Altena",
        "city_district": null,
        "city": "Willemstad",
        "state": null,
        "postcode": "0000 NA",
        "country": "Curacao",
        "country_code": "nl"
      },
      "address": "614, Schottegatweg Zuid, 0000 NA Willemstad, Curacao"
    },
    {
      "lat": 12.111457516099883,
      "lon": -68.92064185186142,
      "geoinfo": {
        "display_name": "Parera, Abattoirweg, Parera, Berg Altena, Willemstad, Curacao, 0000 NA, Netherlands",
        "road": "Abattoirweg",
        "house_number": null,
        "neighbourhood": "Parera",
        "suburb": "Berg Altena",
        "city_district": null,
        "city": "Willemstad",
        "state": null,
        "postcode": "0000 NA",
        "country": "Curacao",
        "country_code": "nl"
      },
      "address": "407, Abattoirweg, 0000 NA Willemstad, Curacao"
    },
    {
      "lat": 12.09575495301941,
      "lon": -68.91217367752536,
      "geoinfo": {
        "display_name": "Doradostraat, Marie Pampoen, Berg Altena, Willemstad, Curacao, 0000 NA, Netherlands",
        "road": "Doradostraat",
        "house_number": null,
        "neighbourhood": "Marie Pampoen",
        "suburb": "Berg Altena",
        "city_district": null,
        "city": "Willemstad",
        "state": null,
        "postcode": "0000 NA",
        "country": "Curacao",
        "country_code": "nl"
      },
      "address": "343, Doradostraat, 0000 NA Willemstad, Curacao"
    },
    {
      "lat": 12.104475679797808,
      "lon": -68.9199076232932,
      "geoinfo": {
        "display_name": "Versaillesweg, Coco, Berg Altena, Willemstad, Curacao, 0000 NA, Netherlands",
        "road": "Versaillesweg",
        "house_number": null,
        "neighbourhood": "Coco",
        "suburb": "Berg Altena",
        "city_district": null,
        "city": "Willemstad",
        "state": null,
        "postcode": "0000 NA",
        "country": "Curacao",
        "country_code": "nl"
      },
      "address": "193, Versaillesweg, 0000 NA Willemstad, Curacao"
    },
    {
      "lat": 12.11517931450724,
      "lon": -68.92560738861683,
      "geoinfo": {
        "display_name": "View on Schottegat, Fort Nassauweg, Arrarat, Berg Altena, Willemstad, Curacao, 0000 NA, Netherlands",
        "road": "Fort Nassauweg",
        "house_number": null,
        "neighbourhood": "Arrarat",
        "suburb": "Berg Altena",
        "city_district": null,
        "city": "Willemstad",
        "state": null,
        "postcode": "0000 NA",
        "country": "Curacao",
        "country_code": "nl"
      },
      "address": "285, Fort Nassauweg, 0000 NA Willemstad, Curacao"
    },
    {
      "lat": 12.098052026790707,
      "lon": -68.89525535634972,
      "geoinfo": {
        "display_name": "27, Kaya Chikucha, Wastuin, Koraal Specht, Willemstad, Curacao, 0000 NA, Netherlands",
        "road": "Kaya Chikucha",
        "house_number": "27",
        "neighbourhood": "Wastuin",
        "suburb": "Koraal Specht",
        "city_district": null,
        "city": "Willemstad",
        "state": null,
        "postcode": "0000 NA",
        "country": "Curacao",
        "country_code": "nl"
      },
      "address": "27, Kaya Chikucha, 0000 NA Willemstad, Curacao"
    },
    {
      "lat": 12.106661006322735,
      "lon": -68.90560752023634,
      "geoinfo": {
        "display_name": "Bankwerkersweg, Saliña, Berg Altena, Willemstad, Curacao, 0000 NA, Netherlands",
        "road": "Bankwerkersweg",
        "house_number": null,
        "neighbourhood": "Saliña",
        "suburb": "Berg Altena",
        "city_district": null,
        "city": "Willemstad",
        "state": null,
        "postcode": "0000 NA",
        "country": "Curacao",
        "country_code": "nl"
      },
      "address": "313, Bankwerkersweg, 0000 NA Willemstad, Curacao"
    },
    {
      "lat": 12.098191779289182,
      "lon": -68.87471134204664,
      "geoinfo": {
        "display_name": "WannaBike, 340, Caracasbaaiweg, Jan Thiel, Willemstad, Curacao, Netherlands",
        "road": "Caracasbaaiweg",
        "house_number": "340",
        "neighbourhood": "Jan Thiel",
        "suburb": null,
        "city_district": null,
        "city": "Willemstad",
        "state": null,
        "postcode": null,
        "country": "Curacao",
        "country_code": "nl"
      },
      "address": "340, Caracasbaaiweg, 63137 Willemstad, Curacao"
    },
    {
      "lat": 12.115515221396805,
      "lon": -68.91832258631725,
      "geoinfo": {
        "display_name": "Baaimacolaweg, Baai Macola, Berg Altena, Willemstad, Curacao, 0000 NA, Netherlands",
        "road": "Baaimacolaweg",
        "house_number": null,
        "neighbourhood": "Baai Macola",
        "suburb": "Berg Altena",
        "city_district": null,
        "city": "Willemstad",
        "state": null,
        "postcode": "0000 NA",
        "country": "Curacao",
        "country_code": "nl"
      },
      "address": "307, Baaimacolaweg, 0000 NA Willemstad, Curacao"
    },
    {
      "lat": 12.107034463850828,
      "lon": -68.8991937056419,
      "geoinfo": {
        "display_name": "2, Dividiviweg, Saliña, Koraal Specht, Willemstad, Curacao, 0000 NA, Netherlands",
        "road": "Dividiviweg",
        "house_number": "2",
        "neighbourhood": "Saliña",
        "suburb": "Koraal Specht",
        "city_district": null,
        "city": "Willemstad",
        "state": null,
        "postcode": "0000 NA",
        "country": "Curacao",
        "country_code": "nl"
      },
      "address": "2, Dividiviweg, 0000 NA Willemstad, Curacao"
    },
    {
      "lat": 12.102493497861865,
      "lon": -68.91200445591393,
      "geoinfo": {
        "display_name": "Kaya Madi, Kustbatterij, Berg Altena, Willemstad, Curacao, 0000 NA, Netherlands",
        "road": "Kaya Madi",
        "house_number": null,
        "neighbourhood": "Kustbatterij",
        "suburb": "Berg Altena",
        "city_district": null,
        "city": "Willemstad",
        "state": null,
        "postcode": "0000 NA",
        "country": "Curacao",
        "country_code": "nl"
      },
      "address": "695, Kaya Madi, 0000 NA Willemstad, Curacao"
    },
    {
      "lat": 12.11331092831254,
      "lon": -68.92898486224868,
      "geoinfo": {
        "display_name": "Fort Nassauweg, Arrarat, Berg Altena, Willemstad, Curacao, 0000 NA, Netherlands",
        "road": "Fort Nassauweg",
        "house_number": null,
        "neighbourhood": "Arrarat",
        "suburb": "Berg Altena",
        "city_district": null,
        "city": "Willemstad",
        "state": null,
        "postcode": "0000 NA",
        "country": "Curacao",
        "country_code": "nl"
      },
      "address": "219, Fort Nassauweg, 0000 NA Willemstad, Curacao"
    },
    {
      "lat": 12.104196833366311,
      "lon": -68.9076972563094,
      "geoinfo": {
        "display_name": "8a6, Kintjanweg, Kintjan, Berg Altena, Willemstad, Curacao, 0000 NA, Netherlands",
        "road": "Kintjanweg",
        "house_number": "8a6",
        "neighbourhood": "Kintjan",
        "suburb": "Berg Altena",
        "city_district": null,
        "city": "Willemstad",
        "state": null,
        "postcode": "0000 NA",
        "country": "Curacao",
        "country_code": "nl"
      },
      "address": "8a6, Kintjanweg, 0000 NA Willemstad, Curacao"
    },
    {
      "lat": 12.125670273447064,
      "lon": -68.9299500563036,
      "geoinfo": {
        "display_name": "Kortenaerstraat, Seru di Otrobanda, Otrobanda, Willemstad, Curacao, 0000 NA, Netherlands",
        "road": "Kortenaerstraat",
        "house_number": null,
        "neighbourhood": "Seru di Otrobanda",
        "suburb": "Otrobanda",
        "city_district": null,
        "city": "Willemstad",
        "state": null,
        "postcode": "0000 NA",
        "country": "Curacao",
        "country_code": "nl"
      },
      "address": "762, Kortenaerstraat, 0000 NA Willemstad, Curacao"
    },
    {
      "lat": 12.117213086848587,
      "lon": -68.91927533715777,
      "geoinfo": {
        "display_name": "Parera, Nightingaleweg, Parera, Berg Altena, Willemstad, Curacao, 0000 NA, Netherlands",
        "road": "Nightingaleweg",
        "house_number": null,
        "neighbourhood": "Parera",
        "suburb": "Berg Altena",
        "city_district": null,
        "city": "Willemstad",
        "state": null,
        "postcode": "0000 NA",
        "country": "Curacao",
        "country_code": "nl"
      },
      "address": "391, Nightingaleweg, 0000 NA Willemstad, Curacao"
    },
    {
      "lat": 12.113819612926482,
      "lon": -68.92972247126136,
      "geoinfo": {
        "display_name": "Fort Nassauweg, Arrarat, Berg Altena, Willemstad, Curacao, 0000 NA, Netherlands",
        "road": "Fort Nassauweg",
        "house_number": null,
        "neighbourhood": "Arrarat",
        "suburb": "Berg Altena",
        "city_district": null,
        "city": "Willemstad",
        "state": null,
        "postcode": "0000 NA",
        "country": "Curacao",
        "country_code": "nl"
      },
      "address": "832, Fort Nassauweg, 0000 NA Willemstad, Curacao"
    },
    {
      "lat": 12.105084171201026,
      "lon": -68.91159612043535,
      "geoinfo": {
        "display_name": "Metselaarsweg, Saliña, Berg Altena, Willemstad, Curacao, 0000 NA, Netherlands",
        "road": "Metselaarsweg",
        "house_number": null,
        "neighbourhood": "Saliña",
        "suburb": "Berg Altena",
        "city_district": null,
        "city": "Willemstad",
        "state": null,
        "postcode": "0000 NA",
        "country": "Curacao",
        "country_code": "nl"
      },
      "address": "021, Metselaarsweg, 0000 NA Willemstad, Curacao"
    },
    {
      "lat": 12.129139146877748,
      "lon": -68.91523919706233,
      "geoinfo": {
        "display_name": "Dokweg, Emmastad, Willemstad, Curacao, 0000 NA, Netherlands",
        "road": "Dokweg",
        "house_number": null,
        "neighbourhood": "Emmastad",
        "suburb": null,
        "city_district": null,
        "city": "Willemstad",
        "state": null,
        "postcode": "0000 NA",
        "country": "Curacao",
        "country_code": "nl"
      },
      "address": "962, Dokweg, 0000 NA Willemstad, Curacao"
    },
    {
      "lat": 12.107619879995774,
      "lon": -68.9085473584291,
      "geoinfo": {
        "display_name": "Center of Hope, 31, Lindberghweg, Saliña, Berg Altena, Willemstad, Curacao, 0000 NA, Netherlands",
        "road": "Lindberghweg",
        "house_number": "31",
        "neighbourhood": "Saliña",
        "suburb": "Berg Altena",
        "city_district": null,
        "city": "Willemstad",
        "state": null,
        "postcode": "0000 NA",
        "country": "Curacao",
        "country_code": "nl"
      },
      "address": "31, Lindberghweg, 0000 NA Willemstad, Curacao"
    },
    {
      "lat": 12.119418692201377,
      "lon": -68.91775611740275,
      "geoinfo": {
        "display_name": "Dokweg, Asiento, Willemstad, Curacao, 0000 NA, Netherlands",
        "road": "Dokweg",
        "house_number": null,
        "neighbourhood": "Asiento",
        "suburb": null,
        "city_district": null,
        "city": "Willemstad",
        "state": null,
        "postcode": "0000 NA",
        "country": "Curacao",
        "country_code": "nl"
      },
      "address": "217, Dokweg, 0000 NA Willemstad, Curacao"
    },
    {
      "lat": 12.102238460942242,
      "lon": -68.9233629846316,
      "geoinfo": {
        "display_name": "Nieuw Nederland, Berg Altena, Willemstad, Curacao, 0000 NA, Netherlands",
        "road": null,
        "house_number": null,
        "neighbourhood": "Nieuw Nederland",
        "suburb": "Berg Altena",
        "city_district": null,
        "city": "Willemstad",
        "state": null,
        "postcode": "0000 NA",
        "country": "Curacao",
        "country_code": "nl"
      },
      "address": "353, Nieuw Nederland, 0000 NA Willemstad, Curacao"
    },
    {
      "lat": 12.106435589959018,
      "lon": -68.9075156566424,
      "geoinfo": {
        "display_name": "39, Bankwerkersweg, Saliña, Berg Altena, Willemstad, Curacao, 0000 NA, Netherlands",
        "road": "Bankwerkersweg",
        "house_number": "39",
        "neighbourhood": "Saliña",
        "suburb": "Berg Altena",
        "city_district": null,
        "city": "Willemstad",
        "state": null,
        "postcode": "0000 NA",
        "country": "Curacao",
        "country_code": "nl"
      },
      "address": "39, Bankwerkersweg, 0000 NA Willemstad, Curacao"
    },
    {
      "lat": 12.114055132815974,
      "lon": -68.90955145474625,
      "geoinfo": {
        "display_name": "Omni BV, Kaya Jacob Posner, Zeelandia, Berg Altena, Willemstad, Curacao, 0000 NA, Netherlands",
        "road": "Kaya Jacob Posner",
        "house_number": null,
        "neighbourhood": "Zeelandia",
        "suburb": "Berg Altena",
        "city_district": null,
        "city": "Willemstad",
        "state": null,
        "postcode": "0000 NA",
        "country": "Curacao",
        "country_code": "nl"
      },
      "address": "428, Kaya Jacob Posner, 0000 NA Willemstad, Curacao"
    },
    {
      "lat": 12.108436088569068,
      "lon": -68.91019444895846,
      "geoinfo": {
        "display_name": "Schottegatweg Zuid, Zeelandia, Berg Altena, Willemstad, Curacao, 0000 NA, Netherlands",
        "road": "Schottegatweg Zuid",
        "house_number": null,
        "neighbourhood": "Zeelandia",
        "suburb": "Berg Altena",
        "city_district": null,
        "city": "Willemstad",
        "state": null,
        "postcode": "0000 NA",
        "country": "Curacao",
        "country_code": "nl"
      },
      "address": "154, Schottegatweg Zuid, 0000 NA Willemstad, Curacao"
    },
    {
      "lat": 12.131789353972806,
      "lon": -68.85460445655414,
      "geoinfo": {
        "display_name": "Kaya konkista 9, 9, Kaya W, Minguelito, Koraal Partier, Curacao, Netherlands",
        "road": "Kaya W",
        "house_number": "9",
        "neighbourhood": "Minguelito",
        "suburb": null,
        "city_district": null,
        "city": null,
        "state": null,
        "postcode": null,
        "country": "Curacao",
        "country_code": "nl"
      },
      "address": "9, Kaya W, 09293 Willemstad, Curacao"
    },
    {
      "lat": 12.084681734834962,
      "lon": -68.9054828866145,
      "geoinfo": {
        "display_name": "Dokter Martin Luther King Boulevard, Vredenberg bij Kintjan, Koraal Specht, Curacao, 0000 NA, Netherlands",
        "road": "Dokter Martin Luther King Boulevard",
        "house_number": null,
        "neighbourhood": "Vredenberg bij Kintjan",
        "suburb": "Koraal Specht",
        "city_district": null,
        "city": null,
        "state": null,
        "postcode": "0000 NA",
        "country": "Curacao",
        "country_code": "nl"
      },
      "address": "349, Dokter Martin Luther King Boulevard, 0000 NA Willemstad, Curacao"
    },
    {
      "lat": 12.108299299652428,
      "lon": -68.9273031192113,
      "geoinfo": {
        "display_name": "The Ritz Studios, 25, Scharlooweg, Scharloo, Berg Altena, Willemstad, Curacao, 0000 NA, Netherlands",
        "road": "Scharlooweg",
        "house_number": "25",
        "neighbourhood": "Scharloo",
        "suburb": "Berg Altena",
        "city_district": null,
        "city": "Willemstad",
        "state": null,
        "postcode": "0000 NA",
        "country": "Curacao",
        "country_code": "nl"
      },
      "address": "25, Scharlooweg, 0000 NA Willemstad, Curacao"
    },
    {
      "lat": 12.097993962660732,
      "lon": -68.9141206753475,
      "geoinfo": {
        "display_name": "1, Scheveningenstraat, Steenrijk, Berg Altena, Willemstad, Curacao, 0000 NA, Netherlands",
        "road": "Scheveningenstraat",
        "house_number": "1",
        "neighbourhood": "Steenrijk",
        "suburb": "Berg Altena",
        "city_district": null,
        "city": "Willemstad",
        "state": null,
        "postcode": "0000 NA",
        "country": "Curacao",
        "country_code": "nl"
      },
      "address": "1, Scheveningenstraat, 0000 NA Willemstad, Curacao"
    },
    {
      "lat": 12.101903273029887,
      "lon": -68.90461794505634,
      "geoinfo": {
        "display_name": "65, Dr. Hugenholtzweg, Vredenberg bij Kintjan, Koraal Specht, Willemstad, Curacao, 0000 NA, Netherlands",
        "road": "Dr. Hugenholtzweg",
        "house_number": "65",
        "neighbourhood": "Vredenberg bij Kintjan",
        "suburb": "Koraal Specht",
        "city_district": null,
        "city": "Willemstad",
        "state": null,
        "postcode": "0000 NA",
        "country": "Curacao",
        "country_code": "nl"
      },
      "address": "65, Dr. Hugenholtzweg, 0000 NA Willemstad, Curacao"
    },
    {
      "lat": 12.108689017823044,
      "lon": -68.91141451618587,
      "geoinfo": {
        "display_name": "Schottegatweg Zuid, Zeelandia, Berg Altena, Willemstad, Curacao, 0000 NA, Netherlands",
        "road": "Schottegatweg Zuid",
        "house_number": null,
        "neighbourhood": "Zeelandia",
        "suburb": "Berg Altena",
        "city_district": null,
        "city": "Willemstad",
        "state": null,
        "postcode": "0000 NA",
        "country": "Curacao",
        "country_code": "nl"
      },
      "address": "625, Schottegatweg Zuid, 0000 NA Willemstad, Curacao"
    },
    {
      "lat": 12.107279670937196,
      "lon": -68.92359962861025,
      "geoinfo": {
        "display_name": "Presidente Rómulo Betancourt Boulevard, Arrarat, Berg Altena, Willemstad, Curacao, 0000 NA, Netherlands",
        "road": "Presidente Rómulo Betancourt Boulevard",
        "house_number": null,
        "neighbourhood": "Arrarat",
        "suburb": "Berg Altena",
        "city_district": null,
        "city": "Willemstad",
        "state": null,
        "postcode": "0000 NA",
        "country": "Curacao",
        "country_code": "nl"
      },
      "address": "551, Presidente Rómulo Betancourt Boulevard, 0000 NA Willemstad, Curacao"
    },
    {
      "lat": 12.099837745568939,
      "lon": -68.89566401453533,
      "geoinfo": {
        "display_name": "26, Indjuweg, Jonisberg, Koraal Specht, Willemstad, Curacao, 0000 NA, Netherlands",
        "road": "Indjuweg",
        "house_number": "26",
        "neighbourhood": "Jonisberg",
        "suburb": "Koraal Specht",
        "city_district": null,
        "city": "Willemstad",
        "state": null,
        "postcode": "0000 NA",
        "country": "Curacao",
        "country_code": "nl"
      },
      "address": "26, Indjuweg, 0000 NA Willemstad, Curacao"
    },
    {
      "lat": 12.099703088520377,
      "lon": -68.92586308777496,
      "geoinfo": {
        "display_name": "Saint Tropez Oceanclub, 152, Kaya Wilson Godett, Pietermaai, Berg Altena, Willemstad, Curacao, 0000 NA, Netherlands",
        "road": "Kaya Wilson Godett",
        "house_number": "152",
        "neighbourhood": "Pietermaai",
        "suburb": "Berg Altena",
        "city_district": null,
        "city": "Willemstad",
        "state": null,
        "postcode": "0000 NA",
        "country": "Curacao",
        "country_code": "nl"
      },
      "address": "152, Kaya Wilson Godett, 0000 NA Willemstad, Curacao"
    },
    {
      "lat": 12.124168820955806,
      "lon": -68.92881341492875,
      "geoinfo": {
        "display_name": "Kortenaerstraat, Seru di Otrobanda, Otrobanda, Willemstad, Curacao, 0000 NA, Netherlands",
        "road": "Kortenaerstraat",
        "house_number": null,
        "neighbourhood": "Seru di Otrobanda",
        "suburb": "Otrobanda",
        "city_district": null,
        "city": "Willemstad",
        "state": null,
        "postcode": "0000 NA",
        "country": "Curacao",
        "country_code": "nl"
      },
      "address": "181, Kortenaerstraat, 0000 NA Willemstad, Curacao"
    },
    {
      "lat": 12.133877552380305,
      "lon": -68.9302744042179,
      "geoinfo": {
        "display_name": "Schottegatweg West, Asiento, Curacao, 0000 CW, Netherlands",
        "road": "Schottegatweg West",
        "house_number": null,
        "neighbourhood": "Asiento",
        "suburb": null,
        "city_district": null,
        "city": null,
        "state": null,
        "postcode": "0000 CW",
        "country": "Curacao",
        "country_code": "nl"
      },
      "address": "054, Schottegatweg West, 0000 CW Willemstad, Curacao"
    },
    {
      "lat": 12.112588981447537,
      "lon": -68.91374321298153,
      "geoinfo": {
        "display_name": "Kaya Dominico F. ‘Don’ Martina, Brionwerf, Nieuwe Haven, Berg Altena, Willemstad, Curacao, 0000 NA, Netherlands",
        "road": "Kaya Dominico F. ‘Don’ Martina",
        "house_number": null,
        "neighbourhood": "Brionwerf",
        "suburb": "Berg Altena",
        "city_district": null,
        "city": "Willemstad",
        "state": null,
        "postcode": "0000 NA",
        "country": "Curacao",
        "country_code": "nl"
      },
      "address": "602, Kaya Dominico F. ‘Don’ Martina, 0000 NA Willemstad, Curacao"
    },
    {
      "lat": 12.132636329936377,
      "lon": -68.93110523141365,
      "geoinfo": {
        "display_name": "Schottegatweg West, Asiento, Curacao, 0000 CW, Netherlands",
        "road": "Schottegatweg West",
        "house_number": null,
        "neighbourhood": "Asiento",
        "suburb": null,
        "city_district": null,
        "city": null,
        "state": null,
        "postcode": "0000 CW",
        "country": "Curacao",
        "country_code": "nl"
      },
      "address": "961, Schottegatweg West, 0000 CW Willemstad, Curacao"
    },
    {
      "lat": 12.103475780144333,
      "lon": -68.89486373895983,
      "geoinfo": {
        "display_name": "101, Granaatappelweg, Dominguito, Koraal Specht, Willemstad, Curacao, 0000 NA, Netherlands",
        "road": "Granaatappelweg",
        "house_number": "101",
        "neighbourhood": "Dominguito",
        "suburb": "Koraal Specht",
        "city_district": null,
        "city": "Willemstad",
        "state": null,
        "postcode": "0000 NA",
        "country": "Curacao",
        "country_code": "nl"
      },
      "address": "101, Granaatappelweg, 0000 NA Willemstad, Curacao"
    },
    {
      "lat": 12.103275209377426,
      "lon": -68.92336370829194,
      "geoinfo": {
        "display_name": "Plasa Horacio Hoyer, Scharloo, Berg Altena, Willemstad, Curacao, 0000 NA, Netherlands",
        "road": "Plasa Horacio Hoyer",
        "house_number": null,
        "neighbourhood": "Scharloo",
        "suburb": "Berg Altena",
        "city_district": null,
        "city": "Willemstad",
        "state": null,
        "postcode": "0000 NA",
        "country": "Curacao",
        "country_code": "nl"
      },
      "address": "833, Plasa Horacio Hoyer, 0000 NA Willemstad, Curacao"
    },
    {
      "lat": 12.10512152980483,
      "lon": -68.92347492354557,
      "geoinfo": {
        "display_name": "Sint Jago, Scharloo, Berg Altena, Willemstad, Curacao, 0000 NA, Netherlands",
        "road": "Sint Jago",
        "house_number": null,
        "neighbourhood": "Sint Jago",
        "suburb": "Berg Altena",
        "city_district": null,
        "city": "Willemstad",
        "state": null,
        "postcode": "0000 NA",
        "country": "Curacao",
        "country_code": "nl"
      },
      "address": "308, Sint Jago, 0000 NA Willemstad, Curacao"
    },
    {
      "lat": 12.10638443868715,
      "lon": -68.9205009459738,
      "geoinfo": {
        "display_name": "Professional Welders, Pletterijweg, Arrarat, Berg Altena, Willemstad, Curacao, 0000 NA, Netherlands",
        "road": "Pletterijweg",
        "house_number": null,
        "neighbourhood": "Arrarat",
        "suburb": "Berg Altena",
        "city_district": null,
        "city": "Willemstad",
        "state": null,
        "postcode": "0000 NA",
        "country": "Curacao",
        "country_code": "nl"
      },
      "address": "894, Pletterijweg, 0000 NA Willemstad, Curacao"
    },
    {
      "lat": 12.104361135138173,
      "lon": -68.92565985707202,
      "geoinfo": {
        "display_name": "Concordiastraat, Pietermaai, Berg Altena, Willemstad, Curacao, 0000 NA, Netherlands",
        "road": "Concordiastraat",
        "house_number": null,
        "neighbourhood": "Pietermaai",
        "suburb": "Berg Altena",
        "city_district": null,
        "city": "Willemstad",
        "state": null,
        "postcode": "0000 NA",
        "country": "Curacao",
        "country_code": "nl"
      },
      "address": "413, Concordiastraat, 0000 NA Willemstad, Curacao"
    },
    {
      "lat": 12.11268319425245,
      "lon": -68.91910262552825,
      "geoinfo": {
        "display_name": "Parera, Nightingaleweg, Parera, Berg Altena, Willemstad, Curacao, 0000 NA, Netherlands",
        "road": "Nightingaleweg",
        "house_number": null,
        "neighbourhood": "Parera",
        "suburb": "Berg Altena",
        "city_district": null,
        "city": "Willemstad",
        "state": null,
        "postcode": "0000 NA",
        "country": "Curacao",
        "country_code": "nl"
      },
      "address": "754, Nightingaleweg, 0000 NA Willemstad, Curacao"
    },
    {
      "lat": 12.140579064663594,
      "lon": -68.90174789950775,
      "geoinfo": {
        "display_name": "Motorcycle Rental Curacao, 30, Kaya Tiriyo, Chango, Matancia bij Groot Kwartier, Willemstad, Curacao, 0000 CW, Netherlands",
        "road": "Kaya Tiriyo",
        "house_number": "30",
        "neighbourhood": "Chango",
        "suburb": null,
        "city_district": null,
        "city": "Willemstad",
        "state": null,
        "postcode": "0000 CW",
        "country": "Curacao",
        "country_code": "nl"
      },
      "address": "30, Kaya Tiriyo, 0000 CW Willemstad, Curacao"
    },
    {
      "lat": 12.10524962978896,
      "lon": -68.91080122384686,
      "geoinfo": {
        "display_name": "2, Bankwerkersweg, Saliña, Berg Altena, Willemstad, Curacao, 0000 NA, Netherlands",
        "road": "Bankwerkersweg",
        "house_number": "2",
        "neighbourhood": "Saliña",
        "suburb": "Berg Altena",
        "city_district": null,
        "city": "Willemstad",
        "state": null,
        "postcode": "0000 NA",
        "country": "Curacao",
        "country_code": "nl"
      },
      "address": "2, Bankwerkersweg, 0000 NA Willemstad, Curacao"
    },
    {
      "lat": 12.101930611288482,
      "lon": -68.92348033525164,
      "geoinfo": {
        "display_name": "Nieuw Nederland, Berg Altena, Willemstad, Curacao, 0000 NA, Netherlands",
        "road": null,
        "house_number": null,
        "neighbourhood": "Nieuw Nederland",
        "suburb": "Berg Altena",
        "city_district": null,
        "city": "Willemstad",
        "state": null,
        "postcode": "0000 NA",
        "country": "Curacao",
        "country_code": "nl"
      },
      "address": "878, Nieuw Nederland, 0000 NA Willemstad, Curacao"
    },
    {
      "lat": 12.106008261116266,
      "lon": -68.91939379362077,
      "geoinfo": {
        "display_name": "Alto Vistaweg, Coco, Berg Altena, Willemstad, Curacao, 0000 NA, Netherlands",
        "road": "Alto Vistaweg",
        "house_number": null,
        "neighbourhood": "Coco",
        "suburb": "Berg Altena",
        "city_district": null,
        "city": "Willemstad",
        "state": null,
        "postcode": "0000 NA",
        "country": "Curacao",
        "country_code": "nl"
      },
      "address": "310, Alto Vistaweg, 0000 NA Willemstad, Curacao"
    },
    {
      "lat": 12.090420275440307,
      "lon": -68.90404202911549,
      "geoinfo": {
        "display_name": "Sunscape Curaçao Resort, Spa & Casino, 78, Dokter Martin Luther King Boulevard, Vredenberg bij Kintjan, Koraal Specht, Willemstad, Curacao, 0000 NA, Netherlands",
        "road": "Dokter Martin Luther King Boulevard",
        "house_number": "78",
        "neighbourhood": "Vredenberg bij Kintjan",
        "suburb": "Koraal Specht",
        "city_district": null,
        "city": "Willemstad",
        "state": null,
        "postcode": "0000 NA",
        "country": "Curacao",
        "country_code": "nl"
      },
      "address": "78, Dokter Martin Luther King Boulevard, 0000 NA Willemstad, Curacao"
    },
    {
      "lat": 12.104010973576074,
      "lon": -68.89619102592366,
      "geoinfo": {
        "display_name": "86, Granaatappelweg, Dominguito, Koraal Specht, Willemstad, Curacao, 0000 NA, Netherlands",
        "road": "Granaatappelweg",
        "house_number": "86",
        "neighbourhood": "Dominguito",
        "suburb": "Koraal Specht",
        "city_district": null,
        "city": "Willemstad",
        "state": null,
        "postcode": "0000 NA",
        "country": "Curacao",
        "country_code": "nl"
      },
      "address": "86, Granaatappelweg, 0000 NA Willemstad, Curacao"
    },
    {
      "lat": 12.120387139672559,
      "lon": -68.92689715220787,
      "geoinfo": {
        "display_name": "Fort Nassauweg, Arrarat, Berg Altena, Willemstad, Curacao, 0000 NA, Netherlands",
        "road": "Fort Nassauweg",
        "house_number": null,
        "neighbourhood": "Arrarat",
        "suburb": "Berg Altena",
        "city_district": null,
        "city": "Willemstad",
        "state": null,
        "postcode": "0000 NA",
        "country": "Curacao",
        "country_code": "nl"
      },
      "address": "877, Fort Nassauweg, 0000 NA Willemstad, Curacao"
    },
    {
      "lat": 12.118772827256187,
      "lon": -68.91362141471029,
      "geoinfo": {
        "display_name": "Palais Hindu, Kaya Dominico F. ‘Don’ Martina, Brionwerf, Nieuwe Haven, Willemstad, Curacao, 0000 NA, Netherlands",
        "road": "Kaya Dominico F. ‘Don’ Martina",
        "house_number": null,
        "neighbourhood": "Brionwerf",
        "suburb": null,
        "city_district": null,
        "city": "Willemstad",
        "state": null,
        "postcode": "0000 NA",
        "country": "Curacao",
        "country_code": "nl"
      },
      "address": "457, Kaya Dominico F. ‘Don’ Martina, 0000 NA Willemstad, Curacao"
    },
    {
      "lat": 12.099158465239684,
      "lon": -68.92025759536013,
      "geoinfo": {
        "display_name": "Beau Rivage Apartment, 254, Penstraat, Nieuw Nederland, Berg Altena, Willemstad, Curacao, 0000 NA, Netherlands",
        "road": "Penstraat",
        "house_number": "254",
        "neighbourhood": "Nieuw Nederland",
        "suburb": "Berg Altena",
        "city_district": null,
        "city": "Willemstad",
        "state": null,
        "postcode": "0000 NA",
        "country": "Curacao",
        "country_code": "nl"
      },
      "address": "254, Penstraat, 0000 NA Willemstad, Curacao"
    },
    {
      "lat": 12.131773312242256,
      "lon": -68.92839787533438,
      "geoinfo": {
        "display_name": "Schottegatweg West, Asiento, Curacao, 0000 CW, Netherlands",
        "road": "Schottegatweg West",
        "house_number": null,
        "neighbourhood": "Asiento",
        "suburb": null,
        "city_district": null,
        "city": null,
        "state": null,
        "postcode": "0000 CW",
        "country": "Curacao",
        "country_code": "nl"
      },
      "address": "195, Schottegatweg West, 0000 CW Willemstad, Curacao"
    }
  ],
  "updated_at": "2025-10-19T04:00:25.577445+00:00",
  "_kind": "geo_samples"
}