{
  "country_code": "NP",
  "country": "Nepal",
  "city": "Bharatpur",
  "geonameid": 1283613,
  "target_addresses": 3,
  "samples": [
    {
      "lat": 27.63837672743697,
      "lon": 84.43753590014735,
      "geoinfo": {
        "display_name": "Gauriganj, Bharatpur-08, Bharatpur, Chitwan, Bagamati Province, 44200, Nepal",
        "road": null,
        "house_number": null,
        "neighbourhood": null,
        "suburb": "Gauriganj",
        "city_district": "Bharatpur-08",
        "city": "Bharatpur",
        "state": "Bagamati Province",
        "postcode": "44200",
        "country": "Nepal",
        "country_code": "np"
      },
      "address": "Gauriganj, Bharatpur, Bagamati Province, Nepal"
    },
    {
      "lat": 27.65210049321024,
      "lon": 84.43327082116659,
      "geoinfo": {
        "display_name": "SOS Children's Village Bharatpur, Bharatpur-08, Bharatpur, Chitwan, Bagamati Province, 44200, Nepal",
        "road": null,
        "house_number": null,
        "neighbourhood": null,
        "suburb": null,
        "city_district": "Bharatpur-08",
        "city": "Bharatpur",
        "state": "Bagamati Province",
        "postcode": "44200",
        "country": "Nepal",
        "country_code": "np"
      },
      "address": "Bharatpur-08, Bharatpur, Bagamati Province, Nepal"
    },
    {
      "lat": 27.669169403196893,
      "lon": 84.39031548881181,
      "geoinfo": {
        "display_name": "Bharatpur-04, Bharatpur, Chitwan, Bagamati Province, 44209, Nepal",
        "road": null,
        "house_number": null,
        "neighbourhood": null,
        "suburb": null,
        "city_district": "Bharatpur-04",
        "city": "Bharatpur",
        "state": "Bagamati Province",
        "postcode": "44209",
        "country": "Nepal",
        "country_code": "np"
      },
      "address": "Bharatpur-04, Bharatpur, Bagamati Province, Nepal"
    },
    {
      "lat": 27.684708304355553,
      "lon": 84.40538615876952,
      "geoinfo": {
        "display_name": "Baraghare, Bharatpur-03, Bharatpur, Chitwan, Bagamati Province, 44027, Nepal",
        "road": null,
        "house_number": null,
        "neighbourhood": null,
        "suburb": "Baraghare",
        "city_district": "Bharatpur-03",
        "city": "Bharatpur",
        "state": "Bagamati Province",
        "postcode": "44027",
        "country": "Nepal",
        "country_code": "np"
      },
      "address": "Baraghare, Bharatpur-03, Bharatpur, Chitwan, Bagamati Province, 44027, Nepal"
    },
    {
      "lat": 27.671416503097454,
      "lon": 84.42312175695939,
      "geoinfo": {
        "display_name": "Bharatpur-10, Bharatpur, Chitwan, Bagamati Province, 44207, Nepal",
        "road": null,
        "house_number": null,
        "neighbourhood": null,
        "suburb": null,
        "city_district": "Bharatpur-10",
        "city": "Bharatpur",
        "state": "Bagamati Province",
        "postcode": "44207",
        "country": "Nepal",
        "country_code": "np"
      },
      "address": "Bharatpur-10, Bharatpur, Chitwan, Bagamati Province, 44207, Nepal"
    },
    {
      "lat": 27.65877687821447,
      "lon": 84.47679237088032,
      "geoinfo": {
        "display_name": "Bharatpur-12, Bharatpur, Chitwan, Bagamati Province, Nepal",
        "road": null,
        "house_number": null,
        "neighbourhood": null,
        "suburb": null,
        "city_district": "Bharatpur-12",
        "city": "Bharatpur",
        "state": "Bagamati Province",
        "postcode": null,
        "country": "Nepal",
        "country_code": "np"
      },
      "address": "Bharatpur-12, Bharatpur, Chitwan, 19936 Bagamati Province, Nepal"
    }
  ],
  "updated_at": "2025-10-19T04:11:34.570777+00:00",
  "_kind": "geo_samples"
}