{
  "country_code": "NP",
  "country": "Nepal",
  "city": "Dhankutā",
  "geonameid": 1283465,
  "target_addresses": 3,
  "samples": [
    {
      "lat": 26.99784810738048,
      "lon": 87.30099735880944,
      "geoinfo": {
        "display_name": "Dhankuta-10, Dhankuta, Koshi Province, 56800, Nepal",
        "road": null,
        "house_number": null,
        "neighbourhood": null,
        "suburb": null,
        "city_district": "Dhankuta-10",
        "city": null,
        "state": "Koshi Province",
        "postcode": "56800",
        "country": "Nepal",
        "country_code": "np"
      },
      "address": "Dhankuta-10, Dhankutā, Koshi Province, Nepal"
    },
    {
      "lat": 26.99123796995525,
      "lon": 87.3799500761968,
      "geoinfo": {
        "display_name": "Dhungegau, Chhathar Jorpati-03, Chhathar Jorpati, Dhankuta, Koshi Province, 56800, Nepal",
        "road": null,
        "house_number": null,
        "neighbourhood": null,
        "suburb": null,
        "city_district": "Chhathar Jorpati-03",
        "city": null,
        "state": "Koshi Province",
        "postcode": "56800",
        "country": "Nepal",
        "country_code": "np"
      },
      "address": "Chhathar Jorpati-03, Dhankutā, Koshi Province, Nepal"
    },
    {
      "lat": 26.98925470336339,
      "lon": 87.35853796133911,
      "geoinfo": {
        "display_name": "Dhankuta-04, Dhankuta, Koshi Province, Nepal",
        "road": null,
        "house_number": null,
        "neighbourhood": null,
        "suburb": null,
        "city_district": "Dhankuta-04",
        "city": null,
        "state": "Koshi Province",
        "postcode": null,
        "country": "Nepal",
        "country_code": "np"
      },
      "address": "Dhankuta-04, Dhankutā, Koshi Province, Nepal"
    },
    {
      "lat": 26.9503105925625,
      "lon": 87.34228464319149,
      "geoinfo": {
        "display_name": "Dhankuta-08, Bachhalalaiya Devi tole, Dhankuta, Koshi Province, 56800, Nepal",
        "road": null,
        "house_number": null,
        "neighbourhood": null,
        "suburb": null,
        "city_district": "Dhankuta-08",
        "city": "Bachhalalaiya Devi tole",
        "state": "Koshi Province",
        "postcode": "56800",
        "country": "Nepal",
        "country_code": "np"
      },
      "address": "Dhankuta-08, Dhankutā, 56800 Koshi Province, Nepal"
    },
    {
      "lat": 26.96914408961403,
      "lon": 87.33958833716964,
      "geoinfo": {
        "display_name": "Chirbire chautara-Zero point, Dhankuta-06, Bachhalalaiya Devi tole, Dhankuta, Koshi Province, 56800, Nepal",
        "road": "Chirbire chautara-Zero point",
        "house_number": null,
        "neighbourhood": null,
        "suburb": null,
        "city_district": "Dhankuta-06",
        "city": "Bachhalalaiya Devi tole",
        "state": "Koshi Province",
        "postcode": "56800",
        "country": "Nepal",
        "country_code": "np"
      },
      "address": "801, Chirbire chautara-Zero point, Dhankutā, 56800 Koshi Province, Nepal"
    },
    {
      "lat": 26.95756079362602,
      "lon": 87.36742591070525,
      "geoinfo": {
        "display_name": "Triveni - Yakchana Road, Dhankuta-08, Tomuwa Tole, Dhankuta, Koshi Province, 56800, Nepal",
        "road": "Triveni - Yakchana Road",
        "house_number": null,
        "neighbourhood": null,
        "suburb": null,
        "city_district": "Dhankuta-08",
        "city": "Tomuwa Tole",
        "state": "Koshi Province",
        "postcode": "56800",
        "country": "Nepal",
        "country_code": "np"
      },
      "address": "100, Triveni - Yakchana Road, Dhankutā, 56800 Koshi Province, Nepal"
    }
  ],
  "updated_at": "2025-10-19T06:23:56.538208+00:00",
  "_kind": "geo_samples"
}