{
  "country_code": "NP",
  "country": "Nepal",
  "city": "Dārchulā",
  "geonameid": 1283484,
  "target_addresses": 3,
  "samples": [
    {
      "lat": 29.820087329303018,
      "lon": 80.58655306314691,
      "geoinfo": {
        "display_name": "75DR009, Sela, Mahakali-03, Mulla, Mahakali, Darchula District (Nepal), Sudurpashchim Province, Nepal",
        "road": "75DR009",
        "house_number": null,
        "neighbourhood": null,
        "suburb": null,
        "city_district": "Mahakali-03",
        "city": "Mulla",
        "state": "Sudurpashchim Province",
        "postcode": null,
        "country": "Nepal",
        "country_code": "np"
      },
      "address": "75DR009, Dārchulā, Sudurpashchim Province, Nepal"
    },
    {
      "lat": 29.824026333187046,
      "lon": 80.54800564068786,
      "geoinfo": {
        "display_name": "धौलीगाड, Mahakali-05, Khalanga, Mahakali, Darchula District (Nepal), Sudurpashchim Province, Nepal",
        "road": null,
        "house_number": null,
        "neighbourhood": null,
        "suburb": null,
        "city_district": "Mahakali-05",
        "city": "Khalanga",
        "state": "Sudurpashchim Province",
        "postcode": null,
        "country": "Nepal",
        "country_code": "np"
      },
      "address": "Mahakali-05, Dārchulā, Sudurpashchim Province, Nepal"
    },
    {
      "lat": 29.81227075214631,
      "lon": 80.5731408192536,
      "geoinfo": {
        "display_name": "Manakot, Mahakali-03, Mahakali, Darchula District (Nepal), Sudurpashchim Province, Nepal",
        "road": null,
        "house_number": null,
        "neighbourhood": null,
        "suburb": null,
        "city_district": "Mahakali-03",
        "city": null,
        "state": "Sudurpashchim Province",
        "postcode": null,
        "country": "Nepal",
        "country_code": "np"
      },
      "address": "Mahakali-03, Dārchulā, Sudurpashchim Province, Nepal"
    },
    {
      "lat": 29.83259589112157,
      "lon": 80.56453360650771,
      "geoinfo": {
        "display_name": "Baj, Mahakali-03, Dungri, Mahakali, Darchula District (Nepal), Sudurpashchim Province, Nepal",
        "road": null,
        "house_number": null,
        "neighbourhood": null,
        "suburb": null,
        "city_district": "Mahakali-03",
        "city": "Dungri",
        "state": "Sudurpashchim Province",
        "postcode": null,
        "country": "Nepal",
        "country_code": "np"
      },
      "address": "Mahakali-03, Dārchulā, 86445 Sudurpashchim Province, Nepal"
    },
    {
      "lat": 29.827238231533535,
      "lon": 80.5656250272024,
      "geoinfo": {
        "display_name": "Baj, Mahakali-03, Dungri, Mahakali, Darchula District (Nepal), Sudurpashchim Province, Nepal",
        "road": null,
        "house_number": null,
        "neighbourhood": null,
        "suburb": null,
        "city_district": "Mahakali-03",
        "city": "Dungri",
        "state": "Sudurpashchim Province",
        "postcode": null,
        "country": "Nepal",
        "country_code": "np"
      },
      "address": "Mahakali-03, Dārchulā, 65169 Sudurpashchim Province, Nepal"
    },
    {
      "lat": 29.831770442292047,
      "lon": 80.54362543292382,
      "geoinfo": {
        "display_name": "Dhauligadgau, Mahakali-05, Khalanga, Mahakali, Darchula District (Nepal), Sudurpashchim Province, Nepal",
        "road": null,
        "house_number": null,
        "neighbourhood": null,
        "suburb": null,
        "city_district": "Mahakali-05",
        "city": "Khalanga",
        "state": "Sudurpashchim Province",
        "postcode": null,
        "country": "Nepal",
        "country_code": "np"
      },
      "address": "Mahakali-05, Dārchulā, 82502 Sudurpashchim Province, Nepal"
    }
  ],
  "updated_at": "2025-10-19T04:52:41.528913+00:00",
  "_kind": "geo_samples"
}