{
  "country_code": "NP",
  "country": "Nepal",
  "city": "Gaur",
  "geonameid": 1283401,
  "target_addresses": 3,
  "samples": [
    {
      "lat": 26.77216601119917,
      "lon": 85.25630327683034,
      "geoinfo": {
        "display_name": "Gaur-04, Gaur, Rautahat, Madhesh Province, Nepal",
        "road": null,
        "house_number": null,
        "neighbourhood": null,
        "suburb": null,
        "city_district": "Gaur-04",
        "city": "Gaur",
        "state": "Madhesh Province",
        "postcode": null,
        "country": "Nepal",
        "country_code": "np"
      },
      "address": "Gaur-04, Gaur, Madhesh Province, Nepal"
    },
    {
      "lat": 26.788336300582493,
      "lon": 85.25359757531567,
      "geoinfo": {
        "display_name": "Gaur-06, Gaur, Rautahat, Madhesh Province, Nepal",
        "road": null,
        "house_number": null,
        "neighbourhood": null,
        "suburb": null,
        "city_district": "Gaur-06",
        "city": "Gaur",
        "state": "Madhesh Province",
        "postcode": null,
        "country": "Nepal",
        "country_code": "np"
      },
      "address": "Gaur-06, Gaur, Madhesh Province, Nepal"
    },
    {
      "lat": 26.759151746609742,
      "lon": 85.28393556989558,
      "geoinfo": {
        "display_name": "Temple, NH36, Gaur-01, Gaur, Rautahat, Madhesh Province, Nepal",
        "road": "NH36",
        "house_number": null,
        "neighbourhood": null,
        "suburb": null,
        "city_district": "Gaur-01",
        "city": "Gaur",
        "state": "Madhesh Province",
        "postcode": null,
        "country": "Nepal",
        "country_code": "np"
      },
      "address": "NH36, Gaur, Madhesh Province, Nepal"
    }
  ],
  "updated_at": "2025-10-16T20:28:59.051489+00:00",
  "_kind": "geo_samples"
}