{
  "country_code": "NP",
  "country": "Nepal",
  "city": "Hetauda",
  "geonameid": 1283339,
  "target_addresses": 3,
  "samples": [
    {
      "lat": 27.417265020739624,
      "lon": 84.99598650143201,
      "geoinfo": {
        "display_name": "Hetauda-12, Hetauda, Makwanpur, Bagamati Province, 44107, Nepal",
        "road": null,
        "house_number": null,
        "neighbourhood": null,
        "suburb": null,
        "city_district": "Hetauda-12",
        "city": "Hetauda",
        "state": "Bagamati Province",
        "postcode": "44107",
        "country": "Nepal",
        "country_code": "np"
      },
      "address": "Hetauda-12, Hetauda, Bagamati Province, Nepal"
    },
    {
      "lat": 27.390004623313676,
      "lon": 85.0499405021915,
      "geoinfo": {
        "display_name": "Hetauda-15, Hetauda, Makwanpur, Bagamati Province, 40400, Nepal",
        "road": null,
        "house_number": null,
        "neighbourhood": null,
        "suburb": null,
        "city_district": "Hetauda-15",
        "city": "Hetauda",
        "state": "Bagamati Province",
        "postcode": "40400",
        "country": "Nepal",
        "country_code": "np"
      },
      "address": "Hetauda-15, Hetauda, Bagamati Province, Nepal"
    },
    {
      "lat": 27.400289863063634,
      "lon": 85.00140508487371,
      "geoinfo": {
        "display_name": "Hetauda-14, Hetauda, Makwanpur, Bagamati Province, 44107, Nepal",
        "road": null,
        "house_number": null,
        "neighbourhood": null,
        "suburb": null,
        "city_district": "Hetauda-14",
        "city": "Hetauda",
        "state": "Bagamati Province",
        "postcode": "44107",
        "country": "Nepal",
        "country_code": "np"
      },
      "address": "Hetauda-14, Hetauda, Bagamati Province, Nepal"
    },
    {
      "lat": 27.442753622531196,
      "lon": 84.9895925552339,
      "geoinfo": {
        "display_name": "Saraswati Road, Hetauda-11, Hetauda, Makwanpur, Bagamati Province, Nepal",
        "road": "Saraswati Road",
        "house_number": null,
        "neighbourhood": null,
        "suburb": null,
        "city_district": "Hetauda-11",
        "city": "Hetauda",
        "state": "Bagamati Province",
        "postcode": null,
        "country": "Nepal",
        "country_code": "np"
      },
      "address": "339, Saraswati Road, Hetauda-11, Hetauda, Makwanpur, Bagamati Province, Nepal"
    },
    {
      "lat": 27.46013703901664,
      "lon": 85.02600168534069,
      "geoinfo": {
        "display_name": "Hetauda-01, Hetauda, Makwanpur, Bagamati Province, 44107, Nepal",
        "road": null,
        "house_number": null,
        "neighbourhood": null,
        "suburb": null,
        "city_district": "Hetauda-01",
        "city": "Hetauda",
        "state": "Bagamati Province",
        "postcode": "44107",
        "country": "Nepal",
        "country_code": "np"
      },
      "address": "Hetauda-01, Hetauda, Makwanpur, Bagamati Province, 44107, Nepal"
    },
    {
      "lat": 27.390257509942124,
      "lon": 85.02935747227782,
      "geoinfo": {
        "display_name": "Fireline Marg, Hetauda-08, Churiyamai, Hetauda, Makwanpur, Bagamati Province, 44107, Nepal",
        "road": "Fireline Marg",
        "house_number": null,
        "neighbourhood": null,
        "suburb": null,
        "city_district": "Hetauda-08",
        "city": "Churiyamai",
        "state": "Bagamati Province",
        "postcode": "44107",
        "country": "Nepal",
        "country_code": "np"
      },
      "address": "Fireline Marg, Hetauda-08, Churiyamai, Hetauda, Makwanpur, Bagamati Province, 44107, Nepal"
    }
  ],
  "updated_at": "2025-10-19T06:26:04.362469+00:00",
  "_kind": "geo_samples"
}