{
  "country_code": "NP",
  "country": "Nepal",
  "city": "Kathmandu",
  "geonameid": 1283240,
  "target_addresses": 14,
  "samples": [
    {
      "lat": 27.739726068214452,
      "lon": 85.30598941973997,
      "geoinfo": {
        "display_name": "Machhapokhari, Kathmandu-16, Kathmandu Metropolitan City, Kathmandu, Bagamati Province, 00971, Nepal",
        "road": null,
        "house_number": null,
        "neighbourhood": null,
        "suburb": "Machhapokhari",
        "city_district": "Kathmandu-16",
        "city": "Kathmandu Metropolitan City",
        "state": "Bagamati Province",
        "postcode": "00971",
        "country": "Nepal",
        "country_code": "np"
      },
      "address": "Machhapokhari, Kathmandu, Bagamati Province, Nepal"
    },
    {
      "lat": 27.72851528500916,
      "lon": 85.33041161555816,
      "geoinfo": {
        "display_name": "80-17, Buddhi Sagar Marg, Panipokhari, Kathmandu-04, Kathmandu Metropolitan City, Kathmandu, Bagamati Province, 10378, Nepal",
        "road": "Buddhi Sagar Marg",
        "house_number": "80-17",
        "neighbourhood": null,
        "suburb": "Panipokhari",
        "city_district": "Kathmandu-04",
        "city": "Kathmandu Metropolitan City",
        "state": "Bagamati Province",
        "postcode": "10378",
        "country": "Nepal",
        "country_code": "np"
      },
      "address": "80-17 Buddhi Sagar Marg, Kathmandu, Bagamati Province, Nepal"
    },
    {
      "lat": 27.719943839603644,
      "lon": 85.3205923314143,
      "geoinfo": {
        "display_name": "Radisson Hotel Kathmandu, Lazimpat, Kathmandu-02, Kathmandu Metropolitan City, Kathmandu, Bagamati Province, 21255, Nepal",
        "road": null,
        "house_number": null,
        "neighbourhood": null,
        "suburb": "Lazimpat",
        "city_district": "Kathmandu-02",
        "city": "Kathmandu Metropolitan City",
        "state": "Bagamati Province",
        "postcode": "21255",
        "country": "Nepal",
        "country_code": "np"
      },
      "address": "Lazimpat, Kathmandu, Bagamati Province, Nepal"
    },
    {
      "lat": 27.70529130059432,
      "lon": 85.2787733487796,
      "geoinfo": {
        "display_name": "Nagarjun-04, Nagarjun, Nagarjun Municipality, Kathmandu, Bagamati Province, 44620, Nepal",
        "road": null,
        "house_number": null,
        "neighbourhood": null,
        "suburb": null,
        "city_district": "Nagarjun-04",
        "city": "Nagarjun",
        "state": "Bagamati Province",
        "postcode": "44620",
        "country": "Nepal",
        "country_code": "np"
      },
      "address": "Nagarjun-04, Nagarjun, Nagarjun Municipality, Kathmandu, Bagamati Province, 44620, Nepal"
    },
    {
      "lat": 27.728518208344944,
      "lon": 85.33124899051887,
      "geoinfo": {
        "display_name": "International Organization For Migration (IOM), Thirbam Sadak, Kiran Chok, Baluwatar, Kathmandu-04, Kathmandu Metropolitan City, Kathmandu, Bagamati Province, 44616, Nepal",
        "road": "Thirbam Sadak",
        "house_number": null,
        "neighbourhood": "Kiran Chok",
        "suburb": "Baluwatar",
        "city_district": "Kathmandu-04",
        "city": "Kathmandu Metropolitan City",
        "state": "Bagamati Province",
        "postcode": "44616",
        "country": "Nepal",
        "country_code": "np"
      },
      "address": "International Organization For Migration (IOM), Thirbam Sadak, Kiran Chok, Baluwatar, Kathmandu-04, Kathmandu Metropolitan City, Kathmandu, Bagamati Province, 44616, Nepal"
    },
    {
      "lat": 27.701888365179926,
      "lon": 85.31297289949515,
      "geoinfo": {
        "display_name": "Tinikhya Galli, Kathmandu-22, Kathmandu Metropolitan City, Kathmandu, Bagamati Province, 44066, Nepal",
        "road": "Tinikhya Galli",
        "house_number": null,
        "neighbourhood": null,
        "suburb": null,
        "city_district": "Kathmandu-22",
        "city": "Kathmandu Metropolitan City",
        "state": "Bagamati Province",
        "postcode": "44066",
        "country": "Nepal",
        "country_code": "np"
      },
      "address": "Tinikhya Galli, Kathmandu-22, Kathmandu Metropolitan City, Kathmandu, Bagamati Province, 44066, Nepal"
    },
    {
      "lat": 27.739495095125218,
      "lon": 85.31725649549323,
      "geoinfo": {
        "display_name": "Nav Milan Bastii, Tokha-10, Tokha, Tokha Municipality, Kathmandu, Bagamati Province, 21775, Nepal",
        "road": null,
        "house_number": null,
        "neighbourhood": "Nav Milan Bastii",
        "suburb": null,
        "city_district": "Tokha-10",
        "city": "Tokha",
        "state": "Bagamati Province",
        "postcode": "21775",
        "country": "Nepal",
        "country_code": "np"
      },
      "address": "Nav Milan Bastii, Tokha-10, Tokha, Tokha Municipality, Kathmandu, Bagamati Province, 21775, Nepal"
    },
    {
      "lat": 27.722777570705592,
      "lon": 85.31389452025542,
      "geoinfo": {
        "display_name": "Parakrami Marg, Lainchaur, Kathmandu-26, Kathmandu Metropolitan City, Kathmandu, Bagamati Province, 25515, Nepal",
        "road": "Parakrami Marg",
        "house_number": null,
        "neighbourhood": null,
        "suburb": "Lainchaur",
        "city_district": "Kathmandu-26",
        "city": "Kathmandu Metropolitan City",
        "state": "Bagamati Province",
        "postcode": "25515",
        "country": "Nepal",
        "country_code": "np"
      },
      "address": "Parakrami Marg, Lainchaur, Kathmandu-26, Kathmandu Metropolitan City, Kathmandu, Bagamati Province, 25515, Nepal"
    },
    {
      "lat": 27.723950059042288,
      "lon": 85.36231104315121,
      "geoinfo": {
        "display_name": "Ka-Nying Shedrup Ling, 1, to norbu guesthouse, Sundar Tole, Tinchuli, Kathmandu-06, Kathmandu Metropolitan City, Kathmandu, Bagamati Province, 13958, Nepal",
        "road": "to norbu guesthouse",
        "house_number": "1",
        "neighbourhood": "Sundar Tole",
        "suburb": "Tinchuli",
        "city_district": "Kathmandu-06",
        "city": "Kathmandu Metropolitan City",
        "state": "Bagamati Province",
        "postcode": "13958",
        "country": "Nepal",
        "country_code": "np"
      },
      "address": "Ka-Nying Shedrup Ling, 1, to norbu guesthouse, Sundar Tole, Tinchuli, Kathmandu-06, Kathmandu Metropolitan City, Kathmandu, Bagamati Province, 13958, Nepal"
    },
    {
      "lat": 27.718847240207737,
      "lon": 85.3526353762896,
      "geoinfo": {
        "display_name": "LIC Chabahil, Chabhil-Baudha-Jorpati Road, Chuchepati, Baudha, Kathmandu-07, Kathmandu Metropolitan City, Kathmandu, Bagamati Province, 44660, Nepal",
        "road": "Chabhil-Baudha-Jorpati Road",
        "house_number": null,
        "neighbourhood": "Chuchepati",
        "suburb": "Baudha",
        "city_district": "Kathmandu-07",
        "city": "Kathmandu Metropolitan City",
        "state": "Bagamati Province",
        "postcode": "44660",
        "country": "Nepal",
        "country_code": "np"
      },
      "address": "LIC Chabahil, Chabhil-Baudha-Jorpati Road, Chuchepati, Baudha, Kathmandu-07, Kathmandu Metropolitan City, Kathmandu, Bagamati Province, 44660, Nepal"
    },
    {
      "lat": 27.719936600667953,
      "lon": 85.33670251117306,
      "geoinfo": {
        "display_name": "51, Dhan Ganesh Galli, Dathu Tol, Kathmandu-05, Kathmandu Metropolitan City, Kathmandu, Bagamati Province, 00975, Nepal",
        "road": "Dhan Ganesh Galli",
        "house_number": "51",
        "neighbourhood": "Dathu Tol",
        "suburb": null,
        "city_district": "Kathmandu-05",
        "city": "Kathmandu Metropolitan City",
        "state": "Bagamati Province",
        "postcode": "00975",
        "country": "Nepal",
        "country_code": "np"
      },
      "address": "51, Dhan Ganesh Galli, Dathu Tol, Kathmandu-05, Kathmandu Metropolitan City, Kathmandu, Bagamati Province, 00975, Nepal"
    },
    {
      "lat": 27.69757000435533,
      "lon": 85.31186700620913,
      "geoinfo": {
        "display_name": "Kathmandu-22, Kathmandu Metropolitan City, Kathmandu, Bagamati Province, 04110, Nepal",
        "road": null,
        "house_number": null,
        "neighbourhood": null,
        "suburb": null,
        "city_district": "Kathmandu-22",
        "city": "Kathmandu Metropolitan City",
        "state": "Bagamati Province",
        "postcode": "04110",
        "country": "Nepal",
        "country_code": "np"
      },
      "address": "Kathmandu-22, Kathmandu Metropolitan City, Kathmandu, Bagamati Province, 04110, Nepal"
    },
    {
      "lat": 27.689501211420225,
      "lon": 85.34825538125321,
      "geoinfo": {
        "display_name": "slum area, Om Shanti Chok, Kathmandu-31, Kathmandu Metropolitan City, Kathmandu, Bagamati Province, 44703, Nepal",
        "road": null,
        "house_number": null,
        "neighbourhood": null,
        "suburb": null,
        "city_district": "Kathmandu-31",
        "city": "Kathmandu Metropolitan City",
        "state": "Bagamati Province",
        "postcode": "44703",
        "country": "Nepal",
        "country_code": "np"
      },
      "address": "slum area, Om Shanti Chok, Kathmandu-31, Kathmandu Metropolitan City, Kathmandu, Bagamati Province, 44703, Nepal"
    },
    {
      "lat": 27.700554455405566,
      "lon": 85.33977467676152,
      "geoinfo": {
        "display_name": "Naya Baneshwar, Kathmandu-10, Kathmandu Metropolitan City, Kathmandu, Bagamati Province, 44703, Nepal",
        "road": null,
        "house_number": null,
        "neighbourhood": null,
        "suburb": "Naya Baneshwar",
        "city_district": "Kathmandu-10",
        "city": "Kathmandu Metropolitan City",
        "state": "Bagamati Province",
        "postcode": "44703",
        "country": "Nepal",
        "country_code": "np"
      },
      "address": "Naya Baneshwar, Kathmandu-10, Kathmandu Metropolitan City, Kathmandu, Bagamati Province, 44703, Nepal"
    }
  ],
  "updated_at": "2025-10-19T06:02:08.848417+00:00",
  "_kind": "geo_samples"
}