{
  "country_code": "NP",
  "country": "Nepal",
  "city": "Lahﾄ］",
  "geonameid": 1283161,
  "target_addresses": 3,
  "samples": [
    {
      "lat": 26.69652625223765,
      "lon": 86.5119935171842,
      "geoinfo": {
        "display_name": "Mahendra Highway, Kadmaha, Surunga-04, Surunga, Saptari, Madhesh Province, 56020, Nepal",
        "road": "Mahendra Highway",
        "house_number": null,
        "neighbourhood": null,
        "suburb": null,
        "city_district": "Surunga-04",
        "city": "Surunga",
        "state": "Madhesh Province",
        "postcode": "56020",
        "country": "Nepal",
        "country_code": "np"
      },
      "address": "Mahendra Highway, Lahﾄ］, Madhesh Province, Nepal"
    },
    {
      "lat": 26.76130016941835,
      "lon": 86.49234636530458,
      "geoinfo": {
        "display_name": "Lahan-18, Lahan, Siraha, Madhesh Province, 56502, Nepal",
        "road": null,
        "house_number": null,
        "neighbourhood": null,
        "suburb": null,
        "city_district": "Lahan-18",
        "city": null,
        "state": "Madhesh Province",
        "postcode": "56502",
        "country": "Nepal",
        "country_code": "np"
      },
      "address": "Lahan-18, Lahﾄ］, Madhesh Province, Nepal"
    },
    {
      "lat": 26.74805715050612,
      "lon": 86.50769512389256,
      "geoinfo": {
        "display_name": "Lahan-17, Lahan, Siraha, Madhesh Province, 56502, Nepal",
        "road": null,
        "house_number": null,
        "neighbourhood": null,
        "suburb": null,
        "city_district": "Lahan-17",
        "city": null,
        "state": "Madhesh Province",
        "postcode": "56502",
        "country": "Nepal",
        "country_code": "np"
      },
      "address": "Lahan-17, Lahﾄ］, Madhesh Province, Nepal"
    }
  ],
  "updated_at": "2025-10-16T20:28:31.026513+00:00",
  "_kind": "geo_samples"
}