{
  "country_code": "NP",
  "country": "Nepal",
  "city": "Madhyapur Thimi",
  "geonameid": 8411054,
  "target_addresses": 3,
  "samples": [
    {
      "lat": 27.67205870296045,
      "lon": 85.40773228288829,
      "geoinfo": {
        "display_name": "Araniko Highway, Bhaktapur-01, Bhaktapur, Bhaktapur Municipality, Bhaktapur, Bagamati Province, 44800, Nepal",
        "road": "Araniko Highway",
        "house_number": null,
        "neighbourhood": null,
        "suburb": null,
        "city_district": "Bhaktapur-01",
        "city": "Bhaktapur",
        "state": "Bagamati Province",
        "postcode": "44800",
        "country": "Nepal",
        "country_code": "np"
      },
      "address": "Araniko Highway, Madhyapur Thimi, Bagamati Province, Nepal"
    },
    {
      "lat": 27.707571810798747,
      "lon": 85.4135246108489,
      "geoinfo": {
        "display_name": "Bir Hospital Clinic, Upanishad Path, Changunarayan-01, Changunarayan, Changunarayan Municipality, Bhaktapur, Bagamati Province, 97701, Nepal",
        "road": "Upanishad Path",
        "house_number": null,
        "neighbourhood": null,
        "suburb": null,
        "city_district": "Changunarayan-01",
        "city": "Changunarayan",
        "state": "Bagamati Province",
        "postcode": "97701",
        "country": "Nepal",
        "country_code": "np"
      },
      "address": "Upanishad Path, Madhyapur Thimi, Bagamati Province, Nepal"
    },
    {
      "lat": 27.678313565906084,
      "lon": 85.39874590854349,
      "geoinfo": {
        "display_name": "Arush Furnishing, RadheRadhe Road, Gaa:khu: Tole, Madhyapur Thimi-09, Madhyapur Thimi, Madhyapur Thimi Municipality, Bhaktapur, Bagamati Province, 44811, Nepal",
        "road": "RadheRadhe Road",
        "house_number": null,
        "neighbourhood": null,
        "suburb": null,
        "city_district": "Madhyapur Thimi-09",
        "city": "Madhyapur Thimi",
        "state": "Bagamati Province",
        "postcode": "44811",
        "country": "Nepal",
        "country_code": "np"
      },
      "address": "595, RadheRadhe Road, Madhyapur Thimi, 44811 Bagamati Province, Nepal"
    },
    {
      "lat": 27.692249148990946,
      "lon": 85.35433051337687,
      "geoinfo": {
        "display_name": "Tribhuvan International Airport, Kathmandu Ringroad, Basuki Nagar, Koteshwar, Kathmandu-32, Kathmandu Metropolitan City, Kathmandu, Bagamati Province, 44810, Nepal",
        "road": "Kathmandu Ringroad",
        "house_number": null,
        "neighbourhood": "Basuki Nagar",
        "suburb": "Koteshwar",
        "city_district": "Kathmandu-32",
        "city": "Kathmandu Metropolitan City",
        "state": "Bagamati Province",
        "postcode": "44810",
        "country": "Nepal",
        "country_code": "np"
      },
      "address": "Tribhuvan International Airport, Kathmandu Ringroad, Basuki Nagar, Koteshwar, Kathmandu-32, Kathmandu Metropolitan City, Kathmandu, Bagamati Province, 44810, Nepal"
    },
    {
      "lat": 27.69051813926798,
      "lon": 85.38673624982918,
      "geoinfo": {
        "display_name": "Nagdesh, Madhyapur Thimi-07, Madhyapur Thimi, Madhyapur Thimi Municipality, Bhaktapur, Bagamati Province, 97701, Nepal",
        "road": null,
        "house_number": null,
        "neighbourhood": null,
        "suburb": "Nagdesh",
        "city_district": "Madhyapur Thimi-07",
        "city": "Madhyapur Thimi",
        "state": "Bagamati Province",
        "postcode": "97701",
        "country": "Nepal",
        "country_code": "np"
      },
      "address": "Nagdesh, Madhyapur Thimi-07, Madhyapur Thimi, Madhyapur Thimi Municipality, Bhaktapur, Bagamati Province, 97701, Nepal"
    }
  ],
  "updated_at": "2025-10-19T04:52:51.023919+00:00",
  "_kind": "geo_samples"
}