{
  "country_code": "NP",
  "country": "Nepal",
  "city": "Panauti̇̄",
  "geonameid": 1282950,
  "target_addresses": 13,
  "samples": [
    {
      "lat": 27.560118618396473,
      "lon": 85.5198611252682,
      "geoinfo": {
        "display_name": "Paunauti-10, Chalal Ganeshsthan, Paunauti, Kavrepalanchok, Bagamati Province, 45209, Nepal",
        "road": null,
        "house_number": null,
        "neighbourhood": null,
        "suburb": null,
        "city_district": "Paunauti-10",
        "city": "Chalal Ganeshsthan",
        "state": "Bagamati Province",
        "postcode": "45209",
        "country": "Nepal",
        "country_code": "np"
      },
      "address": "Paunauti-10, Panauti̇̄, Bagamati Province, Nepal"
    },
    {
      "lat": 27.60094029610461,
      "lon": 85.48334949195052,
      "geoinfo": {
        "display_name": "Paunauti-03, Thapa Gaun, Paunauti, Kavrepalanchok, Bagamati Province, 45209, Nepal",
        "road": null,
        "house_number": null,
        "neighbourhood": null,
        "suburb": null,
        "city_district": "Paunauti-03",
        "city": "Thapa Gaun",
        "state": "Bagamati Province",
        "postcode": "45209",
        "country": "Nepal",
        "country_code": "np"
      },
      "address": "Paunauti-03, Panauti̇̄, Bagamati Province, Nepal"
    },
    {
      "lat": 27.570331469226417,
      "lon": 85.48640290651595,
      "geoinfo": {
        "display_name": "Paunauti-12, Kalati Bhumidanda, Paunauti, Kavrepalanchok, Bagamati Province, 45209, Nepal",
        "road": null,
        "house_number": null,
        "neighbourhood": null,
        "suburb": null,
        "city_district": "Paunauti-12",
        "city": "Kalati Bhumidanda",
        "state": "Bagamati Province",
        "postcode": "45209",
        "country": "Nepal",
        "country_code": "np"
      },
      "address": "Paunauti-12, Panauti̇̄, Bagamati Province, Nepal"
    },
    {
      "lat": 27.562486157038627,
      "lon": 85.4833446788244,
      "geoinfo": {
        "display_name": "Dumsi Danda khanepani, Simpani, Paunauti-12, Panauti, Paunauti, Kavrepalanchok, Bagamati Province, 45206, Nepal",
        "road": "Simpani",
        "house_number": null,
        "neighbourhood": null,
        "suburb": null,
        "city_district": "Paunauti-12",
        "city": "Panauti",
        "state": "Bagamati Province",
        "postcode": "45206",
        "country": "Nepal",
        "country_code": "np"
      },
      "address": "Dumsi Danda khanepani, Simpani, Paunauti-12, Panauti, Paunauti, Kavrepalanchok, Bagamati Province, 45206, Nepal"
    },
    {
      "lat": 27.580790701080854,
      "lon": 85.54691945156489,
      "geoinfo": {
        "display_name": "Way to Namo Budha, Bastheli, Paunauti-10, Sankhupati Chaur, Paunauti, Kavrepalanchok, Bagamati Province, 45200, Nepal",
        "road": "Way to Namo Budha",
        "house_number": null,
        "neighbourhood": null,
        "suburb": null,
        "city_district": "Paunauti-10",
        "city": "Sankhupati Chaur",
        "state": "Bagamati Province",
        "postcode": "45200",
        "country": "Nepal",
        "country_code": "np"
      },
      "address": "272, Way to Namo Budha, Panauti̇̄, 45200 Bagamati Province, Nepal"
    },
    {
      "lat": 27.617505198046324,
      "lon": 85.48564667433295,
      "geoinfo": {
        "display_name": "Mahendra Jyoti, Banepa-12, Banepa, Kavrepalanchok, Bagamati Province, 45209, Nepal",
        "road": null,
        "house_number": null,
        "neighbourhood": null,
        "suburb": null,
        "city_district": "Banepa-12",
        "city": null,
        "state": "Bagamati Province",
        "postcode": "45209",
        "country": "Nepal",
        "country_code": "np"
      },
      "address": "Banepa-12, Panauti̇̄, 45209 Bagamati Province, Nepal"
    },
    {
      "lat": 27.59343159465726,
      "lon": 85.48193863777854,
      "geoinfo": {
        "display_name": "Paunauti-03, Thapa Gaun, Paunauti, Kavrepalanchok, Bagamati Province, 45209, Nepal",
        "road": null,
        "house_number": null,
        "neighbourhood": null,
        "suburb": null,
        "city_district": "Paunauti-03",
        "city": "Thapa Gaun",
        "state": "Bagamati Province",
        "postcode": "45209",
        "country": "Nepal",
        "country_code": "np"
      },
      "address": "Paunauti-03, Panauti̇̄, 45209 Bagamati Province, Nepal"
    },
    {
      "lat": 27.599913050758918,
      "lon": 85.52540720718797,
      "geoinfo": {
        "display_name": "Banepa Panauti Khopasi Road, Paunauti-05, Panauti, Paunauti, Kavrepalanchok, Bagamati Province, 45209, Nepal",
        "road": "Banepa Panauti Khopasi Road",
        "house_number": null,
        "neighbourhood": null,
        "suburb": null,
        "city_district": "Paunauti-05",
        "city": "Panauti",
        "state": "Bagamati Province",
        "postcode": "45209",
        "country": "Nepal",
        "country_code": "np"
      },
      "address": "Banepa Panauti Khopasi Road, Paunauti-05, Panauti, Paunauti, Kavrepalanchok, Bagamati Province, 45209, Nepal"
    },
    {
      "lat": 27.576660573290745,
      "lon": 85.5216526597347,
      "geoinfo": {
        "display_name": "Paunauti-09, Panauti, Paunauti, Kavrepalanchok, Bagamati Province, 45209, Nepal",
        "road": null,
        "house_number": null,
        "neighbourhood": null,
        "suburb": null,
        "city_district": "Paunauti-09",
        "city": "Panauti",
        "state": "Bagamati Province",
        "postcode": "45209",
        "country": "Nepal",
        "country_code": "np"
      },
      "address": "Paunauti-09, Panauti, Paunauti, Kavrepalanchok, Bagamati Province, 45209, Nepal"
    },
    {
      "lat": 27.603222565489343,
      "lon": 85.54120824966155,
      "geoinfo": {
        "display_name": "Chaukot ko chan ghat, Dalinchok Road, Paunauti-09, Panauti, Paunauti, Kavrepalanchok, Bagamati Province, 09771, Nepal",
        "road": "Dalinchok Road",
        "house_number": null,
        "neighbourhood": null,
        "suburb": null,
        "city_district": "Paunauti-09",
        "city": "Panauti",
        "state": "Bagamati Province",
        "postcode": "09771",
        "country": "Nepal",
        "country_code": "np"
      },
      "address": "Chaukot ko chan ghat, Dalinchok Road, Paunauti-09, Panauti, Paunauti, Kavrepalanchok, Bagamati Province, 09771, Nepal"
    },
    {
      "lat": 27.55943522758236,
      "lon": 85.50126074039467,
      "geoinfo": {
        "display_name": "Simpani, Bethanchok-04, Bethanchok, Kavrepalanchok, Bagamati Province, 45209, Nepal",
        "road": "Simpani",
        "house_number": null,
        "neighbourhood": null,
        "suburb": null,
        "city_district": "Bethanchok-04",
        "city": null,
        "state": "Bagamati Province",
        "postcode": "45209",
        "country": "Nepal",
        "country_code": "np"
      },
      "address": "874, Simpani, Panauti̇̄, 45209 Bagamati Province, Nepal"
    },
    {
      "lat": 27.621501686930117,
      "lon": 85.53959213083274,
      "geoinfo": {
        "display_name": "Divya Girls Hostel, KU Road, Junction, Dhulikhel-04, Dhulikhel, Kavrepalanchok, Bagamati Province, 09771, Nepal",
        "road": "KU Road",
        "house_number": null,
        "neighbourhood": "Junction",
        "suburb": null,
        "city_district": "Dhulikhel-04",
        "city": "Dhulikhel",
        "state": "Bagamati Province",
        "postcode": "09771",
        "country": "Nepal",
        "country_code": "np"
      },
      "address": "Divya Girls Hostel, KU Road, Junction, Dhulikhel-04, Dhulikhel, Kavrepalanchok, Bagamati Province, 09771, Nepal"
    },
    {
      "lat": 27.62490673898782,
      "lon": 85.49830646435205,
      "geoinfo": {
        "display_name": "Banepa-12, Bhaisipati, Banepa, Kavrepalanchok, Bagamati Province, 46210, Nepal",
        "road": null,
        "house_number": null,
        "neighbourhood": null,
        "suburb": null,
        "city_district": "Banepa-12",
        "city": "Bhaisipati",
        "state": "Bagamati Province",
        "postcode": "46210",
        "country": "Nepal",
        "country_code": "np"
      },
      "address": "Banepa-12, Panauti̇̄, 46210 Bagamati Province, Nepal"
    },
    {
      "lat": 27.602553672511597,
      "lon": 85.50065062452596,
      "geoinfo": {
        "display_name": "Paunauti-04, Malpi Gaun, Paunauti, Kavrepalanchok, Bagamati Province, 45209, Nepal",
        "road": null,
        "house_number": null,
        "neighbourhood": null,
        "suburb": null,
        "city_district": "Paunauti-04",
        "city": "Malpi Gaun",
        "state": "Bagamati Province",
        "postcode": "45209",
        "country": "Nepal",
        "country_code": "np"
      },
      "address": "Paunauti-04, Panauti̇̄, 45209 Bagamati Province, Nepal"
    }
  ],
  "updated_at": "2025-10-19T06:01:35.727429+00:00",
  "_kind": "geo_samples"
}