{
  "country_code": "NP",
  "country": "Nepal",
  "city": "Pokhara",
  "geonameid": 1282898,
  "target_addresses": 3,
  "samples": [
    {
      "lat": 28.24653989931289,
      "lon": 83.93166935959704,
      "geoinfo": {
        "display_name": "Timilsina Kul Mandir, Way To Sarangkot, Thapa Gaun, Pokhara-18, Pokhara, Kaski, Gandaki Province, 00799, Nepal",
        "road": "Way To Sarangkot",
        "house_number": null,
        "neighbourhood": "Thapa Gaun",
        "suburb": null,
        "city_district": "Pokhara-18",
        "city": "Pokhara",
        "state": "Gandaki Province",
        "postcode": "00799",
        "country": "Nepal",
        "country_code": "np"
      },
      "address": "Way To Sarangkot, Pokhara, Gandaki Province, Nepal"
    },
    {
      "lat": 28.275063795306824,
      "lon": 83.92876233453374,
      "geoinfo": {
        "display_name": "Pokhara-25, Pokhara, Kaski, Gandaki Province, 60600, Nepal",
        "road": null,
        "house_number": null,
        "neighbourhood": null,
        "suburb": null,
        "city_district": "Pokhara-25",
        "city": "Pokhara",
        "state": "Gandaki Province",
        "postcode": "60600",
        "country": "Nepal",
        "country_code": "np"
      },
      "address": "Pokhara-25, Pokhara, Gandaki Province, Nepal"
    },
    {
      "lat": 28.238432629910406,
      "lon": 84.00773846352315,
      "geoinfo": {
        "display_name": "Ghimire Chok, Pokhara-11, Pokhara, Kaski, Gandaki Province, 88700, Nepal",
        "road": null,
        "house_number": null,
        "neighbourhood": "Ghimire Chok",
        "suburb": null,
        "city_district": "Pokhara-11",
        "city": "Pokhara",
        "state": "Gandaki Province",
        "postcode": "88700",
        "country": "Nepal",
        "country_code": "np"
      },
      "address": "Ghimire Chok, Pokhara, Gandaki Province, Nepal"
    },
    {
      "lat": 28.27385604623053,
      "lon": 83.99822980754396,
      "geoinfo": {
        "display_name": "Narayani Basic School, Aarmala, Pokhara-16, Pokhara, Kaski, Gandaki Province, 60600, Nepal",
        "road": null,
        "house_number": null,
        "neighbourhood": null,
        "suburb": null,
        "city_district": "Pokhara-16",
        "city": "Pokhara",
        "state": "Gandaki Province",
        "postcode": "60600",
        "country": "Nepal",
        "country_code": "np"
      },
      "address": "Narayani Basic School, Aarmala, Pokhara-16, Pokhara, Kaski, Gandaki Province, 60600, Nepal"
    },
    {
      "lat": 28.272117180535975,
      "lon": 83.97289054912929,
      "geoinfo": {
        "display_name": "Way to Gharmi Dada, Sanglepani Pokhari, Pokhara-19, Pokhara, Kaski, Gandaki Province, 60600, Nepal",
        "road": "Way to Gharmi Dada",
        "house_number": null,
        "neighbourhood": null,
        "suburb": null,
        "city_district": "Pokhara-19",
        "city": "Pokhara",
        "state": "Gandaki Province",
        "postcode": "60600",
        "country": "Nepal",
        "country_code": "np"
      },
      "address": "Way to Gharmi Dada, Sanglepani Pokhari, Pokhara-19, Pokhara, Kaski, Gandaki Province, 60600, Nepal"
    },
    {
      "lat": 28.25870715246614,
      "lon": 83.93102246487214,
      "geoinfo": {
        "display_name": "Toripani Drinking Water Tank, Dhikur Sarangkot Way, Majh Tol, Pokhara-18, Pokhara, Annapurna, Kaski, Gandaki Province, 33711, Nepal",
        "road": "Dhikur Sarangkot Way",
        "house_number": null,
        "neighbourhood": null,
        "suburb": null,
        "city_district": "Pokhara-18",
        "city": "Pokhara",
        "state": "Gandaki Province",
        "postcode": "33711",
        "country": "Nepal",
        "country_code": "np"
      },
      "address": "Toripani Drinking Water Tank, Dhikur Sarangkot Way, Majh Tol, Pokhara-18, Pokhara, Annapurna, Kaski, Gandaki Province, 33711, Nepal"
    }
  ],
  "updated_at": "2025-10-19T06:00:40.644608+00:00",
  "_kind": "geo_samples"
}