{
  "country_code": "KZ",
  "country": "Kazakhstan",
  "city": "Astana",
  "geonameid": 1526273,
  "target_addresses": 2,
  "samples": [
    {
      "lat": 51.140454418761664,
      "lon": 71.41689415375893,
      "geoinfo": {
        "display_name": "ЖК Премьера!, 9/2, Kabanbay Batyr Avenue, Esil district, Astana, Nura district, Astana, 000001, Kazakhstan",
        "road": "Kabanbay Batyr Avenue",
        "house_number": "9/2",
        "neighbourhood": null,
        "suburb": null,
        "city_district": "Esil district",
        "city": "Astana",
        "state": "Astana",
        "postcode": "000001",
        "country": "Kazakhstan",
        "country_code": "kz"
      },
      "address": "9/2 Kabanbay Batyr Avenue, Astana, Astana, Kazakhstan"
    },
    {
      "lat": 51.175781736288265,
      "lon": 71.4710097538621,
      "geoinfo": {
        "display_name": "1В, проспект Әл-Фараби, Bayqoñır district, Astana, 010000, Kazakhstan",
        "road": "проспект Әл-Фараби",
        "house_number": "1В",
        "neighbourhood": null,
        "suburb": null,
        "city_district": "Bayqoñır district",
        "city": "Astana",
        "state": "Astana",
        "postcode": "010000",
        "country": "Kazakhstan",
        "country_code": "kz"
      },
      "address": "1В проспект Әл-Фараби, Astana, Astana, Kazakhstan"
    },
    {
      "lat": 51.15999144977764,
      "lon": 71.44334370800847,
      "geoinfo": {
        "display_name": "6/3, улица Шокана Валиханова, Bayqoñır district, Astana, 010000, Kazakhstan",
        "road": "улица Шокана Валиханова",
        "house_number": "6/3",
        "neighbourhood": null,
        "suburb": null,
        "city_district": "Bayqoñır district",
        "city": "Astana",
        "state": "Astana",
        "postcode": "010000",
        "country": "Kazakhstan",
        "country_code": "kz"
      },
      "address": "6/3, улица Шокана Валиханова, Bayqoñır district, Astana, 010000, Kazakhstan"
    },
    {
      "lat": 51.15419357803483,
      "lon": 71.42597482226448,
      "geoinfo": {
        "display_name": "Қараөткел көпірі, Esil district, Astana, Nura district, Astana, Z05E9E1, Kazakhstan",
        "road": "Қараөткел көпірі",
        "house_number": null,
        "neighbourhood": null,
        "suburb": null,
        "city_district": "Esil district",
        "city": "Astana",
        "state": "Astana",
        "postcode": "Z05E9E1",
        "country": "Kazakhstan",
        "country_code": "kz"
      },
      "address": "Қараөткел көпірі, Esil district, Astana, Nura district, Astana, Z05E9E1, Kazakhstan"
    }
  ],
  "updated_at": "2025-10-19T03:40:44.111927+00:00",
  "_kind": "geo_samples"
}