{
  "country_code": "KZ",
  "country": "Kazakhstan",
  "city": "Karatau",
  "geonameid": 1519938,
  "target_addresses": 2,
  "samples": [
    {
      "lat": 43.17553830317611,
      "lon": 70.47685653274893,
      "geoinfo": {
        "display_name": "Абдибай ата, улица Амангельды, Karatau, Kazakhstan, Talas District, Jambyl Region, Kazakhstan",
        "road": "улица Амангельды",
        "house_number": null,
        "neighbourhood": null,
        "suburb": null,
        "city_district": null,
        "city": "Karatau, Kazakhstan",
        "state": "Jambyl Region",
        "postcode": null,
        "country": "Kazakhstan",
        "country_code": "kz"
      },
      "address": "улица Амангельды, Karatau, Jambyl Region, Kazakhstan"
    },
    {
      "lat": 43.18522921797179,
      "lon": 70.47876554042172,
      "geoinfo": {
        "display_name": "ул. А. Байзатов, Karatau, Kazakhstan, Talas District, Jambyl Region, Kazakhstan",
        "road": "ул. А. Байзатов",
        "house_number": null,
        "neighbourhood": null,
        "suburb": null,
        "city_district": null,
        "city": "Karatau, Kazakhstan",
        "state": "Jambyl Region",
        "postcode": null,
        "country": "Kazakhstan",
        "country_code": "kz"
      },
      "address": "ул. А. Байзатов, Karatau, Jambyl Region, Kazakhstan"
    },
    {
      "lat": 43.16841097233016,
      "lon": 70.51723966961141,
      "geoinfo": {
        "display_name": "Talas District, Jambyl Region, Kazakhstan",
        "road": null,
        "house_number": null,
        "neighbourhood": null,
        "suburb": null,
        "city_district": null,
        "city": null,
        "state": "Jambyl Region",
        "postcode": null,
        "country": "Kazakhstan",
        "country_code": "kz"
      },
      "address": "558, Karatau, 97795 Jambyl Region, Kazakhstan"
    },
    {
      "lat": 43.20489568399102,
      "lon": 70.48879537045183,
      "geoinfo": {
        "display_name": "Talas District, Jambyl Region, Kazakhstan",
        "road": null,
        "house_number": null,
        "neighbourhood": null,
        "suburb": null,
        "city_district": null,
        "city": null,
        "state": "Jambyl Region",
        "postcode": null,
        "country": "Kazakhstan",
        "country_code": "kz"
      },
      "address": "713, Karatau, 08626 Jambyl Region, Kazakhstan"
    }
  ],
  "updated_at": "2025-10-19T05:20:32.292560+00:00",
  "_kind": "geo_samples"
}