{
  "country_code": "KZ",
  "country": "Kazakhstan",
  "city": "Pavlodar",
  "geonameid": 1520240,
  "target_addresses": 7,
  "samples": [
    {
      "lat": 52.31205970911107,
      "lon": 76.94628846689922,
      "geoinfo": {
        "display_name": "Космонавтов, Pavlodar, Pavlodar Region, 140005, Kazakhstan",
        "road": "Космонавтов",
        "house_number": null,
        "neighbourhood": null,
        "suburb": null,
        "city_district": null,
        "city": "Pavlodar",
        "state": "Pavlodar Region",
        "postcode": "140005",
        "country": "Kazakhstan",
        "country_code": "kz"
      },
      "address": "Космонавтов, Pavlodar, Pavlodar Region, Kazakhstan"
    },
    {
      "lat": 52.26729492885911,
      "lon": 76.91279660692592,
      "geoinfo": {
        "display_name": "Химқалашықтар, Pavlodar, Pavlodar Region, 140005, Kazakhstan",
        "road": null,
        "house_number": null,
        "neighbourhood": null,
        "suburb": "Химқалашықтар",
        "city_district": null,
        "city": "Pavlodar",
        "state": "Pavlodar Region",
        "postcode": "140005",
        "country": "Kazakhstan",
        "country_code": "kz"
      },
      "address": "Химқалашықтар, Pavlodar, Pavlodar Region, Kazakhstan"
    },
    {
      "lat": 52.29137817740891,
      "lon": 77.0046125222768,
      "geoinfo": {
        "display_name": "82, Российская улица, Шығыстық, Pavlodar, Pavlodar Region, 140011, Kazakhstan",
        "road": "Российская улица",
        "house_number": "82",
        "neighbourhood": null,
        "suburb": "Шығыстық",
        "city_district": null,
        "city": "Pavlodar",
        "state": "Pavlodar Region",
        "postcode": "140011",
        "country": "Kazakhstan",
        "country_code": "kz"
      },
      "address": "82, Российская улица, Шығыстық, Pavlodar, Pavlodar Region, 140011, Kazakhstan"
    },
    {
      "lat": 52.23468606490142,
      "lon": 76.95216044768821,
      "geoinfo": {
        "display_name": "Горторг, Pavlodar, Pavlodar Region, 140007, Kazakhstan",
        "road": null,
        "house_number": null,
        "neighbourhood": null,
        "suburb": "Горторг",
        "city_district": null,
        "city": "Pavlodar",
        "state": "Pavlodar Region",
        "postcode": "140007",
        "country": "Kazakhstan",
        "country_code": "kz"
      },
      "address": "088, Горторг, Pavlodar, Pavlodar Region, 140007, Kazakhstan"
    },
    {
      "lat": 52.25596972132705,
      "lon": 76.92731916094877,
      "geoinfo": {
        "display_name": "Усольский, Pavlodar, Pavlodar Region, 140007, Kazakhstan",
        "road": null,
        "house_number": null,
        "neighbourhood": null,
        "suburb": "Усольский",
        "city_district": null,
        "city": "Pavlodar",
        "state": "Pavlodar Region",
        "postcode": "140007",
        "country": "Kazakhstan",
        "country_code": "kz"
      },
      "address": "745, Усольский, Pavlodar, Pavlodar Region, 140007, Kazakhstan"
    },
    {
      "lat": 52.28629528131274,
      "lon": 76.91716719322936,
      "geoinfo": {
        "display_name": "площадь Конституции, Химқалашықтар, Pavlodar, Pavlodar Region, 140005, Kazakhstan",
        "road": null,
        "house_number": null,
        "neighbourhood": null,
        "suburb": "Химқалашықтар",
        "city_district": null,
        "city": "Pavlodar",
        "state": "Pavlodar Region",
        "postcode": "140005",
        "country": "Kazakhstan",
        "country_code": "kz"
      },
      "address": "700, Химқалашықтар, Pavlodar, 140005 Pavlodar Region, Kazakhstan"
    },
    {
      "lat": 52.31416252148826,
      "lon": 76.96501259392183,
      "geoinfo": {
        "display_name": "19/2, улица Административный городок, Солтүстік өнеркәсіптік аудан, Pavlodar, Pavlodar Region, 140006, Kazakhstan",
        "road": "улица Административный городок",
        "house_number": "19/2",
        "neighbourhood": null,
        "suburb": "Солтүстік өнеркәсіптік аудан",
        "city_district": null,
        "city": "Pavlodar",
        "state": "Pavlodar Region",
        "postcode": "140006",
        "country": "Kazakhstan",
        "country_code": "kz"
      },
      "address": "19/2, улица Административный городок, Солтүстік өнеркәсіптік аудан, Pavlodar, Pavlodar Region, 140006, Kazakhstan"
    }
  ],
  "updated_at": "2025-10-19T05:24:52.773515+00:00",
  "_kind": "geo_samples"
}