{
  "country_code": "KZ",
  "country": "Kazakhstan",
  "city": "Qulsary",
  "geonameid": 609123,
  "target_addresses": 2,
  "samples": [
    {
      "lat": 46.92708002617395,
      "lon": 54.046907926134026,
      "geoinfo": {
        "display_name": "Құлсары қалалық әкімдігі, Zhylyoi District, Atyrau Region, 050100, Kazakhstan",
        "road": null,
        "house_number": null,
        "neighbourhood": null,
        "suburb": null,
        "city_district": null,
        "city": "Құлсары қалалық әкімдігі",
        "state": "Atyrau Region",
        "postcode": "050100",
        "country": "Kazakhstan",
        "country_code": "kz"
      },
      "address": "Qulsary, Atyrau Region, Kazakhstan"
    },
    {
      "lat": 46.98929157084632,
      "lon": 54.021718462037725,
      "geoinfo": {
        "display_name": "Сауран, Qulsarı, Құлсары қалалық әкімдігі, Zhylyoi District, Atyrau Region, Kazakhstan",
        "road": "Сауран",
        "house_number": null,
        "neighbourhood": null,
        "suburb": null,
        "city_district": null,
        "city": "Құлсары қалалық әкімдігі",
        "state": "Atyrau Region",
        "postcode": null,
        "country": "Kazakhstan",
        "country_code": "kz"
      },
      "address": "Сауран, Qulsary, Atyrau Region, Kazakhstan"
    },
    {
      "lat": 46.969097545019466,
      "lon": 53.96688988475231,
      "geoinfo": {
        "display_name": "245-я, 8-ші ауыл, Qulsarı, Құлсары қалалық әкімдігі, Zhylyoi District, Atyrau Region, 050100, Kazakhstan",
        "road": "245-я",
        "house_number": null,
        "neighbourhood": null,
        "suburb": "8-ші ауыл",
        "city_district": null,
        "city": "Құлсары қалалық әкімдігі",
        "state": "Atyrau Region",
        "postcode": "050100",
        "country": "Kazakhstan",
        "country_code": "kz"
      },
      "address": "245-я, 8-ші ауыл, Qulsarı, Құлсары қалалық әкімдігі, Zhylyoi District, Atyrau Region, 050100, Kazakhstan"
    },
    {
      "lat": 46.98184365230143,
      "lon": 53.99750302224487,
      "geoinfo": {
        "display_name": "3, Аль-Фараби, Атырау шағын ауданы, Жол Жұмысшылары шағын ауданы, Qulsarı, Құлсары қалалық әкімдігі, Zhylyoi District, Atyrau Region, 050100, Kazakhstan",
        "road": "Аль-Фараби",
        "house_number": "3",
        "neighbourhood": null,
        "suburb": "Жол Жұмысшылары шағын ауданы",
        "city_district": null,
        "city": "Құлсары қалалық әкімдігі",
        "state": "Atyrau Region",
        "postcode": "050100",
        "country": "Kazakhstan",
        "country_code": "kz"
      },
      "address": "3, Аль-Фараби, Атырау шағын ауданы, Жол Жұмысшылары шағын ауданы, Qulsarı, Құлсары қалалық әкімдігі, Zhylyoi District, Atyrau Region, 050100, Kazakhstan"
    }
  ],
  "updated_at": "2025-10-19T03:38:30.242765+00:00",
  "_kind": "geo_samples"
}