{
  "country_code": "KZ",
  "country": "Kazakhstan",
  "city": "Shymkent",
  "geonameid": 1518980,
  "target_addresses": 7,
  "samples": [
    {
      "lat": 42.33011606859728,
      "lon": 69.58466781354423,
      "geoinfo": {
        "display_name": "улица Сулейменова, 3-ші, Абай ауданы, Shymkent, 160000, Kazakhstan",
        "road": "улица Сулейменова",
        "house_number": null,
        "neighbourhood": null,
        "suburb": null,
        "city_district": "Абай ауданы",
        "city": "Shymkent",
        "state": "Shymkent",
        "postcode": "160000",
        "country": "Kazakhstan",
        "country_code": "kz"
      },
      "address": "улица Сулейменова, Shymkent, Shymkent, Kazakhstan"
    },
    {
      "lat": 42.27697886132152,
      "lon": 69.57906899382822,
      "geoinfo": {
        "display_name": "7, Жанакент, Сәуле, Al-Farabi District, Shymkent, 160022, Kazakhstan",
        "road": "Жанакент",
        "house_number": "7",
        "neighbourhood": null,
        "suburb": "Сәуле",
        "city_district": "Al-Farabi District",
        "city": "Shymkent",
        "state": "Shymkent",
        "postcode": "160022",
        "country": "Kazakhstan",
        "country_code": "kz"
      },
      "address": "7 Жанакент, Shymkent, Shymkent, Kazakhstan"
    },
    {
      "lat": 42.280456384312785,
      "lon": 69.63108153057424,
      "geoinfo": {
        "display_name": "331, Көкжелек, Еламан, Еңбекші ауданы, Shymkent, 160010, Kazakhstan",
        "road": "Көкжелек",
        "house_number": "331",
        "neighbourhood": null,
        "suburb": null,
        "city_district": "Еңбекші ауданы",
        "city": "Shymkent",
        "state": "Shymkent",
        "postcode": "160010",
        "country": "Kazakhstan",
        "country_code": "kz"
      },
      "address": "331, Көкжелек, Еламан, Еңбекші ауданы, Shymkent, 160010, Kazakhstan"
    },
    {
      "lat": 42.28386082133403,
      "lon": 69.60430620698939,
      "geoinfo": {
        "display_name": "49, Гусева улица, Онтустик, Еңбекші ауданы, Shymkent, 160010, Kazakhstan",
        "road": "Гусева улица",
        "house_number": "49",
        "neighbourhood": "Онтустик",
        "suburb": null,
        "city_district": "Еңбекші ауданы",
        "city": "Shymkent",
        "state": "Shymkent",
        "postcode": "160010",
        "country": "Kazakhstan",
        "country_code": "kz"
      },
      "address": "49, Гусева улица, Онтустик, Еңбекші ауданы, Shymkent, 160010, Kazakhstan"
    },
    {
      "lat": 42.28849435277813,
      "lon": 69.58380221050558,
      "geoinfo": {
        "display_name": "37, Достык улица, Забадам, Al-Farabi District, Shymkent, 160019, Kazakhstan",
        "road": "Достык улица",
        "house_number": "37",
        "neighbourhood": null,
        "suburb": null,
        "city_district": "Al-Farabi District",
        "city": "Shymkent",
        "state": "Shymkent",
        "postcode": "160019",
        "country": "Kazakhstan",
        "country_code": "kz"
      },
      "address": "37, Достык улица, Забадам, Al-Farabi District, Shymkent, 160019, Kazakhstan"
    },
    {
      "lat": 42.29130524384746,
      "lon": 69.57723039252247,
      "geoinfo": {
        "display_name": "16, Тобыл улица, Забадам, Al-Farabi District, Shymkent, 160019, Kazakhstan",
        "road": "Тобыл улица",
        "house_number": "16",
        "neighbourhood": null,
        "suburb": null,
        "city_district": "Al-Farabi District",
        "city": "Shymkent",
        "state": "Shymkent",
        "postcode": "160019",
        "country": "Kazakhstan",
        "country_code": "kz"
      },
      "address": "16, Тобыл улица, Забадам, Al-Farabi District, Shymkent, 160019, Kazakhstan"
    },
    {
      "lat": 42.27341005475078,
      "lon": 69.63375609223108,
      "geoinfo": {
        "display_name": "123, улица Кокжелек, Еламан, Еңбекші ауданы, Shymkent, 160010, Kazakhstan",
        "road": "улица Кокжелек",
        "house_number": "123",
        "neighbourhood": null,
        "suburb": null,
        "city_district": "Еңбекші ауданы",
        "city": "Shymkent",
        "state": "Shymkent",
        "postcode": "160010",
        "country": "Kazakhstan",
        "country_code": "kz"
      },
      "address": "123, улица Кокжелек, Еламан, Еңбекші ауданы, Shymkent, 160010, Kazakhstan"
    }
  ],
  "updated_at": "2025-10-19T05:24:26.734199+00:00",
  "_kind": "geo_samples"
}