{
  "country_code": "KZ",
  "country": "Kazakhstan",
  "city": "Ust-Kamenogorsk",
  "geonameid": 1520316,
  "target_addresses": 2,
  "samples": [
    {
      "lat": 49.94187800733411,
      "lon": 82.61512141950907,
      "geoinfo": {
        "display_name": "18, Набережная им. Славского, Көрсеткі, Oskemen, East Kazakhstan Region, 070004, Kazakhstan",
        "road": "Набережная им. Славского",
        "house_number": "18",
        "neighbourhood": null,
        "suburb": "Көрсеткі",
        "city_district": null,
        "city": "Oskemen",
        "state": "East Kazakhstan Region",
        "postcode": "070004",
        "country": "Kazakhstan",
        "country_code": "kz"
      },
      "address": "18 Набережная им. Славского, Ust-Kamenogorsk, East Kazakhstan Region, Kazakhstan"
    },
    {
      "lat": 49.993105238701446,
      "lon": 82.65703160509872,
      "geoinfo": {
        "display_name": "20, Гвардейская улица, Айлақ, Жаңа Айлақ, Oskemen, East Kazakhstan Region, 070006, Kazakhstan",
        "road": "Гвардейская улица",
        "house_number": "20",
        "neighbourhood": null,
        "suburb": "Жаңа Айлақ",
        "city_district": null,
        "city": "Oskemen",
        "state": "East Kazakhstan Region",
        "postcode": "070006",
        "country": "Kazakhstan",
        "country_code": "kz"
      },
      "address": "20 Гвардейская улица, Ust-Kamenogorsk, East Kazakhstan Region, Kazakhstan"
    },
    {
      "lat": 49.96062399506549,
      "lon": 82.5482489741557,
      "geoinfo": {
        "display_name": "Первая длинная, Жұлдыз, Қазан, Oskemen, East Kazakhstan Region, 070010, Kazakhstan",
        "road": "Первая длинная",
        "house_number": null,
        "neighbourhood": null,
        "suburb": "Қазан",
        "city_district": null,
        "city": null,
        "state": "East Kazakhstan Region",
        "postcode": "070010",
        "country": "Kazakhstan",
        "country_code": "kz"
      },
      "address": "029, Первая длинная, Ust-Kamenogorsk, 070010 East Kazakhstan Region, Kazakhstan"
    },
    {
      "lat": 49.973835258724854,
      "lon": 82.59243628735301,
      "geoinfo": {
        "display_name": "171, Shakarim avenue, Қазан, Oskemen, East Kazakhstan Region, 070018, Kazakhstan",
        "road": "Shakarim avenue",
        "house_number": "171",
        "neighbourhood": null,
        "suburb": "Қазан",
        "city_district": null,
        "city": "Oskemen",
        "state": "East Kazakhstan Region",
        "postcode": "070018",
        "country": "Kazakhstan",
        "country_code": "kz"
      },
      "address": "171, Shakarim avenue, Ust-Kamenogorsk, 070018 East Kazakhstan Region, Kazakhstan"
    }
  ],
  "updated_at": "2025-10-19T05:39:30.101746+00:00",
  "_kind": "geo_samples"
}