{
  "country_code": "MT",
  "country": "Malta",
  "city": "San Pawl il-Baħar",
  "geonameid": 2562541,
  "target_addresses": 15,
  "samples": [
    {
      "lat": 35.950212671867256,
      "lon": 14.365088262115993,
      "geoinfo": {
        "display_name": "Manikata, Mellieħa, Northern Region, MLH 1513, Malta",
        "road": null,
        "house_number": null,
        "neighbourhood": null,
        "suburb": null,
        "city_district": null,
        "city": "Manikata",
        "state": "Northern Region",
        "postcode": "MLH 1513",
        "country": "Malta",
        "country_code": "mt"
      },
      "address": "San Pawl il-Baħar, Northern Region, Malta"
    },
    {
      "lat": 35.939940141857825,
      "lon": 14.37519993181459,
      "geoinfo": {
        "display_name": "Triq San Martin, Mġarr, Northern Region, SPB 9028, Malta",
        "road": "Triq San Martin",
        "house_number": null,
        "neighbourhood": null,
        "suburb": null,
        "city_district": null,
        "city": "Mġarr",
        "state": "Northern Region",
        "postcode": "SPB 9028",
        "country": "Malta",
        "country_code": "mt"
      },
      "address": "Triq San Martin, San Pawl il-Baħar, Northern Region, Malta"
    },
    {
      "lat": 35.94505398035601,
      "lon": 14.38064375136132,
      "geoinfo": {
        "display_name": "Triq il-Pwales, Ix-Xemxija, Saint Paul's Bay, Northern Region, SPB 9028, Malta",
        "road": "Triq il-Pwales",
        "house_number": null,
        "neighbourhood": null,
        "suburb": null,
        "city_district": null,
        "city": "Saint Paul's Bay",
        "state": "Northern Region",
        "postcode": "SPB 9028",
        "country": "Malta",
        "country_code": "mt"
      },
      "address": "Triq il-Pwales, San Pawl il-Baħar, Northern Region, Malta"
    },
    {
      "lat": 35.92293516901282,
      "lon": 14.386467891638356,
      "geoinfo": {
        "display_name": "Triq il-Bidnija, Iż-Żebbiegħ, Mġarr, Northern Region, MGR 1502, Malta",
        "road": "Triq il-Bidnija",
        "house_number": null,
        "neighbourhood": null,
        "suburb": null,
        "city_district": null,
        "city": "Mġarr",
        "state": "Northern Region",
        "postcode": "MGR 1502",
        "country": "Malta",
        "country_code": "mt"
      },
      "address": "Triq il-Bidnija, San Pawl il-Baħar, Northern Region, Malta"
    },
    {
      "lat": 35.960732146238115,
      "lon": 14.426897912674681,
      "geoinfo": {
        "display_name": "Qawra Pool, Triq Ras il-Qawra, Qawra, Saint Paul's Bay, Northern Region, SPB 1500, Malta",
        "road": "Triq Ras il-Qawra",
        "house_number": null,
        "neighbourhood": null,
        "suburb": null,
        "city_district": null,
        "city": "Saint Paul's Bay",
        "state": "Northern Region",
        "postcode": "SPB 1500",
        "country": "Malta",
        "country_code": "mt"
      },
      "address": "Triq Ras il-Qawra, San Pawl il-Baħar, Northern Region, Malta"
    },
    {
      "lat": 35.94134114662153,
      "lon": 14.418097751506037,
      "geoinfo": {
        "display_name": "Bird Park Malta, Triq tal-Imdawra, Burmarrad, Buġibba, Saint Paul's Bay, Northern Region, NXR 6057, Malta",
        "road": "Triq tal-Imdawra",
        "house_number": null,
        "neighbourhood": null,
        "suburb": null,
        "city_district": null,
        "city": "Saint Paul's Bay",
        "state": "Northern Region",
        "postcode": "NXR 6057",
        "country": "Malta",
        "country_code": "mt"
      },
      "address": "Triq tal-Imdawra, San Pawl il-Baħar, Northern Region, Malta"
    },
    {
      "lat": 35.9324561049657,
      "lon": 14.415160365389022,
      "geoinfo": {
        "display_name": "Triq is-Sardin, Burmarrad, Saint Paul's Bay, Northern Region, SPB 6101, Malta",
        "road": "Triq is-Sardin",
        "house_number": null,
        "neighbourhood": null,
        "suburb": null,
        "city_district": null,
        "city": "Saint Paul's Bay",
        "state": "Northern Region",
        "postcode": "SPB 6101",
        "country": "Malta",
        "country_code": "mt"
      },
      "address": "Triq is-Sardin, San Pawl il-Baħar, Northern Region, Malta"
    },
    {
      "lat": 35.91739798698815,
      "lon": 14.395050413347446,
      "geoinfo": {
        "display_name": "San Andrea, Triq tal-Ħżejjen, Saint Paul's Bay, Northern Region, MST 9072, Malta",
        "road": "Triq tal-Ħżejjen",
        "house_number": null,
        "neighbourhood": null,
        "suburb": null,
        "city_district": null,
        "city": "Saint Paul's Bay",
        "state": "Northern Region",
        "postcode": "MST 9072",
        "country": "Malta",
        "country_code": "mt"
      },
      "address": "Triq tal-Ħżejjen, San Pawl il-Baħar, Northern Region, Malta"
    },
    {
      "lat": 35.96947031983356,
      "lon": 14.40084666316765,
      "geoinfo": {
        "display_name": "Triq il-Mistra, Mellieħa, Northern Region, SPB 3418, Malta",
        "road": "Triq il-Mistra",
        "house_number": null,
        "neighbourhood": null,
        "suburb": null,
        "city_district": null,
        "city": "Mellieħa",
        "state": "Northern Region",
        "postcode": "SPB 3418",
        "country": "Malta",
        "country_code": "mt"
      },
      "address": "Triq il-Mistra, San Pawl il-Baħar, Northern Region, Malta"
    },
    {
      "lat": 35.92653469263118,
      "lon": 14.428107550242764,
      "geoinfo": {
        "display_name": "Triq il-Prinjol, Naxxar, Northern Region, NXR 6712, Malta",
        "road": "Triq il-Prinjol",
        "house_number": null,
        "neighbourhood": null,
        "suburb": null,
        "city_district": null,
        "city": "Naxxar",
        "state": "Northern Region",
        "postcode": "NXR 6712",
        "country": "Malta",
        "country_code": "mt"
      },
      "address": "Triq il-Prinjol, San Pawl il-Baħar, Northern Region, Malta"
    },
    {
      "lat": 35.928938546949475,
      "lon": 14.435379121861233,
      "geoinfo": {
        "display_name": "E1, Burmarrad Road, Naxxar, Northern Region, NXR 6345, Malta",
        "road": "Burmarrad Road",
        "house_number": "E1",
        "neighbourhood": null,
        "suburb": null,
        "city_district": null,
        "city": "Naxxar",
        "state": "Northern Region",
        "postcode": "NXR 6345",
        "country": "Malta",
        "country_code": "mt"
      },
      "address": "E1 Burmarrad Road, San Pawl il-Baħar, Northern Region, Malta"
    },
    {
      "lat": 35.93386288866208,
      "lon": 14.396150648127167,
      "geoinfo": {
        "display_name": "Triq Ras il-Wardija, Wardija, Ix-Xemxija, Saint Paul's Bay, Northern Region, SPB 3418, Malta",
        "road": "Triq Ras il-Wardija",
        "house_number": null,
        "neighbourhood": null,
        "suburb": null,
        "city_district": null,
        "city": "Saint Paul's Bay",
        "state": "Northern Region",
        "postcode": "SPB 3418",
        "country": "Malta",
        "country_code": "mt"
      },
      "address": "Triq Ras il-Wardija, San Pawl il-Baħar, Northern Region, Malta"
    },
    {
      "lat": 35.934196126376726,
      "lon": 14.418684640652868,
      "geoinfo": {
        "display_name": "Burmarrad Road, Vassallo Business Park, Burmarrad, Saint Paul's Bay, Northern Region, NXR 6057, Malta",
        "road": "Burmarrad Road",
        "house_number": null,
        "neighbourhood": null,
        "suburb": null,
        "city_district": null,
        "city": "Saint Paul's Bay",
        "state": "Northern Region",
        "postcode": "NXR 6057",
        "country": "Malta",
        "country_code": "mt"
      },
      "address": "Burmarrad Road, San Pawl il-Baħar, Northern Region, Malta"
    },
    {
      "lat": 35.93943605127062,
      "lon": 14.37383861802267,
      "geoinfo": {
        "display_name": "Saint Paul's Bay Road, Mġarr, Northern Region, MLH 1513, Malta",
        "road": "Saint Paul's Bay Road",
        "house_number": null,
        "neighbourhood": null,
        "suburb": null,
        "city_district": null,
        "city": "Mġarr",
        "state": "Northern Region",
        "postcode": "MLH 1513",
        "country": "Malta",
        "country_code": "mt"
      },
      "address": "Saint Paul's Bay Road, San Pawl il-Baħar, Northern Region, Malta"
    },
    {
      "lat": 35.94138374377642,
      "lon": 14.392631703553661,
      "geoinfo": {
        "display_name": "Triq il-Madonna tal-Abbandunati, Wardija, Ix-Xemxija, Saint Paul's Bay, Northern Region, SPB 3418, Malta",
        "road": "Triq il-Madonna tal-Abbandunati",
        "house_number": null,
        "neighbourhood": null,
        "suburb": null,
        "city_district": null,
        "city": "Saint Paul's Bay",
        "state": "Northern Region",
        "postcode": "SPB 3418",
        "country": "Malta",
        "country_code": "mt"
      },
      "address": "Triq il-Madonna tal-Abbandunati, San Pawl il-Baħar, Northern Region, Malta"
    }
  ],
  "updated_at": "2025-10-16T19:48:09.552859+00:00",
  "_kind": "geo_samples"
}