{
  "country_code": "GW",
  "country": "Guinea-Bissau",
  "city": "Bissau",
  "geonameid": 2374775,
  "target_addresses": 34,
  "samples": [
    {
      "lat": 11.894154187199963,
      "lon": -15.614262937444341,
      "geoinfo": {
        "display_name": "Bissau, Bissau Autonomous Sector, 1021, Guinea-Bissau",
        "road": null,
        "house_number": null,
        "neighbourhood": null,
        "suburb": null,
        "city_district": null,
        "city": "Bissau",
        "state": null,
        "postcode": "1021",
        "country": "Guinea-Bissau",
        "country_code": "gw"
      },
      "address": "Bissau, Guinea-Bissau"
    },
    {
      "lat": 11.888645960751766,
      "lon": -15.626731700453696,
      "geoinfo": {
        "display_name": "São Paulo, Bissau, Bissau Autonomous Sector, 1021, Guinea-Bissau",
        "road": null,
        "house_number": null,
        "neighbourhood": "São Paulo",
        "suburb": null,
        "city_district": null,
        "city": "Bissau",
        "state": null,
        "postcode": "1021",
        "country": "Guinea-Bissau",
        "country_code": "gw"
      },
      "address": "São Paulo, Bissau, Guinea-Bissau"
    },
    {
      "lat": 11.848454471878469,
      "lon": -15.59667134113682,
      "geoinfo": {
        "display_name": "Bandim, Reino, Bissau, Bissau Autonomous Sector, 1021, Guinea-Bissau",
        "road": null,
        "house_number": null,
        "neighbourhood": "Bandim",
        "suburb": "Reino",
        "city_district": null,
        "city": "Bissau",
        "state": null,
        "postcode": "1021",
        "country": "Guinea-Bissau",
        "country_code": "gw"
      },
      "address": "Bandim, Bissau, Guinea-Bissau"
    },
    {
      "lat": 11.859602889741206,
      "lon": -15.588234242929158,
      "geoinfo": {
        "display_name": "Praça, Reino, Bissau, Bissau Autonomous Sector, 1021, Guinea-Bissau",
        "road": null,
        "house_number": null,
        "neighbourhood": "Praça",
        "suburb": "Reino",
        "city_district": null,
        "city": "Bissau",
        "state": null,
        "postcode": "1021",
        "country": "Guinea-Bissau",
        "country_code": "gw"
      },
      "address": "Praça, Bissau, Guinea-Bissau"
    },
    {
      "lat": 11.87125024464396,
      "lon": -15.556144398975716,
      "geoinfo": {
        "display_name": "Ilha do Rei, Bissau, Bissau Autonomous Sector, 1021, Guinea-Bissau",
        "road": null,
        "house_number": null,
        "neighbourhood": "Ilha do Rei",
        "suburb": null,
        "city_district": null,
        "city": "Bissau",
        "state": null,
        "postcode": "1021",
        "country": "Guinea-Bissau",
        "country_code": "gw"
      },
      "address": "Ilha do Rei, Bissau, Guinea-Bissau"
    },
    {
      "lat": 11.825961363412008,
      "lon": -15.603460173220562,
      "geoinfo": {
        "display_name": "Bairro de Ministros, Bissau, Bissau Autonomous Sector, 1021, Guinea-Bissau",
        "road": null,
        "house_number": null,
        "neighbourhood": "Bairro de Ministros",
        "suburb": null,
        "city_district": null,
        "city": "Bissau",
        "state": null,
        "postcode": "1021",
        "country": "Guinea-Bissau",
        "country_code": "gw"
      },
      "address": "Bairro de Ministros, Bissau, Guinea-Bissau"
    },
    {
      "lat": 11.849446171458565,
      "lon": -15.581482645297674,
      "geoinfo": {
        "display_name": "Avenida 3 de Agosto, Conlumo, Cuntum Madina, Bissau, Bissau Autonomous Sector, 1021, Guinea-Bissau",
        "road": "Avenida 3 de Agosto",
        "house_number": null,
        "neighbourhood": "Conlumo",
        "suburb": "Cuntum Madina",
        "city_district": null,
        "city": "Bissau",
        "state": null,
        "postcode": "1021",
        "country": "Guinea-Bissau",
        "country_code": "gw"
      },
      "address": "Avenida 3 de Agosto, Bissau, Guinea-Bissau"
    },
    {
      "lat": 11.849597780203423,
      "lon": -15.630003028365538,
      "geoinfo": {
        "display_name": "Quelêle, Bissau, Bissau Autonomous Sector, 1021, Guinea-Bissau",
        "road": null,
        "house_number": null,
        "neighbourhood": "Quelêle",
        "suburb": null,
        "city_district": null,
        "city": "Bissau",
        "state": null,
        "postcode": "1021",
        "country": "Guinea-Bissau",
        "country_code": "gw"
      },
      "address": "Quelêle, Bissau, Guinea-Bissau"
    },
    {
      "lat": 11.8642228914077,
      "lon": -15.639358823308653,
      "geoinfo": {
        "display_name": "Penha-Bor, Cuntum, Bissau, Bissau Autonomous Sector, Guinea-Bissau",
        "road": null,
        "house_number": null,
        "neighbourhood": "Penha-Bor",
        "suburb": "Cuntum",
        "city_district": null,
        "city": "Bissau",
        "state": null,
        "postcode": null,
        "country": "Guinea-Bissau",
        "country_code": "gw"
      },
      "address": "Penha-Bor, Bissau, Guinea-Bissau"
    },
    {
      "lat": 11.878626874269186,
      "lon": -15.563000934098449,
      "geoinfo": {
        "display_name": "Reino, Bissau, Bissau Autonomous Sector, 1021, Guinea-Bissau",
        "road": null,
        "house_number": null,
        "neighbourhood": null,
        "suburb": "Reino",
        "city_district": null,
        "city": "Bissau",
        "state": null,
        "postcode": "1021",
        "country": "Guinea-Bissau",
        "country_code": "gw"
      },
      "address": "Reino, Bissau, Guinea-Bissau"
    },
    {
      "lat": 11.841985406627044,
      "lon": -15.596996503915067,
      "geoinfo": {
        "display_name": "Alto Bandim, Bissau, Bissau Autonomous Sector, 1021, Guinea-Bissau",
        "road": null,
        "house_number": null,
        "neighbourhood": "Alto Bandim",
        "suburb": null,
        "city_district": null,
        "city": "Bissau",
        "state": null,
        "postcode": "1021",
        "country": "Guinea-Bissau",
        "country_code": "gw"
      },
      "address": "Alto Bandim, Bissau, Guinea-Bissau"
    },
    {
      "lat": 11.841849494517623,
      "lon": -15.608883219504463,
      "geoinfo": {
        "display_name": "Cuntum Madina, Bissau, Bissau Autonomous Sector, 1021, Guinea-Bissau",
        "road": null,
        "house_number": null,
        "neighbourhood": null,
        "suburb": "Cuntum Madina",
        "city_district": null,
        "city": "Bissau",
        "state": null,
        "postcode": "1021",
        "country": "Guinea-Bissau",
        "country_code": "gw"
      },
      "address": "Cuntum Madina, Bissau, Guinea-Bissau"
    },
    {
      "lat": 11.878398304769412,
      "lon": -15.619804400900142,
      "geoinfo": {
        "display_name": "Bairro Militar, Bissau, Bissau Autonomous Sector, 1021, Guinea-Bissau",
        "road": null,
        "house_number": null,
        "neighbourhood": "Bairro Militar",
        "suburb": null,
        "city_district": null,
        "city": "Bissau",
        "state": null,
        "postcode": "1021",
        "country": "Guinea-Bissau",
        "country_code": "gw"
      },
      "address": "Bairro Militar, Bissau, Guinea-Bissau"
    },
    {
      "lat": 11.86461670702765,
      "lon": -15.577303224898685,
      "geoinfo": {
        "display_name": "Tchada, Bissau, Bissau Autonomous Sector, 1021, Guinea-Bissau",
        "road": null,
        "house_number": null,
        "neighbourhood": "Tchada",
        "suburb": null,
        "city_district": null,
        "city": "Bissau",
        "state": null,
        "postcode": "1021",
        "country": "Guinea-Bissau",
        "country_code": "gw"
      },
      "address": "Tchada, Bissau, Guinea-Bissau"
    },
    {
      "lat": 11.878017268144417,
      "lon": -15.632324678988766,
      "geoinfo": {
        "display_name": "Estrada da Volta de Bissau, São Paulo, Bissau, Bissau Autonomous Sector, 1021, Guinea-Bissau",
        "road": "Estrada da Volta de Bissau",
        "house_number": null,
        "neighbourhood": "São Paulo",
        "suburb": null,
        "city_district": null,
        "city": "Bissau",
        "state": null,
        "postcode": "1021",
        "country": "Guinea-Bissau",
        "country_code": "gw"
      },
      "address": "Estrada da Volta de Bissau, Bissau, Guinea-Bissau"
    },
    {
      "lat": 11.858339535528323,
      "lon": -15.60874839869888,
      "geoinfo": {
        "display_name": "Avenida dos Combatentes da Liberdade da Pátria, Missra, Reino, Bissau, Bissau Autonomous Sector, 1021, Guinea-Bissau",
        "road": "Avenida dos Combatentes da Liberdade da Pátria",
        "house_number": null,
        "neighbourhood": "Missra",
        "suburb": "Reino",
        "city_district": null,
        "city": "Bissau",
        "state": null,
        "postcode": "1021",
        "country": "Guinea-Bissau",
        "country_code": "gw"
      },
      "address": "Avenida dos Combatentes da Liberdade da Pátria, Bissau, Guinea-Bissau"
    },
    {
      "lat": 11.865189314767457,
      "lon": -15.599097653885062,
      "geoinfo": {
        "display_name": "Granja, Reino, Bissau, Bissau Autonomous Sector, 1021, Guinea-Bissau",
        "road": null,
        "house_number": null,
        "neighbourhood": "Granja",
        "suburb": "Reino",
        "city_district": null,
        "city": "Bissau",
        "state": null,
        "postcode": "1021",
        "country": "Guinea-Bissau",
        "country_code": "gw"
      },
      "address": "Granja, Bissau, Guinea-Bissau"
    },
    {
      "lat": 11.90271259120941,
      "lon": -15.586776581810385,
      "geoinfo": {
        "display_name": "Rua Guerra Mendes, Bissau, Bissau Autonomous Sector, 1021, Guinea-Bissau",
        "road": "Rua Guerra Mendes",
        "house_number": null,
        "neighbourhood": null,
        "suburb": null,
        "city_district": null,
        "city": "Bissau",
        "state": null,
        "postcode": "1021",
        "country": "Guinea-Bissau",
        "country_code": "gw"
      },
      "address": "Rua Guerra Mendes, Bissau, Guinea-Bissau"
    },
    {
      "lat": 11.897586114330798,
      "lon": -15.585189117477803,
      "geoinfo": {
        "display_name": "Estrada Biagué, Bissau, Bissau Autonomous Sector, 1021, Guinea-Bissau",
        "road": "Estrada Biagué",
        "house_number": null,
        "neighbourhood": null,
        "suburb": null,
        "city_district": null,
        "city": "Bissau",
        "state": null,
        "postcode": "1021",
        "country": "Guinea-Bissau",
        "country_code": "gw"
      },
      "address": "Estrada Biagué, Bissau, Guinea-Bissau"
    },
    {
      "lat": 11.860544323667785,
      "lon": -15.61255187545185,
      "geoinfo": {
        "display_name": "Bairro de Ajuda, Cuntum, Bissau, Bissau Autonomous Sector, 1021, Guinea-Bissau",
        "road": null,
        "house_number": null,
        "neighbourhood": "Bairro de Ajuda",
        "suburb": "Cuntum",
        "city_district": null,
        "city": "Bissau",
        "state": null,
        "postcode": "1021",
        "country": "Guinea-Bissau",
        "country_code": "gw"
      },
      "address": "Bairro de Ajuda, Bissau, Guinea-Bissau"
    },
    {
      "lat": 11.88821413458508,
      "lon": -15.634165398507536,
      "geoinfo": {
        "display_name": "Hafia, Sector de Safim, Biombo Region, North, Guinea-Bissau",
        "road": null,
        "house_number": null,
        "neighbourhood": "Hafia",
        "suburb": null,
        "city_district": null,
        "city": "Sector de Safim",
        "state": "Biombo Region",
        "postcode": null,
        "country": "Guinea-Bissau",
        "country_code": "gw"
      },
      "address": "Hafia, Bissau, Biombo Region, Guinea-Bissau"
    },
    {
      "lat": 11.842808065999682,
      "lon": -15.635680009985661,
      "geoinfo": {
        "display_name": "Bor, Bissau Autonomous Sector, Guinea-Bissau",
        "road": null,
        "house_number": null,
        "neighbourhood": null,
        "suburb": null,
        "city_district": null,
        "city": "Bor",
        "state": null,
        "postcode": null,
        "country": "Guinea-Bissau",
        "country_code": "gw"
      },
      "address": "Bissau, Biombo Region, Guinea-Bissau"
    },
    {
      "lat": 11.859121847999509,
      "lon": -15.621259212113404,
      "geoinfo": {
        "display_name": "Avenida dos Combatentes da Liberdade da Pátria, Missra, Reino, Bissau, Bissau Autonomous Sector, 1021, Guinea-Bissau",
        "road": "Avenida dos Combatentes da Liberdade da Pátria",
        "house_number": null,
        "neighbourhood": "Missra",
        "suburb": "Reino",
        "city_district": null,
        "city": "Bissau",
        "state": null,
        "postcode": "1021",
        "country": "Guinea-Bissau",
        "country_code": "gw"
      },
      "address": "Avenida dos Combatentes da Liberdade da Pátria, Bissau, Biombo Region, Guinea-Bissau"
    },
    {
      "lat": 11.848900959017772,
      "lon": -15.629232643533767,
      "geoinfo": {
        "display_name": "Estrada principal que liga Prábis a Bissau, Ponta Gardele, Sector de Prabis, Biombo Region, Bissau Autonomous Sector, Guinea-Bissau",
        "road": "Estrada principal que liga Prábis a Bissau",
        "house_number": null,
        "neighbourhood": null,
        "suburb": null,
        "city_district": null,
        "city": "Ponta Gardele",
        "state": "Biombo Region",
        "postcode": null,
        "country": "Guinea-Bissau",
        "country_code": "gw"
      },
      "address": "Estrada principal que liga Prábis a Bissau, Bissau, Biombo Region, Guinea-Bissau"
    },
    {
      "lat": 11.855113804389607,
      "lon": -15.5927565780422,
      "geoinfo": {
        "display_name": "Alto Crim, Reino, Bissau, Bissau Autonomous Sector, 1021, Guinea-Bissau",
        "road": null,
        "house_number": null,
        "neighbourhood": "Alto Crim",
        "suburb": "Reino",
        "city_district": null,
        "city": "Bissau",
        "state": null,
        "postcode": "1021",
        "country": "Guinea-Bissau",
        "country_code": "gw"
      },
      "address": "740, Alto Crim, Reino, Bissau, Bissau Autonomous Sector, 1021, Guinea-Bissau"
    },
    {
      "lat": 11.825643388654138,
      "lon": -15.61832659242607,
      "geoinfo": {
        "display_name": "Conlumo, Cuntum Madina, Bissau, Bissau Autonomous Sector, 1021, Guinea-Bissau",
        "road": null,
        "house_number": null,
        "neighbourhood": "Conlumo",
        "suburb": "Cuntum Madina",
        "city_district": null,
        "city": "Bissau",
        "state": null,
        "postcode": "1021",
        "country": "Guinea-Bissau",
        "country_code": "gw"
      },
      "address": "467, Conlumo, Cuntum Madina, Bissau, Bissau Autonomous Sector, 1021, Guinea-Bissau"
    },
    {
      "lat": 11.831360950890517,
      "lon": -15.571417730369246,
      "geoinfo": {
        "display_name": "Reino, Bissau, Bissau Autonomous Sector, 1021, Guinea-Bissau",
        "road": null,
        "house_number": null,
        "neighbourhood": null,
        "suburb": "Reino",
        "city_district": null,
        "city": "Bissau",
        "state": null,
        "postcode": "1021",
        "country": "Guinea-Bissau",
        "country_code": "gw"
      },
      "address": "137, Reino, Bissau, Bissau Autonomous Sector, 1021, Guinea-Bissau"
    },
    {
      "lat": 11.828784922966259,
      "lon": -15.589840866253548,
      "geoinfo": {
        "display_name": "Bairro de Ministros, Bissau, Bissau Autonomous Sector, 1021, Guinea-Bissau",
        "road": null,
        "house_number": null,
        "neighbourhood": "Bairro de Ministros",
        "suburb": null,
        "city_district": null,
        "city": "Bissau",
        "state": null,
        "postcode": "1021",
        "country": "Guinea-Bissau",
        "country_code": "gw"
      },
      "address": "149, Bairro de Ministros, Bissau, Bissau Autonomous Sector, 1021, Guinea-Bissau"
    },
    {
      "lat": 11.83688113263202,
      "lon": -15.589300490196587,
      "geoinfo": {
        "display_name": "Campo Sueco, Bissau, Bissau Autonomous Sector, 1021, Guinea-Bissau",
        "road": null,
        "house_number": null,
        "neighbourhood": "Campo Sueco",
        "suburb": null,
        "city_district": null,
        "city": "Bissau",
        "state": null,
        "postcode": "1021",
        "country": "Guinea-Bissau",
        "country_code": "gw"
      },
      "address": "899, Campo Sueco, Bissau, Bissau Autonomous Sector, 1021, Guinea-Bissau"
    },
    {
      "lat": 11.836112828058955,
      "lon": -15.57169744606158,
      "geoinfo": {
        "display_name": "Reino, Bissau, Bissau Autonomous Sector, 1021, Guinea-Bissau",
        "road": null,
        "house_number": null,
        "neighbourhood": null,
        "suburb": "Reino",
        "city_district": null,
        "city": "Bissau",
        "state": null,
        "postcode": "1021",
        "country": "Guinea-Bissau",
        "country_code": "gw"
      },
      "address": "377, Reino, Bissau, Bissau Autonomous Sector, 1021, Guinea-Bissau"
    },
    {
      "lat": 11.825768949767058,
      "lon": -15.585323544628435,
      "geoinfo": {
        "display_name": "Campo Sueco, Bissau, Bissau Autonomous Sector, 1021, Guinea-Bissau",
        "road": null,
        "house_number": null,
        "neighbourhood": "Campo Sueco",
        "suburb": null,
        "city_district": null,
        "city": "Bissau",
        "state": null,
        "postcode": "1021",
        "country": "Guinea-Bissau",
        "country_code": "gw"
      },
      "address": "793, Campo Sueco, Bissau, Bissau Autonomous Sector, 1021, Guinea-Bissau"
    },
    {
      "lat": 11.859291450757704,
      "lon": -15.568041160148885,
      "geoinfo": {
        "display_name": "Ilha do Rei, Avenida 3 de Agosto, Praça, Bissau, Bissau Autonomous Sector, 1021, Guinea-Bissau",
        "road": "Avenida 3 de Agosto",
        "house_number": null,
        "neighbourhood": "Praça",
        "suburb": null,
        "city_district": null,
        "city": "Bissau",
        "state": null,
        "postcode": "1021",
        "country": "Guinea-Bissau",
        "country_code": "gw"
      },
      "address": "Ilha do Rei, Avenida 3 de Agosto, Praça, Bissau, Bissau Autonomous Sector, 1021, Guinea-Bissau"
    },
    {
      "lat": 11.837126860121497,
      "lon": -15.59884454644216,
      "geoinfo": {
        "display_name": "Bairro de Ministros, Bissau, Bissau Autonomous Sector, 1021, Guinea-Bissau",
        "road": null,
        "house_number": null,
        "neighbourhood": "Bairro de Ministros",
        "suburb": null,
        "city_district": null,
        "city": "Bissau",
        "state": null,
        "postcode": "1021",
        "country": "Guinea-Bissau",
        "country_code": "gw"
      },
      "address": "216, Bairro de Ministros, Bissau, Bissau Autonomous Sector, 1021, Guinea-Bissau"
    },
    {
      "lat": 11.908177054536697,
      "lon": -15.600654492663395,
      "geoinfo": {
        "display_name": "Bissau, Bissau Autonomous Sector, 1021, Guinea-Bissau",
        "road": null,
        "house_number": null,
        "neighbourhood": null,
        "suburb": null,
        "city_district": null,
        "city": "Bissau",
        "state": null,
        "postcode": "1021",
        "country": "Guinea-Bissau",
        "country_code": "gw"
      },
      "address": "004, Bissau, Bissau Autonomous Sector, 1021, Guinea-Bissau"
    },
    {
      "lat": 11.9022965083025,
      "lon": -15.598497998456876,
      "geoinfo": {
        "display_name": "Bissau, Bissau Autonomous Sector, 1021, Guinea-Bissau",
        "road": null,
        "house_number": null,
        "neighbourhood": null,
        "suburb": null,
        "city_district": null,
        "city": "Bissau",
        "state": null,
        "postcode": "1021",
        "country": "Guinea-Bissau",
        "country_code": "gw"
      },
      "address": "310, Bissau, Bissau Autonomous Sector, 1021, Guinea-Bissau"
    },
    {
      "lat": 11.84019314139542,
      "lon": -15.560953590154165,
      "geoinfo": {
        "display_name": "Ilha do Rei, Bissau, Bissau Autonomous Sector, 1021, Guinea-Bissau",
        "road": null,
        "house_number": null,
        "neighbourhood": "Ilha do Rei",
        "suburb": null,
        "city_district": null,
        "city": "Bissau",
        "state": null,
        "postcode": "1021",
        "country": "Guinea-Bissau",
        "country_code": "gw"
      },
      "address": "420, Ilha do Rei, Bissau, Bissau Autonomous Sector, 1021, Guinea-Bissau"
    },
    {
      "lat": 11.847674020636932,
      "lon": -15.561127589844062,
      "geoinfo": {
        "display_name": "Avenida 3 de Agosto, Praça, Bissau, Bissau Autonomous Sector, 1021, Guinea-Bissau",
        "road": "Avenida 3 de Agosto",
        "house_number": null,
        "neighbourhood": "Praça",
        "suburb": null,
        "city_district": null,
        "city": "Bissau",
        "state": null,
        "postcode": "1021",
        "country": "Guinea-Bissau",
        "country_code": "gw"
      },
      "address": "Avenida 3 de Agosto, Praça, Bissau, Bissau Autonomous Sector, 1021, Guinea-Bissau"
    },
    {
      "lat": 11.828634796128934,
      "lon": -15.576775565236503,
      "geoinfo": {
        "display_name": "Reino, Bissau, Bissau Autonomous Sector, 1021, Guinea-Bissau",
        "road": null,
        "house_number": null,
        "neighbourhood": null,
        "suburb": "Reino",
        "city_district": null,
        "city": "Bissau",
        "state": null,
        "postcode": "1021",
        "country": "Guinea-Bissau",
        "country_code": "gw"
      },
      "address": "950, Reino, Bissau, Bissau Autonomous Sector, 1021, Guinea-Bissau"
    },
    {
      "lat": 11.878674013882659,
      "lon": -15.561793103629647,
      "geoinfo": {
        "display_name": "Reino, Bissau, Bissau Autonomous Sector, 1021, Guinea-Bissau",
        "road": null,
        "house_number": null,
        "neighbourhood": null,
        "suburb": "Reino",
        "city_district": null,
        "city": "Bissau",
        "state": null,
        "postcode": "1021",
        "country": "Guinea-Bissau",
        "country_code": "gw"
      },
      "address": "122, Reino, Bissau, Bissau Autonomous Sector, 1021, Guinea-Bissau"
    },
    {
      "lat": 11.873558306477273,
      "lon": -15.557694586754979,
      "geoinfo": {
        "display_name": "Ilha do Rei, Bissau, Bissau Autonomous Sector, 1021, Guinea-Bissau",
        "road": null,
        "house_number": null,
        "neighbourhood": "Ilha do Rei",
        "suburb": null,
        "city_district": null,
        "city": "Bissau",
        "state": null,
        "postcode": "1021",
        "country": "Guinea-Bissau",
        "country_code": "gw"
      },
      "address": "643, Ilha do Rei, Bissau, Bissau Autonomous Sector, 1021, Guinea-Bissau"
    },
    {
      "lat": 11.885970445541854,
      "lon": -15.602040314703784,
      "geoinfo": {
        "display_name": "Bissau, Bissau Autonomous Sector, 1021, Guinea-Bissau",
        "road": null,
        "house_number": null,
        "neighbourhood": null,
        "suburb": null,
        "city_district": null,
        "city": "Bissau",
        "state": null,
        "postcode": "1021",
        "country": "Guinea-Bissau",
        "country_code": "gw"
      },
      "address": "013, Bissau, Bissau Autonomous Sector, 1021, Guinea-Bissau"
    },
    {
      "lat": 11.871250271815017,
      "lon": -15.589804656178394,
      "geoinfo": {
        "display_name": "Reino, Bissau, Bissau Autonomous Sector, 1021, Guinea-Bissau",
        "road": null,
        "house_number": null,
        "neighbourhood": null,
        "suburb": "Reino",
        "city_district": null,
        "city": "Bissau",
        "state": null,
        "postcode": "1021",
        "country": "Guinea-Bissau",
        "country_code": "gw"
      },
      "address": "874, Reino, Bissau, Bissau Autonomous Sector, 1021, Guinea-Bissau"
    },
    {
      "lat": 11.866666153544278,
      "lon": -15.556794592012338,
      "geoinfo": {
        "display_name": "Ilha do Rei, Bissau, Bissau Autonomous Sector, 1021, Guinea-Bissau",
        "road": null,
        "house_number": null,
        "neighbourhood": "Ilha do Rei",
        "suburb": null,
        "city_district": null,
        "city": "Bissau",
        "state": null,
        "postcode": "1021",
        "country": "Guinea-Bissau",
        "country_code": "gw"
      },
      "address": "323, Ilha do Rei, Bissau, Bissau Autonomous Sector, 1021, Guinea-Bissau"
    },
    {
      "lat": 11.882402986677029,
      "lon": -15.61109886058324,
      "geoinfo": {
        "display_name": "Bissau, Bissau Autonomous Sector, 1021, Guinea-Bissau",
        "road": null,
        "house_number": null,
        "neighbourhood": null,
        "suburb": null,
        "city_district": null,
        "city": "Bissau",
        "state": null,
        "postcode": "1021",
        "country": "Guinea-Bissau",
        "country_code": "gw"
      },
      "address": "857, Bissau, Bissau Autonomous Sector, 1021, Guinea-Bissau"
    },
    {
      "lat": 11.880408843294779,
      "lon": -15.595049115866011,
      "geoinfo": {
        "display_name": "Bissau, Bissau Autonomous Sector, 1021, Guinea-Bissau",
        "road": null,
        "house_number": null,
        "neighbourhood": null,
        "suburb": null,
        "city_district": null,
        "city": "Bissau",
        "state": null,
        "postcode": "1021",
        "country": "Guinea-Bissau",
        "country_code": "gw"
      },
      "address": "950, Bissau, Bissau Autonomous Sector, 1021, Guinea-Bissau"
    },
    {
      "lat": 11.898842016607894,
      "lon": -15.625898911736238,
      "geoinfo": {
        "display_name": "Sector de Safim, Biombo Region, North, Guinea-Bissau",
        "road": null,
        "house_number": null,
        "neighbourhood": null,
        "suburb": null,
        "city_district": null,
        "city": "Sector de Safim",
        "state": "Biombo Region",
        "postcode": null,
        "country": "Guinea-Bissau",
        "country_code": "gw"
      },
      "address": "624, Bissau, 61922 Biombo Region, Guinea-Bissau"
    },
    {
      "lat": 11.876374928579033,
      "lon": -15.622501510288943,
      "geoinfo": {
        "display_name": "São Paulo, Bissau, Bissau Autonomous Sector, 1021, Guinea-Bissau",
        "road": null,
        "house_number": null,
        "neighbourhood": "São Paulo",
        "suburb": null,
        "city_district": null,
        "city": "Bissau",
        "state": null,
        "postcode": "1021",
        "country": "Guinea-Bissau",
        "country_code": "gw"
      },
      "address": "406, São Paulo, Bissau, Bissau Autonomous Sector, 1021, Guinea-Bissau"
    },
    {
      "lat": 11.834661196001221,
      "lon": -15.6189780521841,
      "geoinfo": {
        "display_name": "Conlumo, Cuntum Madina, Bissau, Bissau Autonomous Sector, 1021, Guinea-Bissau",
        "road": null,
        "house_number": null,
        "neighbourhood": "Conlumo",
        "suburb": "Cuntum Madina",
        "city_district": null,
        "city": "Bissau",
        "state": null,
        "postcode": "1021",
        "country": "Guinea-Bissau",
        "country_code": "gw"
      },
      "address": "069, Conlumo, Cuntum Madina, Bissau, Bissau Autonomous Sector, 1021, Guinea-Bissau"
    },
    {
      "lat": 11.8846503906106,
      "lon": -15.562906544799889,
      "geoinfo": {
        "display_name": "Reino, Bissau, Bissau Autonomous Sector, 1021, Guinea-Bissau",
        "road": null,
        "house_number": null,
        "neighbourhood": null,
        "suburb": "Reino",
        "city_district": null,
        "city": "Bissau",
        "state": null,
        "postcode": "1021",
        "country": "Guinea-Bissau",
        "country_code": "gw"
      },
      "address": "062, Reino, Bissau, Bissau Autonomous Sector, 1021, Guinea-Bissau"
    },
    {
      "lat": 11.846658138676819,
      "lon": -15.617429221562839,
      "geoinfo": {
        "display_name": "Conlumo, Cuntum, Bissau, Bissau Autonomous Sector, 1021, Guinea-Bissau",
        "road": null,
        "house_number": null,
        "neighbourhood": "Conlumo",
        "suburb": "Cuntum",
        "city_district": null,
        "city": "Bissau",
        "state": null,
        "postcode": "1021",
        "country": "Guinea-Bissau",
        "country_code": "gw"
      },
      "address": "149, Conlumo, Cuntum, Bissau, Bissau Autonomous Sector, 1021, Guinea-Bissau"
    },
    {
      "lat": 11.847748467434835,
      "lon": -15.573020142926975,
      "geoinfo": {
        "display_name": "power plant ship, Avenida Domingos Ramos, Praça, Reino, Bissau, Bissau Autonomous Sector, 1021, Guinea-Bissau",
        "road": "Avenida Domingos Ramos",
        "house_number": null,
        "neighbourhood": "Praça",
        "suburb": "Reino",
        "city_district": null,
        "city": "Bissau",
        "state": null,
        "postcode": "1021",
        "country": "Guinea-Bissau",
        "country_code": "gw"
      },
      "address": "467, Avenida Domingos Ramos, 1021 Bissau, Guinea-Bissau"
    },
    {
      "lat": 11.89395711106152,
      "lon": -15.624530898395943,
      "geoinfo": {
        "display_name": "Bissau, Bissau Autonomous Sector, 1021, Guinea-Bissau",
        "road": null,
        "house_number": null,
        "neighbourhood": null,
        "suburb": null,
        "city_district": null,
        "city": "Bissau",
        "state": null,
        "postcode": "1021",
        "country": "Guinea-Bissau",
        "country_code": "gw"
      },
      "address": "515, Bissau, Bissau Autonomous Sector, 1021, Guinea-Bissau"
    },
    {
      "lat": 11.855623958582045,
      "lon": -15.553639487856342,
      "geoinfo": {
        "display_name": "Ilha do Rei, Bissau, Bissau Autonomous Sector, 1021, Guinea-Bissau",
        "road": null,
        "house_number": null,
        "neighbourhood": "Ilha do Rei",
        "suburb": null,
        "city_district": null,
        "city": "Bissau",
        "state": null,
        "postcode": "1021",
        "country": "Guinea-Bissau",
        "country_code": "gw"
      },
      "address": "339, Ilha do Rei, Bissau, Bissau Autonomous Sector, 1021, Guinea-Bissau"
    },
    {
      "lat": 11.867953798711627,
      "lon": -15.568801276867092,
      "geoinfo": {
        "display_name": "Rua Guerra Mendes, Bissau, Bissau Autonomous Sector, 1021, Guinea-Bissau",
        "road": "Rua Guerra Mendes",
        "house_number": null,
        "neighbourhood": null,
        "suburb": null,
        "city_district": null,
        "city": "Bissau",
        "state": null,
        "postcode": "1021",
        "country": "Guinea-Bissau",
        "country_code": "gw"
      },
      "address": "841, Rua Guerra Mendes, Bissau, Bissau Autonomous Sector, 1021, Guinea-Bissau"
    },
    {
      "lat": 11.83565436216435,
      "lon": -15.583388729473244,
      "geoinfo": {
        "display_name": "Avenida 3 de Agosto, Conlumo, Cuntum Madina, Bissau, Bissau Autonomous Sector, 1021, Guinea-Bissau",
        "road": "Avenida 3 de Agosto",
        "house_number": null,
        "neighbourhood": "Conlumo",
        "suburb": "Cuntum Madina",
        "city_district": null,
        "city": "Bissau",
        "state": null,
        "postcode": "1021",
        "country": "Guinea-Bissau",
        "country_code": "gw"
      },
      "address": "Avenida 3 de Agosto, Conlumo, Cuntum Madina, Bissau, Bissau Autonomous Sector, 1021, Guinea-Bissau"
    },
    {
      "lat": 11.871930425047232,
      "lon": -15.577939689092007,
      "geoinfo": {
        "display_name": "Bissau, Bissau Autonomous Sector, 1021, Guinea-Bissau",
        "road": null,
        "house_number": null,
        "neighbourhood": null,
        "suburb": null,
        "city_district": null,
        "city": "Bissau",
        "state": null,
        "postcode": "1021",
        "country": "Guinea-Bissau",
        "country_code": "gw"
      },
      "address": "514, Bissau, Bissau Autonomous Sector, 1021, Guinea-Bissau"
    },
    {
      "lat": 11.859166546842669,
      "lon": -15.563148629600779,
      "geoinfo": {
        "display_name": "Ilha do Rei, Avenida 3 de Agosto, Praça, Bissau, Bissau Autonomous Sector, 1021, Guinea-Bissau",
        "road": "Avenida 3 de Agosto",
        "house_number": null,
        "neighbourhood": "Praça",
        "suburb": null,
        "city_district": null,
        "city": "Bissau",
        "state": null,
        "postcode": "1021",
        "country": "Guinea-Bissau",
        "country_code": "gw"
      },
      "address": "Avenida 3 de Agosto, 1021 Bissau, Guinea-Bissau"
    },
    {
      "lat": 11.84922532725169,
      "lon": -15.629745191768468,
      "geoinfo": {
        "display_name": "Estrada principal que liga Prábis a Bissau, Ponta Gardele, Sector de Prabis, Biombo Region, Bissau Autonomous Sector, Guinea-Bissau",
        "road": "Estrada principal que liga Prábis a Bissau",
        "house_number": null,
        "neighbourhood": null,
        "suburb": null,
        "city_district": null,
        "city": "Ponta Gardele",
        "state": "Biombo Region",
        "postcode": null,
        "country": "Guinea-Bissau",
        "country_code": "gw"
      },
      "address": "446, Estrada principal que liga Prábis a Bissau, Ponta Gardele, Sector de Prabis, Biombo Region, 46329 Bissau Autonomous Sector, Guinea-Bissau"
    }
  ],
  "updated_at": "2025-10-19T04:40:13.365331+00:00",
  "_kind": "geo_samples"
}