{
  "country_code": "HK",
  "country": "Hong Kong",
  "city": "Choi Wan",
  "geonameid": 12689060,
  "target_addresses": 4,
  "samples": [
    {
      "lat": 22.349723845425768,
      "lon": 114.19583514495442,
      "geoinfo": {
        "display_name": "Tsz Wan Shan Reporting Centre, 151, Tsz Wan Shan Road, Chuk Yuen, Tsz Wan Shan, Wong Tai Sin District, Kowloon, Hong Kong, 000000, China",
        "road": "Tsz Wan Shan Road",
        "house_number": "151",
        "neighbourhood": null,
        "suburb": "Tsz Wan Shan",
        "city_district": "Wong Tai Sin District",
        "city": "Kowloon",
        "state": "Hong Kong",
        "postcode": "000000",
        "country": "China",
        "country_code": "cn"
      },
      "address": "151 Tsz Wan Shan Road, Choi Wan, Hong Kong, Hong Kong"
    },
    {
      "lat": 22.352354114904482,
      "lon": 114.19131528402649,
      "geoinfo": {
        "display_name": "石馬正脊, Wong Tai Sin District, Sha Tin District, New Territories, Hong Kong, 000000, China",
        "road": "石馬正脊",
        "house_number": null,
        "neighbourhood": null,
        "suburb": null,
        "city_district": "Wong Tai Sin District",
        "city": "Sha Tin District",
        "state": "Hong Kong",
        "postcode": "000000",
        "country": "China",
        "country_code": "cn"
      },
      "address": "728, 石馬正脊, Wong Tai Sin District, Sha Tin District, New Territories, Hong Kong, 000000, China"
    },
    {
      "lat": 22.372237243506824,
      "lon": 114.1909174675491,
      "geoinfo": {
        "display_name": "Sha Tin Road, Shan Ha Wai, Kak Tin Village, Sha Tin District, New Territories, Hong Kong, 000000, China",
        "road": "Sha Tin Road",
        "house_number": null,
        "neighbourhood": null,
        "suburb": null,
        "city_district": null,
        "city": "Sha Tin District",
        "state": "Hong Kong",
        "postcode": "000000",
        "country": "China",
        "country_code": "cn"
      },
      "address": "116, Sha Tin Road, Shan Ha Wai, Kak Tin Village, Sha Tin District, New Territories, Hong Kong, 000000, China"
    },
    {
      "lat": 22.31192724921134,
      "lon": 114.24598481088185,
      "geoinfo": {
        "display_name": "Wilson Trail Section 3, Ma Yau Tong, Sai Kung District, Tseung Kwan O, New Territories, Hong Kong, China",
        "road": "Wilson Trail Section 3",
        "house_number": null,
        "neighbourhood": null,
        "suburb": "Ma Yau Tong",
        "city_district": null,
        "city": "Tseung Kwan O",
        "state": "Hong Kong",
        "postcode": null,
        "country": "China",
        "country_code": "cn"
      },
      "address": "Wilson Trail Section 3, Ma Yau Tong, Sai Kung District, Tseung Kwan O, New Territories, 37224 Hong Kong, China"
    }
  ],
  "updated_at": "2025-10-19T04:40:24.798438+00:00",
  "_kind": "geo_samples"
}