{
  "country_code": "HK",
  "country": "Hong Kong",
  "city": "Ma On Shan",
  "geonameid": 1819400,
  "target_addresses": 4,
  "samples": [
    {
      "lat": 22.429563011159967,
      "lon": 114.21421013382597,
      "geoinfo": {
        "display_name": "Waterfront Avenue, Hong Kong Science Park, Ma Liu Shui, Chek Nai Ping Village, Sha Tin District, New Territories, Hong Kong, 000000, China",
        "road": "Waterfront Avenue",
        "house_number": null,
        "neighbourhood": null,
        "suburb": "Ma Liu Shui",
        "city_district": null,
        "city": "Sha Tin District",
        "state": "Hong Kong",
        "postcode": "000000",
        "country": "China",
        "country_code": "cn"
      },
      "address": "Waterfront Avenue, Ma On Shan, Hong Kong, Hong Kong"
    },
    {
      "lat": 22.3859393261009,
      "lon": 114.2827290790346,
      "geoinfo": {
        "display_name": "Sai Kung Town Centre, Sai Kung, Sai Kung District, New Territories, Hong Kong, China",
        "road": null,
        "house_number": null,
        "neighbourhood": null,
        "suburb": "Sai Kung Town Centre",
        "city_district": null,
        "city": "Sai Kung District",
        "state": "Hong Kong",
        "postcode": null,
        "country": "China",
        "country_code": "cn"
      },
      "address": "423, Sai Kung Town Centre, Sai Kung, Sai Kung District, New Territories, 25819 Hong Kong, China"
    },
    {
      "lat": 22.424622373195593,
      "lon": 114.24010140203707,
      "geoinfo": {
        "display_name": "Kam Ying Road, Ma On Terrace, Wu Kai Sha, Wu Kai Sha Village, Sha Tin District, New Territories, Hong Kong, China",
        "road": "Kam Ying Road",
        "house_number": null,
        "neighbourhood": "Ma On Terrace",
        "suburb": "Wu Kai Sha",
        "city_district": null,
        "city": "Sha Tin District",
        "state": "Hong Kong",
        "postcode": null,
        "country": "China",
        "country_code": "cn"
      },
      "address": "208, Kam Ying Road, Ma On Terrace, Wu Kai Sha, Wu Kai Sha Village, Sha Tin District, New Territories, 25972 Hong Kong, China"
    },
    {
      "lat": 22.384251598762088,
      "lon": 114.25130312181406,
      "geoinfo": {
        "display_name": "大水井古道, Uk Cheung Village, Wong Chuk Shan New Village, Sai Kung District, Pak Kong, New Territories, Hong Kong, China",
        "road": "大水井古道",
        "house_number": null,
        "neighbourhood": null,
        "suburb": "Sai Kung District",
        "city_district": null,
        "city": "Pak Kong",
        "state": "Hong Kong",
        "postcode": null,
        "country": "China",
        "country_code": "cn"
      },
      "address": "246, 大水井古道, Uk Cheung Village, Wong Chuk Shan New Village, Sai Kung District, Pak Kong, New Territories, 38860 Hong Kong, China"
    }
  ],
  "updated_at": "2025-10-19T04:40:09.352232+00:00",
  "_kind": "geo_samples"
}