{
  "country_code": "HK",
  "country": "Hong Kong",
  "city": "Sai Kung",
  "geonameid": 1819050,
  "target_addresses": 4,
  "samples": [
    {
      "lat": 22.399270393609367,
      "lon": 114.24746309609712,
      "geoinfo": {
        "display_name": "Ma On Shan Country Trail, Mui Tsz Lam, Ma On Shan, Sha Tin District, New Territories, Hong Kong, China",
        "road": "Ma On Shan Country Trail",
        "house_number": null,
        "neighbourhood": null,
        "suburb": "Mui Tsz Lam",
        "city_district": null,
        "city": "Sha Tin District",
        "state": "Hong Kong",
        "postcode": null,
        "country": "China",
        "country_code": "cn"
      },
      "address": "Ma On Shan Country Trail, Sai Kung, Hong Kong, Hong Kong"
    },
    {
      "lat": 22.393956906991935,
      "lon": 114.2692874232346,
      "geoinfo": {
        "display_name": "Lung Mei Tsuen Road, Lung Mei, Sai Kung, Sai Kung District, New Territories, Hong Kong, China",
        "road": "Lung Mei Tsuen Road",
        "house_number": null,
        "neighbourhood": null,
        "suburb": null,
        "city_district": null,
        "city": "Sai Kung District",
        "state": "Hong Kong",
        "postcode": null,
        "country": "China",
        "country_code": "cn"
      },
      "address": "218, Lung Mei Tsuen Road, Lung Mei, Sai Kung, Sai Kung District, New Territories, 04693 Hong Kong, China"
    },
    {
      "lat": 22.388536017772797,
      "lon": 114.22566180132237,
      "geoinfo": {
        "display_name": "Mui Fa Ancient Trail, Fa Sam Hang, Sha Tin District, New Territories, Hong Kong, 000000, China",
        "road": "Mui Fa Ancient Trail",
        "house_number": null,
        "neighbourhood": null,
        "suburb": null,
        "city_district": null,
        "city": "Sha Tin District",
        "state": "Hong Kong",
        "postcode": "000000",
        "country": "China",
        "country_code": "cn"
      },
      "address": "884, Mui Fa Ancient Trail, Fa Sam Hang, Sha Tin District, New Territories, Hong Kong, 000000, China"
    },
    {
      "lat": 22.34940265800144,
      "lon": 114.26674261921974,
      "geoinfo": {
        "display_name": "Pillbox PB108, Hong Hay Villa Drive, Hong Hay Villa, Chuk Kok, Sai Kung District, Tai Po Tsai, New Territories, Hong Kong, China",
        "road": "Hong Hay Villa Drive",
        "house_number": null,
        "neighbourhood": null,
        "suburb": "Sai Kung District",
        "city_district": null,
        "city": "Tai Po Tsai",
        "state": "Hong Kong",
        "postcode": null,
        "country": "China",
        "country_code": "cn"
      },
      "address": "Pillbox PB108, Hong Hay Villa Drive, Hong Hay Villa, Chuk Kok, Sai Kung District, Tai Po Tsai, New Territories, 68042 Hong Kong, China"
    }
  ],
  "updated_at": "2025-10-19T04:40:01.139447+00:00",
  "_kind": "geo_samples"
}