{
  "country_code": "HK",
  "country": "Hong Kong",
  "city": "Sham Tseng",
  "geonameid": 1818950,
  "target_addresses": 4,
  "samples": [
    {
      "lat": 22.34691592250682,
      "lon": 114.02256488485963,
      "geoinfo": {
        "display_name": "Ha Pang, Ka Loon Tsuen, Tsuen Wan District, New Territories, Hong Kong, China",
        "road": null,
        "house_number": null,
        "neighbourhood": null,
        "suburb": null,
        "city_district": null,
        "city": "Tsuen Wan District",
        "state": "Hong Kong",
        "postcode": null,
        "country": "China",
        "country_code": "cn"
      },
      "address": "Sham Tseng, Hong Kong, Hong Kong"
    },
    {
      "lat": 22.389281893182662,
      "lon": 114.03720169666475,
      "geoinfo": {
        "display_name": "Tai Lam Chung Reservoir Mountain Bike Trail, Tuen Mun District, New Territories, Hong Kong, China",
        "road": "Tai Lam Chung Reservoir Mountain Bike Trail",
        "house_number": null,
        "neighbourhood": null,
        "suburb": null,
        "city_district": null,
        "city": "Tuen Mun District",
        "state": "Hong Kong",
        "postcode": null,
        "country": "China",
        "country_code": "cn"
      },
      "address": "171, Tai Lam Chung Reservoir Mountain Bike Trail, Tuen Mun District, New Territories, 60449 Hong Kong, China"
    },
    {
      "lat": 22.333499667925047,
      "lon": 114.02905929750631,
      "geoinfo": {
        "display_name": "Sunny Bay Road, Luk Keng Tsuen, Tsuen Wan District, New Territories, Hong Kong, China",
        "road": "Sunny Bay Road",
        "house_number": null,
        "neighbourhood": null,
        "suburb": null,
        "city_district": null,
        "city": "Tsuen Wan District",
        "state": "Hong Kong",
        "postcode": null,
        "country": "China",
        "country_code": "cn"
      },
      "address": "611, Sunny Bay Road, Luk Keng Tsuen, Tsuen Wan District, New Territories, 89137 Hong Kong, China"
    },
    {
      "lat": 22.33279346817257,
      "lon": 114.06802660501022,
      "geoinfo": {
        "display_name": "Sze Chuen, Tso Wan, Tsuen Wan District, New Territories, Hong Kong, 999077, China",
        "road": null,
        "house_number": null,
        "neighbourhood": null,
        "suburb": null,
        "city_district": null,
        "city": "Tsuen Wan District",
        "state": "Hong Kong",
        "postcode": "999077",
        "country": "China",
        "country_code": "cn"
      },
      "address": "166, Sze Chuen, Tso Wan, Tsuen Wan District, New Territories, Hong Kong, 999077, China"
    }
  ],
  "updated_at": "2025-10-19T04:39:53.236994+00:00",
  "_kind": "geo_samples"
}