{
  "country_code": "SN",
  "country": "Senegal",
  "city": "Pikine",
  "geonameid": 2246678,
  "target_addresses": 2,
  "samples": [
    {
      "lat": 14.744182666188891,
      "lon": -17.426689825405134,
      "geoinfo": {
        "display_name": "A 1, Hann Maristes 1, Commune de Hann Bel-Air, Arrondissement de Grand Dakar, Dakar, Dakar Region, 14000, Senegal",
        "road": "A 1",
        "house_number": null,
        "neighbourhood": "Hann Maristes 1",
        "suburb": "Commune de Hann Bel-Air",
        "city_district": "Arrondissement de Grand Dakar",
        "city": "Dakar",
        "state": "Dakar Region",
        "postcode": "14000",
        "country": "Senegal",
        "country_code": "sn"
      },
      "address": "A 1, Pikine, Dakar Region, Senegal"
    },
    {
      "lat": 14.784003221897349,
      "lon": -17.35884782633339,
      "geoinfo": {
        "display_name": "Commune de Yeumbeul Nord, Arrondissement de Yeumbeul, Département de Keur Massar, Dakar Region, 20896, Senegal",
        "road": null,
        "house_number": null,
        "neighbourhood": null,
        "suburb": null,
        "city_district": null,
        "city": "Arrondissement de Yeumbeul",
        "state": "Dakar Region",
        "postcode": "20896",
        "country": "Senegal",
        "country_code": "sn"
      },
      "address": "Pikine, Dakar Region, Senegal"
    },
    {
      "lat": 14.73746470893246,
      "lon": -17.364516774478382,
      "geoinfo": {
        "display_name": "Tiaroye, Commune de Thiaroye-sur-Mer, Arrondissement de Thiaroye, Pikine Department, Dakar Region, 10000, Senegal",
        "road": null,
        "house_number": null,
        "neighbourhood": null,
        "suburb": null,
        "city_district": null,
        "city": "Commune de Thiaroye-sur-Mer",
        "state": "Dakar Region",
        "postcode": "10000",
        "country": "Senegal",
        "country_code": "sn"
      },
      "address": "598, Pikine, 10000 Dakar Region, Senegal"
    },
    {
      "lat": 14.761876835855848,
      "lon": -17.365491885949872,
      "geoinfo": {
        "display_name": "Tiaroye, Commune de Diamaguène-Sicap Mbao, Arrondissement de Thiaroye, Pikine Department, Dakar Region, 15000, Senegal",
        "road": null,
        "house_number": null,
        "neighbourhood": null,
        "suburb": null,
        "city_district": null,
        "city": "Tiaroye",
        "state": "Dakar Region",
        "postcode": "15000",
        "country": "Senegal",
        "country_code": "sn"
      },
      "address": "866, Pikine, 15000 Dakar Region, Senegal"
    }
  ],
  "updated_at": "2025-10-19T06:37:19.661052+00:00",
  "_kind": "geo_samples"
}