{
  "country_code": "SN",
  "country": "Senegal",
  "city": "Richard-Toll",
  "geonameid": 2246544,
  "target_addresses": 2,
  "samples": [
    {
      "lat": 16.455587569378043,
      "lon": -15.664180836935309,
      "geoinfo": {
        "display_name": "Cité Cadre, Richard-Toll, Département de Dagana, Saint-Louis Region, 32600, Senegal",
        "road": null,
        "house_number": null,
        "neighbourhood": "Cité Cadre",
        "suburb": null,
        "city_district": null,
        "city": "Richard-Toll",
        "state": null,
        "postcode": "32600",
        "country": "Senegal",
        "country_code": "sn"
      },
      "address": "Cité Cadre, Richard-Toll, Senegal"
    },
    {
      "lat": 16.443471367929664,
      "lon": -15.715530306984805,
      "geoinfo": {
        "display_name": "Alarba, Communauté rurale de Ronkh, Arrondissement de Ndiaye, Département de Dagana, Saint-Louis Region, 32400, Senegal",
        "road": null,
        "house_number": null,
        "neighbourhood": null,
        "suburb": null,
        "city_district": null,
        "city": "Communauté rurale de Ronkh",
        "state": null,
        "postcode": "32400",
        "country": "Senegal",
        "country_code": "sn"
      },
      "address": "Richard-Toll, Senegal"
    },
    {
      "lat": 16.46800037231073,
      "lon": -15.698377582531302,
      "geoinfo": {
        "display_name": "Orstome, Richard-Toll, Département de Dagana, Saint-Louis Region, 32600, Senegal",
        "road": null,
        "house_number": null,
        "neighbourhood": "Orstome",
        "suburb": null,
        "city_district": null,
        "city": "Richard-Toll",
        "state": null,
        "postcode": "32600",
        "country": "Senegal",
        "country_code": "sn"
      },
      "address": "000, Orstome, Richard-Toll, Département de Dagana, Saint-Louis Region, 32600, Senegal"
    },
    {
      "lat": 16.470098308085777,
      "lon": -15.713439410561264,
      "geoinfo": {
        "display_name": "N 2, Ndiaw, Communauté rurale de Ronkh, Arrondissement de Ndiaye, Département de Dagana, Saint-Louis Region, 32600, Senegal",
        "road": "N 2",
        "house_number": null,
        "neighbourhood": null,
        "suburb": null,
        "city_district": null,
        "city": "Communauté rurale de Ronkh",
        "state": null,
        "postcode": "32600",
        "country": "Senegal",
        "country_code": "sn"
      },
      "address": "N 2, Ndiaw, Communauté rurale de Ronkh, Arrondissement de Ndiaye, Département de Dagana, Saint-Louis Region, 32600, Senegal"
    }
  ],
  "updated_at": "2025-10-19T05:33:12.070128+00:00",
  "_kind": "geo_samples"
}