{
  "country_code": "SN",
  "country": "Senegal",
  "city": "Tiébo",
  "geonameid": 2244616,
  "target_addresses": 2,
  "samples": [
    {
      "lat": 14.641837615805457,
      "lon": -16.199322835063438,
      "geoinfo": {
        "display_name": "Ndoundoye, Communauté rurale de Patar, Arrondissement de Ndoulo, Département de Diourbel, Diourbel Region, Senegal",
        "road": null,
        "house_number": null,
        "neighbourhood": null,
        "suburb": null,
        "city_district": null,
        "city": "Communauté rurale de Patar",
        "state": null,
        "postcode": null,
        "country": "Senegal",
        "country_code": "sn"
      },
      "address": "Tiébo, Senegal"
    },
    {
      "lat": 14.594467607842596,
      "lon": -16.23615092807514,
      "geoinfo": {
        "display_name": "N10, Keur Thierno Dieng, Banghadji, Communauté rurale de Ndiob, Arrondissement de Diakhao, Département de Fatick, Fatick Region, Senegal",
        "road": "N10",
        "house_number": null,
        "neighbourhood": null,
        "suburb": null,
        "city_district": null,
        "city": "Communauté rurale de Ndiob",
        "state": "Fatick Region",
        "postcode": null,
        "country": "Senegal",
        "country_code": "sn"
      },
      "address": "N10, Tiébo, Fatick Region, Senegal"
    },
    {
      "lat": 14.597179090527302,
      "lon": -16.253890484219287,
      "geoinfo": {
        "display_name": "Tawfekh, Communauté rurale de Ngohe, Arrondissement de Ndoulo, Département de Diourbel, Diourbel Region, 21600, Senegal",
        "road": null,
        "house_number": null,
        "neighbourhood": null,
        "suburb": null,
        "city_district": null,
        "city": "Communauté rurale de Ngohe",
        "state": null,
        "postcode": "21600",
        "country": "Senegal",
        "country_code": "sn"
      },
      "address": "590, Tawfekh, Communauté rurale de Ngohe, Arrondissement de Ndoulo, Département de Diourbel, Diourbel Region, 21600, Senegal"
    },
    {
      "lat": 14.632431304259386,
      "lon": -16.278865727644618,
      "geoinfo": {
        "display_name": "Ndoffene II, Ndoffene, Communauté rurale de Ngohe, Arrondissement de Ndoulo, Département de Diourbel, Diourbel Region, 21600, Senegal",
        "road": null,
        "house_number": null,
        "neighbourhood": null,
        "suburb": null,
        "city_district": null,
        "city": "Communauté rurale de Ngohe",
        "state": null,
        "postcode": "21600",
        "country": "Senegal",
        "country_code": "sn"
      },
      "address": "288, Ndoffene II, Ndoffene, Communauté rurale de Ngohe, Arrondissement de Ndoulo, Département de Diourbel, Diourbel Region, 21600, Senegal"
    }
  ],
  "updated_at": "2025-10-19T07:01:12.950032+00:00",
  "_kind": "geo_samples"
}