{
  "country_code": "GU",
  "country": "Guam",
  "city": "Tamuning",
  "geonameid": 7874631,
  "target_addresses": 17,
  "samples": [
    {
      "lat": 13.526996673187504,
      "lon": 144.76953940306225,
      "geoinfo": {
        "display_name": "Guam, United States",
        "road": null,
        "house_number": null,
        "neighbourhood": null,
        "suburb": null,
        "city_district": null,
        "city": null,
        "state": "Guam",
        "postcode": null,
        "country": "United States",
        "country_code": "us"
      },
      "address": "Tamuning, Guam, Guam"
    },
    {
      "lat": 13.486957025437189,
      "lon": 144.77845648425316,
      "geoinfo": {
        "display_name": "South 16, Tamuning, Tamuning Municipality, Guam, 96911, United States",
        "road": "South 16",
        "house_number": null,
        "neighbourhood": null,
        "suburb": null,
        "city_district": null,
        "city": "Tamuning",
        "state": "Guam",
        "postcode": "96911",
        "country": "United States",
        "country_code": "us"
      },
      "address": "South 16, Tamuning, Guam, Guam"
    },
    {
      "lat": 13.519184314844464,
      "lon": 144.81058823885795,
      "geoinfo": {
        "display_name": "Pale San Vitores Road, Tamuning, Tamuning Municipality, Guam, 96912, United States",
        "road": "Pale San Vitores Road",
        "house_number": null,
        "neighbourhood": null,
        "suburb": null,
        "city_district": null,
        "city": "Tamuning",
        "state": "Guam",
        "postcode": "96912",
        "country": "United States",
        "country_code": "us"
      },
      "address": "Pale San Vitores Road, Tamuning, Guam, Guam"
    },
    {
      "lat": 13.480367562707883,
      "lon": 144.75866818920767,
      "geoinfo": {
        "display_name": "Marine Corps Drive, Hagåtña Municipality, Guam, 96932, United States",
        "road": "Marine Corps Drive",
        "house_number": null,
        "neighbourhood": null,
        "suburb": null,
        "city_district": null,
        "city": "Hagåtña Municipality",
        "state": "Guam",
        "postcode": "96932",
        "country": "United States",
        "country_code": "us"
      },
      "address": "Marine Corps Drive, Tamuning, Guam, Guam"
    },
    {
      "lat": 13.486410358520349,
      "lon": 144.77742444515087,
      "geoinfo": {
        "display_name": "152, Tun Josen Fejeran Street, Tamuning, Tamuning Municipality, Guam, 96913, United States",
        "road": "Tun Josen Fejeran Street",
        "house_number": "152",
        "neighbourhood": null,
        "suburb": null,
        "city_district": null,
        "city": "Tamuning",
        "state": "Guam",
        "postcode": "96913",
        "country": "United States",
        "country_code": "us"
      },
      "address": "152 Tun Josen Fejeran Street, Tamuning, Guam, Guam"
    },
    {
      "lat": 13.518834131638359,
      "lon": 144.79123414997292,
      "geoinfo": {
        "display_name": "Tumon Bay, Beach Access, Tamuning Municipality, Guam, 96931, United States",
        "road": "Beach Access",
        "house_number": null,
        "neighbourhood": null,
        "suburb": null,
        "city_district": null,
        "city": null,
        "state": "Guam",
        "postcode": "96931",
        "country": "United States",
        "country_code": "us"
      },
      "address": "Beach Access, Tamuning, Guam, Guam"
    },
    {
      "lat": 13.500562293765602,
      "lon": 144.7845213428056,
      "geoinfo": {
        "display_name": "Carmen Memorial Drive, Tamuning, Tamuning Municipality, Guam, 96913, United States",
        "road": "Carmen Memorial Drive",
        "house_number": null,
        "neighbourhood": null,
        "suburb": null,
        "city_district": null,
        "city": "Tamuning",
        "state": "Guam",
        "postcode": "96913",
        "country": "United States",
        "country_code": "us"
      },
      "address": "Carmen Memorial Drive, Tamuning, Guam, Guam"
    },
    {
      "lat": 13.509119025974126,
      "lon": 144.78803532580446,
      "geoinfo": {
        "display_name": "Hilton Road, Tamuning, Tamuning Municipality, Guam, 96913, United States",
        "road": "Hilton Road",
        "house_number": null,
        "neighbourhood": null,
        "suburb": null,
        "city_district": null,
        "city": "Tamuning",
        "state": "Guam",
        "postcode": "96913",
        "country": "United States",
        "country_code": "us"
      },
      "address": "Hilton Road, Tamuning, Guam, Guam"
    },
    {
      "lat": 13.504817463236375,
      "lon": 144.81794101238387,
      "geoinfo": {
        "display_name": "East Harmon Industrial Park Road, East Harmon, Tamuning, Tamuning Municipality, Guam, 96931, United States",
        "road": "East Harmon Industrial Park Road",
        "house_number": null,
        "neighbourhood": null,
        "suburb": null,
        "city_district": null,
        "city": "Tamuning",
        "state": "Guam",
        "postcode": "96931",
        "country": "United States",
        "country_code": "us"
      },
      "address": "East Harmon Industrial Park Road, Tamuning, Guam, Guam"
    },
    {
      "lat": 13.489908440675451,
      "lon": 144.7764061039301,
      "geoinfo": {
        "display_name": "197, Governor Carlos Garcia Camacho Road, Tamuning, Tamuning Municipality, Guam, 96913, United States",
        "road": "Governor Carlos Garcia Camacho Road",
        "house_number": "197",
        "neighbourhood": null,
        "suburb": null,
        "city_district": null,
        "city": "Tamuning",
        "state": "Guam",
        "postcode": "96913",
        "country": "United States",
        "country_code": "us"
      },
      "address": "197 Governor Carlos Garcia Camacho Road, Tamuning, Guam, Guam"
    },
    {
      "lat": 13.486569039013403,
      "lon": 144.76846729525488,
      "geoinfo": {
        "display_name": "Alupang Beach Tower, 999, South Marine Corps Drive, Tamuning, Tamuning Municipality, Guam, 96913, United States",
        "road": "South Marine Corps Drive",
        "house_number": "999",
        "neighbourhood": null,
        "suburb": null,
        "city_district": null,
        "city": "Tamuning",
        "state": "Guam",
        "postcode": "96913",
        "country": "United States",
        "country_code": "us"
      },
      "address": "999 South Marine Corps Drive, Tamuning, Guam, Guam"
    },
    {
      "lat": 13.482537221188826,
      "lon": 144.7726426220315,
      "geoinfo": {
        "display_name": "Tamuning Plaza Hotel, 960, South Marine Corps Drive, Tamuning, Tamuning Municipality, Guam, 96913, United States",
        "road": "South Marine Corps Drive",
        "house_number": "960",
        "neighbourhood": null,
        "suburb": null,
        "city_district": null,
        "city": "Tamuning",
        "state": "Guam",
        "postcode": "96913",
        "country": "United States",
        "country_code": "us"
      },
      "address": "960 South Marine Corps Drive, Tamuning, Guam, Guam"
    },
    {
      "lat": 13.512204525435887,
      "lon": 144.81278772488722,
      "geoinfo": {
        "display_name": "343, B Ignacio Santos Street, Tamuning, Tamuning Municipality, Guam, 96913, United States",
        "road": "B Ignacio Santos Street",
        "house_number": "343",
        "neighbourhood": null,
        "suburb": null,
        "city_district": null,
        "city": "Tamuning",
        "state": "Guam",
        "postcode": "96913",
        "country": "United States",
        "country_code": "us"
      },
      "address": "343 B Ignacio Santos Street, Tamuning, Guam, Guam"
    },
    {
      "lat": 13.48910866065921,
      "lon": 144.77875178916128,
      "geoinfo": {
        "display_name": "1385, Tun Felix Dungca Street, Tamuning, Tamuning Municipality, Guam, 96913, United States",
        "road": "Tun Felix Dungca Street",
        "house_number": "1385",
        "neighbourhood": null,
        "suburb": null,
        "city_district": null,
        "city": "Tamuning",
        "state": "Guam",
        "postcode": "96913",
        "country": "United States",
        "country_code": "us"
      },
      "address": "1385 Tun Felix Dungca Street, Tamuning, Guam, Guam"
    },
    {
      "lat": 13.488678235056904,
      "lon": 144.7738822388476,
      "geoinfo": {
        "display_name": "Jimmy Dee’s Beach Bar, Tan Marian Coatla Loop, Tamuning, Tamuning Municipality, Guam, 96911, United States",
        "road": "Tan Marian Coatla Loop",
        "house_number": null,
        "neighbourhood": null,
        "suburb": null,
        "city_district": null,
        "city": "Tamuning",
        "state": "Guam",
        "postcode": "96911",
        "country": "United States",
        "country_code": "us"
      },
      "address": "Tan Marian Coatla Loop, Tamuning, Guam, Guam"
    },
    {
      "lat": 13.506062238949694,
      "lon": 144.81550297000592,
      "geoinfo": {
        "display_name": "Adrian Sanchez, Tamuning, Tamuning Municipality, Guam, 96931, United States",
        "road": "Adrian Sanchez",
        "house_number": null,
        "neighbourhood": null,
        "suburb": null,
        "city_district": null,
        "city": "Tamuning",
        "state": "Guam",
        "postcode": "96931",
        "country": "United States",
        "country_code": "us"
      },
      "address": "Adrian Sanchez, Tamuning, Guam, Guam"
    },
    {
      "lat": 13.501851037348699,
      "lon": 144.79484311291012,
      "geoinfo": {
        "display_name": "John Fitzgerald Kennedy High School, Tumon Bay Road, Tamuning, Tamuning Municipality, Guam, 96931, United States",
        "road": "Tumon Bay Road",
        "house_number": null,
        "neighbourhood": null,
        "suburb": null,
        "city_district": null,
        "city": "Tamuning",
        "state": "Guam",
        "postcode": "96931",
        "country": "United States",
        "country_code": "us"
      },
      "address": "Tumon Bay Road, Tamuning, Guam, Guam"
    }
  ],
  "updated_at": "2025-10-16T14:58:22.159574+00:00",
  "_kind": "geo_samples"
}