{
  "country_code": "IR",
  "country": "Iran",
  "city": "Bahār",
  "geonameid": 142000,
  "target_addresses": 3,
  "samples": [
    {
      "lat": 34.89612521567068,
      "lon": 48.4665608012227,
      "geoinfo": {
        "display_name": "جاده همدان - بیجار, دهستان الوند کوه غربی, Central District, Hamedan County, Hamadan Province, 65341-53948, Iran",
        "road": "جاده همدان - بیجار",
        "house_number": null,
        "neighbourhood": null,
        "suburb": null,
        "city_district": null,
        "city": "دهستان الوند کوه غربی",
        "state": "Hamadan Province",
        "postcode": "65341-53948",
        "country": "Iran",
        "country_code": "ir"
      },
      "address": "جاده همدان - بیجار, Bahār, Hamadan Province, Iran"
    },
    {
      "lat": 34.932639453495455,
      "lon": 48.42351336597132,
      "geoinfo": {
        "display_name": "Bahar, دهستان سیمینه رود, بخش مرکزی شهرستان بهار, Bahar County, Hamadan Province, 65341-55839, Iran",
        "road": null,
        "house_number": null,
        "neighbourhood": null,
        "suburb": null,
        "city_district": null,
        "city": "دهستان سیمینه رود",
        "state": "Hamadan Province",
        "postcode": "65341-55839",
        "country": "Iran",
        "country_code": "ir"
      },
      "address": "550, Bahār, 65341-55839 Hamadan Province, Iran"
    },
    {
      "lat": 34.869209162289145,
      "lon": 48.4314046364936,
      "geoinfo": {
        "display_name": "دهستان الوند کوه غربی, Central District, Hamedan County, Hamadan Province, Iran",
        "road": null,
        "house_number": null,
        "neighbourhood": null,
        "suburb": null,
        "city_district": null,
        "city": "دهستان الوند کوه غربی",
        "state": "Hamadan Province",
        "postcode": null,
        "country": "Iran",
        "country_code": "ir"
      },
      "address": "796, Bahār, 96025 Hamadan Province, Iran"
    }
  ],
  "updated_at": "2025-10-19T04:59:59.423443+00:00",
  "_kind": "geo_samples"
}