{
  "country_code": "IR",
  "country": "Iran",
  "city": "Bojnūrd",
  "geonameid": 140380,
  "target_addresses": 3,
  "samples": [
    {
      "lat": 37.439276443951904,
      "lon": 57.30331443199869,
      "geoinfo": {
        "display_name": "مجموعه ورزشی سالوک, فرهیختگان, Allah Verdi Khan, دهستان آلاداغ, بخش مرکزی, Bojnurd County, North Khorasan Province, 94188-37378, Iran",
        "road": "فرهیختگان",
        "house_number": null,
        "neighbourhood": null,
        "suburb": null,
        "city_district": null,
        "city": "دهستان آلاداغ",
        "state": "North Khorasan Province",
        "postcode": "94188-37378",
        "country": "Iran",
        "country_code": "ir"
      },
      "address": "فرهیختگان, Bojnūrd, North Khorasan Province, Iran"
    },
    {
      "lat": 37.51140670698056,
      "lon": 57.34427178690537,
      "geoinfo": {
        "display_name": "Aliabad, دهستان باباامان, بخش مرکزی, Bojnurd County, North Khorasan Province, 94159-39378, Iran",
        "road": null,
        "house_number": null,
        "neighbourhood": null,
        "suburb": null,
        "city_district": null,
        "city": "دهستان باباامان",
        "state": "North Khorasan Province",
        "postcode": "94159-39378",
        "country": "Iran",
        "country_code": "ir"
      },
      "address": "288, Bojnūrd, 94159-39378 North Khorasan Province, Iran"
    },
    {
      "lat": 37.45433133965964,
      "lon": 57.34289678150178,
      "geoinfo": {
        "display_name": "فرهنگیان, کوی امام محمد باقر(شرق سپاه), Ghale aziz, Bojnord, بخش مرکزی, Bojnurd County, North Khorasan Province, 94178-95171, Iran",
        "road": null,
        "house_number": null,
        "neighbourhood": "فرهنگیان",
        "suburb": null,
        "city_district": null,
        "city": "Bojnord",
        "state": "North Khorasan Province",
        "postcode": "94178-95171",
        "country": "Iran",
        "country_code": "ir"
      },
      "address": "762, فرهنگیان, Bojnūrd, 94178-95171 North Khorasan Province, Iran"
    }
  ],
  "updated_at": "2025-10-19T04:59:55.504245+00:00",
  "_kind": "geo_samples"
}