{
  "country_code": "IR",
  "country": "Iran",
  "city": "Masjed Soleymān",
  "geonameid": 124620,
  "target_addresses": 3,
  "samples": [
    {
      "lat": 31.93383942618699,
      "lon": 49.325878379343855,
      "geoinfo": {
        "display_name": "دهستان جهانگیری شمالی, بخش مرکزی, Masjedsoleyman County, Khuzestan Province, Iran",
        "road": null,
        "house_number": null,
        "neighbourhood": null,
        "suburb": null,
        "city_district": null,
        "city": "دهستان جهانگیری شمالی",
        "state": "Khuzestan Province",
        "postcode": null,
        "country": "Iran",
        "country_code": "ir"
      },
      "address": "Masjed Soleymān, Khuzestan Province, Iran"
    },
    {
      "lat": 31.9298563658769,
      "lon": 49.30034696835362,
      "geoinfo": {
        "display_name": "فرزاد, کلگه, Masjed Soleyman, بخش مرکزی, Masjedsoleyman County, Khuzestan Province, Iran",
        "road": "فرزاد",
        "house_number": null,
        "neighbourhood": null,
        "suburb": "کلگه",
        "city_district": null,
        "city": "Masjed Soleyman",
        "state": "Khuzestan Province",
        "postcode": null,
        "country": "Iran",
        "country_code": "ir"
      },
      "address": "487, فرزاد, کلگه, Masjed Soleyman, بخش مرکزی, Masjedsoleyman County, 58646 Khuzestan Province, Iran"
    },
    {
      "lat": 31.947981956246235,
      "lon": 49.2846972260458,
      "geoinfo": {
        "display_name": "هشت بنگله, دره اشکفت, Masjed Soleyman, بخش مرکزی, Masjedsoleyman County, Khuzestan Province, Iran",
        "road": null,
        "house_number": null,
        "neighbourhood": "هشت بنگله",
        "suburb": "دره اشکفت",
        "city_district": null,
        "city": "Masjed Soleyman",
        "state": "Khuzestan Province",
        "postcode": null,
        "country": "Iran",
        "country_code": "ir"
      },
      "address": "846, هشت بنگله, دره اشکفت, Masjed Soleyman, بخش مرکزی, Masjedsoleyman County, 39300 Khuzestan Province, Iran"
    }
  ],
  "updated_at": "2025-10-19T04:59:51.430632+00:00",
  "_kind": "geo_samples"
}