{
  "country_code": "IR",
  "country": "Iran",
  "city": "Qarah Ẕīā’ od Dīn",
  "geonameid": 119730,
  "target_addresses": 3,
  "samples": [
    {
      "lat": 38.868787507734005,
      "lon": 44.99447289247915,
      "geoinfo": {
        "display_name": "Marqesheh, دهستان چورس, بخش مرکزی, Chaypareh County, West Azerbaijan Province, Iran",
        "road": null,
        "house_number": null,
        "neighbourhood": null,
        "suburb": null,
        "city_district": null,
        "city": "دهستان چورس",
        "state": "West Azerbaijan Province",
        "postcode": null,
        "country": "Iran",
        "country_code": "ir"
      },
      "address": "Qarah Ẕīā’ od Dīn, West Azerbaijan Province, Iran"
    },
    {
      "lat": 38.9191492591367,
      "lon": 44.999132511111924,
      "geoinfo": {
        "display_name": "چالدران - قره ضیاالدین, حسن‌کندی, Khezerlu, دهستان قره ضیاءالدین, بخش مرکزی, Chaypareh County, West Azerbaijan Province, Iran",
        "road": "چالدران - قره ضیاالدین",
        "house_number": null,
        "neighbourhood": null,
        "suburb": null,
        "city_district": null,
        "city": "دهستان قره ضیاءالدین",
        "state": "West Azerbaijan Province",
        "postcode": null,
        "country": "Iran",
        "country_code": "ir"
      },
      "address": "877, چالدران - قره ضیاالدین, حسن‌کندی, Khezerlu, دهستان قره ضیاءالدین, بخش مرکزی, Chaypareh County, 10317 West Azerbaijan Province, Iran"
    },
    {
      "lat": 38.90436379805751,
      "lon": 45.05046852952003,
      "geoinfo": {
        "display_name": "قره ضیاالدین - ماکو - بازرگان, yusef kandi, دهستان حاجیلارشمالی, بخش حاجیلار, Chaypareh County, West Azerbaijan Province, Iran",
        "road": "قره ضیاالدین - ماکو - بازرگان",
        "house_number": null,
        "neighbourhood": null,
        "suburb": null,
        "city_district": null,
        "city": "دهستان حاجیلارشمالی",
        "state": "West Azerbaijan Province",
        "postcode": null,
        "country": "Iran",
        "country_code": "ir"
      },
      "address": "215, قره ضیاالدین - ماکو - بازرگان, yusef kandi, دهستان حاجیلارشمالی, بخش حاجیلار, Chaypareh County, 01404 West Azerbaijan Province, Iran"
    }
  ],
  "updated_at": "2025-10-19T04:59:26.447460+00:00",
  "_kind": "geo_samples"
}