{
  "country_code": "GN",
  "country": "Guinea",
  "city": "Nzérékoré",
  "geonameid": 2416969,
  "target_addresses": 3,
  "samples": [
    {
      "lat": 7.780513832924706,
      "lon": -8.786860314776261,
      "geoinfo": {
        "display_name": "N'Zérékoré, Louhoulé, Nzérékoré Prefecture, Nzérékoré Region, Guinea",
        "road": null,
        "house_number": null,
        "neighbourhood": null,
        "suburb": null,
        "city_district": null,
        "city": "N'Zérékoré",
        "state": "Nzérékoré Region",
        "postcode": null,
        "country": "Guinea",
        "country_code": "gn"
      },
      "address": "Nzérékoré, Nzérékoré Region, Guinea"
    },
    {
      "lat": 7.733182565428377,
      "lon": -8.840939765275952,
      "geoinfo": {
        "display_name": "Nakoyakpala, N'Zérékoré, N'Zérékoré-Centre, Nzérékoré Prefecture, Nzérékoré Region, Guinea",
        "road": null,
        "house_number": null,
        "neighbourhood": null,
        "suburb": "Nakoyakpala",
        "city_district": null,
        "city": "N'Zérékoré",
        "state": "Nzérékoré Region",
        "postcode": null,
        "country": "Guinea",
        "country_code": "gn"
      },
      "address": "Nakoyakpala, Nzérékoré, Nzérékoré Region, Guinea"
    },
    {
      "lat": 7.762693615993547,
      "lon": -8.822076827225018,
      "geoinfo": {
        "display_name": "Nyen 1, N'Zérékoré, N'Zérékoré-Centre, Nzérékoré Prefecture, Nzérékoré Region, Guinea",
        "road": null,
        "house_number": null,
        "neighbourhood": null,
        "suburb": "Nyen 1",
        "city_district": null,
        "city": "N'Zérékoré",
        "state": "Nzérékoré Region",
        "postcode": null,
        "country": "Guinea",
        "country_code": "gn"
      },
      "address": "Nyen 1, Nzérékoré, Nzérékoré Region, Guinea"
    },
    {
      "lat": 7.796953178535453,
      "lon": -8.80168480218566,
      "geoinfo": {
        "display_name": "N'Zérékoré, Louhoulé, Nzérékoré Prefecture, Nzérékoré Region, Guinea",
        "road": null,
        "house_number": null,
        "neighbourhood": null,
        "suburb": null,
        "city_district": null,
        "city": "N'Zérékoré",
        "state": "Nzérékoré Region",
        "postcode": null,
        "country": "Guinea",
        "country_code": "gn"
      },
      "address": "630, N'Zérékoré, Louhoulé, Nzérékoré Prefecture, 84232 Nzérékoré Region, Guinea"
    },
    {
      "lat": 7.7455721426132484,
      "lon": -8.836736343243958,
      "geoinfo": {
        "display_name": "Gonia 1, N'Zérékoré, N'Zérékoré-Centre, Nzérékoré Prefecture, Nzérékoré Region, Guinea",
        "road": null,
        "house_number": null,
        "neighbourhood": null,
        "suburb": "Gonia 1",
        "city_district": null,
        "city": "N'Zérékoré",
        "state": "Nzérékoré Region",
        "postcode": null,
        "country": "Guinea",
        "country_code": "gn"
      },
      "address": "Gonia 1, N'Zérékoré, N'Zérékoré-Centre, Nzérékoré Prefecture, 27624 Nzérékoré Region, Guinea"
    },
    {
      "lat": 7.755504773823385,
      "lon": -8.810893512479467,
      "geoinfo": {
        "display_name": "Dorota 1, N'Zérékoré, N'Zérékoré-Centre, Nzérékoré Prefecture, Nzérékoré Region, Guinea",
        "road": null,
        "house_number": null,
        "neighbourhood": null,
        "suburb": "Dorota 1",
        "city_district": null,
        "city": "N'Zérékoré",
        "state": "Nzérékoré Region",
        "postcode": null,
        "country": "Guinea",
        "country_code": "gn"
      },
      "address": "Dorota 1, N'Zérékoré, N'Zérékoré-Centre, Nzérékoré Prefecture, 45006 Nzérékoré Region, Guinea"
    }
  ],
  "updated_at": "2025-10-19T04:32:49.582745+00:00",
  "_kind": "geo_samples"
}