{
  "country_code": "MK",
  "country": "North Macedonia",
  "city": "Butel",
  "geonameid": 833260,
  "target_addresses": 14,
  "samples": [
    {
      "lat": 42.0674419634061,
      "lon": 21.413796071275286,
      "geoinfo": {
        "display_name": "Mirkovci, Municipality of Chucher-Sandevo, 1010, North Macedonia",
        "road": null,
        "house_number": null,
        "neighbourhood": null,
        "suburb": null,
        "city_district": null,
        "city": "Mirkovci",
        "state": null,
        "postcode": "1010",
        "country": "North Macedonia",
        "country_code": "mk"
      },
      "address": "Butel, North Macedonia"
    },
    {
      "lat": 42.022325370600406,
      "lon": 21.40683601561751,
      "geoinfo": {
        "display_name": "Karpoš 1, Karposh, Skopje, Municipality of Karposh, City of Skopje, 1020, North Macedonia",
        "road": null,
        "house_number": null,
        "neighbourhood": null,
        "suburb": "Karpoš 1",
        "city_district": null,
        "city": "Skopje",
        "state": null,
        "postcode": "1020",
        "country": "North Macedonia",
        "country_code": "mk"
      },
      "address": "Karpoš 1, Butel, North Macedonia"
    },
    {
      "lat": 42.034783787866445,
      "lon": 21.454866148566424,
      "geoinfo": {
        "display_name": "Naroden Heroj Hristijan Todorovski-Karposh, Бутел, Butel, Skopje, Municipality of Butel, City of Skopje, 1010, North Macedonia",
        "road": "Naroden Heroj Hristijan Todorovski-Karposh",
        "house_number": null,
        "neighbourhood": null,
        "suburb": "Бутел",
        "city_district": null,
        "city": "Skopje",
        "state": null,
        "postcode": "1010",
        "country": "North Macedonia",
        "country_code": "mk"
      },
      "address": "Naroden Heroj Hristijan Todorovski-Karposh, Butel, North Macedonia"
    },
    {
      "lat": 42.003733102072864,
      "lon": 21.461359471570937,
      "geoinfo": {
        "display_name": "7, Trifun Hadzhi Janev, Автокоманда, Gazi Baba, Skopje, Municipality of Gazi Baba, City of Skopje, 1000, North Macedonia",
        "road": "Trifun Hadzhi Janev",
        "house_number": "7",
        "neighbourhood": null,
        "suburb": "Автокоманда",
        "city_district": null,
        "city": "Skopje",
        "state": null,
        "postcode": "1000",
        "country": "North Macedonia",
        "country_code": "mk"
      },
      "address": "7, Trifun Hadzhi Janev, Автокоманда, Gazi Baba, Skopje, Municipality of Gazi Baba, City of Skopje, 1000, North Macedonia"
    },
    {
      "lat": 41.994922929321355,
      "lon": 21.43462942207988,
      "geoinfo": {
        "display_name": "Natura Therapy, Kej 13-ti Noemvri, Ново Маало, Centar, Skopje, Municipality of Centar, City of Skopje, 1111, North Macedonia",
        "road": "Kej 13-ti Noemvri",
        "house_number": null,
        "neighbourhood": null,
        "suburb": "Ново Маало",
        "city_district": null,
        "city": "Skopje",
        "state": null,
        "postcode": "1111",
        "country": "North Macedonia",
        "country_code": "mk"
      },
      "address": "Natura Therapy, Kej 13-ti Noemvri, Ново Маало, Centar, Skopje, Municipality of Centar, City of Skopje, 1111, North Macedonia"
    },
    {
      "lat": 42.04468776633584,
      "lon": 21.476412718252245,
      "geoinfo": {
        "display_name": "Bulachani, Municipality of Gazi Baba, City of Skopje, North Macedonia",
        "road": null,
        "house_number": null,
        "neighbourhood": null,
        "suburb": null,
        "city_district": null,
        "city": "Bulachani",
        "state": null,
        "postcode": null,
        "country": "North Macedonia",
        "country_code": "mk"
      },
      "address": "036, Bulachani, Municipality of Gazi Baba, 46388 City of Skopje, North Macedonia"
    },
    {
      "lat": 42.01085233886882,
      "lon": 21.42354490778959,
      "geoinfo": {
        "display_name": "Debar Maalo, Centar, Skopje, Municipality of Centar, City of Skopje, 1009, North Macedonia",
        "road": null,
        "house_number": null,
        "neighbourhood": null,
        "suburb": "Debar Maalo",
        "city_district": null,
        "city": "Skopje",
        "state": null,
        "postcode": "1009",
        "country": "North Macedonia",
        "country_code": "mk"
      },
      "address": "689, Debar Maalo, Centar, Skopje, Municipality of Centar, City of Skopje, 1009, North Macedonia"
    },
    {
      "lat": 42.037463283980635,
      "lon": 21.415619560283,
      "geoinfo": {
        "display_name": "Shuto Orizari, Skopje, Municipality of Shuto Orizari, City of Skopje, 1010, North Macedonia",
        "road": null,
        "house_number": null,
        "neighbourhood": null,
        "suburb": "Shuto Orizari",
        "city_district": null,
        "city": "Skopje",
        "state": null,
        "postcode": "1010",
        "country": "North Macedonia",
        "country_code": "mk"
      },
      "address": "967, Shuto Orizari, Skopje, Municipality of Shuto Orizari, City of Skopje, 1010, North Macedonia"
    },
    {
      "lat": 42.05539801304855,
      "lon": 21.450626671184672,
      "geoinfo": {
        "display_name": "Бел Камен, Kuchevishte, Municipality of Chucher-Sandevo, City of Skopje, 1010, North Macedonia",
        "road": "Бел Камен",
        "house_number": null,
        "neighbourhood": null,
        "suburb": null,
        "city_district": null,
        "city": "Kuchevishte",
        "state": null,
        "postcode": "1010",
        "country": "North Macedonia",
        "country_code": "mk"
      },
      "address": "267, Бел Камен, Kuchevishte, Municipality of Chucher-Sandevo, City of Skopje, 1010, North Macedonia"
    },
    {
      "lat": 41.996669697438925,
      "lon": 21.422879004390186,
      "geoinfo": {
        "display_name": "9, Nikola Trimpare, Буњаковец, Centar, Skopje, Municipality of Centar, City of Skopje, 1000, North Macedonia",
        "road": "Nikola Trimpare",
        "house_number": "9",
        "neighbourhood": null,
        "suburb": "Буњаковец",
        "city_district": null,
        "city": "Skopje",
        "state": null,
        "postcode": "1000",
        "country": "North Macedonia",
        "country_code": "mk"
      },
      "address": "9, Nikola Trimpare, Буњаковец, Centar, Skopje, Municipality of Centar, City of Skopje, 1000, North Macedonia"
    },
    {
      "lat": 42.02829111341615,
      "lon": 21.469067459061677,
      "geoinfo": {
        "display_name": "Gazi Baba, Skopje, Municipality of Gazi Baba, City of Skopje, 1010, North Macedonia",
        "road": null,
        "house_number": null,
        "neighbourhood": null,
        "suburb": "Gazi Baba",
        "city_district": null,
        "city": "Skopje",
        "state": null,
        "postcode": "1010",
        "country": "North Macedonia",
        "country_code": "mk"
      },
      "address": "910, Gazi Baba, Skopje, Municipality of Gazi Baba, City of Skopje, 1010, North Macedonia"
    },
    {
      "lat": 42.03596002743436,
      "lon": 21.435541132602687,
      "geoinfo": {
        "display_name": "Butel City Cemetery, Нов Живот, Butel, Skopje, Municipality of Butel, City of Skopje, 1010, North Macedonia",
        "road": "Нов Живот",
        "house_number": null,
        "neighbourhood": null,
        "suburb": "Butel",
        "city_district": null,
        "city": "Skopje",
        "state": null,
        "postcode": "1010",
        "country": "North Macedonia",
        "country_code": "mk"
      },
      "address": "041, Нов Живот, 1010 Butel, North Macedonia"
    },
    {
      "lat": 42.0439316895618,
      "lon": 21.501840378494478,
      "geoinfo": {
        "display_name": "Creshevo, Municipality of Gazi Baba, City of Skopje, 1040, North Macedonia",
        "road": null,
        "house_number": null,
        "neighbourhood": null,
        "suburb": null,
        "city_district": null,
        "city": "Creshevo",
        "state": null,
        "postcode": "1040",
        "country": "North Macedonia",
        "country_code": "mk"
      },
      "address": "267, Creshevo, Municipality of Gazi Baba, City of Skopje, 1040, North Macedonia"
    },
    {
      "lat": 42.01012523794565,
      "lon": 21.394584676282832,
      "geoinfo": {
        "display_name": "Велосипедска патека Кеј, Zlokuḱani, Karposh 3, Skopje, Municipality of Karposh, City of Skopje, 1020, North Macedonia",
        "road": "Велосипедска патека Кеј",
        "house_number": null,
        "neighbourhood": null,
        "suburb": "Zlokuḱani",
        "city_district": null,
        "city": "Skopje",
        "state": null,
        "postcode": "1020",
        "country": "North Macedonia",
        "country_code": "mk"
      },
      "address": "Велосипедска патека Кеј, Zlokuḱani, Karposh 3, Skopje, Municipality of Karposh, City of Skopje, 1020, North Macedonia"
    },
    {
      "lat": 42.0517746169527,
      "lon": 21.467426778178947,
      "geoinfo": {
        "display_name": "Butel, Rashtak, Municipality of Gazi Baba, City of Skopje, 1010, North Macedonia",
        "road": null,
        "house_number": null,
        "neighbourhood": null,
        "suburb": "Butel",
        "city_district": null,
        "city": "Rashtak",
        "state": null,
        "postcode": "1010",
        "country": "North Macedonia",
        "country_code": "mk"
      },
      "address": "093, Butel, 1010 Butel, North Macedonia"
    }
  ],
  "updated_at": "2025-10-19T05:44:14.167544+00:00",
  "_kind": "geo_samples"
}