{
  "country_code": "MK",
  "country": "North Macedonia",
  "city": "Kochani",
  "geonameid": 789403,
  "target_addresses": 3,
  "samples": [
    {
      "lat": 41.897126746177975,
      "lon": 22.414277755411238,
      "geoinfo": {
        "display_name": "R1309, Kochani, Municipality of Kochani, 2300, North Macedonia",
        "road": "R1309",
        "house_number": null,
        "neighbourhood": null,
        "suburb": null,
        "city_district": null,
        "city": "Kochani",
        "state": null,
        "postcode": "2300",
        "country": "North Macedonia",
        "country_code": "mk"
      },
      "address": "R1309, Kochani, North Macedonia"
    },
    {
      "lat": 41.89867262641496,
      "lon": 22.45140716764153,
      "geoinfo": {
        "display_name": "Orizari, Municipality of Kochani, 2300, North Macedonia",
        "road": null,
        "house_number": null,
        "neighbourhood": null,
        "suburb": null,
        "city_district": null,
        "city": "Orizari",
        "state": null,
        "postcode": "2300",
        "country": "North Macedonia",
        "country_code": "mk"
      },
      "address": "Kochani, North Macedonia"
    },
    {
      "lat": 41.90903269027416,
      "lon": 22.403881060820964,
      "geoinfo": {
        "display_name": "Gligor Prlichev, Текишински Лозја, Kochani, Municipality of Kochani, 2300, North Macedonia",
        "road": "Gligor Prlichev",
        "house_number": null,
        "neighbourhood": null,
        "suburb": null,
        "city_district": null,
        "city": "Kochani",
        "state": null,
        "postcode": "2300",
        "country": "North Macedonia",
        "country_code": "mk"
      },
      "address": "Gligor Prlichev, Kochani, North Macedonia"
    },
    {
      "lat": 41.898927369354304,
      "lon": 22.394541831746853,
      "geoinfo": {
        "display_name": "Kochani, Municipality of Kochani, 2300, North Macedonia",
        "road": null,
        "house_number": null,
        "neighbourhood": null,
        "suburb": null,
        "city_district": null,
        "city": "Kochani",
        "state": null,
        "postcode": "2300",
        "country": "North Macedonia",
        "country_code": "mk"
      },
      "address": "157, Kochani, Municipality of Kochani, 2300, North Macedonia"
    },
    {
      "lat": 41.88942371325537,
      "lon": 22.459777239488478,
      "geoinfo": {
        "display_name": "Vinica, Municipality of Vinica, 2310, North Macedonia",
        "road": null,
        "house_number": null,
        "neighbourhood": null,
        "suburb": null,
        "city_district": null,
        "city": "Vinica",
        "state": null,
        "postcode": "2310",
        "country": "North Macedonia",
        "country_code": "mk"
      },
      "address": "689, Vinica, Municipality of Vinica, 2310, North Macedonia"
    },
    {
      "lat": 41.935640406550974,
      "lon": 22.387036498797002,
      "geoinfo": {
        "display_name": "R1309, Leshki, Beli, Municipality of Kochani, North Macedonia",
        "road": "R1309",
        "house_number": null,
        "neighbourhood": null,
        "suburb": null,
        "city_district": null,
        "city": "Beli",
        "state": null,
        "postcode": null,
        "country": "North Macedonia",
        "country_code": "mk"
      },
      "address": "R1309, Leshki, Beli, 03326 Municipality of Kochani, North Macedonia"
    }
  ],
  "updated_at": "2025-10-19T03:50:52.986787+00:00",
  "_kind": "geo_samples"
}