{
  "country_code": "MK",
  "country": "North Macedonia",
  "city": "Saraj",
  "geonameid": 786093,
  "target_addresses": 3,
  "samples": [
    {
      "lat": 42.040464652993066,
      "lon": 21.3522985847481,
      "geoinfo": {
        "display_name": "Улица 70, Gjorche Petrov, Skopje, Municipality of Gjorche Petrov, City of Skopje, 1065, North Macedonia",
        "road": "Улица 70",
        "house_number": null,
        "neighbourhood": null,
        "suburb": "Gjorche Petrov",
        "city_district": null,
        "city": "Skopje",
        "state": null,
        "postcode": "1065",
        "country": "North Macedonia",
        "country_code": "mk"
      },
      "address": "Улица 70, Saraj, North Macedonia"
    },
    {
      "lat": 41.98793546341785,
      "lon": 21.363038773594724,
      "geoinfo": {
        "display_name": "Gorno Krushopek, Krushopek, Municipality of Saraj, City of Skopje, 1060, North Macedonia",
        "road": null,
        "house_number": null,
        "neighbourhood": null,
        "suburb": null,
        "city_district": null,
        "city": "Gorno Krushopek",
        "state": null,
        "postcode": "1060",
        "country": "North Macedonia",
        "country_code": "mk"
      },
      "address": "Saraj, North Macedonia"
    },
    {
      "lat": 42.03589924037619,
      "lon": 21.347712234903288,
      "geoinfo": {
        "display_name": "Улица 3, Стопански Двор, Volkovo, Municipality of Gjorche Petrov, City of Skopje, 1065, North Macedonia",
        "road": "Улица 3",
        "house_number": null,
        "neighbourhood": null,
        "suburb": null,
        "city_district": null,
        "city": "Volkovo",
        "state": null,
        "postcode": "1065",
        "country": "North Macedonia",
        "country_code": "mk"
      },
      "address": "Улица 3, Saraj, North Macedonia"
    },
    {
      "lat": 41.96018559877042,
      "lon": 21.314536144607867,
      "geoinfo": {
        "display_name": "Водно - Мечкина Дупка, Shishevo, Municipality of Saraj, City of Skopje, North Macedonia",
        "road": "Водно - Мечкина Дупка",
        "house_number": null,
        "neighbourhood": null,
        "suburb": null,
        "city_district": null,
        "city": "Shishevo",
        "state": null,
        "postcode": null,
        "country": "North Macedonia",
        "country_code": "mk"
      },
      "address": "844, Водно - Мечкина Дупка, Shishevo, Municipality of Saraj, 84981 City of Skopje, North Macedonia"
    },
    {
      "lat": 41.9870384128929,
      "lon": 21.288457491584975,
      "geoinfo": {
        "display_name": "Arnakija, Municipality of Saraj, City of Skopje, North Macedonia",
        "road": null,
        "house_number": null,
        "neighbourhood": null,
        "suburb": null,
        "city_district": null,
        "city": "Arnakija",
        "state": null,
        "postcode": null,
        "country": "North Macedonia",
        "country_code": "mk"
      },
      "address": "518, Arnakija, Municipality of Saraj, 63207 City of Skopje, North Macedonia"
    },
    {
      "lat": 42.00126150390674,
      "lon": 21.371128850021133,
      "geoinfo": {
        "display_name": "Ibe Palikuḱa, Hrom, Gjorche Petrov, Skopje, Municipality of Gjorche Petrov, City of Skopje, 9100, North Macedonia",
        "road": "Ibe Palikuḱa",
        "house_number": null,
        "neighbourhood": null,
        "suburb": "Hrom",
        "city_district": null,
        "city": "Skopje",
        "state": null,
        "postcode": "9100",
        "country": "North Macedonia",
        "country_code": "mk"
      },
      "address": "116, Ibe Palikuḱa, Hrom, Gjorche Petrov, Skopje, Municipality of Gjorche Petrov, City of Skopje, 9100, North Macedonia"
    }
  ],
  "updated_at": "2025-10-19T03:50:41.852731+00:00",
  "_kind": "geo_samples"
}