{
  "country_code": "MK",
  "country": "North Macedonia",
  "city": "Zelino",
  "geonameid": 783926,
  "target_addresses": 3,
  "samples": [
    {
      "lat": 42.00680133802988,
      "lon": 21.085209463045995,
      "geoinfo": {
        "display_name": "R2242, Sirichino, Municipality of Jegunovce, North Macedonia",
        "road": "R2242",
        "house_number": null,
        "neighbourhood": null,
        "suburb": null,
        "city_district": null,
        "city": "Sirichino",
        "state": null,
        "postcode": null,
        "country": "North Macedonia",
        "country_code": "mk"
      },
      "address": "R2242, Zelino, North Macedonia"
    },
    {
      "lat": 42.013603651723685,
      "lon": 21.064297273674285,
      "geoinfo": {
        "display_name": "Ozormishte, Municipality of Zhelino, North Macedonia",
        "road": null,
        "house_number": null,
        "neighbourhood": null,
        "suburb": null,
        "city_district": null,
        "city": "Ozormishte",
        "state": null,
        "postcode": null,
        "country": "North Macedonia",
        "country_code": "mk"
      },
      "address": "Zelino, North Macedonia"
    },
    {
      "lat": 41.99682646945799,
      "lon": 21.032166887905316,
      "geoinfo": {
        "display_name": "A2, Tetovo, Municipality of Tetovo, 1200, North Macedonia",
        "road": "A2",
        "house_number": null,
        "neighbourhood": null,
        "suburb": null,
        "city_district": null,
        "city": "Tetovo",
        "state": null,
        "postcode": "1200",
        "country": "North Macedonia",
        "country_code": "mk"
      },
      "address": "A2, Zelino, North Macedonia"
    },
    {
      "lat": 41.99117990511478,
      "lon": 21.02696766370855,
      "geoinfo": {
        "display_name": "R1206, TIDZ Tetovo, Sarakjino, Municipality of Tetovo, North Macedonia",
        "road": "R1206",
        "house_number": null,
        "neighbourhood": null,
        "suburb": null,
        "city_district": null,
        "city": "Sarakjino",
        "state": null,
        "postcode": null,
        "country": "North Macedonia",
        "country_code": "mk"
      },
      "address": "R1206, TIDZ Tetovo, Sarakjino, 36604 Municipality of Tetovo, North Macedonia"
    },
    {
      "lat": 42.015900155051824,
      "lon": 21.085476217765656,
      "geoinfo": {
        "display_name": "R2242, Sirichino, Municipality of Jegunovce, North Macedonia",
        "road": "R2242",
        "house_number": null,
        "neighbourhood": null,
        "suburb": null,
        "city_district": null,
        "city": "Sirichino",
        "state": null,
        "postcode": null,
        "country": "North Macedonia",
        "country_code": "mk"
      },
      "address": "R2242, 41276 Zelino, North Macedonia"
    },
    {
      "lat": 41.99938989116071,
      "lon": 21.022736530676877,
      "geoinfo": {
        "display_name": "A2, Tetovo, Municipality of Tetovo, 1216, North Macedonia",
        "road": "A2",
        "house_number": null,
        "neighbourhood": null,
        "suburb": null,
        "city_district": null,
        "city": "Tetovo",
        "state": null,
        "postcode": "1216",
        "country": "North Macedonia",
        "country_code": "mk"
      },
      "address": "A2, Tetovo, Municipality of Tetovo, 1216, North Macedonia"
    }
  ],
  "updated_at": "2025-10-19T05:55:57.211001+00:00",
  "_kind": "geo_samples"
}