{
  "country_code": "MK",
  "country": "North Macedonia",
  "city": "Šuto Orizare",
  "geonameid": 833258,
  "target_addresses": 3,
  "samples": [
    {
      "lat": 42.06578342398667,
      "lon": 21.45397765559287,
      "geoinfo": {
        "display_name": "18, Radishani, Municipality of Butel, City of Skopje, 1010, North Macedonia",
        "road": "18",
        "house_number": null,
        "neighbourhood": null,
        "suburb": null,
        "city_district": null,
        "city": "Radishani",
        "state": null,
        "postcode": "1010",
        "country": "North Macedonia",
        "country_code": "mk"
      },
      "address": "18, Radishani, Municipality of Butel, City of Skopje, 1010, North Macedonia"
    },
    {
      "lat": 42.01482524202221,
      "lon": 21.377282750165985,
      "geoinfo": {
        "display_name": "Скупи 20, Идадија Инженеринг, Karposh, Skopje, Municipality of Karposh, City of Skopje, 1000, North Macedonia",
        "road": "Скупи 20",
        "house_number": null,
        "neighbourhood": null,
        "suburb": "Karposh",
        "city_district": null,
        "city": "Skopje",
        "state": null,
        "postcode": "1000",
        "country": "North Macedonia",
        "country_code": "mk"
      },
      "address": "Скупи 20, Идадија Инженеринг, Karposh, Skopje, Municipality of Karposh, City of Skopje, 1000, North Macedonia"
    },
    {
      "lat": 42.026879670510304,
      "lon": 21.370695221777083,
      "geoinfo": {
        "display_name": "Улица 12, Bardovci, Municipality of Karposh, City of Skopje, 1060, North Macedonia",
        "road": "Улица 12",
        "house_number": null,
        "neighbourhood": null,
        "suburb": null,
        "city_district": null,
        "city": "Bardovci",
        "state": null,
        "postcode": "1060",
        "country": "North Macedonia",
        "country_code": "mk"
      },
      "address": "Улица 12, Bardovci, Municipality of Karposh, City of Skopje, 1060, North Macedonia"
    }
  ],
  "updated_at": "2025-10-19T05:37:13.680218+00:00",
  "_kind": "geo_samples"
}