{
  "country_code": "AR",
  "country": "Argentina",
  "city": "Palpalá",
  "geonameid": 3842190,
  "target_addresses": 3,
  "samples": [
    {
      "lat": -24.286757413966566,
      "lon": -65.20159620847664,
      "geoinfo": {
        "display_name": "Municipio de San Antonio, Departamento San Antonio, Jujuy, Y4612XAI, Argentina",
        "road": null,
        "house_number": null,
        "neighbourhood": null,
        "suburb": null,
        "city_district": null,
        "city": "Municipio de San Antonio",
        "state": "Jujuy",
        "postcode": "Y4612XAI",
        "country": "Argentina",
        "country_code": "ar"
      },
      "address": "Palpalá, Jujuy, Argentina"
    },
    {
      "lat": -24.279435565405198,
      "lon": -65.22772703204666,
      "geoinfo": {
        "display_name": "Las Delicias, Municipio de San Antonio, Departamento San Antonio, Jujuy, Y4613ATN, Argentina",
        "road": null,
        "house_number": null,
        "neighbourhood": null,
        "suburb": "Las Delicias",
        "city_district": null,
        "city": "Municipio de San Antonio",
        "state": "Jujuy",
        "postcode": "Y4613ATN",
        "country": "Argentina",
        "country_code": "ar"
      },
      "address": "219, Las Delicias, Municipio de San Antonio, Departamento San Antonio, Jujuy, Y4613ATN, Argentina"
    },
    {
      "lat": -24.249773383950398,
      "lon": -65.21051252055386,
      "geoinfo": {
        "display_name": "Monumento San Cayetano, RP1, Loma Golf, Canal de Beagle, Municipio de Palpalá, Departamento Palpalá, Jujuy, 4612, Argentina",
        "road": "RP1",
        "house_number": null,
        "neighbourhood": "Loma Golf",
        "suburb": null,
        "city_district": null,
        "city": "Municipio de Palpalá",
        "state": "Jujuy",
        "postcode": "4612",
        "country": "Argentina",
        "country_code": "ar"
      },
      "address": "Monumento San Cayetano, RP1, Loma Golf, Canal de Beagle, Municipio de Palpalá, Departamento Palpalá, Jujuy, 4612, Argentina"
    }
  ],
  "updated_at": "2025-10-19T03:13:10.574463+00:00",
  "_kind": "geo_samples"
}