{
  "country_code": "TG",
  "country": "Togo",
  "city": "Atakpamé",
  "geonameid": 2367886,
  "target_addresses": 5,
  "samples": [
    {
      "lat": 7.545100279231101,
      "lon": 1.106391973113653,
      "geoinfo": {
        "display_name": "Atakpamé, Plateaux Region, Togo",
        "road": null,
        "house_number": null,
        "neighbourhood": null,
        "suburb": null,
        "city_district": null,
        "city": "Atakpamé",
        "state": "Plateaux Region",
        "postcode": null,
        "country": "Togo",
        "country_code": "tg"
      },
      "address": "Atakpamé, Plateaux Region, Togo"
    },
    {
      "lat": 7.502946614087339,
      "lon": 1.151065221347795,
      "geoinfo": {
        "display_name": "GROUPE JCAT SARL, Lomé - Cinkassé, Agbonou Gare, Agbonou, Atakpamé, Plateaux Region, Togo",
        "road": "Lomé - Cinkassé",
        "house_number": null,
        "neighbourhood": "Agbonou Gare",
        "suburb": "Agbonou",
        "city_district": null,
        "city": "Atakpamé",
        "state": "Plateaux Region",
        "postcode": null,
        "country": "Togo",
        "country_code": "tg"
      },
      "address": "Lomé - Cinkassé, Atakpamé, Plateaux Region, Togo"
    },
    {
      "lat": 7.507761254697358,
      "lon": 1.1566621035442943,
      "geoinfo": {
        "display_name": "Koeroma, Agbonou, Atakpamé, Plateaux Region, Togo",
        "road": null,
        "house_number": null,
        "neighbourhood": null,
        "suburb": "Agbonou",
        "city_district": null,
        "city": "Atakpamé",
        "state": "Plateaux Region",
        "postcode": null,
        "country": "Togo",
        "country_code": "tg"
      },
      "address": "Agbonou, Atakpamé, Plateaux Region, Togo"
    },
    {
      "lat": 7.536252658072549,
      "lon": 1.1450537227614708,
      "geoinfo": {
        "display_name": "Sada, Atakpamé, Plateaux Region, Togo",
        "road": null,
        "house_number": null,
        "neighbourhood": null,
        "suburb": "Sada",
        "city_district": null,
        "city": "Atakpamé",
        "state": "Plateaux Region",
        "postcode": null,
        "country": "Togo",
        "country_code": "tg"
      },
      "address": "Sada, Atakpamé, Plateaux Region, Togo"
    },
    {
      "lat": 7.508560097373903,
      "lon": 1.1103181062887482,
      "geoinfo": {
        "display_name": "Lom-Nava, Atakpamé, Plateaux Region, Togo",
        "road": null,
        "house_number": null,
        "neighbourhood": null,
        "suburb": "Lom-Nava",
        "city_district": null,
        "city": "Atakpamé",
        "state": "Plateaux Region",
        "postcode": null,
        "country": "Togo",
        "country_code": "tg"
      },
      "address": "Lom-Nava, Atakpamé, Plateaux Region, Togo"
    },
    {
      "lat": 7.539646563217182,
      "lon": 1.175033483404701,
      "geoinfo": {
        "display_name": "Ohoundje, Plateaux Region, Togo",
        "road": null,
        "house_number": null,
        "neighbourhood": null,
        "suburb": null,
        "city_district": null,
        "city": "Ohoundje",
        "state": "Plateaux Region",
        "postcode": null,
        "country": "Togo",
        "country_code": "tg"
      },
      "address": "296, Atakpamé, 07745 Plateaux Region, Togo"
    },
    {
      "lat": 7.501434005338111,
      "lon": 1.1151094381152897,
      "geoinfo": {
        "display_name": "Atalo Kofan, Plateaux Region, Togo",
        "road": null,
        "house_number": null,
        "neighbourhood": null,
        "suburb": null,
        "city_district": null,
        "city": "Atalo Kofan",
        "state": "Plateaux Region",
        "postcode": null,
        "country": "Togo",
        "country_code": "tg"
      },
      "address": "377, Atakpamé, 25356 Plateaux Region, Togo"
    },
    {
      "lat": 7.531576974811317,
      "lon": 1.1330691681187692,
      "geoinfo": {
        "display_name": "Prison Civile, Rue du Lomé, Agbonou CEET, Gnagna, Atakpamé, Plateaux Region, Togo",
        "road": "Rue du Lomé",
        "house_number": null,
        "neighbourhood": "Agbonou CEET",
        "suburb": "Gnagna",
        "city_district": null,
        "city": "Atakpamé",
        "state": "Plateaux Region",
        "postcode": null,
        "country": "Togo",
        "country_code": "tg"
      },
      "address": "861, Rue du Lomé, Atakpamé, 39463 Plateaux Region, Togo"
    },
    {
      "lat": 7.557603511921242,
      "lon": 1.1358349470876887,
      "geoinfo": {
        "display_name": "Atakpamé, Plateaux Region, Togo",
        "road": null,
        "house_number": null,
        "neighbourhood": null,
        "suburb": null,
        "city_district": null,
        "city": "Atakpamé",
        "state": "Plateaux Region",
        "postcode": null,
        "country": "Togo",
        "country_code": "tg"
      },
      "address": "603, Atakpamé, 41572 Plateaux Region, Togo"
    },
    {
      "lat": 7.51551144501766,
      "lon": 1.0945981072224809,
      "geoinfo": {
        "display_name": "Atakpamé, Plateaux Region, Togo",
        "road": null,
        "house_number": null,
        "neighbourhood": null,
        "suburb": null,
        "city_district": null,
        "city": "Atakpamé",
        "state": "Plateaux Region",
        "postcode": null,
        "country": "Togo",
        "country_code": "tg"
      },
      "address": "463, Atakpamé, 41242 Plateaux Region, Togo"
    }
  ],
  "updated_at": "2025-10-19T07:07:30.240395+00:00",
  "_kind": "geo_samples"
}