{
  "country_code": "TG",
  "country": "Togo",
  "city": "Badou",
  "geonameid": 2367660,
  "target_addresses": 15,
  "samples": [
    {
      "lat": 7.601090155450263,
      "lon": 0.5982390753329557,
      "geoinfo": {
        "display_name": "Badou, Plateaux Region, Togo",
        "road": null,
        "house_number": null,
        "neighbourhood": null,
        "suburb": null,
        "city_district": null,
        "city": "Badou",
        "state": "Plateaux Region",
        "postcode": null,
        "country": "Togo",
        "country_code": "tg"
      },
      "address": "Badou, Plateaux Region, Togo"
    },
    {
      "lat": 7.624937039747312,
      "lon": 0.5958397712201866,
      "geoinfo": {
        "display_name": "Badou, Plateaux Region, Togo",
        "road": null,
        "house_number": null,
        "neighbourhood": null,
        "suburb": null,
        "city_district": null,
        "city": "Badou",
        "state": "Plateaux Region",
        "postcode": null,
        "country": "Togo",
        "country_code": "tg"
      },
      "address": "717, Badou, 40945 Plateaux Region, Togo"
    },
    {
      "lat": 7.551589301531085,
      "lon": 0.6062167034645585,
      "geoinfo": {
        "display_name": "Wobè, Plateaux Region, Togo",
        "road": null,
        "house_number": null,
        "neighbourhood": null,
        "suburb": null,
        "city_district": null,
        "city": "Wobè",
        "state": "Plateaux Region",
        "postcode": null,
        "country": "Togo",
        "country_code": "tg"
      },
      "address": "292, Badou, 63246 Plateaux Region, Togo"
    },
    {
      "lat": 7.559822023548411,
      "lon": 0.6178678001854623,
      "geoinfo": {
        "display_name": "Anonoé, Plateaux Region, Togo",
        "road": null,
        "house_number": null,
        "neighbourhood": null,
        "suburb": null,
        "city_district": null,
        "city": "Anonoé",
        "state": "Plateaux Region",
        "postcode": null,
        "country": "Togo",
        "country_code": "tg"
      },
      "address": "330, Badou, 19609 Plateaux Region, Togo"
    },
    {
      "lat": 7.599026491724034,
      "lon": 0.5683948973716163,
      "geoinfo": {
        "display_name": "Badou, Plateaux Region, Togo",
        "road": null,
        "house_number": null,
        "neighbourhood": null,
        "suburb": null,
        "city_district": null,
        "city": "Badou",
        "state": "Plateaux Region",
        "postcode": null,
        "country": "Togo",
        "country_code": "tg"
      },
      "address": "949, Badou, 35125 Plateaux Region, Togo"
    },
    {
      "lat": 7.564126977388047,
      "lon": 0.6312978486488013,
      "geoinfo": {
        "display_name": "Anonoé, Plateaux Region, Togo",
        "road": null,
        "house_number": null,
        "neighbourhood": null,
        "suburb": null,
        "city_district": null,
        "city": "Anonoé",
        "state": "Plateaux Region",
        "postcode": null,
        "country": "Togo",
        "country_code": "tg"
      },
      "address": "275, Badou, 04111 Plateaux Region, Togo"
    },
    {
      "lat": 7.544252406844917,
      "lon": 0.5867330558844382,
      "geoinfo": {
        "display_name": "Anonoé, Plateaux Region, Togo",
        "road": null,
        "house_number": null,
        "neighbourhood": null,
        "suburb": null,
        "city_district": null,
        "city": "Anonoé",
        "state": "Plateaux Region",
        "postcode": null,
        "country": "Togo",
        "country_code": "tg"
      },
      "address": "914, Badou, 42385 Plateaux Region, Togo"
    },
    {
      "lat": 7.597278406297935,
      "lon": 0.6282287158106518,
      "geoinfo": {
        "display_name": "Akpani, Plateaux Region, Togo",
        "road": null,
        "house_number": null,
        "neighbourhood": null,
        "suburb": null,
        "city_district": null,
        "city": "Akpani",
        "state": "Plateaux Region",
        "postcode": null,
        "country": "Togo",
        "country_code": "tg"
      },
      "address": "498, Badou, 53291 Plateaux Region, Togo"
    },
    {
      "lat": 7.579153343149166,
      "lon": 0.5660929476493268,
      "geoinfo": {
        "display_name": "Plateaux Region, Togo",
        "road": null,
        "house_number": null,
        "neighbourhood": null,
        "suburb": null,
        "city_district": null,
        "city": null,
        "state": "Plateaux Region",
        "postcode": null,
        "country": "Togo",
        "country_code": "tg"
      },
      "address": "367, Badou, 42670 Plateaux Region, Togo"
    },
    {
      "lat": 7.547839843952516,
      "lon": 0.619459716230579,
      "geoinfo": {
        "display_name": "Wobè, Plateaux Region, Togo",
        "road": null,
        "house_number": null,
        "neighbourhood": null,
        "suburb": null,
        "city_district": null,
        "city": "Wobè",
        "state": "Plateaux Region",
        "postcode": null,
        "country": "Togo",
        "country_code": "tg"
      },
      "address": "756, Badou, 10567 Plateaux Region, Togo"
    },
    {
      "lat": 7.573221997302038,
      "lon": 0.6414597400775195,
      "geoinfo": {
        "display_name": "Wampa Kope, Plateaux Region, Togo",
        "road": null,
        "house_number": null,
        "neighbourhood": null,
        "suburb": null,
        "city_district": null,
        "city": "Wampa Kope",
        "state": "Plateaux Region",
        "postcode": null,
        "country": "Togo",
        "country_code": "tg"
      },
      "address": "179, Badou, 60979 Plateaux Region, Togo"
    },
    {
      "lat": 7.578191899845745,
      "lon": 0.5831676937850768,
      "geoinfo": {
        "display_name": "Anonoé, Plateaux Region, Togo",
        "road": null,
        "house_number": null,
        "neighbourhood": null,
        "suburb": null,
        "city_district": null,
        "city": "Anonoé",
        "state": "Plateaux Region",
        "postcode": null,
        "country": "Togo",
        "country_code": "tg"
      },
      "address": "134, Badou, 27236 Plateaux Region, Togo"
    },
    {
      "lat": 7.581682427240326,
      "lon": 0.5959252491795586,
      "geoinfo": {
        "display_name": "Badou Djindji/Danyé-N’Konta, Badou, Plateaux Region, Togo",
        "road": null,
        "house_number": null,
        "neighbourhood": null,
        "suburb": null,
        "city_district": null,
        "city": "Badou",
        "state": "Plateaux Region",
        "postcode": null,
        "country": "Togo",
        "country_code": "tg"
      },
      "address": "836, Badou, 80584 Plateaux Region, Togo"
    },
    {
      "lat": 7.598516610747712,
      "lon": 0.625395828938359,
      "geoinfo": {
        "display_name": "Akpani, Plateaux Region, Togo",
        "road": null,
        "house_number": null,
        "neighbourhood": null,
        "suburb": null,
        "city_district": null,
        "city": "Akpani",
        "state": "Plateaux Region",
        "postcode": null,
        "country": "Togo",
        "country_code": "tg"
      },
      "address": "321, Badou, 76497 Plateaux Region, Togo"
    },
    {
      "lat": 7.614518922124355,
      "lon": 0.6267496467859702,
      "geoinfo": {
        "display_name": "Akpani, Plateaux Region, Togo",
        "road": null,
        "house_number": null,
        "neighbourhood": null,
        "suburb": null,
        "city_district": null,
        "city": "Akpani",
        "state": "Plateaux Region",
        "postcode": null,
        "country": "Togo",
        "country_code": "tg"
      },
      "address": "611, Badou, 74050 Plateaux Region, Togo"
    }
  ],
  "updated_at": "2025-10-19T06:28:02.665677+00:00",
  "_kind": "geo_samples"
}