{
  "country_code": "TG",
  "country": "Togo",
  "city": "Notsé",
  "geonameid": 2364752,
  "target_addresses": 5,
  "samples": [
    {
      "lat": 6.953628111855959,
      "lon": 1.1809271053661987,
      "geoinfo": {
        "display_name": "Notsé, Plateaux Region, Togo",
        "road": null,
        "house_number": null,
        "neighbourhood": null,
        "suburb": null,
        "city_district": null,
        "city": "Notsé",
        "state": "Plateaux Region",
        "postcode": null,
        "country": "Togo",
        "country_code": "tg"
      },
      "address": "602, Notsé, 97657 Plateaux Region, Togo"
    },
    {
      "lat": 6.937433752910828,
      "lon": 1.1481402429526453,
      "geoinfo": {
        "display_name": "Notsé, Plateaux Region, Togo",
        "road": null,
        "house_number": null,
        "neighbourhood": null,
        "suburb": null,
        "city_district": null,
        "city": "Notsé",
        "state": "Plateaux Region",
        "postcode": null,
        "country": "Togo",
        "country_code": "tg"
      },
      "address": "724, Notsé, 89570 Plateaux Region, Togo"
    },
    {
      "lat": 6.931373657087265,
      "lon": 1.1392238716008887,
      "geoinfo": {
        "display_name": "Notsé, Plateaux Region, Togo",
        "road": null,
        "house_number": null,
        "neighbourhood": null,
        "suburb": null,
        "city_district": null,
        "city": "Notsé",
        "state": "Plateaux Region",
        "postcode": null,
        "country": "Togo",
        "country_code": "tg"
      },
      "address": "576, Notsé, 57599 Plateaux Region, Togo"
    },
    {
      "lat": 6.945118068356123,
      "lon": 1.1934645751048563,
      "geoinfo": {
        "display_name": "Route Notsé-Bénin, Naolo Fida, Notsé, Plateaux Region, Togo",
        "road": "Route Notsé-Bénin",
        "house_number": null,
        "neighbourhood": null,
        "suburb": null,
        "city_district": null,
        "city": "Notsé",
        "state": "Plateaux Region",
        "postcode": null,
        "country": "Togo",
        "country_code": "tg"
      },
      "address": "051, Route Notsé-Bénin, Naolo Fida, Notsé, 30059 Plateaux Region, Togo"
    },
    {
      "lat": 6.917738077238602,
      "lon": 1.1753057744468565,
      "geoinfo": {
        "display_name": "Lomé - Cinkassé, Kpédome, Notsé, Plateaux Region, Togo",
        "road": "Lomé - Cinkassé",
        "house_number": null,
        "neighbourhood": null,
        "suburb": "Kpédome",
        "city_district": null,
        "city": "Notsé",
        "state": "Plateaux Region",
        "postcode": null,
        "country": "Togo",
        "country_code": "tg"
      },
      "address": "835, Lomé - Cinkassé, Kpédome, Notsé, 37747 Plateaux Region, Togo"
    }
  ],
  "updated_at": "2025-10-19T06:09:27.404050+00:00",
  "_kind": "geo_samples"
}