{
  "country_code": "TG",
  "country": "Togo",
  "city": "Sotouboua",
  "geonameid": 2364079,
  "target_addresses": 5,
  "samples": [
    {
      "lat": 8.58530594644231,
      "lon": 0.947330077929725,
      "geoinfo": {
        "display_name": "Sotouboua, Centrale Region, Togo",
        "road": null,
        "house_number": null,
        "neighbourhood": null,
        "suburb": null,
        "city_district": null,
        "city": "Sotouboua",
        "state": "Centrale Region",
        "postcode": null,
        "country": "Togo",
        "country_code": "tg"
      },
      "address": "Sotouboua, Centrale Region, Togo"
    },
    {
      "lat": 8.533836099728347,
      "lon": 0.9664954505377763,
      "geoinfo": {
        "display_name": "Lomé - Cinkassé, Kpete-kpete, Sotouboua, Centrale Region, Togo",
        "road": "Lomé - Cinkassé",
        "house_number": null,
        "neighbourhood": null,
        "suburb": null,
        "city_district": null,
        "city": "Kpete-kpete",
        "state": "Centrale Region",
        "postcode": null,
        "country": "Togo",
        "country_code": "tg"
      },
      "address": "Lomé - Cinkassé, Sotouboua, Centrale Region, Togo"
    },
    {
      "lat": 8.565861788738895,
      "lon": 0.9672407555552514,
      "geoinfo": {
        "display_name": "Rue De Lycee, Sotouboua, Centrale Region, Togo",
        "road": "Rue De Lycee",
        "house_number": null,
        "neighbourhood": null,
        "suburb": null,
        "city_district": null,
        "city": "Sotouboua",
        "state": "Centrale Region",
        "postcode": null,
        "country": "Togo",
        "country_code": "tg"
      },
      "address": "Rue De Lycee, Sotouboua, Centrale Region, Togo"
    },
    {
      "lat": 8.561975949011337,
      "lon": 0.9910365543859977,
      "geoinfo": {
        "display_name": "Rue USP, Sotouboua, Centrale Region, Togo",
        "road": "Rue USP",
        "house_number": null,
        "neighbourhood": null,
        "suburb": null,
        "city_district": null,
        "city": "Sotouboua",
        "state": "Centrale Region",
        "postcode": null,
        "country": "Togo",
        "country_code": "tg"
      },
      "address": "Rue USP, Sotouboua, Centrale Region, Togo"
    },
    {
      "lat": 8.554795677816074,
      "lon": 0.9764872783286337,
      "geoinfo": {
        "display_name": "Sotouboua, Centrale Region, Togo",
        "road": null,
        "house_number": null,
        "neighbourhood": null,
        "suburb": null,
        "city_district": null,
        "city": "Sotouboua",
        "state": "Centrale Region",
        "postcode": null,
        "country": "Togo",
        "country_code": "tg"
      },
      "address": "622, Sotouboua, 75798 Centrale Region, Togo"
    },
    {
      "lat": 8.545213453190467,
      "lon": 0.9995500668438563,
      "geoinfo": {
        "display_name": "Sotouboua, Centrale Region, Togo",
        "road": null,
        "house_number": null,
        "neighbourhood": null,
        "suburb": null,
        "city_district": null,
        "city": "Sotouboua",
        "state": "Centrale Region",
        "postcode": null,
        "country": "Togo",
        "country_code": "tg"
      },
      "address": "131, Sotouboua, 69764 Centrale Region, Togo"
    },
    {
      "lat": 8.579465458305902,
      "lon": 0.9567769605134795,
      "geoinfo": {
        "display_name": "Sotouboua, Centrale Region, Togo",
        "road": null,
        "house_number": null,
        "neighbourhood": null,
        "suburb": null,
        "city_district": null,
        "city": "Sotouboua",
        "state": "Centrale Region",
        "postcode": null,
        "country": "Togo",
        "country_code": "tg"
      },
      "address": "069, Sotouboua, 76346 Centrale Region, Togo"
    },
    {
      "lat": 8.575705849170394,
      "lon": 0.9975298177471023,
      "geoinfo": {
        "display_name": "Watchalo, Sotouboua, Centrale Region, Togo",
        "road": null,
        "house_number": null,
        "neighbourhood": null,
        "suburb": null,
        "city_district": null,
        "city": "Watchalo",
        "state": "Centrale Region",
        "postcode": null,
        "country": "Togo",
        "country_code": "tg"
      },
      "address": "844, Watchalo, Sotouboua, 66171 Centrale Region, Togo"
    },
    {
      "lat": 8.53083535825871,
      "lon": 0.9673239358102244,
      "geoinfo": {
        "display_name": "Lomé - Cinkassé, Kpete-kpete, Sotouboua, Centrale Region, Togo",
        "road": "Lomé - Cinkassé",
        "house_number": null,
        "neighbourhood": null,
        "suburb": null,
        "city_district": null,
        "city": "Kpete-kpete",
        "state": "Centrale Region",
        "postcode": null,
        "country": "Togo",
        "country_code": "tg"
      },
      "address": "706, Lomé - Cinkassé, Kpete-kpete, Sotouboua, 92588 Centrale Region, Togo"
    }
  ],
  "updated_at": "2025-10-19T07:08:30.953033+00:00",
  "_kind": "geo_samples"
}