{
  "country_code": "KZ",
  "country": "Kazakhstan",
  "city": "Abay",
  "geonameid": 1526970,
  "target_addresses": 7,
  "samples": [
    {
      "lat": 49.591726695604294,
      "lon": 72.85838497326598,
      "geoinfo": {
        "display_name": "Солтүстік Қарағанды, Abay, Abay District, Karaganda Region, 100101, Kazakhstan",
        "road": null,
        "house_number": null,
        "neighbourhood": null,
        "suburb": null,
        "city_district": null,
        "city": "Abay",
        "state": "Karaganda Region",
        "postcode": "100101",
        "country": "Kazakhstan",
        "country_code": "kz"
      },
      "address": "Abay, Karaganda Region, Kazakhstan"
    },
    {
      "lat": 49.64013315787742,
      "lon": 72.86661417103006,
      "geoinfo": {
        "display_name": "3, Промышленная улица, Abay, Abay District, Karaganda Region, 100101, Kazakhstan",
        "road": "Промышленная улица",
        "house_number": "3",
        "neighbourhood": null,
        "suburb": null,
        "city_district": null,
        "city": "Abay",
        "state": "Karaganda Region",
        "postcode": "100101",
        "country": "Kazakhstan",
        "country_code": "kz"
      },
      "address": "3 Промышленная улица, Abay, Karaganda Region, Kazakhstan"
    },
    {
      "lat": 49.61291089656207,
      "lon": 72.81009672923496,
      "geoinfo": {
        "display_name": "Вольный, Abay, Abay District, Karaganda Region, Kazakhstan",
        "road": null,
        "house_number": null,
        "neighbourhood": null,
        "suburb": null,
        "city_district": null,
        "city": "Abay",
        "state": "Karaganda Region",
        "postcode": null,
        "country": "Kazakhstan",
        "country_code": "kz"
      },
      "address": "700, Вольный, Abay, Abay District, 37217 Karaganda Region, Kazakhstan"
    },
    {
      "lat": 49.65469210307936,
      "lon": 72.92780548242362,
      "geoinfo": {
        "display_name": "Abay District, Karaganda Region, Kazakhstan",
        "road": null,
        "house_number": null,
        "neighbourhood": null,
        "suburb": null,
        "city_district": null,
        "city": null,
        "state": "Karaganda Region",
        "postcode": null,
        "country": "Kazakhstan",
        "country_code": "kz"
      },
      "address": "985, Abay District, 48036 Karaganda Region, Kazakhstan"
    },
    {
      "lat": 49.65477092183902,
      "lon": 72.88371102851679,
      "geoinfo": {
        "display_name": "Abay District, Karaganda Region, Kazakhstan",
        "road": null,
        "house_number": null,
        "neighbourhood": null,
        "suburb": null,
        "city_district": null,
        "city": null,
        "state": "Karaganda Region",
        "postcode": null,
        "country": "Kazakhstan",
        "country_code": "kz"
      },
      "address": "003, Abay District, 80092 Karaganda Region, Kazakhstan"
    },
    {
      "lat": 49.67532090276866,
      "lon": 72.88344347260316,
      "geoinfo": {
        "display_name": "Abay District, Karaganda Region, Kazakhstan",
        "road": null,
        "house_number": null,
        "neighbourhood": null,
        "suburb": null,
        "city_district": null,
        "city": null,
        "state": "Karaganda Region",
        "postcode": null,
        "country": "Kazakhstan",
        "country_code": "kz"
      },
      "address": "871, Abay District, 72937 Karaganda Region, Kazakhstan"
    },
    {
      "lat": 49.61059871536353,
      "lon": 72.8714211993564,
      "geoinfo": {
        "display_name": "28, ул Мирас, Abay, Abay District, Karaganda Region, 100101, Kazakhstan",
        "road": "ул Мирас",
        "house_number": "28",
        "neighbourhood": null,
        "suburb": null,
        "city_district": null,
        "city": "Abay",
        "state": "Karaganda Region",
        "postcode": "100101",
        "country": "Kazakhstan",
        "country_code": "kz"
      },
      "address": "28, ул Мирас, Abay, Abay District, Karaganda Region, 100101, Kazakhstan"
    }
  ],
  "updated_at": "2025-10-19T05:25:28.214267+00:00",
  "_kind": "geo_samples"
}