{
  "country_code": "KZ",
  "country": "Kazakhstan",
  "city": "Atyrau",
  "geonameid": 610529,
  "target_addresses": 2,
  "samples": [
    {
      "lat": 47.11292545810084,
      "lon": 51.922037831954235,
      "geoinfo": {
        "display_name": "улица Кайыргали Смагулова, Atyrau, Atyrau Region, 060000, Kazakhstan",
        "road": "улица Кайыргали Смагулова",
        "house_number": null,
        "neighbourhood": null,
        "suburb": null,
        "city_district": null,
        "city": "Atyrau",
        "state": "Atyrau Region",
        "postcode": "060000",
        "country": "Kazakhstan",
        "country_code": "kz"
      },
      "address": "улица Кайыргали Смагулова, Atyrau, Atyrau Region, Kazakhstan"
    },
    {
      "lat": 47.064457472564406,
      "lon": 51.891435736071195,
      "geoinfo": {
        "display_name": "3-й проезд, Құрсай, Atyrau, Atyrau Region, 060000, Kazakhstan",
        "road": "3-й проезд",
        "house_number": null,
        "neighbourhood": null,
        "suburb": "Құрсай",
        "city_district": null,
        "city": "Atyrau",
        "state": "Atyrau Region",
        "postcode": "060000",
        "country": "Kazakhstan",
        "country_code": "kz"
      },
      "address": "3-й проезд, Atyrau, Atyrau Region, Kazakhstan"
    },
    {
      "lat": 47.0900174861656,
      "lon": 51.93280347849044,
      "geoinfo": {
        "display_name": "улица Менделеева, Химиялық Шөгу, Atyrau, Atyrau Region, 060000, Kazakhstan",
        "road": "улица Менделеева",
        "house_number": null,
        "neighbourhood": null,
        "suburb": null,
        "city_district": null,
        "city": "Atyrau",
        "state": "Atyrau Region",
        "postcode": "060000",
        "country": "Kazakhstan",
        "country_code": "kz"
      },
      "address": "699, улица Менделеева, Химиялық Шөгу, Atyrau, Atyrau Region, 060000, Kazakhstan"
    },
    {
      "lat": 47.06930541241102,
      "lon": 51.886444089508906,
      "geoinfo": {
        "display_name": "2, Курмангазы, Құрсай, Atyrau, Atyrau Region, 060000, Kazakhstan",
        "road": "Курмангазы",
        "house_number": "2",
        "neighbourhood": null,
        "suburb": "Құрсай",
        "city_district": null,
        "city": "Atyrau",
        "state": "Atyrau Region",
        "postcode": "060000",
        "country": "Kazakhstan",
        "country_code": "kz"
      },
      "address": "2, Курмангазы, Құрсай, Atyrau, Atyrau Region, 060000, Kazakhstan"
    }
  ],
  "updated_at": "2025-10-19T05:46:23.513351+00:00",
  "_kind": "geo_samples"
}