{
  "country_code": "KZ",
  "country": "Kazakhstan",
  "city": "Kokshetau",
  "geonameid": 1522203,
  "target_addresses": 2,
  "samples": [
    {
      "lat": 53.27763201377383,
      "lon": 69.33940041245049,
      "geoinfo": {
        "display_name": "Kokshetau, Akmola Region, 020000, Kazakhstan",
        "road": null,
        "house_number": null,
        "neighbourhood": null,
        "suburb": null,
        "city_district": null,
        "city": "Kokshetau",
        "state": "Akmola Region",
        "postcode": "020000",
        "country": "Kazakhstan",
        "country_code": "kz"
      },
      "address": "Kokshetau, Akmola Region, Kazakhstan"
    },
    {
      "lat": 53.261697302296334,
      "lon": 69.43412701565443,
      "geoinfo": {
        "display_name": "1, улица Сыбагалы, Kokshetau, Akmola Region, 020000, Kazakhstan",
        "road": "улица Сыбагалы",
        "house_number": "1",
        "neighbourhood": null,
        "suburb": null,
        "city_district": null,
        "city": "Kokshetau",
        "state": "Akmola Region",
        "postcode": "020000",
        "country": "Kazakhstan",
        "country_code": "kz"
      },
      "address": "1 улица Сыбагалы, Kokshetau, Akmola Region, Kazakhstan"
    },
    {
      "lat": 53.25717014061413,
      "lon": 69.35529996900328,
      "geoinfo": {
        "display_name": "27, улица Сырымбет, Kokshetau, Akmola Region, 020000, Kazakhstan",
        "road": "улица Сырымбет",
        "house_number": "27",
        "neighbourhood": null,
        "suburb": null,
        "city_district": null,
        "city": "Kokshetau",
        "state": "Akmola Region",
        "postcode": "020000",
        "country": "Kazakhstan",
        "country_code": "kz"
      },
      "address": "27, улица Сырымбет, Kokshetau, Akmola Region, 020000, Kazakhstan"
    },
    {
      "lat": 53.311229141969285,
      "lon": 69.4073737878338,
      "geoinfo": {
        "display_name": "Северная промышленная зона, Kokshetau, Akmola Region, 020000, Kazakhstan",
        "road": null,
        "house_number": null,
        "neighbourhood": null,
        "suburb": "Северная промышленная зона",
        "city_district": null,
        "city": "Kokshetau",
        "state": "Akmola Region",
        "postcode": "020000",
        "country": "Kazakhstan",
        "country_code": "kz"
      },
      "address": "633, Северная промышленная зона, Kokshetau, Akmola Region, 020000, Kazakhstan"
    }
  ],
  "updated_at": "2025-10-19T03:40:29.935088+00:00",
  "_kind": "geo_samples"
}