{
  "country_code": "KZ",
  "country": "Kazakhstan",
  "city": "Kostanay",
  "geonameid": 1519928,
  "target_addresses": 2,
  "samples": [
    {
      "lat": 53.20667182471663,
      "lon": 63.64999631866203,
      "geoinfo": {
        "display_name": "Малый Затобольский мост, Kostanay, Kostanay Region, 110000, Kazakhstan",
        "road": "Малый Затобольский мост",
        "house_number": null,
        "neighbourhood": null,
        "suburb": null,
        "city_district": null,
        "city": "Kostanay",
        "state": "Kostanay Region",
        "postcode": "110000",
        "country": "Kazakhstan",
        "country_code": "kz"
      },
      "address": "Малый Затобольский мост, Kostanay, Kostanay Region, Kazakhstan"
    },
    {
      "lat": 53.23367523633176,
      "lon": 63.59294207555005,
      "geoinfo": {
        "display_name": "3, 64-й квартал, Солтүстік-Батыс, Kostanay, Kostanay Region, 110000, Kazakhstan",
        "road": "64-й квартал",
        "house_number": "3",
        "neighbourhood": null,
        "suburb": null,
        "city_district": null,
        "city": "Kostanay",
        "state": "Kostanay Region",
        "postcode": "110000",
        "country": "Kazakhstan",
        "country_code": "kz"
      },
      "address": "3 64-й квартал, Kostanay, Kostanay Region, Kazakhstan"
    },
    {
      "lat": 53.20945690633443,
      "lon": 63.57296047283052,
      "geoinfo": {
        "display_name": "Kostanay, Kostanay Region, 110000, Kazakhstan",
        "road": null,
        "house_number": null,
        "neighbourhood": null,
        "suburb": null,
        "city_district": null,
        "city": "Kostanay",
        "state": "Kostanay Region",
        "postcode": "110000",
        "country": "Kazakhstan",
        "country_code": "kz"
      },
      "address": "405, Kostanay, Kostanay Region, 110000, Kazakhstan"
    },
    {
      "lat": 53.21706362811705,
      "lon": 63.554129837127846,
      "geoinfo": {
        "display_name": "Kostanay, Kostanay Region, 110000, Kazakhstan",
        "road": null,
        "house_number": null,
        "neighbourhood": null,
        "suburb": null,
        "city_district": null,
        "city": "Kostanay",
        "state": "Kostanay Region",
        "postcode": "110000",
        "country": "Kazakhstan",
        "country_code": "kz"
      },
      "address": "127, Kostanay, Kostanay Region, 110000, Kazakhstan"
    }
  ],
  "updated_at": "2025-10-19T05:20:23.659768+00:00",
  "_kind": "geo_samples"
}