{
  "country_code": "KZ",
  "country": "Kazakhstan",
  "city": "Makinsk",
  "geonameid": 1521230,
  "target_addresses": 7,
  "samples": [
    {
      "lat": 52.67331708541651,
      "lon": 70.43614044515489,
      "geoinfo": {
        "display_name": "Шиели, Burabay District, Akmola Region, 020500, Kazakhstan",
        "road": null,
        "house_number": null,
        "neighbourhood": null,
        "suburb": null,
        "city_district": null,
        "city": null,
        "state": "Akmola Region",
        "postcode": "020500",
        "country": "Kazakhstan",
        "country_code": "kz"
      },
      "address": "Makinsk, Akmola Region, Kazakhstan"
    },
    {
      "lat": 52.62569903417278,
      "lon": 70.40686824581398,
      "geoinfo": {
        "display_name": "2 переулок Новоселов, Makinsk, Bulandy district, Akmola Region, 020500, Kazakhstan",
        "road": "2 переулок Новоселов",
        "house_number": null,
        "neighbourhood": null,
        "suburb": null,
        "city_district": null,
        "city": "Makinsk",
        "state": "Akmola Region",
        "postcode": "020500",
        "country": "Kazakhstan",
        "country_code": "kz"
      },
      "address": "2 переулок Новоселов, Makinsk, Akmola Region, Kazakhstan"
    },
    {
      "lat": 52.62962011434291,
      "lon": 70.41564467380753,
      "geoinfo": {
        "display_name": "Мастер, улица Малика Габдуллина, Makinsk, Bulandy district, Akmola Region, 020500, Kazakhstan",
        "road": "улица Малика Габдуллина",
        "house_number": null,
        "neighbourhood": null,
        "suburb": null,
        "city_district": null,
        "city": "Makinsk",
        "state": "Akmola Region",
        "postcode": "020500",
        "country": "Kazakhstan",
        "country_code": "kz"
      },
      "address": "867, улица Малика Габдуллина, Makinsk, 020500 Akmola Region, Kazakhstan"
    },
    {
      "lat": 52.63468748952973,
      "lon": 70.48896686950458,
      "geoinfo": {
        "display_name": "Birzhan sal District, Akmola Region, Kazakhstan",
        "road": null,
        "house_number": null,
        "neighbourhood": null,
        "suburb": null,
        "city_district": null,
        "city": null,
        "state": "Akmola Region",
        "postcode": null,
        "country": "Kazakhstan",
        "country_code": "kz"
      },
      "address": "820, Makinsk, 69367 Akmola Region, Kazakhstan"
    },
    {
      "lat": 52.61017722614959,
      "lon": 70.45890528278683,
      "geoinfo": {
        "display_name": "16, улица Карьерная, микрорайон Каменный карьер, Makinsk, Bulandy district, Akmola Region, 020500, Kazakhstan",
        "road": "улица Карьерная",
        "house_number": "16",
        "neighbourhood": null,
        "suburb": "микрорайон Каменный карьер",
        "city_district": null,
        "city": "Makinsk",
        "state": "Akmola Region",
        "postcode": "020500",
        "country": "Kazakhstan",
        "country_code": "kz"
      },
      "address": "16, улица Карьерная, микрорайон Каменный карьер, Makinsk, Bulandy district, Akmola Region, 020500, Kazakhstan"
    },
    {
      "lat": 52.620851442864385,
      "lon": 70.38508933663589,
      "geoinfo": {
        "display_name": "KC-1, Makinsk, Bulandy district, Akmola Region, Kazakhstan",
        "road": "KC-1",
        "house_number": null,
        "neighbourhood": null,
        "suburb": null,
        "city_district": null,
        "city": "Makinsk",
        "state": "Akmola Region",
        "postcode": null,
        "country": "Kazakhstan",
        "country_code": "kz"
      },
      "address": "KC-1, Makinsk, Bulandy district, 30995 Akmola Region, Kazakhstan"
    },
    {
      "lat": 52.65344739806445,
      "lon": 70.36724663823584,
      "geoinfo": {
        "display_name": "Астана-Кокшетау трасса, Makinsk, Bulandy district, Akmola Region, 020500, Kazakhstan",
        "road": "Астана-Кокшетау трасса",
        "house_number": null,
        "neighbourhood": null,
        "suburb": null,
        "city_district": null,
        "city": "Makinsk",
        "state": "Akmola Region",
        "postcode": "020500",
        "country": "Kazakhstan",
        "country_code": "kz"
      },
      "address": "977, Астана-Кокшетау трасса, Makinsk, Bulandy district, Akmola Region, 020500, Kazakhstan"
    }
  ],
  "updated_at": "2025-10-19T05:25:04.824146+00:00",
  "_kind": "geo_samples"
}