{
  "country_code": "KZ",
  "country": "Kazakhstan",
  "city": "Oral",
  "geonameid": 608668,
  "target_addresses": 2,
  "samples": [
    {
      "lat": 51.25418936871225,
      "lon": 51.47288847722809,
      "geoinfo": {
        "display_name": "6, Орал-Желаево тас жолы, Желаево, Oral, West Kazakhstan Region, 090014, Kazakhstan",
        "road": "Орал-Желаево тас жолы",
        "house_number": "6",
        "neighbourhood": null,
        "suburb": null,
        "city_district": null,
        "city": "Желаево",
        "state": "West Kazakhstan Region",
        "postcode": "090014",
        "country": "Kazakhstan",
        "country_code": "kz"
      },
      "address": "6 Орал-Желаево тас жолы, Oral, West Kazakhstan Region, Kazakhstan"
    },
    {
      "lat": 51.27323013557829,
      "lon": 51.39802623901529,
      "geoinfo": {
        "display_name": "Мичуринское, Мичурин ауылдық округі, Baiterek District, West Kazakhstan Region, 090003, Kazakhstan",
        "road": null,
        "house_number": null,
        "neighbourhood": null,
        "suburb": null,
        "city_district": null,
        "city": "Мичурин ауылдық округі",
        "state": "West Kazakhstan Region",
        "postcode": "090003",
        "country": "Kazakhstan",
        "country_code": "kz"
      },
      "address": "Oral, West Kazakhstan Region, Kazakhstan"
    },
    {
      "lat": 51.23984505674139,
      "lon": 51.38366272748493,
      "geoinfo": {
        "display_name": "5, Kokshetau street, Oral, West Kazakhstan Region, 090007, Kazakhstan",
        "road": "Kokshetau street",
        "house_number": "5",
        "neighbourhood": null,
        "suburb": null,
        "city_district": null,
        "city": "Oral",
        "state": "West Kazakhstan Region",
        "postcode": "090007",
        "country": "Kazakhstan",
        "country_code": "kz"
      },
      "address": "5, Kokshetau street, Oral, West Kazakhstan Region, 090007, Kazakhstan"
    },
    {
      "lat": 51.27873431397121,
      "lon": 51.39757198101439,
      "geoinfo": {
        "display_name": "M-32, Мичуринское, Мичурин ауылдық округі, Baiterek District, West Kazakhstan Region, 090608, Kazakhstan",
        "road": "M-32",
        "house_number": null,
        "neighbourhood": null,
        "suburb": null,
        "city_district": null,
        "city": "Мичурин ауылдық округі",
        "state": "West Kazakhstan Region",
        "postcode": "090608",
        "country": "Kazakhstan",
        "country_code": "kz"
      },
      "address": "M-32, Oral, 090608 West Kazakhstan Region, Kazakhstan"
    }
  ],
  "updated_at": "2025-10-19T05:19:23.978828+00:00",
  "_kind": "geo_samples"
}