{
  "country_code": "KZ",
  "country": "Kazakhstan",
  "city": "Ridder",
  "geonameid": 1521370,
  "target_addresses": 7,
  "samples": [
    {
      "lat": 50.36216873890605,
      "lon": 83.55417956563738,
      "geoinfo": {
        "display_name": "Таловка, Ridder, East Kazakhstan Region, Kazakhstan",
        "road": null,
        "house_number": null,
        "neighbourhood": null,
        "suburb": null,
        "city_district": null,
        "city": "Ridder",
        "state": "East Kazakhstan Region",
        "postcode": null,
        "country": "Kazakhstan",
        "country_code": "kz"
      },
      "address": "Ridder, East Kazakhstan Region, Kazakhstan"
    },
    {
      "lat": 50.3478693557375,
      "lon": 83.53238248379714,
      "geoinfo": {
        "display_name": "13, улица 9 Мая, Ridder, East Kazakhstan Region, 071300, Kazakhstan",
        "road": "улица 9 Мая",
        "house_number": "13",
        "neighbourhood": null,
        "suburb": null,
        "city_district": null,
        "city": "Ridder",
        "state": "East Kazakhstan Region",
        "postcode": "071300",
        "country": "Kazakhstan",
        "country_code": "kz"
      },
      "address": "13 улица 9 Мая, Ridder, East Kazakhstan Region, Kazakhstan"
    },
    {
      "lat": 50.36175712625518,
      "lon": 83.57176220014225,
      "geoinfo": {
        "display_name": "Сокольная улица, Ridder, East Kazakhstan Region, Kazakhstan",
        "road": "Сокольная улица",
        "house_number": null,
        "neighbourhood": null,
        "suburb": null,
        "city_district": null,
        "city": "Ridder",
        "state": "East Kazakhstan Region",
        "postcode": null,
        "country": "Kazakhstan",
        "country_code": "kz"
      },
      "address": "979, Сокольная улица, Ridder, 82148 East Kazakhstan Region, Kazakhstan"
    },
    {
      "lat": 50.3459041258328,
      "lon": 83.52276567747715,
      "geoinfo": {
        "display_name": "36, Змеиногорская улица, Нижний ДОСААФ, Ridder, East Kazakhstan Region, 071300, Kazakhstan",
        "road": "Змеиногорская улица",
        "house_number": "36",
        "neighbourhood": null,
        "suburb": null,
        "city_district": null,
        "city": "Ridder",
        "state": "East Kazakhstan Region",
        "postcode": "071300",
        "country": "Kazakhstan",
        "country_code": "kz"
      },
      "address": "36, Змеиногорская улица, Нижний ДОСААФ, Ridder, East Kazakhstan Region, 071300, Kazakhstan"
    },
    {
      "lat": 50.32903210090036,
      "lon": 83.57103725970752,
      "geoinfo": {
        "display_name": "Коноваловка, Ridder, East Kazakhstan Region, Kazakhstan",
        "road": null,
        "house_number": null,
        "neighbourhood": null,
        "suburb": null,
        "city_district": null,
        "city": "Ridder",
        "state": "East Kazakhstan Region",
        "postcode": null,
        "country": "Kazakhstan",
        "country_code": "kz"
      },
      "address": "196, Коноваловка, Ridder, 35158 East Kazakhstan Region, Kazakhstan"
    },
    {
      "lat": 50.37994374631074,
      "lon": 83.5139873695481,
      "geoinfo": {
        "display_name": "Ridder, East Kazakhstan Region, Kazakhstan",
        "road": null,
        "house_number": null,
        "neighbourhood": null,
        "suburb": null,
        "city_district": null,
        "city": null,
        "state": "East Kazakhstan Region",
        "postcode": null,
        "country": "Kazakhstan",
        "country_code": "kz"
      },
      "address": "954, Ridder, 44292 East Kazakhstan Region, Kazakhstan"
    },
    {
      "lat": 50.34600760249622,
      "lon": 83.58167203839578,
      "geoinfo": {
        "display_name": "Ridder, East Kazakhstan Region, Kazakhstan",
        "road": null,
        "house_number": null,
        "neighbourhood": null,
        "suburb": null,
        "city_district": null,
        "city": null,
        "state": "East Kazakhstan Region",
        "postcode": null,
        "country": "Kazakhstan",
        "country_code": "kz"
      },
      "address": "643, Ridder, 44987 East Kazakhstan Region, Kazakhstan"
    }
  ],
  "updated_at": "2025-10-19T05:25:16.036989+00:00",
  "_kind": "geo_samples"
}