{
  "country_code": "KZ",
  "country": "Kazakhstan",
  "city": "Shu",
  "geonameid": 1519030,
  "target_addresses": 7,
  "samples": [
    {
      "lat": 43.58807103970902,
      "lon": 73.76220447578574,
      "geoinfo": {
        "display_name": "Совхозная ул., Şu, Shu District, Jambyl Region, 081127, Kazakhstan",
        "road": "Совхозная ул.",
        "house_number": null,
        "neighbourhood": null,
        "suburb": null,
        "city_district": null,
        "city": "Şu",
        "state": "Jambyl Region",
        "postcode": "081127",
        "country": "Kazakhstan",
        "country_code": "kz"
      },
      "address": "Совхозная ул., Shu, Jambyl Region, Kazakhstan"
    },
    {
      "lat": 43.56820304733664,
      "lon": 73.73147497405735,
      "geoinfo": {
        "display_name": "A-358, Shu District, Jambyl Region, 081128, Kazakhstan",
        "road": "A-358",
        "house_number": null,
        "neighbourhood": null,
        "suburb": null,
        "city_district": null,
        "city": null,
        "state": "Jambyl Region",
        "postcode": "081128",
        "country": "Kazakhstan",
        "country_code": "kz"
      },
      "address": "A-358, Shu, Jambyl Region, Kazakhstan"
    },
    {
      "lat": 43.61830438608456,
      "lon": 73.72681201977645,
      "geoinfo": {
        "display_name": "Алға, Shu District, Jambyl Region, 081128, Kazakhstan",
        "road": null,
        "house_number": null,
        "neighbourhood": null,
        "suburb": null,
        "city_district": null,
        "city": null,
        "state": "Jambyl Region",
        "postcode": "081128",
        "country": "Kazakhstan",
        "country_code": "kz"
      },
      "address": "667, Алға, Shu District, Jambyl Region, 081128, Kazakhstan"
    },
    {
      "lat": 43.610016797789655,
      "lon": 73.75671983941076,
      "geoinfo": {
        "display_name": "Православная церковь. Храм Архистратига Михаила, 40, переулок Туйебекова, Şu, Shu District, Jambyl Region, 081000, Kazakhstan",
        "road": "переулок Туйебекова",
        "house_number": "40",
        "neighbourhood": null,
        "suburb": null,
        "city_district": null,
        "city": "Şu",
        "state": "Jambyl Region",
        "postcode": "081000",
        "country": "Kazakhstan",
        "country_code": "kz"
      },
      "address": "Православная церковь. Храм Архистратига Михаила, 40, переулок Туйебекова, Şu, Shu District, Jambyl Region, 081000, Kazakhstan"
    },
    {
      "lat": 43.593082508349596,
      "lon": 73.71550387353692,
      "geoinfo": {
        "display_name": "Şu, Shu District, Jambyl Region, 081128, Kazakhstan",
        "road": null,
        "house_number": null,
        "neighbourhood": null,
        "suburb": null,
        "city_district": null,
        "city": "Şu",
        "state": "Jambyl Region",
        "postcode": "081128",
        "country": "Kazakhstan",
        "country_code": "kz"
      },
      "address": "020, Şu, Shu District, Jambyl Region, 081128, Kazakhstan"
    },
    {
      "lat": 43.575930256660946,
      "lon": 73.73555097389406,
      "geoinfo": {
        "display_name": "КГП \"Шу-Жылу\", 1, 1-й переулок Стахановский, Şu, Shu District, Jambyl Region, 081128, Kazakhstan",
        "road": "1-й переулок Стахановский",
        "house_number": "1",
        "neighbourhood": null,
        "suburb": null,
        "city_district": null,
        "city": "Şu",
        "state": "Jambyl Region",
        "postcode": "081128",
        "country": "Kazakhstan",
        "country_code": "kz"
      },
      "address": "КГП \"Шу-Жылу\", 1, 1-й переулок Стахановский, Şu, Shu District, Jambyl Region, 081128, Kazakhstan"
    },
    {
      "lat": 43.608195154838796,
      "lon": 73.80553268134824,
      "geoinfo": {
        "display_name": "Дінмұхамед Қонаев ауылы, Shu District, Jambyl Region, 081000, Kazakhstan",
        "road": null,
        "house_number": null,
        "neighbourhood": null,
        "suburb": null,
        "city_district": null,
        "city": "Дінмұхамед Қонаев ауылы",
        "state": "Jambyl Region",
        "postcode": "081000",
        "country": "Kazakhstan",
        "country_code": "kz"
      },
      "address": "431, Дінмұхамед Қонаев ауылы, Shu District, Jambyl Region, 081000, Kazakhstan"
    }
  ],
  "updated_at": "2025-10-19T05:24:38.799029+00:00",
  "_kind": "geo_samples"
}