{
  "country_code": "KZ",
  "country": "Kazakhstan",
  "city": "Taraz",
  "geonameid": 1516905,
  "target_addresses": 2,
  "samples": [
    {
      "lat": 42.86529237659766,
      "lon": 71.38452820783517,
      "geoinfo": {
        "display_name": "40, Турксибская, Жібек жолы ауданы, Taraz city administration, Jambyl Region, 080000, Kazakhstan",
        "road": "Турксибская",
        "house_number": "40",
        "neighbourhood": null,
        "suburb": null,
        "city_district": "Жібек жолы ауданы",
        "city": "Taraz city administration",
        "state": "Jambyl Region",
        "postcode": "080000",
        "country": "Kazakhstan",
        "country_code": "kz"
      },
      "address": "40 Турксибская, Taraz, Jambyl Region, Kazakhstan"
    },
    {
      "lat": 42.90847561774646,
      "lon": 71.36647711148481,
      "geoinfo": {
        "display_name": "16, Касымбекова, Әулиеата ауданы, Taraz, Jambyl Region, 080000, Kazakhstan",
        "road": "Касымбекова",
        "house_number": "16",
        "neighbourhood": null,
        "suburb": null,
        "city_district": "Әулиеата ауданы",
        "city": "Taraz",
        "state": "Jambyl Region",
        "postcode": "080000",
        "country": "Kazakhstan",
        "country_code": "kz"
      },
      "address": "16 Касымбекова, Taraz, Jambyl Region, Kazakhstan"
    },
    {
      "lat": 42.908213107673724,
      "lon": 71.37889638640925,
      "geoinfo": {
        "display_name": "36, Sherkhan Murtaza street, Әулиеата ауданы, Taraz, Jambyl Region, 080000, Kazakhstan",
        "road": "Sherkhan Murtaza street",
        "house_number": "36",
        "neighbourhood": null,
        "suburb": null,
        "city_district": "Әулиеата ауданы",
        "city": "Taraz",
        "state": "Jambyl Region",
        "postcode": "080000",
        "country": "Kazakhstan",
        "country_code": "kz"
      },
      "address": "36, Sherkhan Murtaza street, Әулиеата ауданы, Taraz, Jambyl Region, 080000, Kazakhstan"
    },
    {
      "lat": 42.880354014542924,
      "lon": 71.37491641652664,
      "geoinfo": {
        "display_name": "11, Желтоксан 3 переулок, Әулиеата ауданы, Taraz city administration, Jambyl Region, 080000, Kazakhstan",
        "road": "Желтоксан 3 переулок",
        "house_number": "11",
        "neighbourhood": null,
        "suburb": null,
        "city_district": "Әулиеата ауданы",
        "city": "Taraz city administration",
        "state": "Jambyl Region",
        "postcode": "080000",
        "country": "Kazakhstan",
        "country_code": "kz"
      },
      "address": "Желтоксан 3 переулок, Taraz, 080000 Jambyl Region, Kazakhstan"
    }
  ],
  "updated_at": "2025-10-19T05:43:01.275690+00:00",
  "_kind": "geo_samples"
}