{
  "country_code": "MU",
  "country": "Mauritius",
  "city": "Baie du Tombeau",
  "geonameid": 1106616,
  "target_addresses": 8,
  "samples": [
    {
      "lat": -20.108697519608622,
      "lon": 57.459912364711,
      "geoinfo": {
        "display_name": "Tombeau Bay, Baie du Tombeau VCA, Pamplemousses, 21733, Mauritius",
        "road": null,
        "house_number": null,
        "neighbourhood": null,
        "suburb": null,
        "city_district": null,
        "city": "Baie du Tombeau VCA",
        "state": "Pamplemousses",
        "postcode": "21733",
        "country": "Mauritius",
        "country_code": "mu"
      },
      "address": "Baie du Tombeau, Pamplemousses, Mauritius"
    },
    {
      "lat": -20.120779822536225,
      "lon": 57.50418865673342,
      "geoinfo": {
        "display_name": "Morcellement Swan, Tombeau Bay, Baie du Tombeau VCA, Pamplemousses, 21733, Mauritius",
        "road": null,
        "house_number": null,
        "neighbourhood": "Morcellement Swan",
        "suburb": null,
        "city_district": null,
        "city": "Baie du Tombeau VCA",
        "state": "Pamplemousses",
        "postcode": "21733",
        "country": "Mauritius",
        "country_code": "mu"
      },
      "address": "Morcellement Swan, Baie du Tombeau, Pamplemousses, Mauritius"
    },
    {
      "lat": -20.119509917658522,
      "lon": 57.48805838074528,
      "geoinfo": {
        "display_name": "Fort Albert, Tombeau Bay, Baie du Tombeau VCA, Pamplemousses, 21733, Mauritius",
        "road": null,
        "house_number": null,
        "neighbourhood": "Fort Albert",
        "suburb": null,
        "city_district": null,
        "city": "Baie du Tombeau VCA",
        "state": "Pamplemousses",
        "postcode": "21733",
        "country": "Mauritius",
        "country_code": "mu"
      },
      "address": "Fort Albert, Baie du Tombeau, Pamplemousses, Mauritius"
    },
    {
      "lat": -20.104810872266814,
      "lon": 57.507095511629814,
      "geoinfo": {
        "display_name": "Morcellement Elizabethville, Tombeau Bay, Baie du Tombeau VCA, Pamplemousses, 21733, Mauritius",
        "road": null,
        "house_number": null,
        "neighbourhood": "Morcellement Elizabethville",
        "suburb": null,
        "city_district": null,
        "city": "Baie du Tombeau VCA",
        "state": "Pamplemousses",
        "postcode": "21733",
        "country": "Mauritius",
        "country_code": "mu"
      },
      "address": "Morcellement Elizabethville, Baie du Tombeau, Pamplemousses, Mauritius"
    },
    {
      "lat": -20.115930234857192,
      "lon": 57.529151931644485,
      "geoinfo": {
        "display_name": "Baie du Tombeau Road, Saint-Joseph, Arsenal, Arsenal VCA, Pamplemousses, 21813, Mauritius",
        "road": "Baie du Tombeau Road",
        "house_number": null,
        "neighbourhood": "Saint-Joseph",
        "suburb": null,
        "city_district": null,
        "city": "Arsenal VCA",
        "state": "Pamplemousses",
        "postcode": "21813",
        "country": "Mauritius",
        "country_code": "mu"
      },
      "address": "Baie du Tombeau Road, Baie du Tombeau, Pamplemousses, Mauritius"
    },
    {
      "lat": -20.118064967334178,
      "lon": 57.52519815129483,
      "geoinfo": {
        "display_name": "Tombeau Bay, Baie du Tombeau VCA, Pamplemousses, 21813, Mauritius",
        "road": null,
        "house_number": null,
        "neighbourhood": null,
        "suburb": null,
        "city_district": null,
        "city": "Baie du Tombeau VCA",
        "state": "Pamplemousses",
        "postcode": "21813",
        "country": "Mauritius",
        "country_code": "mu"
      },
      "address": "795, Tombeau Bay, Baie du Tombeau VCA, Pamplemousses, 21813, Mauritius"
    },
    {
      "lat": -20.12572817275679,
      "lon": 57.46575758120642,
      "geoinfo": {
        "display_name": "Mer Rouge, Town of Port-Louis, Ward 6, Port Louis, 11603, Mauritius",
        "road": null,
        "house_number": null,
        "neighbourhood": null,
        "suburb": "Mer Rouge",
        "city_district": "Town of Port-Louis, Ward 6",
        "city": "Port Louis",
        "state": "Port Louis",
        "postcode": "11603",
        "country": "Mauritius",
        "country_code": "mu"
      },
      "address": "Mer Rouge, Town of Port-Louis, Ward 6, Port Louis, 11603, Mauritius"
    },
    {
      "lat": -20.127198776365354,
      "lon": 57.48313581446264,
      "geoinfo": {
        "display_name": "Fort Albert, Tombeau Bay, Baie du Tombeau VCA, Pamplemousses, 21733, Mauritius",
        "road": null,
        "house_number": null,
        "neighbourhood": "Fort Albert",
        "suburb": null,
        "city_district": null,
        "city": "Baie du Tombeau VCA",
        "state": "Pamplemousses",
        "postcode": "21733",
        "country": "Mauritius",
        "country_code": "mu"
      },
      "address": "064, Fort Albert, Tombeau Bay, Baie du Tombeau VCA, Pamplemousses, 21733, Mauritius"
    },
    {
      "lat": -20.10370205808539,
      "lon": 57.48176719422257,
      "geoinfo": {
        "display_name": "Tombeau Bay, Baie du Tombeau VCA, Pamplemousses, 21733, Mauritius",
        "road": null,
        "house_number": null,
        "neighbourhood": null,
        "suburb": null,
        "city_district": null,
        "city": "Baie du Tombeau VCA",
        "state": "Pamplemousses",
        "postcode": "21733",
        "country": "Mauritius",
        "country_code": "mu"
      },
      "address": "492, Tombeau Bay, Baie du Tombeau VCA, Pamplemousses, 21733, Mauritius"
    },
    {
      "lat": -20.128567759292427,
      "lon": 57.491190983449414,
      "geoinfo": {
        "display_name": "Public Beach, Rue des Tourterelles, Fort Albert, Tombeau Bay, Baie du Tombeau VCA, Pamplemousses, 21733, Mauritius",
        "road": "Rue des Tourterelles",
        "house_number": null,
        "neighbourhood": "Fort Albert",
        "suburb": null,
        "city_district": null,
        "city": "Baie du Tombeau VCA",
        "state": "Pamplemousses",
        "postcode": "21733",
        "country": "Mauritius",
        "country_code": "mu"
      },
      "address": "665, Rue des Tourterelles, Baie du Tombeau, 21733 Pamplemousses, Mauritius"
    },
    {
      "lat": -20.1297551302821,
      "lon": 57.49363279004047,
      "geoinfo": {
        "display_name": "Clinique du Nord, Rue des Tourterelles, Fort Albert, Tombeau Bay, Baie du Tombeau VCA, Pamplemousses, 21733, Mauritius",
        "road": "Rue des Tourterelles",
        "house_number": null,
        "neighbourhood": "Fort Albert",
        "suburb": null,
        "city_district": null,
        "city": "Baie du Tombeau VCA",
        "state": "Pamplemousses",
        "postcode": "21733",
        "country": "Mauritius",
        "country_code": "mu"
      },
      "address": "444, Rue des Tourterelles, Baie du Tombeau, 21733 Pamplemousses, Mauritius"
    },
    {
      "lat": -20.14478045071753,
      "lon": 57.52290315180881,
      "geoinfo": {
        "display_name": "Pamplemousses Road, Abercrombie, Saint Croix, Town of Port-Louis, Ward 7, Port Louis, 11701, Mauritius",
        "road": "Pamplemousses Road",
        "house_number": null,
        "neighbourhood": null,
        "suburb": "Saint Croix",
        "city_district": "Town of Port-Louis, Ward 7",
        "city": "Port Louis",
        "state": "Port Louis",
        "postcode": "11701",
        "country": "Mauritius",
        "country_code": "mu"
      },
      "address": "Pamplemousses Road, Abercrombie, Saint Croix, Town of Port-Louis, Ward 7, Port Louis, 11701, Mauritius"
    },
    {
      "lat": -20.120680128879556,
      "lon": 57.5099531959845,
      "geoinfo": {
        "display_name": "Morcellement Swan, Tombeau Bay, Baie du Tombeau VCA, Pamplemousses, 21733, Mauritius",
        "road": null,
        "house_number": null,
        "neighbourhood": "Morcellement Swan",
        "suburb": null,
        "city_district": null,
        "city": "Baie du Tombeau VCA",
        "state": "Pamplemousses",
        "postcode": "21733",
        "country": "Mauritius",
        "country_code": "mu"
      },
      "address": "380, Morcellement Swan, Tombeau Bay, Baie du Tombeau VCA, Pamplemousses, 21733, Mauritius"
    }
  ],
  "updated_at": "2025-10-19T06:02:49.769319+00:00",
  "_kind": "geo_samples"
}