{
  "country_code": "MU",
  "country": "Mauritius",
  "city": "Bambous",
  "geonameid": 934778,
  "target_addresses": 8,
  "samples": [
    {
      "lat": -20.272067605601602,
      "lon": 57.40203194729437,
      "geoinfo": {
        "display_name": "Cascavelle Busines Park, Royal Road Black River, Bambous, Bambous VCA, Black River, 90507, Mauritius",
        "road": "Royal Road Black River",
        "house_number": null,
        "neighbourhood": null,
        "suburb": null,
        "city_district": null,
        "city": "Bambous VCA",
        "state": "Black River",
        "postcode": "90507",
        "country": "Mauritius",
        "country_code": "mu"
      },
      "address": "Royal Road Black River, Bambous, Black River, Mauritius"
    },
    {
      "lat": -20.236063469774145,
      "lon": 57.44289019949532,
      "geoinfo": {
        "display_name": "Gros Cailloux VCA, Black River, 71407, Mauritius",
        "road": null,
        "house_number": null,
        "neighbourhood": null,
        "suburb": null,
        "city_district": null,
        "city": "Gros Cailloux VCA",
        "state": "Black River",
        "postcode": "71407",
        "country": "Mauritius",
        "country_code": "mu"
      },
      "address": "Bambous, Black River, Mauritius"
    },
    {
      "lat": -20.25889513938002,
      "lon": 57.450206437956375,
      "geoinfo": {
        "display_name": "Corps de Garde trail, Town of Beau-Bassin / Rose Hill, Ward 2, Bambous VCA, Black River, 71407, Mauritius",
        "road": "Corps de Garde trail",
        "house_number": null,
        "neighbourhood": null,
        "suburb": null,
        "city_district": "Town of Beau-Bassin / Rose Hill, Ward 2",
        "city": "Bambous VCA",
        "state": "Black River",
        "postcode": "71407",
        "country": "Mauritius",
        "country_code": "mu"
      },
      "address": "Corps de Garde trail, Bambous, Black River, Mauritius"
    },
    {
      "lat": -20.26473905213653,
      "lon": 57.42198323149712,
      "geoinfo": {
        "display_name": "Avenue Limit, Eau Bonne, Bambous, Bambous VCA, Black River, 72444, Mauritius",
        "road": "Avenue Limit",
        "house_number": null,
        "neighbourhood": "Eau Bonne",
        "suburb": "Bambous",
        "city_district": null,
        "city": "Bambous VCA",
        "state": "Black River",
        "postcode": "72444",
        "country": "Mauritius",
        "country_code": "mu"
      },
      "address": "Avenue Limit, Bambous, Black River, Mauritius"
    },
    {
      "lat": -20.273738528788808,
      "lon": 57.411087219584964,
      "geoinfo": {
        "display_name": "Geoffroy Road, Bambous, Bambous VCA, Black River, 90507, Mauritius",
        "road": "Geoffroy Road",
        "house_number": null,
        "neighbourhood": null,
        "suburb": null,
        "city_district": null,
        "city": "Bambous VCA",
        "state": "Black River",
        "postcode": "90507",
        "country": "Mauritius",
        "country_code": "mu"
      },
      "address": "Geoffroy Road, Bambous, Black River, Mauritius"
    },
    {
      "lat": -20.241895435546272,
      "lon": 57.4169510544485,
      "geoinfo": {
        "display_name": "La Valette, Albion VCA, Black River, 91005, Mauritius",
        "road": null,
        "house_number": null,
        "neighbourhood": "La Valette",
        "suburb": null,
        "city_district": null,
        "city": "Albion VCA",
        "state": "Black River",
        "postcode": "91005",
        "country": "Mauritius",
        "country_code": "mu"
      },
      "address": "La Valette, Bambous, Black River, Mauritius"
    },
    {
      "lat": -20.250974149590757,
      "lon": 57.41400700383596,
      "geoinfo": {
        "display_name": "La Valette Road, Bambous, Bambous VCA, Black River, 91005, Mauritius",
        "road": "La Valette Road",
        "house_number": null,
        "neighbourhood": null,
        "suburb": "Bambous",
        "city_district": null,
        "city": "Bambous VCA",
        "state": "Black River",
        "postcode": "91005",
        "country": "Mauritius",
        "country_code": "mu"
      },
      "address": "La Valette Road, Bambous, Black River, Mauritius"
    },
    {
      "lat": -20.259099048564128,
      "lon": 57.415363871630085,
      "geoinfo": {
        "display_name": "Bambous, Bambous VCA, Black River, 90507, Mauritius",
        "road": null,
        "house_number": null,
        "neighbourhood": null,
        "suburb": "Bambous",
        "city_district": null,
        "city": "Bambous VCA",
        "state": "Black River",
        "postcode": "90507",
        "country": "Mauritius",
        "country_code": "mu"
      },
      "address": "Bambous, Bambous, Black River, Mauritius"
    },
    {
      "lat": -20.238576800196366,
      "lon": 57.41284842614335,
      "geoinfo": {
        "display_name": "La Valette, Albion VCA, Black River, 91005, Mauritius",
        "road": null,
        "house_number": null,
        "neighbourhood": "La Valette",
        "suburb": null,
        "city_district": null,
        "city": "Albion VCA",
        "state": "Black River",
        "postcode": "91005",
        "country": "Mauritius",
        "country_code": "mu"
      },
      "address": "106, La Valette, Bambous, 91005 Black River, Mauritius"
    },
    {
      "lat": -20.24935547600576,
      "lon": 57.38153670191153,
      "geoinfo": {
        "display_name": "Bambous VCA, Black River, 90507, Mauritius",
        "road": null,
        "house_number": null,
        "neighbourhood": null,
        "suburb": null,
        "city_district": null,
        "city": "Bambous VCA",
        "state": "Black River",
        "postcode": "90507",
        "country": "Mauritius",
        "country_code": "mu"
      },
      "address": "642, Bambous VCA, Black River, 90507, Mauritius"
    },
    {
      "lat": -20.224624921989165,
      "lon": 57.41867093840794,
      "geoinfo": {
        "display_name": "Beau Soleil, Albion VCA, Black River, 91005, Mauritius",
        "road": null,
        "house_number": null,
        "neighbourhood": null,
        "suburb": null,
        "city_district": null,
        "city": "Albion VCA",
        "state": "Black River",
        "postcode": "91005",
        "country": "Mauritius",
        "country_code": "mu"
      },
      "address": "255, Beau Soleil, Albion VCA, Black River, 91005, Mauritius"
    },
    {
      "lat": -20.27677300606928,
      "lon": 57.435671612098126,
      "geoinfo": {
        "display_name": "Palma, Bambous, Beaux Songes, Black River, 72444, Mauritius",
        "road": null,
        "house_number": null,
        "neighbourhood": null,
        "suburb": "Palma",
        "city_district": null,
        "city": "Bambous",
        "state": "Black River",
        "postcode": "72444",
        "country": "Mauritius",
        "country_code": "mu"
      },
      "address": "008, Palma, Bambous, Beaux Songes, Black River, 72444, Mauritius"
    },
    {
      "lat": -20.235771007450506,
      "lon": 57.41148079546032,
      "geoinfo": {
        "display_name": "La Valette, Albion VCA, Black River, 91005, Mauritius",
        "road": null,
        "house_number": null,
        "neighbourhood": "La Valette",
        "suburb": null,
        "city_district": null,
        "city": "Albion VCA",
        "state": "Black River",
        "postcode": "91005",
        "country": "Mauritius",
        "country_code": "mu"
      },
      "address": "730, La Valette, Bambous, 91005 Black River, Mauritius"
    },
    {
      "lat": -20.295546311252888,
      "lon": 57.40454226407604,
      "geoinfo": {
        "display_name": "Cascavelle, Black River, 90512, Mauritius",
        "road": null,
        "house_number": null,
        "neighbourhood": null,
        "suburb": null,
        "city_district": null,
        "city": "Cascavelle",
        "state": "Black River",
        "postcode": "90512",
        "country": "Mauritius",
        "country_code": "mu"
      },
      "address": "763, Bambous, 90512 Black River, Mauritius"
    },
    {
      "lat": -20.261790708496264,
      "lon": 57.38993032704088,
      "geoinfo": {
        "display_name": "Anna Branch Road, Bambous, Black River, 90507, Mauritius",
        "road": "Anna Branch Road",
        "house_number": null,
        "neighbourhood": null,
        "suburb": null,
        "city_district": null,
        "city": "Bambous",
        "state": "Black River",
        "postcode": "90507",
        "country": "Mauritius",
        "country_code": "mu"
      },
      "address": "160, Anna Branch Road, Bambous, Black River, 90507, Mauritius"
    },
    {
      "lat": -20.27776358648509,
      "lon": 57.36703688023575,
      "geoinfo": {
        "display_name": "Flic en Flac, Black River, 90512, Mauritius",
        "road": null,
        "house_number": null,
        "neighbourhood": null,
        "suburb": null,
        "city_district": null,
        "city": "Flic en Flac",
        "state": "Black River",
        "postcode": "90512",
        "country": "Mauritius",
        "country_code": "mu"
      },
      "address": "098, Flic en Flac, Black River, 90512, Mauritius"
    }
  ],
  "updated_at": "2025-10-19T05:48:34.452338+00:00",
  "_kind": "geo_samples"
}