{
  "country_code": "MU",
  "country": "Mauritius",
  "city": "Beau Bassin-Rose Hill",
  "geonameid": 934765,
  "target_addresses": 8,
  "samples": [
    {
      "lat": -20.22372815974791,
      "lon": 57.47374662436443,
      "geoinfo": {
        "display_name": "Latulipe Street, Cascadelle, Beau Bassin, Town of Beau-Bassin / Rose Hill, Ward 5, Beau Bassin / Rose Hill, Plaines Wilhems, 71512, Mauritius",
        "road": "Latulipe Street",
        "house_number": null,
        "neighbourhood": "Cascadelle",
        "suburb": "Beau Bassin",
        "city_district": "Town of Beau-Bassin / Rose Hill, Ward 5",
        "city": "Beau Bassin / Rose Hill",
        "state": "Plaines Wilhems",
        "postcode": "71512",
        "country": "Mauritius",
        "country_code": "mu"
      },
      "address": "Latulipe Street, Beau Bassin-Rose Hill, Plaines Wilhems, Mauritius"
    },
    {
      "lat": -20.264726381166792,
      "lon": 57.44052779089406,
      "geoinfo": {
        "display_name": "La Source, Bambous VCA, Black River, 72444, Mauritius",
        "road": null,
        "house_number": null,
        "neighbourhood": null,
        "suburb": null,
        "city_district": null,
        "city": "Bambous VCA",
        "state": "Black River",
        "postcode": "72444",
        "country": "Mauritius",
        "country_code": "mu"
      },
      "address": "Beau Bassin-Rose Hill, Black River, Mauritius"
    },
    {
      "lat": -20.21402856714345,
      "lon": 57.47216559561922,
      "geoinfo": {
        "display_name": "Doctor Moliere Street, Morcellement Clairmont, Mare Gravier, Chebel, Town of Beau-Bassin / Rose Hill, Ward 6, Beau Bassin / Rose Hill, Plaines Wilhems, 71611, Mauritius",
        "road": "Doctor Moliere Street",
        "house_number": null,
        "neighbourhood": "Morcellement Clairmont",
        "suburb": "Chebel",
        "city_district": "Town of Beau-Bassin / Rose Hill, Ward 6",
        "city": "Beau Bassin / Rose Hill",
        "state": "Plaines Wilhems",
        "postcode": "71611",
        "country": "Mauritius",
        "country_code": "mu"
      },
      "address": "Doctor Moliere Street, Beau Bassin-Rose Hill, Plaines Wilhems, Mauritius"
    },
    {
      "lat": -20.224678998241444,
      "lon": 57.431167101059884,
      "geoinfo": {
        "display_name": "Saint Martin Road, Canot, Gros Cailloux VCA, Black River, 71407, Mauritius",
        "road": "Saint Martin Road",
        "house_number": null,
        "neighbourhood": null,
        "suburb": null,
        "city_district": null,
        "city": "Gros Cailloux VCA",
        "state": "Black River",
        "postcode": "71407",
        "country": "Mauritius",
        "country_code": "mu"
      },
      "address": "Saint Martin Road, Beau Bassin-Rose Hill, Black River, Mauritius"
    },
    {
      "lat": -20.21013707329925,
      "lon": 57.45470589983608,
      "geoinfo": {
        "display_name": "Chebel Branch Road, Belvedere, Mare Gravier, Chebel, Town of Beau-Bassin / Rose Hill, Ward 6, Beau Bassin / Rose Hill, Plaines Wilhems, 71602, Mauritius",
        "road": "Chebel Branch Road",
        "house_number": null,
        "neighbourhood": "Belvedere",
        "suburb": "Chebel",
        "city_district": "Town of Beau-Bassin / Rose Hill, Ward 6",
        "city": "Beau Bassin / Rose Hill",
        "state": "Plaines Wilhems",
        "postcode": "71602",
        "country": "Mauritius",
        "country_code": "mu"
      },
      "address": "Chebel Branch Road, Beau Bassin-Rose Hill, Plaines Wilhems, Mauritius"
    },
    {
      "lat": -20.22750281735136,
      "lon": 57.45162113396857,
      "geoinfo": {
        "display_name": "Roches Brunes, Town of Beau-Bassin / Rose Hill, Ward 4, East, Beau Bassin / Rose Hill, Plaines Wilhems, 71406, Mauritius",
        "road": null,
        "house_number": null,
        "neighbourhood": null,
        "suburb": "Roches Brunes",
        "city_district": "Town of Beau-Bassin / Rose Hill, Ward 4, East",
        "city": "Beau Bassin / Rose Hill",
        "state": "Plaines Wilhems",
        "postcode": "71406",
        "country": "Mauritius",
        "country_code": "mu"
      },
      "address": "Roches Brunes, Beau Bassin-Rose Hill, Plaines Wilhems, Mauritius"
    },
    {
      "lat": -20.22404638646279,
      "lon": 57.46122032755335,
      "geoinfo": {
        "display_name": "Serge Alfred Street, Barkly, Town of Beau-Bassin / Rose Hill, Ward 4, East, Beau Bassin / Rose Hill, Plaines Wilhems, 71609, Mauritius",
        "road": "Serge Alfred Street",
        "house_number": null,
        "neighbourhood": null,
        "suburb": "Barkly",
        "city_district": "Town of Beau-Bassin / Rose Hill, Ward 4, East",
        "city": "Beau Bassin / Rose Hill",
        "state": "Plaines Wilhems",
        "postcode": "71609",
        "country": "Mauritius",
        "country_code": "mu"
      },
      "address": "Serge Alfred Street, Beau Bassin-Rose Hill, Plaines Wilhems, Mauritius"
    },
    {
      "lat": -20.19838905830436,
      "lon": 57.46207784534307,
      "geoinfo": {
        "display_name": "Angel Fish Avenue, Belle Etoile, Montreal, Town of Beau-Bassin / Rose Hill, Ward 6, Beau Bassin / Rose Hill, Plaines Wilhems, 71601, Mauritius",
        "road": "Angel Fish Avenue",
        "house_number": null,
        "neighbourhood": null,
        "suburb": "Montreal",
        "city_district": "Town of Beau-Bassin / Rose Hill, Ward 6",
        "city": "Beau Bassin / Rose Hill",
        "state": "Plaines Wilhems",
        "postcode": "71601",
        "country": "Mauritius",
        "country_code": "mu"
      },
      "address": "Angel Fish Avenue, Beau Bassin-Rose Hill, Plaines Wilhems, Mauritius"
    },
    {
      "lat": -20.223448579791064,
      "lon": 57.472385068196736,
      "geoinfo": {
        "display_name": "Beau Bassin, Town of Beau-Bassin / Rose Hill, Ward 5, Beau Bassin / Rose Hill, Plaines Wilhems, 71504, Mauritius",
        "road": null,
        "house_number": null,
        "neighbourhood": null,
        "suburb": "Beau Bassin",
        "city_district": "Town of Beau-Bassin / Rose Hill, Ward 5",
        "city": "Beau Bassin / Rose Hill",
        "state": "Plaines Wilhems",
        "postcode": "71504",
        "country": "Mauritius",
        "country_code": "mu"
      },
      "address": "Beau Bassin, Town of Beau-Bassin / Rose Hill, Ward 5, Beau Bassin / Rose Hill, Plaines Wilhems, 71504, Mauritius"
    },
    {
      "lat": -20.25250950712436,
      "lon": 57.48635088061831,
      "geoinfo": {
        "display_name": "St louis avenue, Trianon, Belle Rose, Town of Quatre-Bornes, Ward 2, Quatre Bornes, Plaines Wilhems, 72208, Mauritius",
        "road": "St louis avenue",
        "house_number": null,
        "neighbourhood": null,
        "suburb": "Belle Rose",
        "city_district": "Town of Quatre-Bornes, Ward 2",
        "city": "Quatre Bornes",
        "state": "Plaines Wilhems",
        "postcode": "72208",
        "country": "Mauritius",
        "country_code": "mu"
      },
      "address": "St louis avenue, Trianon, Belle Rose, Town of Quatre-Bornes, Ward 2, Quatre Bornes, Plaines Wilhems, 72208, Mauritius"
    },
    {
      "lat": -20.24184096992082,
      "lon": 57.44181425262196,
      "geoinfo": {
        "display_name": "La Chaumière St, Town of Beau-Bassin / Rose Hill, Ward 4, West, Bambous VCA, Black River, 71407, Mauritius",
        "road": "La Chaumière St",
        "house_number": null,
        "neighbourhood": null,
        "suburb": null,
        "city_district": "Town of Beau-Bassin / Rose Hill, Ward 4, West",
        "city": "Bambous VCA",
        "state": "Black River",
        "postcode": "71407",
        "country": "Mauritius",
        "country_code": "mu"
      },
      "address": "La Chaumière St, Town of Beau-Bassin / Rose Hill, Ward 4, West, Bambous VCA, Black River, 71407, Mauritius"
    },
    {
      "lat": -20.267223580363453,
      "lon": 57.49076181210934,
      "geoinfo": {
        "display_name": "Avenue des Pinsons, Morcellement Saint-Jean, Sodnac, Town of Quatre-Bornes, Ward 2, Quatre Bornes, Plaines Wilhems, 72208, Mauritius",
        "road": "Avenue des Pinsons",
        "house_number": null,
        "neighbourhood": null,
        "suburb": "Sodnac",
        "city_district": "Town of Quatre-Bornes, Ward 2",
        "city": "Quatre Bornes",
        "state": "Plaines Wilhems",
        "postcode": "72208",
        "country": "Mauritius",
        "country_code": "mu"
      },
      "address": "Avenue des Pinsons, Morcellement Saint-Jean, Sodnac, Town of Quatre-Bornes, Ward 2, Quatre Bornes, Plaines Wilhems, 72208, Mauritius"
    },
    {
      "lat": -20.260567570889727,
      "lon": 57.487955774884114,
      "geoinfo": {
        "display_name": "Tulipes Road, Cité Saint-Jean, Morcellement Saint-Jean, Saint Jean, Town of Quatre-Bornes, Ward 2, Quatre Bornes, Plaines Wilhems, 72208, Mauritius",
        "road": "Tulipes Road",
        "house_number": null,
        "neighbourhood": "Cité Saint-Jean",
        "suburb": "Saint Jean",
        "city_district": "Town of Quatre-Bornes, Ward 2",
        "city": "Quatre Bornes",
        "state": "Plaines Wilhems",
        "postcode": "72208",
        "country": "Mauritius",
        "country_code": "mu"
      },
      "address": "Tulipes Road, Cité Saint-Jean, Morcellement Saint-Jean, Saint Jean, Town of Quatre-Bornes, Ward 2, Quatre Bornes, Plaines Wilhems, 72208, Mauritius"
    },
    {
      "lat": -20.237293788719217,
      "lon": 57.47900083600129,
      "geoinfo": {
        "display_name": "Queen Elizabeth College, Malartic Street, Rose Hill, Town of Beau-Bassin / Rose Hill, Ward 3, Beau Bassin / Rose Hill, Plaines Wilhems, 71510, Mauritius",
        "road": "Malartic Street",
        "house_number": null,
        "neighbourhood": null,
        "suburb": "Rose Hill",
        "city_district": "Town of Beau-Bassin / Rose Hill, Ward 3",
        "city": "Beau Bassin / Rose Hill",
        "state": "Plaines Wilhems",
        "postcode": "71510",
        "country": "Mauritius",
        "country_code": "mu"
      },
      "address": "Queen Elizabeth College, Malartic Street, Rose Hill, Town of Beau-Bassin / Rose Hill, Ward 3, Beau Bassin / Rose Hill, Plaines Wilhems, 71510, Mauritius"
    },
    {
      "lat": -20.19827156759618,
      "lon": 57.4782457608633,
      "geoinfo": {
        "display_name": "Mitsubishi, Port Louis – The South Motorway, Morcellement Le Rock, Pailles, Town of Port-Louis, Ward 2, South, Moka, 11221, Mauritius",
        "road": "Port Louis – The South Motorway",
        "house_number": null,
        "neighbourhood": null,
        "suburb": "Pailles",
        "city_district": "Town of Port-Louis, Ward 2, South",
        "city": null,
        "state": "Moka",
        "postcode": "11221",
        "country": "Mauritius",
        "country_code": "mu"
      },
      "address": "Mitsubishi, Port Louis – The South Motorway, Morcellement Le Rock, Pailles, Town of Port-Louis, Ward 2, South, Moka, 11221, Mauritius"
    },
    {
      "lat": -20.226646799562847,
      "lon": 57.46716248703108,
      "geoinfo": {
        "display_name": "S.Douglas Street, Beau Bassin, Town of Beau-Bassin / Rose Hill, Ward 5, Beau Bassin / Rose Hill, Plaines Wilhems, 71504, Mauritius",
        "road": "S.Douglas Street",
        "house_number": null,
        "neighbourhood": null,
        "suburb": "Beau Bassin",
        "city_district": "Town of Beau-Bassin / Rose Hill, Ward 5",
        "city": "Beau Bassin / Rose Hill",
        "state": "Plaines Wilhems",
        "postcode": "71504",
        "country": "Mauritius",
        "country_code": "mu"
      },
      "address": "S.Douglas Street, Beau Bassin, Town of Beau-Bassin / Rose Hill, Ward 5, Beau Bassin / Rose Hill, Plaines Wilhems, 71504, Mauritius"
    }
  ],
  "updated_at": "2025-10-19T06:06:51.362074+00:00",
  "_kind": "geo_samples"
}