{
  "country_code": "MU",
  "country": "Mauritius",
  "city": "Bel Air Rivière Sèche",
  "geonameid": 934750,
  "target_addresses": 41,
  "samples": [
    {
      "lat": -20.243947519440244,
      "lon": 57.74016141346302,
      "geoinfo": {
        "display_name": "Bel Air Rivière Sèche VCA, Flacq, 40101, Mauritius",
        "road": null,
        "house_number": null,
        "neighbourhood": null,
        "suburb": null,
        "city_district": null,
        "city": "Bel Air Rivière Sèche VCA",
        "state": "Flacq",
        "postcode": "40101",
        "country": "Mauritius",
        "country_code": "mu"
      },
      "address": "Bel Air Rivière Sèche, Flacq, Mauritius"
    },
    {
      "lat": -20.227794683963328,
      "lon": 57.757240316742966,
      "geoinfo": {
        "display_name": "Trou d'Eau Douce Road, Camp Ithier, Camp Ithier VCA, Flacq, 41605, Mauritius",
        "road": "Trou d'Eau Douce Road",
        "house_number": null,
        "neighbourhood": null,
        "suburb": null,
        "city_district": null,
        "city": "Camp Ithier VCA",
        "state": "Flacq",
        "postcode": "41605",
        "country": "Mauritius",
        "country_code": "mu"
      },
      "address": "Trou d'Eau Douce Road, Bel Air Rivière Sèche, Flacq, Mauritius"
    },
    {
      "lat": -20.269883516201862,
      "lon": 57.771921356581494,
      "geoinfo": {
        "display_name": "Royal Road Flacq – Mahebourg, Ernest Florent, Grand River South East VCA, Flacq, 40101, Mauritius",
        "road": "Royal Road Flacq – Mahebourg",
        "house_number": null,
        "neighbourhood": null,
        "suburb": "Ernest Florent",
        "city_district": null,
        "city": "Grand River South East VCA",
        "state": "Flacq",
        "postcode": "40101",
        "country": "Mauritius",
        "country_code": "mu"
      },
      "address": "Royal Road Flacq – Mahebourg, Bel Air Rivière Sèche, Flacq, Mauritius"
    },
    {
      "lat": -20.26142137310013,
      "lon": 57.70560172565806,
      "geoinfo": {
        "display_name": "Camp de Masque Road, Hermitage, Clémencia, Clémencia VCA, Flacq, 40101, Mauritius",
        "road": "Camp de Masque Road",
        "house_number": null,
        "neighbourhood": null,
        "suburb": null,
        "city_district": null,
        "city": "Clémencia VCA",
        "state": "Flacq",
        "postcode": "40101",
        "country": "Mauritius",
        "country_code": "mu"
      },
      "address": "Camp de Masque Road, Bel Air Rivière Sèche, Flacq, Mauritius"
    },
    {
      "lat": -20.252909310441684,
      "lon": 57.783254221139565,
      "geoinfo": {
        "display_name": "Belle Mare Palmar Trou d'Eau Douce Road, Trou d’Eau Douce, Trou d’Eau Douce VCA, Flacq, 42211, Mauritius",
        "road": "Belle Mare Palmar Trou d'Eau Douce Road",
        "house_number": null,
        "neighbourhood": null,
        "suburb": null,
        "city_district": null,
        "city": "Trou d’Eau Douce VCA",
        "state": "Flacq",
        "postcode": "42211",
        "country": "Mauritius",
        "country_code": "mu"
      },
      "address": "Belle Mare Palmar Trou d'Eau Douce Road, Bel Air Rivière Sèche, Flacq, Mauritius"
    },
    {
      "lat": -20.266085400244787,
      "lon": 57.75566757614403,
      "geoinfo": {
        "display_name": "Post Office Road, Bel Air Rivière Sèche VCA, Flacq, 40101, Mauritius",
        "road": "Post Office Road",
        "house_number": null,
        "neighbourhood": null,
        "suburb": null,
        "city_district": null,
        "city": "Bel Air Rivière Sèche VCA",
        "state": "Flacq",
        "postcode": "40101",
        "country": "Mauritius",
        "country_code": "mu"
      },
      "address": "Post Office Road, Bel Air Rivière Sèche, Flacq, Mauritius"
    },
    {
      "lat": -20.251011780924706,
      "lon": 57.74748420532748,
      "geoinfo": {
        "display_name": "Mamet Road, Bel Air Rivière Sèche VCA, Flacq, 40101, Mauritius",
        "road": "Mamet Road",
        "house_number": null,
        "neighbourhood": null,
        "suburb": null,
        "city_district": null,
        "city": "Bel Air Rivière Sèche VCA",
        "state": "Flacq",
        "postcode": "40101",
        "country": "Mauritius",
        "country_code": "mu"
      },
      "address": "Mamet Road, Bel Air Rivière Sèche, Flacq, Mauritius"
    },
    {
      "lat": -20.288545627191173,
      "lon": 57.73760144559802,
      "geoinfo": {
        "display_name": "Montagne Blanche Bel Air Road, Sébastopol, Olivia VCA, Flacq, 80902, Mauritius",
        "road": "Montagne Blanche Bel Air Road",
        "house_number": null,
        "neighbourhood": null,
        "suburb": null,
        "city_district": null,
        "city": "Olivia VCA",
        "state": "Flacq",
        "postcode": "80902",
        "country": "Mauritius",
        "country_code": "mu"
      },
      "address": "Montagne Blanche Bel Air Road, Bel Air Rivière Sèche, Flacq, Mauritius"
    },
    {
      "lat": -20.255507597817772,
      "lon": 57.7245039256762,
      "geoinfo": {
        "display_name": "Hermitage, Clémencia, Clémencia VCA, Flacq, 40101, Mauritius",
        "road": null,
        "house_number": null,
        "neighbourhood": null,
        "suburb": null,
        "city_district": null,
        "city": "Clémencia VCA",
        "state": "Flacq",
        "postcode": "40101",
        "country": "Mauritius",
        "country_code": "mu"
      },
      "address": "Bel Air Rivière Sèche, 49709 Flacq, Mauritius"
    },
    {
      "lat": -20.2415584649126,
      "lon": 57.78967780797827,
      "geoinfo": {
        "display_name": "Belle Mare Palmar Trou d'Eau Douce Road, Trou d’Eau Douce, Trou d’Eau Douce VCA, Flacq, 41601, Mauritius",
        "road": "Belle Mare Palmar Trou d'Eau Douce Road",
        "house_number": null,
        "neighbourhood": null,
        "suburb": null,
        "city_district": null,
        "city": "Trou d’Eau Douce VCA",
        "state": "Flacq",
        "postcode": "41601",
        "country": "Mauritius",
        "country_code": "mu"
      },
      "address": "Belle Mare Palmar Trou d'Eau Douce Road, Bel Air Rivière Sèche, 07739 Flacq, Mauritius"
    },
    {
      "lat": -20.28065813223062,
      "lon": 57.7824465658334,
      "geoinfo": {
        "display_name": "Grand River South-East, Grand River South East VCA, Flacq, 42211, Mauritius",
        "road": null,
        "house_number": null,
        "neighbourhood": null,
        "suburb": null,
        "city_district": null,
        "city": "Grand River South East VCA",
        "state": "Flacq",
        "postcode": "42211",
        "country": "Mauritius",
        "country_code": "mu"
      },
      "address": "Bel Air Rivière Sèche, 65740 Flacq, Mauritius"
    },
    {
      "lat": -20.24554353809292,
      "lon": 57.70612828948651,
      "geoinfo": {
        "display_name": "Clémencia, Clémencia VCA, Flacq, 40101, Mauritius",
        "road": null,
        "house_number": null,
        "neighbourhood": null,
        "suburb": null,
        "city_district": null,
        "city": "Clémencia VCA",
        "state": "Flacq",
        "postcode": "40101",
        "country": "Mauritius",
        "country_code": "mu"
      },
      "address": "Bel Air Rivière Sèche, 21159 Flacq, Mauritius"
    },
    {
      "lat": -20.234373382542014,
      "lon": 57.7297302011189,
      "geoinfo": {
        "display_name": "Queen Victoria, Queen Victoria VCA, Flacq, 40606, Mauritius",
        "road": null,
        "house_number": null,
        "neighbourhood": null,
        "suburb": null,
        "city_district": null,
        "city": "Queen Victoria VCA",
        "state": "Flacq",
        "postcode": "40606",
        "country": "Mauritius",
        "country_code": "mu"
      },
      "address": "967, Bel Air Rivière Sèche, 40606 Flacq, Mauritius"
    },
    {
      "lat": -20.273465125968325,
      "lon": 57.76053762134476,
      "geoinfo": {
        "display_name": "Grand River South East VCA, Flacq, 40101, Mauritius",
        "road": null,
        "house_number": null,
        "neighbourhood": null,
        "suburb": null,
        "city_district": null,
        "city": "Grand River South East VCA",
        "state": "Flacq",
        "postcode": "40101",
        "country": "Mauritius",
        "country_code": "mu"
      },
      "address": "679, Bel Air Rivière Sèche, 40101 Flacq, Mauritius"
    },
    {
      "lat": -20.21986915309505,
      "lon": 57.76044075031187,
      "geoinfo": {
        "display_name": "Jean Paul II Avenue, Camp Marcellin, Camp Ithier, Camp Ithier VCA, Flacq, 41605, Mauritius",
        "road": "Jean Paul II Avenue",
        "house_number": null,
        "neighbourhood": null,
        "suburb": null,
        "city_district": null,
        "city": "Camp Ithier VCA",
        "state": "Flacq",
        "postcode": "41605",
        "country": "Mauritius",
        "country_code": "mu"
      },
      "address": "867, Jean Paul II Avenue, Bel Air Rivière Sèche, 41605 Flacq, Mauritius"
    },
    {
      "lat": -20.271348657247582,
      "lon": 57.71361570895031,
      "geoinfo": {
        "display_name": "Clémencia, Clémencia VCA, Flacq, 40101, Mauritius",
        "road": null,
        "house_number": null,
        "neighbourhood": null,
        "suburb": null,
        "city_district": null,
        "city": "Clémencia VCA",
        "state": "Flacq",
        "postcode": "40101",
        "country": "Mauritius",
        "country_code": "mu"
      },
      "address": "623, Bel Air Rivière Sèche, 40101 Flacq, Mauritius"
    },
    {
      "lat": -20.27513326823969,
      "lon": 57.745963186963955,
      "geoinfo": {
        "display_name": "Olivia VCA, Flacq, 40101, Mauritius",
        "road": null,
        "house_number": null,
        "neighbourhood": null,
        "suburb": null,
        "city_district": null,
        "city": "Olivia VCA",
        "state": "Flacq",
        "postcode": "40101",
        "country": "Mauritius",
        "country_code": "mu"
      },
      "address": "950, Bel Air Rivière Sèche, 40101 Flacq, Mauritius"
    },
    {
      "lat": -20.244647394494724,
      "lon": 57.77330308542078,
      "geoinfo": {
        "display_name": "Petit Bois, Bel Air Rivière Sèche VCA, Flacq, 40101, Mauritius",
        "road": null,
        "house_number": null,
        "neighbourhood": null,
        "suburb": "Petit Bois",
        "city_district": null,
        "city": "Bel Air Rivière Sèche VCA",
        "state": "Flacq",
        "postcode": "40101",
        "country": "Mauritius",
        "country_code": "mu"
      },
      "address": "803, Petit Bois, Bel Air Rivière Sèche VCA, Flacq, 40101, Mauritius"
    },
    {
      "lat": -20.29026089607247,
      "lon": 57.767358252076285,
      "geoinfo": {
        "display_name": "Royal Road Flacq – Mahebourg, Quatre Soeurs, Grand River South East VCA, Flacq, 40101, Mauritius",
        "road": "Royal Road Flacq – Mahebourg",
        "house_number": null,
        "neighbourhood": null,
        "suburb": null,
        "city_district": null,
        "city": "Grand River South East VCA",
        "state": "Flacq",
        "postcode": "40101",
        "country": "Mauritius",
        "country_code": "mu"
      },
      "address": "655, Royal Road Flacq – Mahebourg, Quatre Soeurs, Grand River South East VCA, Flacq, 40101, Mauritius"
    },
    {
      "lat": -20.228058625210693,
      "lon": 57.74805192725969,
      "geoinfo": {
        "display_name": "Ecroignard, Écroignard, Écroignard VCA, Flacq, 41605, Mauritius",
        "road": null,
        "house_number": null,
        "neighbourhood": null,
        "suburb": null,
        "city_district": null,
        "city": "Écroignard VCA",
        "state": "Flacq",
        "postcode": "41605",
        "country": "Mauritius",
        "country_code": "mu"
      },
      "address": "133, Bel Air Rivière Sèche, 41605 Flacq, Mauritius"
    },
    {
      "lat": -20.256945434066388,
      "lon": 57.7332886091877,
      "geoinfo": {
        "display_name": "Belle Rose, Clémencia VCA, Flacq, 40101, Mauritius",
        "road": null,
        "house_number": null,
        "neighbourhood": null,
        "suburb": null,
        "city_district": null,
        "city": "Clémencia VCA",
        "state": "Flacq",
        "postcode": "40101",
        "country": "Mauritius",
        "country_code": "mu"
      },
      "address": "178, Belle Rose, Clémencia VCA, Flacq, 40101, Mauritius"
    },
    {
      "lat": -20.26142046920236,
      "lon": 57.770658957903315,
      "geoinfo": {
        "display_name": "Belle Mare Palmar Trou d'Eau Douce Road, Bel Air Rivière Sèche VCA, Flacq, 40101, Mauritius",
        "road": "Belle Mare Palmar Trou d'Eau Douce Road",
        "house_number": null,
        "neighbourhood": null,
        "suburb": null,
        "city_district": null,
        "city": "Bel Air Rivière Sèche VCA",
        "state": "Flacq",
        "postcode": "40101",
        "country": "Mauritius",
        "country_code": "mu"
      },
      "address": "743, Belle Mare Palmar Trou d'Eau Douce Road, Bel Air Rivière Sèche VCA, Flacq, 40101, Mauritius"
    },
    {
      "lat": -20.281505128696367,
      "lon": 57.716062657152285,
      "geoinfo": {
        "display_name": "Sébastopol, Sébastopol VCA, Flacq, 80902, Mauritius",
        "road": null,
        "house_number": null,
        "neighbourhood": null,
        "suburb": null,
        "city_district": null,
        "city": "Sébastopol VCA",
        "state": "Flacq",
        "postcode": "80902",
        "country": "Mauritius",
        "country_code": "mu"
      },
      "address": "540, Bel Air Rivière Sèche, 80902 Flacq, Mauritius"
    },
    {
      "lat": -20.27505229014384,
      "lon": 57.706952705322465,
      "geoinfo": {
        "display_name": "Hermitage, Clémencia, Clémencia VCA, Flacq, 40101, Mauritius",
        "road": null,
        "house_number": null,
        "neighbourhood": null,
        "suburb": null,
        "city_district": null,
        "city": "Clémencia VCA",
        "state": "Flacq",
        "postcode": "40101",
        "country": "Mauritius",
        "country_code": "mu"
      },
      "address": "189, Bel Air Rivière Sèche, 40101 Flacq, Mauritius"
    },
    {
      "lat": -20.252674056498964,
      "lon": 57.716793545761476,
      "geoinfo": {
        "display_name": "Hermitage, Clémencia, Clémencia VCA, Flacq, 40101, Mauritius",
        "road": null,
        "house_number": null,
        "neighbourhood": null,
        "suburb": null,
        "city_district": null,
        "city": "Clémencia VCA",
        "state": "Flacq",
        "postcode": "40101",
        "country": "Mauritius",
        "country_code": "mu"
      },
      "address": "057, Bel Air Rivière Sèche, 40101 Flacq, Mauritius"
    },
    {
      "lat": -20.247671826448727,
      "lon": 57.70448350546051,
      "geoinfo": {
        "display_name": "Clémencia, Clémencia VCA, Flacq, 40101, Mauritius",
        "road": null,
        "house_number": null,
        "neighbourhood": null,
        "suburb": null,
        "city_district": null,
        "city": "Clémencia VCA",
        "state": "Flacq",
        "postcode": "40101",
        "country": "Mauritius",
        "country_code": "mu"
      },
      "address": "334, Bel Air Rivière Sèche, 40101 Flacq, Mauritius"
    },
    {
      "lat": -20.269608563493236,
      "lon": 57.72846963216211,
      "geoinfo": {
        "display_name": "Camp de Masque Road, Hermitage, Clémencia, Clémencia VCA, Flacq, 40101, Mauritius",
        "road": "Camp de Masque Road",
        "house_number": null,
        "neighbourhood": null,
        "suburb": null,
        "city_district": null,
        "city": "Clémencia VCA",
        "state": "Flacq",
        "postcode": "40101",
        "country": "Mauritius",
        "country_code": "mu"
      },
      "address": "972, Camp de Masque Road, Hermitage, Clémencia, Clémencia VCA, Flacq, 40101, Mauritius"
    },
    {
      "lat": -20.226152071521906,
      "lon": 57.73062364832892,
      "geoinfo": {
        "display_name": "Camp Bonne Mère, Queen Victoria, Queen Victoria VCA, Flacq, 40607, Mauritius",
        "road": null,
        "house_number": null,
        "neighbourhood": null,
        "suburb": null,
        "city_district": null,
        "city": "Queen Victoria VCA",
        "state": "Flacq",
        "postcode": "40607",
        "country": "Mauritius",
        "country_code": "mu"
      },
      "address": "593, Bel Air Rivière Sèche, 40607 Flacq, Mauritius"
    },
    {
      "lat": -20.24117969257183,
      "lon": 57.79288887450262,
      "geoinfo": {
        "display_name": "Belle Mare Palmar Trou d'Eau Douce Road, Trou d’Eau Douce, Trou d’Eau Douce VCA, Flacq, 41601, Mauritius",
        "road": "Belle Mare Palmar Trou d'Eau Douce Road",
        "house_number": null,
        "neighbourhood": null,
        "suburb": null,
        "city_district": null,
        "city": "Trou d’Eau Douce VCA",
        "state": "Flacq",
        "postcode": "41601",
        "country": "Mauritius",
        "country_code": "mu"
      },
      "address": "904, Belle Mare Palmar Trou d'Eau Douce Road, Bel Air Rivière Sèche, 41601 Flacq, Mauritius"
    },
    {
      "lat": -20.24710415917264,
      "lon": 57.78754982334831,
      "geoinfo": {
        "display_name": "Trou d’Eau Douce, Trou d’Eau Douce VCA, Flacq, 42211, Mauritius",
        "road": null,
        "house_number": null,
        "neighbourhood": null,
        "suburb": null,
        "city_district": null,
        "city": "Trou d’Eau Douce VCA",
        "state": "Flacq",
        "postcode": "42211",
        "country": "Mauritius",
        "country_code": "mu"
      },
      "address": "187, Bel Air Rivière Sèche, 42211 Flacq, Mauritius"
    },
    {
      "lat": -20.23425957297799,
      "lon": 57.71231719000635,
      "geoinfo": {
        "display_name": "Queen Victoria, Queen Victoria VCA, Flacq, 40606, Mauritius",
        "road": null,
        "house_number": null,
        "neighbourhood": null,
        "suburb": null,
        "city_district": null,
        "city": "Queen Victoria VCA",
        "state": "Flacq",
        "postcode": "40606",
        "country": "Mauritius",
        "country_code": "mu"
      },
      "address": "292, Bel Air Rivière Sèche, 40606 Flacq, Mauritius"
    },
    {
      "lat": -20.292209809767463,
      "lon": 57.720603155617276,
      "geoinfo": {
        "display_name": "Sébastopol, Sébastopol VCA, Flacq, 80902, Mauritius",
        "road": null,
        "house_number": null,
        "neighbourhood": null,
        "suburb": null,
        "city_district": null,
        "city": "Sébastopol VCA",
        "state": "Flacq",
        "postcode": "80902",
        "country": "Mauritius",
        "country_code": "mu"
      },
      "address": "097, Bel Air Rivière Sèche, 80902 Flacq, Mauritius"
    },
    {
      "lat": -20.237111200455708,
      "lon": 57.74054501214711,
      "geoinfo": {
        "display_name": "Camp Bonne Mère, Queen Victoria, Queen Victoria VCA, Flacq, 40607, Mauritius",
        "road": null,
        "house_number": null,
        "neighbourhood": null,
        "suburb": null,
        "city_district": null,
        "city": "Queen Victoria VCA",
        "state": "Flacq",
        "postcode": "40607",
        "country": "Mauritius",
        "country_code": "mu"
      },
      "address": "779, Bel Air Rivière Sèche, 40607 Flacq, Mauritius"
    },
    {
      "lat": -20.220989035937066,
      "lon": 57.74620861144575,
      "geoinfo": {
        "display_name": "Camp Ithier, Camp Ithier VCA, Flacq, 41605, Mauritius",
        "road": null,
        "house_number": null,
        "neighbourhood": null,
        "suburb": null,
        "city_district": null,
        "city": "Camp Ithier VCA",
        "state": "Flacq",
        "postcode": "41605",
        "country": "Mauritius",
        "country_code": "mu"
      },
      "address": "581, Bel Air Rivière Sèche, 41605 Flacq, Mauritius"
    },
    {
      "lat": -20.25229458075711,
      "lon": 57.75364043280214,
      "geoinfo": {
        "display_name": "Chemin la Pompe, Bel Air Rivière Sèche VCA, Flacq, 40101, Mauritius",
        "road": "Chemin la Pompe",
        "house_number": null,
        "neighbourhood": null,
        "suburb": null,
        "city_district": null,
        "city": "Bel Air Rivière Sèche VCA",
        "state": "Flacq",
        "postcode": "40101",
        "country": "Mauritius",
        "country_code": "mu"
      },
      "address": "724, Chemin la Pompe, Bel Air Rivière Sèche VCA, Flacq, 40101, Mauritius"
    },
    {
      "lat": -20.27087265286356,
      "lon": 57.779715640686604,
      "geoinfo": {
        "display_name": "Grand River South East VCA, Flacq, 42211, Mauritius",
        "road": null,
        "house_number": null,
        "neighbourhood": null,
        "suburb": null,
        "city_district": null,
        "city": "Grand River South East VCA",
        "state": "Flacq",
        "postcode": "42211",
        "country": "Mauritius",
        "country_code": "mu"
      },
      "address": "817, Bel Air Rivière Sèche, 42211 Flacq, Mauritius"
    },
    {
      "lat": -20.22062281480245,
      "lon": 57.74706491724671,
      "geoinfo": {
        "display_name": "Camp Ithier, Camp Ithier VCA, Flacq, 41605, Mauritius",
        "road": null,
        "house_number": null,
        "neighbourhood": null,
        "suburb": null,
        "city_district": null,
        "city": "Camp Ithier VCA",
        "state": "Flacq",
        "postcode": "41605",
        "country": "Mauritius",
        "country_code": "mu"
      },
      "address": "415, Bel Air Rivière Sèche, 41605 Flacq, Mauritius"
    },
    {
      "lat": -20.29105201333978,
      "lon": 57.73711770815613,
      "geoinfo": {
        "display_name": "Montagne Blanche Bel Air Road, Sébastopol, Olivia VCA, Flacq, 80902, Mauritius",
        "road": "Montagne Blanche Bel Air Road",
        "house_number": null,
        "neighbourhood": null,
        "suburb": null,
        "city_district": null,
        "city": "Olivia VCA",
        "state": "Flacq",
        "postcode": "80902",
        "country": "Mauritius",
        "country_code": "mu"
      },
      "address": "252, Montagne Blanche Bel Air Road, Sébastopol, Olivia VCA, Flacq, 80902, Mauritius"
    },
    {
      "lat": -20.24287175899613,
      "lon": 57.770928657117715,
      "geoinfo": {
        "display_name": "Petit Bois, Bel Air Rivière Sèche VCA, Flacq, 40101, Mauritius",
        "road": null,
        "house_number": null,
        "neighbourhood": null,
        "suburb": "Petit Bois",
        "city_district": null,
        "city": "Bel Air Rivière Sèche VCA",
        "state": "Flacq",
        "postcode": "40101",
        "country": "Mauritius",
        "country_code": "mu"
      },
      "address": "745, Petit Bois, Bel Air Rivière Sèche VCA, Flacq, 40101, Mauritius"
    }
  ],
  "updated_at": "2025-10-19T05:53:20.805392+00:00",
  "_kind": "geo_samples"
}