{
  "country_code": "MU",
  "country": "Mauritius",
  "city": "Centre de Flacq",
  "geonameid": 934631,
  "target_addresses": 8,
  "samples": [
    {
      "lat": -20.209717291635148,
      "lon": 57.74142098009557,
      "geoinfo": {
        "display_name": "Isidor Rose, Camp Ithier, Camp Ithier VCA, Flacq, 41605, Mauritius",
        "road": null,
        "house_number": null,
        "neighbourhood": null,
        "suburb": null,
        "city_district": null,
        "city": "Camp Ithier VCA",
        "state": "Flacq",
        "postcode": "41605",
        "country": "Mauritius",
        "country_code": "mu"
      },
      "address": "Centre de Flacq, Flacq, Mauritius"
    },
    {
      "lat": -20.194508181784453,
      "lon": 57.74660584100586,
      "geoinfo": {
        "display_name": "Argy, Central Flacq, Centre de Flacq VCA, Flacq, 40607, Mauritius",
        "road": null,
        "house_number": null,
        "neighbourhood": "Argy",
        "suburb": null,
        "city_district": null,
        "city": "Centre de Flacq VCA",
        "state": "Flacq",
        "postcode": "40607",
        "country": "Mauritius",
        "country_code": "mu"
      },
      "address": "Argy, Centre de Flacq, Flacq, Mauritius"
    },
    {
      "lat": -20.170243264227533,
      "lon": 57.69873583621027,
      "geoinfo": {
        "display_name": "Shivala Road, Petite Retraite, Grande Retraite VCA, Flacq, 40606, Mauritius",
        "road": "Shivala Road",
        "house_number": null,
        "neighbourhood": "Petite Retraite",
        "suburb": null,
        "city_district": null,
        "city": "Grande Retraite VCA",
        "state": "Flacq",
        "postcode": "40606",
        "country": "Mauritius",
        "country_code": "mu"
      },
      "address": "Shivala Road, Centre de Flacq, Flacq, Mauritius"
    },
    {
      "lat": -20.212227988764703,
      "lon": 57.71145807176672,
      "geoinfo": {
        "display_name": "B56, Camp Bonne MÃ¨re, Queen Victoria, Queen Victoria VCA, Flacq, 40606, Mauritius",
        "road": "B56",
        "house_number": null,
        "neighbourhood": null,
        "suburb": null,
        "city_district": null,
        "city": "Queen Victoria VCA",
        "state": "Flacq",
        "postcode": "40606",
        "country": "Mauritius",
        "country_code": "mu"
      },
      "address": "B56, Centre de Flacq, Flacq, Mauritius"
    },
    {
      "lat": -20.186383707216727,
      "lon": 57.70808372801001,
      "geoinfo": {
        "display_name": "Brisse Verdiere-Saint Julien-Constance Road, Central Flacq, Centre de Flacq VCA, Flacq, 40606, Mauritius",
        "road": "Brisse Verdiere-Saint Julien-Constance Road",
        "house_number": null,
        "neighbourhood": null,
        "suburb": null,
        "city_district": null,
        "city": "Centre de Flacq VCA",
        "state": "Flacq",
        "postcode": "40606",
        "country": "Mauritius",
        "country_code": "mu"
      },
      "address": "Brisse Verdiere-Saint Julien-Constance Road, Centre de Flacq, Flacq, Mauritius"
    },
    {
      "lat": -20.168169979954392,
      "lon": 57.706102377236995,
      "geoinfo": {
        "display_name": "Port Louis - Central Flacq Road, Petite Retraite, Grande Retraite VCA, Flacq, 40606, Mauritius",
        "road": "Port Louis - Central Flacq Road",
        "house_number": null,
        "neighbourhood": "Petite Retraite",
        "suburb": null,
        "city_district": null,
        "city": "Grande Retraite VCA",
        "state": "Flacq",
        "postcode": "40606",
        "country": "Mauritius",
        "country_code": "mu"
      },
      "address": "Port Louis - Central Flacq Road, Centre de Flacq, Flacq, Mauritius"
    },
    {
      "lat": -20.184547924789868,
      "lon": 57.72414490223675,
      "geoinfo": {
        "display_name": "Moka Camp de Masque Flacq Road, Central Flacq, Centre de Flacq VCA, Flacq, 40606, Mauritius",
        "road": "Moka Camp de Masque Flacq Road",
        "house_number": null,
        "neighbourhood": null,
        "suburb": null,
        "city_district": null,
        "city": "Centre de Flacq VCA",
        "state": "Flacq",
        "postcode": "40606",
        "country": "Mauritius",
        "country_code": "mu"
      },
      "address": "Moka Camp de Masque Flacq Road, Centre de Flacq, Flacq, Mauritius"
    },
    {
      "lat": -20.19770603892041,
      "lon": 57.706424617177696,
      "geoinfo": {
        "display_name": "Plaine de Gersigny, Central Flacq, Centre de Flacq VCA, Flacq, 40606, Mauritius",
        "road": null,
        "house_number": null,
        "neighbourhood": "Plaine de Gersigny",
        "suburb": null,
        "city_district": null,
        "city": "Centre de Flacq VCA",
        "state": "Flacq",
        "postcode": "40606",
        "country": "Mauritius",
        "country_code": "mu"
      },
      "address": "Plaine de Gersigny, Centre de Flacq, Flacq, Mauritius"
    }
  ],
  "updated_at": "2025-10-16T19:56:25.188280+00:00",
  "_kind": "geo_samples"
}