{
  "country_code": "MU",
  "country": "Mauritius",
  "city": "Curepipe",
  "geonameid": 934570,
  "target_addresses": 40,
  "samples": [
    {
      "lat": -20.316137808918285,
      "lon": 57.5339377577267,
      "geoinfo": {
        "display_name": "La Vigie, Town of Curepipe, Ward 4, West, Vacoas-Phoenix, Plaines Wilhems, 74513, Mauritius",
        "road": null,
        "house_number": null,
        "neighbourhood": null,
        "suburb": "La Vigie",
        "city_district": "Town of Curepipe, Ward 4, West",
        "city": "Vacoas-Phoenix",
        "state": "Plaines Wilhems",
        "postcode": "74513",
        "country": "Mauritius",
        "country_code": "mu"
      },
      "address": "La Vigie, Curepipe, Plaines Wilhems, Mauritius"
    },
    {
      "lat": -20.357023661553534,
      "lon": 57.53382692248382,
      "geoinfo": {
        "display_name": "Seizième Mille, Seizième Mille VCA, Plaines Wilhems, 74513, Mauritius",
        "road": null,
        "house_number": null,
        "neighbourhood": null,
        "suburb": null,
        "city_district": null,
        "city": "Seizième Mille VCA",
        "state": "Plaines Wilhems",
        "postcode": "74513",
        "country": "Mauritius",
        "country_code": "mu"
      },
      "address": "Curepipe, Plaines Wilhems, Mauritius"
    },
    {
      "lat": -20.303670538200638,
      "lon": 57.523946416993546,
      "geoinfo": {
        "display_name": "Camp Dhoby Street, Town of Curepipe, Ward 3, West, Vacoas-Phoenix, Plaines Wilhems, 74321, Mauritius",
        "road": "Camp Dhoby Street",
        "house_number": null,
        "neighbourhood": null,
        "suburb": null,
        "city_district": "Town of Curepipe, Ward 3, West",
        "city": "Vacoas-Phoenix",
        "state": "Plaines Wilhems",
        "postcode": "74321",
        "country": "Mauritius",
        "country_code": "mu"
      },
      "address": "Camp Dhoby Street, Curepipe, Plaines Wilhems, Mauritius"
    },
    {
      "lat": -20.279482989716012,
      "lon": 57.51196173457819,
      "geoinfo": {
        "display_name": "Highlands, Phoenix, Vacoas-Phoenix, Plaines Wilhems, 74232, Mauritius",
        "road": null,
        "house_number": null,
        "neighbourhood": null,
        "suburb": "Phoenix",
        "city_district": null,
        "city": "Vacoas-Phoenix",
        "state": "Plaines Wilhems",
        "postcode": "74232",
        "country": "Mauritius",
        "country_code": "mu"
      },
      "address": "Phoenix, Curepipe, Plaines Wilhems, Mauritius"
    },
    {
      "lat": -20.29745695579463,
      "lon": 57.50132848158804,
      "geoinfo": {
        "display_name": "Floreal Road, Town of Vacoas-Phoenix, Ward 4, Vacoas-Phoenix, Plaines Wilhems, 73411, Mauritius",
        "road": "Floreal Road",
        "house_number": null,
        "neighbourhood": null,
        "suburb": null,
        "city_district": "Town of Vacoas-Phoenix, Ward 4",
        "city": "Vacoas-Phoenix",
        "state": "Plaines Wilhems",
        "postcode": "73411",
        "country": "Mauritius",
        "country_code": "mu"
      },
      "address": "Floreal Road, Curepipe, Plaines Wilhems, Mauritius"
    },
    {
      "lat": -20.310831983160266,
      "lon": 57.50636448577166,
      "geoinfo": {
        "display_name": "Floreal, Town of Curepipe, Ward 1, Vacoas-Phoenix, Plaines Wilhems, 74208, Mauritius",
        "road": null,
        "house_number": null,
        "neighbourhood": null,
        "suburb": "Floreal",
        "city_district": "Town of Curepipe, Ward 1",
        "city": "Vacoas-Phoenix",
        "state": "Plaines Wilhems",
        "postcode": "74208",
        "country": "Mauritius",
        "country_code": "mu"
      },
      "address": "Floreal, Curepipe, Plaines Wilhems, Mauritius"
    },
    {
      "lat": -20.334180017300145,
      "lon": 57.54099002287425,
      "geoinfo": {
        "display_name": "Link Road La Vigie/La Brasserie, Seizième Mille, Seizième Mille VCA, Plaines Wilhems, 74513, Mauritius",
        "road": "Link Road La Vigie/La Brasserie",
        "house_number": null,
        "neighbourhood": null,
        "suburb": null,
        "city_district": null,
        "city": "Seizième Mille VCA",
        "state": "Plaines Wilhems",
        "postcode": "74513",
        "country": "Mauritius",
        "country_code": "mu"
      },
      "address": "Link Road La Vigie/La Brasserie, Curepipe, Plaines Wilhems, Mauritius"
    },
    {
      "lat": -20.296921657711163,
      "lon": 57.52544748328875,
      "geoinfo": {
        "display_name": "Town of Curepipe, Ward 3, West, Vacoas-Phoenix, Plaines Wilhems, 74321, Mauritius",
        "road": null,
        "house_number": null,
        "neighbourhood": null,
        "suburb": null,
        "city_district": "Town of Curepipe, Ward 3, West",
        "city": "Vacoas-Phoenix",
        "state": "Plaines Wilhems",
        "postcode": "74321",
        "country": "Mauritius",
        "country_code": "mu"
      },
      "address": "Town of Curepipe, Ward 3, West, Curepipe, Plaines Wilhems, Mauritius"
    },
    {
      "lat": -20.348322522451426,
      "lon": 57.52946619828511,
      "geoinfo": {
        "display_name": "Seizième Mille, Seizième Mille VCA, Plaines Wilhems, 74513, Mauritius",
        "road": null,
        "house_number": null,
        "neighbourhood": null,
        "suburb": null,
        "city_district": null,
        "city": "Seizième Mille VCA",
        "state": "Plaines Wilhems",
        "postcode": "74513",
        "country": "Mauritius",
        "country_code": "mu"
      },
      "address": "Curepipe, 14213 Plaines Wilhems, Mauritius"
    },
    {
      "lat": -20.32680197277874,
      "lon": 57.544369796403146,
      "geoinfo": {
        "display_name": "Port Louis – The South Motorway, Town of Curepipe, Ward 4, West, Curepipe, Plaines Wilhems, 74513, Mauritius",
        "road": "Port Louis – The South Motorway",
        "house_number": null,
        "neighbourhood": null,
        "suburb": null,
        "city_district": "Town of Curepipe, Ward 4, West",
        "city": "Curepipe",
        "state": "Plaines Wilhems",
        "postcode": "74513",
        "country": "Mauritius",
        "country_code": "mu"
      },
      "address": "Port Louis – The South Motorway, Town of Curepipe, Ward 4, West, Curepipe, Plaines Wilhems, 74513, Mauritius"
    },
    {
      "lat": -20.348344798523602,
      "lon": 57.52931674192719,
      "geoinfo": {
        "display_name": "Seizième Mille, Seizième Mille VCA, Plaines Wilhems, 74513, Mauritius",
        "road": null,
        "house_number": null,
        "neighbourhood": null,
        "suburb": null,
        "city_district": null,
        "city": "Seizième Mille VCA",
        "state": "Plaines Wilhems",
        "postcode": "74513",
        "country": "Mauritius",
        "country_code": "mu"
      },
      "address": "Curepipe, 61521 Plaines Wilhems, Mauritius"
    },
    {
      "lat": -20.33852228690412,
      "lon": 57.4910976155615,
      "geoinfo": {
        "display_name": "Vacoas la Marie Road, Town of Vacoas-Phoenix, Ward 1, Vacoas-Phoenix, Plaines Wilhems, 73126, Mauritius",
        "road": "Vacoas la Marie Road",
        "house_number": null,
        "neighbourhood": null,
        "suburb": null,
        "city_district": "Town of Vacoas-Phoenix, Ward 1",
        "city": "Vacoas-Phoenix",
        "state": "Plaines Wilhems",
        "postcode": "73126",
        "country": "Mauritius",
        "country_code": "mu"
      },
      "address": "Vacoas la Marie Road, Town of Vacoas-Phoenix, Ward 1, Vacoas-Phoenix, Plaines Wilhems, 73126, Mauritius"
    },
    {
      "lat": -20.35495749056775,
      "lon": 57.51863054216404,
      "geoinfo": {
        "display_name": "Seizième Mille, Seizième Mille VCA, Plaines Wilhems, 74513, Mauritius",
        "road": null,
        "house_number": null,
        "neighbourhood": null,
        "suburb": null,
        "city_district": null,
        "city": "Seizième Mille VCA",
        "state": "Plaines Wilhems",
        "postcode": "74513",
        "country": "Mauritius",
        "country_code": "mu"
      },
      "address": "056, Curepipe, 74513 Plaines Wilhems, Mauritius"
    },
    {
      "lat": -20.339195745680062,
      "lon": 57.56529520463724,
      "geoinfo": {
        "display_name": "Port Louis – The South Motorway, Midlands, Midlands VCA, Plaines Wilhems, 74513, Mauritius",
        "road": "Port Louis – The South Motorway",
        "house_number": null,
        "neighbourhood": null,
        "suburb": null,
        "city_district": null,
        "city": "Midlands VCA",
        "state": "Plaines Wilhems",
        "postcode": "74513",
        "country": "Mauritius",
        "country_code": "mu"
      },
      "address": "370, Port Louis – The South Motorway, Midlands, Midlands VCA, Plaines Wilhems, 74513, Mauritius"
    },
    {
      "lat": -20.30828971942076,
      "lon": 57.513670978325514,
      "geoinfo": {
        "display_name": "Monseigneur D. Barry Street, Floreal, Town of Curepipe, Ward 1, Vacoas-Phoenix, Plaines Wilhems, 74232, Mauritius",
        "road": "Monseigneur D. Barry Street",
        "house_number": null,
        "neighbourhood": null,
        "suburb": "Floreal",
        "city_district": "Town of Curepipe, Ward 1",
        "city": "Vacoas-Phoenix",
        "state": "Plaines Wilhems",
        "postcode": "74232",
        "country": "Mauritius",
        "country_code": "mu"
      },
      "address": "Monseigneur D. Barry Street, Floreal, Town of Curepipe, Ward 1, Vacoas-Phoenix, Plaines Wilhems, 74232, Mauritius"
    },
    {
      "lat": -20.30938673998354,
      "lon": 57.54712356795668,
      "geoinfo": {
        "display_name": "Port Louis – The South Motorway, La Vigie, Town of Curepipe, Ward 4, West, Curepipe, Plaines Wilhems, 74321, Mauritius",
        "road": "Port Louis – The South Motorway",
        "house_number": null,
        "neighbourhood": null,
        "suburb": "La Vigie",
        "city_district": "Town of Curepipe, Ward 4, West",
        "city": "Curepipe",
        "state": "Plaines Wilhems",
        "postcode": "74321",
        "country": "Mauritius",
        "country_code": "mu"
      },
      "address": "Port Louis – The South Motorway, La Vigie, Town of Curepipe, Ward 4, West, Curepipe, Plaines Wilhems, 74321, Mauritius"
    },
    {
      "lat": -20.322931159997502,
      "lon": 57.54214867255669,
      "geoinfo": {
        "display_name": "Port Louis – The South Motorway, Town of Curepipe, Ward 4, West, Curepipe, Plaines Wilhems, 74513, Mauritius",
        "road": "Port Louis – The South Motorway",
        "house_number": null,
        "neighbourhood": null,
        "suburb": null,
        "city_district": "Town of Curepipe, Ward 4, West",
        "city": "Curepipe",
        "state": "Plaines Wilhems",
        "postcode": "74513",
        "country": "Mauritius",
        "country_code": "mu"
      },
      "address": "Port Louis – The South Motorway, Town of Curepipe, Ward 4, West, Curepipe, Plaines Wilhems, 74513, Mauritius"
    },
    {
      "lat": -20.30886388385155,
      "lon": 57.54248769021607,
      "geoinfo": {
        "display_name": "Port Louis – The South Motorway, La Vigie, Town of Curepipe, Ward 3, West, Curepipe, Plaines Wilhems, 74321, Mauritius",
        "road": "Port Louis – The South Motorway",
        "house_number": null,
        "neighbourhood": null,
        "suburb": "La Vigie",
        "city_district": "Town of Curepipe, Ward 3, West",
        "city": "Curepipe",
        "state": "Plaines Wilhems",
        "postcode": "74321",
        "country": "Mauritius",
        "country_code": "mu"
      },
      "address": "Port Louis – The South Motorway, La Vigie, Town of Curepipe, Ward 3, West, Curepipe, Plaines Wilhems, 74321, Mauritius"
    },
    {
      "lat": -20.333471610683976,
      "lon": 57.53474237866691,
      "geoinfo": {
        "display_name": "Monvert Fernery, Link Road La Vigie/La Brasserie, Seizième Mille, Seizième Mille VCA, Plaines Wilhems, 74513, Mauritius",
        "road": "Link Road La Vigie/La Brasserie",
        "house_number": null,
        "neighbourhood": null,
        "suburb": null,
        "city_district": null,
        "city": "Seizième Mille VCA",
        "state": "Plaines Wilhems",
        "postcode": "74513",
        "country": "Mauritius",
        "country_code": "mu"
      },
      "address": "516, Link Road La Vigie/La Brasserie, Curepipe, 74513 Plaines Wilhems, Mauritius"
    },
    {
      "lat": -20.313177886840197,
      "lon": 57.53519836104181,
      "geoinfo": {
        "display_name": "Town of Curepipe, Ward 4, West, Vacoas-Phoenix, Plaines Wilhems, 74321, Mauritius",
        "road": null,
        "house_number": null,
        "neighbourhood": null,
        "suburb": null,
        "city_district": "Town of Curepipe, Ward 4, West",
        "city": "Vacoas-Phoenix",
        "state": "Plaines Wilhems",
        "postcode": "74321",
        "country": "Mauritius",
        "country_code": "mu"
      },
      "address": "Town of Curepipe, Ward 4, West, Vacoas-Phoenix, Plaines Wilhems, 74321, Mauritius"
    },
    {
      "lat": -20.318086473476484,
      "lon": 57.52937300867009,
      "geoinfo": {
        "display_name": "Maigrot Lane, La Vigie, Town of Curepipe, Ward 4, West, Vacoas-Phoenix, Plaines Wilhems, 74513, Mauritius",
        "road": "Maigrot Lane",
        "house_number": null,
        "neighbourhood": null,
        "suburb": "La Vigie",
        "city_district": "Town of Curepipe, Ward 4, West",
        "city": "Vacoas-Phoenix",
        "state": "Plaines Wilhems",
        "postcode": "74513",
        "country": "Mauritius",
        "country_code": "mu"
      },
      "address": "Maigrot Lane, La Vigie, Town of Curepipe, Ward 4, West, Vacoas-Phoenix, Plaines Wilhems, 74513, Mauritius"
    },
    {
      "lat": -20.342766337504045,
      "lon": 57.50996964587451,
      "geoinfo": {
        "display_name": "Link Road La Vigie/La Brasserie, Cité La Brasserie, Town of Curepipe, Ward 4, West, Curepipe, Plaines Wilhems, 74504, Mauritius",
        "road": "Link Road La Vigie/La Brasserie",
        "house_number": null,
        "neighbourhood": "Cité La Brasserie",
        "suburb": null,
        "city_district": "Town of Curepipe, Ward 4, West",
        "city": "Curepipe",
        "state": "Plaines Wilhems",
        "postcode": "74504",
        "country": "Mauritius",
        "country_code": "mu"
      },
      "address": "Link Road La Vigie/La Brasserie, Cité La Brasserie, Town of Curepipe, Ward 4, West, Curepipe, Plaines Wilhems, 74504, Mauritius"
    },
    {
      "lat": -20.323331150831375,
      "lon": 57.50384912014256,
      "geoinfo": {
        "display_name": "Berthaud Avenue, Floreal, Town of Curepipe, Ward 5, Curepipe, Plaines Wilhems, 74504, Mauritius",
        "road": "Berthaud Avenue",
        "house_number": null,
        "neighbourhood": null,
        "suburb": "Floreal",
        "city_district": "Town of Curepipe, Ward 5",
        "city": "Curepipe",
        "state": "Plaines Wilhems",
        "postcode": "74504",
        "country": "Mauritius",
        "country_code": "mu"
      },
      "address": "Berthaud Avenue, Floreal, Town of Curepipe, Ward 5, Curepipe, Plaines Wilhems, 74504, Mauritius"
    },
    {
      "lat": -20.28729452241336,
      "lon": 57.549512173044164,
      "geoinfo": {
        "display_name": "Belle Rive, Dubreuil VCA, Part, Moka, 74321, Mauritius",
        "road": null,
        "house_number": null,
        "neighbourhood": null,
        "suburb": null,
        "city_district": null,
        "city": "Dubreuil VCA, Part",
        "state": "Moka",
        "postcode": "74321",
        "country": "Mauritius",
        "country_code": "mu"
      },
      "address": "905, Curepipe, 74321 Moka, Mauritius"
    },
    {
      "lat": -20.360204593788495,
      "lon": 57.51639562426254,
      "geoinfo": {
        "display_name": "La Marie, Vacoas-Phoenix, Plaines Wilhems, 73126, Mauritius",
        "road": null,
        "house_number": null,
        "neighbourhood": null,
        "suburb": null,
        "city_district": null,
        "city": "Vacoas-Phoenix",
        "state": "Plaines Wilhems",
        "postcode": "73126",
        "country": "Mauritius",
        "country_code": "mu"
      },
      "address": "380, Curepipe, 73126 Plaines Wilhems, Mauritius"
    },
    {
      "lat": -20.318088571303566,
      "lon": 57.5384214040175,
      "geoinfo": {
        "display_name": "La Vigie, Town of Curepipe, Ward 4, West, Vacoas-Phoenix, Plaines Wilhems, 74513, Mauritius",
        "road": null,
        "house_number": null,
        "neighbourhood": null,
        "suburb": "La Vigie",
        "city_district": "Town of Curepipe, Ward 4, West",
        "city": "Vacoas-Phoenix",
        "state": "Plaines Wilhems",
        "postcode": "74513",
        "country": "Mauritius",
        "country_code": "mu"
      },
      "address": "366, La Vigie, Curepipe, 74513 Plaines Wilhems, Mauritius"
    },
    {
      "lat": -20.306944417517506,
      "lon": 57.562621756015396,
      "geoinfo": {
        "display_name": "Dubreuil VCA, Part, Moka, Mauritius",
        "road": null,
        "house_number": null,
        "neighbourhood": null,
        "suburb": null,
        "city_district": null,
        "city": "Dubreuil VCA, Part",
        "state": "Moka",
        "postcode": null,
        "country": "Mauritius",
        "country_code": "mu"
      },
      "address": "810, Curepipe, 83178 Moka, Mauritius"
    },
    {
      "lat": -20.3448509114912,
      "lon": 57.54830359550741,
      "geoinfo": {
        "display_name": "Seizième Mille, Seizième Mille VCA, Plaines Wilhems, 74513, Mauritius",
        "road": null,
        "house_number": null,
        "neighbourhood": null,
        "suburb": null,
        "city_district": null,
        "city": "Seizième Mille VCA",
        "state": "Plaines Wilhems",
        "postcode": "74513",
        "country": "Mauritius",
        "country_code": "mu"
      },
      "address": "362, Curepipe, 74513 Plaines Wilhems, Mauritius"
    },
    {
      "lat": -20.334151175331865,
      "lon": 57.56278161509357,
      "geoinfo": {
        "display_name": "Midlands, Midlands VCA, Plaines Wilhems, 74513, Mauritius",
        "road": null,
        "house_number": null,
        "neighbourhood": null,
        "suburb": null,
        "city_district": null,
        "city": "Midlands VCA",
        "state": "Plaines Wilhems",
        "postcode": "74513",
        "country": "Mauritius",
        "country_code": "mu"
      },
      "address": "103, Curepipe, 74513 Plaines Wilhems, Mauritius"
    },
    {
      "lat": -20.302816216273996,
      "lon": 57.52050131117862,
      "geoinfo": {
        "display_name": "Harry Lane, Town of Curepipe, Ward 2, Vacoas-Phoenix, Plaines Wilhems, 74232, Mauritius",
        "road": "Harry Lane",
        "house_number": null,
        "neighbourhood": null,
        "suburb": null,
        "city_district": "Town of Curepipe, Ward 2",
        "city": "Vacoas-Phoenix",
        "state": "Plaines Wilhems",
        "postcode": "74232",
        "country": "Mauritius",
        "country_code": "mu"
      },
      "address": "Harry Lane, Town of Curepipe, Ward 2, Vacoas-Phoenix, Plaines Wilhems, 74232, Mauritius"
    },
    {
      "lat": -20.31560755001873,
      "lon": 57.52273396412703,
      "geoinfo": {
        "display_name": "Town of Curepipe, Ward 4, West, Vacoas-Phoenix, Plaines Wilhems, 74208, Mauritius",
        "road": null,
        "house_number": null,
        "neighbourhood": null,
        "suburb": null,
        "city_district": "Town of Curepipe, Ward 4, West",
        "city": "Vacoas-Phoenix",
        "state": "Plaines Wilhems",
        "postcode": "74208",
        "country": "Mauritius",
        "country_code": "mu"
      },
      "address": "Town of Curepipe, Ward 4, West, Vacoas-Phoenix, Plaines Wilhems, 74208, Mauritius"
    },
    {
      "lat": -20.32450016641292,
      "lon": 57.52118382845093,
      "geoinfo": {
        "display_name": "R. Edward Hart Street, Town of Curepipe, Ward 2, Vacoas-Phoenix, Plaines Wilhems, 74513, Mauritius",
        "road": "R. Edward Hart Street",
        "house_number": null,
        "neighbourhood": null,
        "suburb": null,
        "city_district": "Town of Curepipe, Ward 2",
        "city": "Vacoas-Phoenix",
        "state": "Plaines Wilhems",
        "postcode": "74513",
        "country": "Mauritius",
        "country_code": "mu"
      },
      "address": "R. Edward Hart Street, Town of Curepipe, Ward 2, Vacoas-Phoenix, Plaines Wilhems, 74513, Mauritius"
    },
    {
      "lat": -20.33591888329665,
      "lon": 57.53015508166607,
      "geoinfo": {
        "display_name": "Link Road La Vigie/La Brasserie, Seizième Mille, Seizième Mille VCA, Plaines Wilhems, 74513, Mauritius",
        "road": "Link Road La Vigie/La Brasserie",
        "house_number": null,
        "neighbourhood": null,
        "suburb": null,
        "city_district": null,
        "city": "Seizième Mille VCA",
        "state": "Plaines Wilhems",
        "postcode": "74513",
        "country": "Mauritius",
        "country_code": "mu"
      },
      "address": "256, Link Road La Vigie/La Brasserie, Seizième Mille, Seizième Mille VCA, Plaines Wilhems, 74513, Mauritius"
    },
    {
      "lat": -20.335182343581707,
      "lon": 57.5448480951332,
      "geoinfo": {
        "display_name": "Link Road La Vigie/La Brasserie, Seizième Mille, Seizième Mille VCA, Plaines Wilhems, 74513, Mauritius",
        "road": "Link Road La Vigie/La Brasserie",
        "house_number": null,
        "neighbourhood": null,
        "suburb": null,
        "city_district": null,
        "city": "Seizième Mille VCA",
        "state": "Plaines Wilhems",
        "postcode": "74513",
        "country": "Mauritius",
        "country_code": "mu"
      },
      "address": "225, Link Road La Vigie/La Brasserie, Seizième Mille, Seizième Mille VCA, Plaines Wilhems, 74513, Mauritius"
    },
    {
      "lat": -20.352089912315737,
      "lon": 57.52069058844462,
      "geoinfo": {
        "display_name": "Mont Vert Nature park, Town of Curepipe, Ward 4, West, Seizième Mille VCA, Plaines Wilhems, 74513, Mauritius",
        "road": "Mont Vert Nature park",
        "house_number": null,
        "neighbourhood": null,
        "suburb": null,
        "city_district": "Town of Curepipe, Ward 4, West",
        "city": "Seizième Mille VCA",
        "state": "Plaines Wilhems",
        "postcode": "74513",
        "country": "Mauritius",
        "country_code": "mu"
      },
      "address": "Mont Vert Nature park, Town of Curepipe, Ward 4, West, Seizième Mille VCA, Plaines Wilhems, 74513, Mauritius"
    },
    {
      "lat": -20.35435859153887,
      "lon": 57.53566420155848,
      "geoinfo": {
        "display_name": "Seizième Mille, Seizième Mille VCA, Plaines Wilhems, 74513, Mauritius",
        "road": null,
        "house_number": null,
        "neighbourhood": null,
        "suburb": null,
        "city_district": null,
        "city": "Seizième Mille VCA",
        "state": "Plaines Wilhems",
        "postcode": "74513",
        "country": "Mauritius",
        "country_code": "mu"
      },
      "address": "840, Curepipe, 74513 Plaines Wilhems, Mauritius"
    },
    {
      "lat": -20.29762961672165,
      "lon": 57.511884084548996,
      "geoinfo": {
        "display_name": "Floreal, Town of Curepipe, Ward 1, Vacoas-Phoenix, Plaines Wilhems, 74232, Mauritius",
        "road": null,
        "house_number": null,
        "neighbourhood": null,
        "suburb": "Floreal",
        "city_district": "Town of Curepipe, Ward 1",
        "city": "Vacoas-Phoenix",
        "state": "Plaines Wilhems",
        "postcode": "74232",
        "country": "Mauritius",
        "country_code": "mu"
      },
      "address": "Floreal, Town of Curepipe, Ward 1, Vacoas-Phoenix, Plaines Wilhems, 74232, Mauritius"
    }
  ],
  "updated_at": "2025-10-19T05:52:35.159115+00:00",
  "_kind": "geo_samples"
}