{
  "country_code": "MU",
  "country": "Mauritius",
  "city": "Goodlands",
  "geonameid": 934488,
  "target_addresses": 8,
  "samples": [
    {
      "lat": -20.03343678219755,
      "lon": 57.69286953900575,
      "geoinfo": {
        "display_name": "Petit Village Saint Antoine, Goodlands, Goodlands VCA, Rivière du Rempart District, 30420, Mauritius",
        "road": null,
        "house_number": null,
        "neighbourhood": null,
        "suburb": null,
        "city_district": null,
        "city": "Goodlands VCA",
        "state": "Rivière du Rempart District",
        "postcode": "30420",
        "country": "Mauritius",
        "country_code": "mu"
      },
      "address": "Goodlands, Rivière du Rempart District, Mauritius"
    },
    {
      "lat": -20.048856869758897,
      "lon": 57.633593729542206,
      "geoinfo": {
        "display_name": "Morcellement Vrs Financing, Morcellement Le Moulin, Goodlands, Goodlands VCA, Rivière du Rempart District, 30420, Mauritius",
        "road": null,
        "house_number": null,
        "neighbourhood": "Morcellement Vrs Financing",
        "suburb": null,
        "city_district": null,
        "city": "Goodlands VCA",
        "state": "Rivière du Rempart District",
        "postcode": "30420",
        "country": "Mauritius",
        "country_code": "mu"
      },
      "address": "Morcellement Vrs Financing, Goodlands, Rivière du Rempart District, Mauritius"
    },
    {
      "lat": -20.03061372853351,
      "lon": 57.64319191262039,
      "geoinfo": {
        "display_name": "B14, Mapou Leclezio, Goodlands, Goodlands VCA, Rivière du Rempart District, 30420, Mauritius",
        "road": "B14",
        "house_number": null,
        "neighbourhood": null,
        "suburb": null,
        "city_district": null,
        "city": "Goodlands VCA",
        "state": "Rivière du Rempart District",
        "postcode": "30420",
        "country": "Mauritius",
        "country_code": "mu"
      },
      "address": "B14, Goodlands, Rivière du Rempart District, Mauritius"
    },
    {
      "lat": -20.069560561821795,
      "lon": 57.6620390328721,
      "geoinfo": {
        "display_name": "Poudre d'Or Road, Poudre D’Or Hamlet, Poudre d’Or Hamlet VCA, Rivière du Rempart District, 30420, Mauritius",
        "road": "Poudre d'Or Road",
        "house_number": null,
        "neighbourhood": null,
        "suburb": null,
        "city_district": null,
        "city": "Poudre d’Or Hamlet VCA",
        "state": "Rivière du Rempart District",
        "postcode": "30420",
        "country": "Mauritius",
        "country_code": "mu"
      },
      "address": "Poudre d'Or Road, Goodlands, Rivière du Rempart District, Mauritius"
    },
    {
      "lat": -20.062838819406974,
      "lon": 57.654960905982584,
      "geoinfo": {
        "display_name": "Morcellement Vrs, Morcellement Le Moulin, Goodlands, Goodlands VCA, Rivière du Rempart District, 30420, Mauritius",
        "road": null,
        "house_number": null,
        "neighbourhood": "Morcellement Vrs",
        "suburb": null,
        "city_district": null,
        "city": "Goodlands VCA",
        "state": "Rivière du Rempart District",
        "postcode": "30420",
        "country": "Mauritius",
        "country_code": "mu"
      },
      "address": "Morcellement Vrs, Goodlands, Rivière du Rempart District, Mauritius"
    },
    {
      "lat": -20.025686004387218,
      "lon": 57.66764720949446,
      "geoinfo": {
        "display_name": "Melville Road, Germain, Grand Gaube VCA, Rivière du Rempart District, 30617, Mauritius",
        "road": "Melville Road",
        "house_number": null,
        "neighbourhood": null,
        "suburb": null,
        "city_district": null,
        "city": "Grand Gaube VCA",
        "state": "Rivière du Rempart District",
        "postcode": "30617",
        "country": "Mauritius",
        "country_code": "mu"
      },
      "address": "Melville Road, Goodlands, Rivière du Rempart District, Mauritius"
    },
    {
      "lat": -20.033584127599386,
      "lon": 57.637827226702726,
      "geoinfo": {
        "display_name": "Goodlands Bypass Road, Petit Raffray VCA, Rivière du Rempart District, 30420, Mauritius",
        "road": "Goodlands Bypass Road",
        "house_number": null,
        "neighbourhood": null,
        "suburb": null,
        "city_district": null,
        "city": "Petit Raffray VCA",
        "state": "Rivière du Rempart District",
        "postcode": "30420",
        "country": "Mauritius",
        "country_code": "mu"
      },
      "address": "Goodlands Bypass Road, Goodlands, Rivière du Rempart District, Mauritius"
    },
    {
      "lat": -19.999458886594148,
      "lon": 57.66359331559671,
      "geoinfo": {
        "display_name": "Hidden beaches in Grand Gaube, Grand Gaube Coast Road, Petit Camp, Grand Gaube, Grand Gaube VCA, Rivière du Rempart District, 30617, Mauritius",
        "road": "Grand Gaube Coast Road",
        "house_number": null,
        "neighbourhood": null,
        "suburb": null,
        "city_district": null,
        "city": "Grand Gaube VCA",
        "state": "Rivière du Rempart District",
        "postcode": "30617",
        "country": "Mauritius",
        "country_code": "mu"
      },
      "address": "Grand Gaube Coast Road, Goodlands, Rivière du Rempart District, Mauritius"
    },
    {
      "lat": -20.02716916229742,
      "lon": 57.61272686625388,
      "geoinfo": {
        "display_name": "Union Daruty, The Vale VCA, Rivière du Rempart District, 31301, Mauritius",
        "road": null,
        "house_number": null,
        "neighbourhood": null,
        "suburb": null,
        "city_district": null,
        "city": "The Vale VCA",
        "state": "Rivière du Rempart District",
        "postcode": "31301",
        "country": "Mauritius",
        "country_code": "mu"
      },
      "address": "033, Union Daruty, The Vale VCA, Rivière du Rempart District, 31301, Mauritius"
    },
    {
      "lat": -20.074438393763998,
      "lon": 57.664589677928085,
      "geoinfo": {
        "display_name": "Poudre D’Or Hamlet, Poudre d’Or Hamlet VCA, Rivière du Rempart District, 30420, Mauritius",
        "road": null,
        "house_number": null,
        "neighbourhood": null,
        "suburb": null,
        "city_district": null,
        "city": "Poudre d’Or Hamlet VCA",
        "state": "Rivière du Rempart District",
        "postcode": "30420",
        "country": "Mauritius",
        "country_code": "mu"
      },
      "address": "363, Poudre D’Or Hamlet, Poudre d’Or Hamlet VCA, Rivière du Rempart District, 30420, Mauritius"
    },
    {
      "lat": -20.07151798113372,
      "lon": 57.61881104848255,
      "geoinfo": {
        "display_name": "Chateau de Labourdonnais, Beau Plateau Road, Labourdonnais, Mapou, Mapou VCA, North, Rivière du Rempart District, 31803, Mauritius",
        "road": "Beau Plateau Road",
        "house_number": null,
        "neighbourhood": null,
        "suburb": null,
        "city_district": null,
        "city": "Mapou VCA, North",
        "state": "Rivière du Rempart District",
        "postcode": "31803",
        "country": "Mauritius",
        "country_code": "mu"
      },
      "address": "686, Beau Plateau Road, Goodlands, 31803 Rivière du Rempart District, Mauritius"
    },
    {
      "lat": -20.077823685684724,
      "lon": 57.66703333894737,
      "geoinfo": {
        "display_name": "Riviere du Rempart Poudre d'Or Link Road, Rivière du Rempart, Poudre d’Or Hamlet VCA, Rivière du Rempart District, 31201, Mauritius",
        "road": "Riviere du Rempart Poudre d'Or Link Road",
        "house_number": null,
        "neighbourhood": null,
        "suburb": null,
        "city_district": null,
        "city": "Poudre d’Or Hamlet VCA",
        "state": "Rivière du Rempart District",
        "postcode": "31201",
        "country": "Mauritius",
        "country_code": "mu"
      },
      "address": "632, Riviere du Rempart Poudre d'Or Link Road, Rivière du Rempart, Poudre d’Or Hamlet VCA, Rivière du Rempart District, 31201, Mauritius"
    },
    {
      "lat": -20.05121484530951,
      "lon": 57.64984812574501,
      "geoinfo": {
        "display_name": "Goodlands, Goodlands VCA, Rivière du Rempart District, 30420, Mauritius",
        "road": null,
        "house_number": null,
        "neighbourhood": null,
        "suburb": null,
        "city_district": null,
        "city": "Goodlands VCA",
        "state": "Rivière du Rempart District",
        "postcode": "30420",
        "country": "Mauritius",
        "country_code": "mu"
      },
      "address": "831, Goodlands, Goodlands VCA, Rivière du Rempart District, 30420, Mauritius"
    },
    {
      "lat": -20.05473682487804,
      "lon": 57.6665485615175,
      "geoinfo": {
        "display_name": "Mapou Goodlands Road, Poudre d'Or, Goodlands VCA, Rivière du Rempart District, 30420, Mauritius",
        "road": "Mapou Goodlands Road",
        "house_number": null,
        "neighbourhood": null,
        "suburb": null,
        "city_district": null,
        "city": "Goodlands VCA",
        "state": "Rivière du Rempart District",
        "postcode": "30420",
        "country": "Mauritius",
        "country_code": "mu"
      },
      "address": "537, Mapou Goodlands Road, Poudre d'Or, Goodlands VCA, Rivière du Rempart District, 30420, Mauritius"
    },
    {
      "lat": -19.99532442852946,
      "lon": 57.651408575752846,
      "geoinfo": {
        "display_name": "Paradise Point Villa, Grand Gaube Coast Road, Calodyne, Saint-François, Cap Malheureux VCA, Rivière du Rempart District, 42602, Mauritius",
        "road": "Grand Gaube Coast Road",
        "house_number": null,
        "neighbourhood": null,
        "suburb": null,
        "city_district": null,
        "city": "Cap Malheureux VCA",
        "state": "Rivière du Rempart District",
        "postcode": "42602",
        "country": "Mauritius",
        "country_code": "mu"
      },
      "address": "056, Grand Gaube Coast Road, Goodlands, 42602 Rivière du Rempart District, Mauritius"
    },
    {
      "lat": -20.076759109727398,
      "lon": 57.66287821411717,
      "geoinfo": {
        "display_name": "Riviere du Rempart Poudre d'Or Link Road, Rivière du Rempart, Poudre d’Or Hamlet VCA, Rivière du Rempart District, 31201, Mauritius",
        "road": "Riviere du Rempart Poudre d'Or Link Road",
        "house_number": null,
        "neighbourhood": null,
        "suburb": null,
        "city_district": null,
        "city": "Poudre d’Or Hamlet VCA",
        "state": "Rivière du Rempart District",
        "postcode": "31201",
        "country": "Mauritius",
        "country_code": "mu"
      },
      "address": "556, Riviere du Rempart Poudre d'Or Link Road, Rivière du Rempart, Poudre d’Or Hamlet VCA, Rivière du Rempart District, 31201, Mauritius"
    }
  ],
  "updated_at": "2025-10-19T05:47:59.191257+00:00",
  "_kind": "geo_samples"
}