{
  "country_code": "MU",
  "country": "Mauritius",
  "city": "Le Hochet",
  "geonameid": 1106809,
  "target_addresses": 8,
  "samples": [
    {
      "lat": -20.134448596290014,
      "lon": 57.52448919795256,
      "geoinfo": {
        "display_name": "Le Hochet, Le Hochet VCA, Pamplemousses, 21813, Mauritius",
        "road": null,
        "house_number": null,
        "neighbourhood": null,
        "suburb": null,
        "city_district": null,
        "city": "Le Hochet VCA",
        "state": "Pamplemousses",
        "postcode": "21813",
        "country": "Mauritius",
        "country_code": "mu"
      },
      "address": "Le Hochet, Pamplemousses, Mauritius"
    },
    {
      "lat": -20.12677888301776,
      "lon": 57.54378318155629,
      "geoinfo": {
        "display_name": "Port Louis - Central Flacq Road, Sinatambou, Terre Rouge, Terre Rouge VCA, Pamplemousses, 21813, Mauritius",
        "road": "Port Louis - Central Flacq Road",
        "house_number": null,
        "neighbourhood": null,
        "suburb": null,
        "city_district": null,
        "city": "Terre Rouge VCA",
        "state": "Pamplemousses",
        "postcode": "21813",
        "country": "Mauritius",
        "country_code": "mu"
      },
      "address": "Port Louis - Central Flacq Road, Le Hochet, Pamplemousses, Mauritius"
    },
    {
      "lat": -20.119957855937827,
      "lon": 57.51245542696348,
      "geoinfo": {
        "display_name": "Jin Fei Link Road, Tombeau Bay, Baie du Tombeau VCA, Pamplemousses, 21733, Mauritius",
        "road": "Jin Fei Link Road",
        "house_number": null,
        "neighbourhood": null,
        "suburb": null,
        "city_district": null,
        "city": "Baie du Tombeau VCA",
        "state": "Pamplemousses",
        "postcode": "21733",
        "country": "Mauritius",
        "country_code": "mu"
      },
      "address": "Jin Fei Link Road, Le Hochet, Pamplemousses, Mauritius"
    },
    {
      "lat": -20.139873702899667,
      "lon": 57.529780671045366,
      "geoinfo": {
        "display_name": "Morcellement Raffray, Le Hochet, Le Hochet VCA, Pamplemousses, 21813, Mauritius",
        "road": null,
        "house_number": null,
        "neighbourhood": "Morcellement Raffray",
        "suburb": null,
        "city_district": null,
        "city": "Le Hochet VCA",
        "state": "Pamplemousses",
        "postcode": "21813",
        "country": "Mauritius",
        "country_code": "mu"
      },
      "address": "Morcellement Raffray, Le Hochet, Pamplemousses, Mauritius"
    },
    {
      "lat": -20.13812406890901,
      "lon": 57.52319675661096,
      "geoinfo": {
        "display_name": "Shivala Lane, Le Hochet, Le Hochet VCA, Pamplemousses, 21813, Mauritius",
        "road": "Shivala Lane",
        "house_number": null,
        "neighbourhood": null,
        "suburb": null,
        "city_district": null,
        "city": "Le Hochet VCA",
        "state": "Pamplemousses",
        "postcode": "21813",
        "country": "Mauritius",
        "country_code": "mu"
      },
      "address": "Shivala Lane, Le Hochet, Pamplemousses, Mauritius"
    },
    {
      "lat": -20.132827950221298,
      "lon": 57.51815252160642,
      "geoinfo": {
        "display_name": "Riche Terre, Le Hochet, Le Hochet VCA, Pamplemousses, 21813, Mauritius",
        "road": null,
        "house_number": null,
        "neighbourhood": "Riche Terre",
        "suburb": null,
        "city_district": null,
        "city": "Le Hochet VCA",
        "state": "Pamplemousses",
        "postcode": "21813",
        "country": "Mauritius",
        "country_code": "mu"
      },
      "address": "Riche Terre, Le Hochet, Pamplemousses, Mauritius"
    },
    {
      "lat": -20.105186881237827,
      "lon": 57.560849661760734,
      "geoinfo": {
        "display_name": "Port Louis – The North Motorway, Pamplemousses, Calebasses VCA, Pamplemousses, 21013, Mauritius",
        "road": "Port Louis – The North Motorway",
        "house_number": null,
        "neighbourhood": null,
        "suburb": null,
        "city_district": null,
        "city": "Calebasses VCA",
        "state": "Pamplemousses",
        "postcode": "21013",
        "country": "Mauritius",
        "country_code": "mu"
      },
      "address": "Port Louis – The North Motorway, Le Hochet, Pamplemousses, Mauritius"
    },
    {
      "lat": -20.136382213099573,
      "lon": 57.51211560402651,
      "geoinfo": {
        "display_name": "Tombeau Bay, Baie du Tombeau VCA, Pamplemousses, 21729, Mauritius",
        "road": null,
        "house_number": null,
        "neighbourhood": null,
        "suburb": null,
        "city_district": null,
        "city": "Baie du Tombeau VCA",
        "state": "Pamplemousses",
        "postcode": "21729",
        "country": "Mauritius",
        "country_code": "mu"
      },
      "address": "895, Tombeau Bay, Baie du Tombeau VCA, Pamplemousses, 21729, Mauritius"
    },
    {
      "lat": -20.14891922907838,
      "lon": 57.57635627648653,
      "geoinfo": {
        "display_name": "Long Mountain, Long Mountain VCA, Pamplemousses, 21013, Mauritius",
        "road": null,
        "house_number": null,
        "neighbourhood": null,
        "suburb": null,
        "city_district": null,
        "city": "Long Mountain VCA",
        "state": "Pamplemousses",
        "postcode": "21013",
        "country": "Mauritius",
        "country_code": "mu"
      },
      "address": "557, Le Hochet, 21013 Pamplemousses, Mauritius"
    },
    {
      "lat": -20.11319740046355,
      "lon": 57.52703029524003,
      "geoinfo": {
        "display_name": "Petit Gamin, Arsenal, Arsenal VCA, Pamplemousses, 21733, Mauritius",
        "road": null,
        "house_number": null,
        "neighbourhood": null,
        "suburb": null,
        "city_district": null,
        "city": "Arsenal VCA",
        "state": "Pamplemousses",
        "postcode": "21733",
        "country": "Mauritius",
        "country_code": "mu"
      },
      "address": "451, Le Hochet, 21733 Pamplemousses, Mauritius"
    },
    {
      "lat": -20.13338115475612,
      "lon": 57.524679951738634,
      "geoinfo": {
        "display_name": "Le Hochet, Le Hochet VCA, Pamplemousses, 21813, Mauritius",
        "road": null,
        "house_number": null,
        "neighbourhood": null,
        "suburb": null,
        "city_district": null,
        "city": "Le Hochet VCA",
        "state": "Pamplemousses",
        "postcode": "21813",
        "country": "Mauritius",
        "country_code": "mu"
      },
      "address": "417, Le Hochet, Le Hochet VCA, Pamplemousses, 21813, Mauritius"
    },
    {
      "lat": -20.1552722276449,
      "lon": 57.50964055395497,
      "geoinfo": {
        "display_name": "Noor -E-Islam Mosque, Piton Bourbon Road, Renganaden Seeneevassen, Chinatown, Mer Rouge, Town of Port-Louis, Ward 6, Port Louis, 11601, Mauritius",
        "road": "Piton Bourbon Road",
        "house_number": null,
        "neighbourhood": "Renganaden Seeneevassen",
        "suburb": "Mer Rouge",
        "city_district": "Town of Port-Louis, Ward 6",
        "city": "Port Louis",
        "state": "Port Louis",
        "postcode": "11601",
        "country": "Mauritius",
        "country_code": "mu"
      },
      "address": "Noor -E-Islam Mosque, Piton Bourbon Road, Renganaden Seeneevassen, Chinatown, Mer Rouge, Town of Port-Louis, Ward 6, Port Louis, 11601, Mauritius"
    },
    {
      "lat": -20.155860458918912,
      "lon": 57.49849137316461,
      "geoinfo": {
        "display_name": "Mer Rouge Industrial Area, Mer Rouge, Town of Port-Louis, Ward 6, Port Louis, 11307, Mauritius",
        "road": null,
        "house_number": null,
        "neighbourhood": null,
        "suburb": "Mer Rouge",
        "city_district": "Town of Port-Louis, Ward 6",
        "city": "Port Louis",
        "state": "Port Louis",
        "postcode": "11307",
        "country": "Mauritius",
        "country_code": "mu"
      },
      "address": "Mer Rouge Industrial Area, Mer Rouge, Town of Port-Louis, Ward 6, Port Louis, 11307, Mauritius"
    },
    {
      "lat": -20.166415494031963,
      "lon": 57.55038540829314,
      "geoinfo": {
        "display_name": "Vallee Des Pretres, Town of Port-Louis, Ward 8, Port Louis, 11803, Mauritius",
        "road": null,
        "house_number": null,
        "neighbourhood": null,
        "suburb": "Vallee Des Pretres",
        "city_district": "Town of Port-Louis, Ward 8",
        "city": "Port Louis",
        "state": "Port Louis",
        "postcode": "11803",
        "country": "Mauritius",
        "country_code": "mu"
      },
      "address": "Vallee Des Pretres, Town of Port-Louis, Ward 8, Port Louis, 11803, Mauritius"
    },
    {
      "lat": -20.181722822660163,
      "lon": 57.53444799849092,
      "geoinfo": {
        "display_name": "Caroline Road, Vallee Des Pretres, Town of Port-Louis, Ward 8, Port Louis, 11803, Mauritius",
        "road": "Caroline Road",
        "house_number": null,
        "neighbourhood": null,
        "suburb": "Vallee Des Pretres",
        "city_district": "Town of Port-Louis, Ward 8",
        "city": "Port Louis",
        "state": "Port Louis",
        "postcode": "11803",
        "country": "Mauritius",
        "country_code": "mu"
      },
      "address": "Caroline Road, Vallee Des Pretres, Town of Port-Louis, Ward 8, Port Louis, 11803, Mauritius"
    }
  ],
  "updated_at": "2025-10-19T06:11:51.446999+00:00",
  "_kind": "geo_samples"
}