{
  "country_code": "MU",
  "country": "Mauritius",
  "city": "Triolet",
  "geonameid": 933959,
  "target_addresses": 8,
  "samples": [
    {
      "lat": -20.05951561408846,
      "lon": 57.55226412665738,
      "geoinfo": {
        "display_name": "Terre Rouge-Triolet-Grand Baie Road, Camp Lilas, Solitude, Triolet, Triolet VCA, Pamplemousses, 21504, Mauritius",
        "road": "Terre Rouge-Triolet-Grand Baie Road",
        "house_number": null,
        "neighbourhood": "Camp Lilas",
        "suburb": null,
        "city_district": null,
        "city": "Triolet VCA",
        "state": "Pamplemousses",
        "postcode": "21504",
        "country": "Mauritius",
        "country_code": "mu"
      },
      "address": "Terre Rouge-Triolet-Grand Baie Road, Triolet, Pamplemousses, Mauritius"
    },
    {
      "lat": -20.060629185377724,
      "lon": 57.51733312528932,
      "geoinfo": {
        "display_name": "Villas de la Pointe, Solitude Road, Petite Pointe aux Piments, Pointe aux Piments, Pointe aux Piments VCA, Pamplemousses, 21416, Mauritius",
        "road": "Solitude Road",
        "house_number": null,
        "neighbourhood": "Petite Pointe aux Piments",
        "suburb": null,
        "city_district": null,
        "city": "Pointe aux Piments VCA",
        "state": "Pamplemousses",
        "postcode": "21416",
        "country": "Mauritius",
        "country_code": "mu"
      },
      "address": "Solitude Road, Triolet, Pamplemousses, Mauritius"
    },
    {
      "lat": -20.042387834942154,
      "lon": 57.58029370223464,
      "geoinfo": {
        "display_name": "Fond du Sac, Fond du Sac VCA, Pamplemousses, 20601, Mauritius",
        "road": null,
        "house_number": null,
        "neighbourhood": null,
        "suburb": null,
        "city_district": null,
        "city": "Fond du Sac VCA",
        "state": "Pamplemousses",
        "postcode": "20601",
        "country": "Mauritius",
        "country_code": "mu"
      },
      "address": "Triolet, Pamplemousses, Mauritius"
    },
    {
      "lat": -20.08624382242629,
      "lon": 57.55720264027864,
      "geoinfo": {
        "display_name": "Plaine des Papayes Road, Morcellement Saint-André, Morcellement Saint-André VCA, Pamplemousses, 21504, Mauritius",
        "road": "Plaine des Papayes Road",
        "house_number": null,
        "neighbourhood": null,
        "suburb": null,
        "city_district": null,
        "city": "Morcellement Saint-André VCA",
        "state": "Pamplemousses",
        "postcode": "21504",
        "country": "Mauritius",
        "country_code": "mu"
      },
      "address": "Plaine des Papayes Road, Triolet, Pamplemousses, Mauritius"
    },
    {
      "lat": -20.07017477358544,
      "lon": 57.56340046526659,
      "geoinfo": {
        "display_name": "Pandit Dowlut Sharma Ayrga Government School, School Lane, Saint-André, Morcellement Saint-André, Morcellement Saint-André VCA, Pamplemousses, 21504, Mauritius",
        "road": "School Lane",
        "house_number": null,
        "neighbourhood": "Saint-André",
        "suburb": null,
        "city_district": null,
        "city": "Morcellement Saint-André VCA",
        "state": "Pamplemousses",
        "postcode": "21504",
        "country": "Mauritius",
        "country_code": "mu"
      },
      "address": "School Lane, Triolet, Pamplemousses, Mauritius"
    },
    {
      "lat": -20.088738076284905,
      "lon": 57.54465883535429,
      "geoinfo": {
        "display_name": "Triolet Bypass, Triolet VCA, Pamplemousses, 21416, Mauritius",
        "road": "Triolet Bypass",
        "house_number": null,
        "neighbourhood": null,
        "suburb": null,
        "city_district": null,
        "city": "Triolet VCA",
        "state": "Pamplemousses",
        "postcode": "21416",
        "country": "Mauritius",
        "country_code": "mu"
      },
      "address": "Triolet Bypass, Triolet, Pamplemousses, Mauritius"
    },
    {
      "lat": -20.04569610614214,
      "lon": 57.55499422466437,
      "geoinfo": {
        "display_name": "Trou Aux Biches Road, Triolet, Triolet VCA, Pamplemousses, 21508, Mauritius",
        "road": "Trou Aux Biches Road",
        "house_number": null,
        "neighbourhood": null,
        "suburb": null,
        "city_district": null,
        "city": "Triolet VCA",
        "state": "Pamplemousses",
        "postcode": "21508",
        "country": "Mauritius",
        "country_code": "mu"
      },
      "address": "Trou Aux Biches Road, Triolet, Pamplemousses, Mauritius"
    },
    {
      "lat": -20.041761567597938,
      "lon": 57.58320191351318,
      "geoinfo": {
        "display_name": "Mahatma Gandhi Street, Aussailles, Fond du Sac, Fond du Sac VCA, Pamplemousses, 20601, Mauritius",
        "road": "Mahatma Gandhi Street",
        "house_number": null,
        "neighbourhood": null,
        "suburb": null,
        "city_district": null,
        "city": "Fond du Sac VCA",
        "state": "Pamplemousses",
        "postcode": "20601",
        "country": "Mauritius",
        "country_code": "mu"
      },
      "address": "Mahatma Gandhi Street, Triolet, Pamplemousses, Mauritius"
    },
    {
      "lat": -20.031717404651015,
      "lon": 57.559351153033596,
      "geoinfo": {
        "display_name": "Domaine Palmy, Morcellement Choisy, Grand Baie VCA, West, Pamplemousses, 30525, Mauritius",
        "road": null,
        "house_number": null,
        "neighbourhood": null,
        "suburb": null,
        "city_district": null,
        "city": "Grand Baie VCA, West",
        "state": "Pamplemousses",
        "postcode": "30525",
        "country": "Mauritius",
        "country_code": "mu"
      },
      "address": "431, Domaine Palmy, Morcellement Choisy, Grand Baie VCA, West, Pamplemousses, 30525, Mauritius"
    },
    {
      "lat": -20.065222912415425,
      "lon": 57.54283691415319,
      "geoinfo": {
        "display_name": "Camp Moti, Triolet, Triolet VCA, Pamplemousses, 21504, Mauritius",
        "road": null,
        "house_number": null,
        "neighbourhood": null,
        "suburb": null,
        "city_district": null,
        "city": "Triolet VCA",
        "state": "Pamplemousses",
        "postcode": "21504",
        "country": "Mauritius",
        "country_code": "mu"
      },
      "address": "437, Camp Moti, Triolet, Triolet VCA, Pamplemousses, 21504, Mauritius"
    },
    {
      "lat": -20.078605477789097,
      "lon": 57.585353850820844,
      "geoinfo": {
        "display_name": "Morcellement Bois Mangue I, Plaine des Papayes, Plaine des Papayes VCA, Pamplemousses, 20601, Mauritius",
        "road": null,
        "house_number": null,
        "neighbourhood": null,
        "suburb": null,
        "city_district": null,
        "city": "Plaine des Papayes VCA",
        "state": "Pamplemousses",
        "postcode": "20601",
        "country": "Mauritius",
        "country_code": "mu"
      },
      "address": "709, Morcellement Bois Mangue I, Plaine des Papayes, Plaine des Papayes VCA, Pamplemousses, 20601, Mauritius"
    },
    {
      "lat": -20.0351301784244,
      "lon": 57.57518756021019,
      "geoinfo": {
        "display_name": "Fond du Sac VCA, Pamplemousses, 30550, Mauritius",
        "road": null,
        "house_number": null,
        "neighbourhood": null,
        "suburb": null,
        "city_district": null,
        "city": "Fond du Sac VCA",
        "state": "Pamplemousses",
        "postcode": "30550",
        "country": "Mauritius",
        "country_code": "mu"
      },
      "address": "499, Fond du Sac VCA, Pamplemousses, 30550, Mauritius"
    },
    {
      "lat": -20.051561059948632,
      "lon": 57.56953626769901,
      "geoinfo": {
        "display_name": "Triolet - Fond du Sac Link Road, Triolet VCA, Pamplemousses, 21504, Mauritius",
        "road": "Triolet - Fond du Sac Link Road",
        "house_number": null,
        "neighbourhood": null,
        "suburb": null,
        "city_district": null,
        "city": "Triolet VCA",
        "state": "Pamplemousses",
        "postcode": "21504",
        "country": "Mauritius",
        "country_code": "mu"
      },
      "address": "975, Triolet - Fond du Sac Link Road, Triolet VCA, Pamplemousses, 21504, Mauritius"
    },
    {
      "lat": -20.056014978034245,
      "lon": 57.58132767280803,
      "geoinfo": {
        "display_name": "Plaine des Papayes Road, Gowsal, Plaine des Papayes, Fond du Sac VCA, Pamplemousses, 20601, Mauritius",
        "road": "Plaine des Papayes Road",
        "house_number": null,
        "neighbourhood": null,
        "suburb": null,
        "city_district": null,
        "city": "Fond du Sac VCA",
        "state": "Pamplemousses",
        "postcode": "20601",
        "country": "Mauritius",
        "country_code": "mu"
      },
      "address": "294, Plaine des Papayes Road, Gowsal, Plaine des Papayes, Fond du Sac VCA, Pamplemousses, 20601, Mauritius"
    },
    {
      "lat": -20.05661047905718,
      "lon": 57.53456426815459,
      "geoinfo": {
        "display_name": "Japonais Road, Camp Sadah, Pointe aux Piments, Pointe aux Piments VCA, Pamplemousses, 21508, Mauritius",
        "road": "Japonais Road",
        "house_number": null,
        "neighbourhood": "Camp Sadah",
        "suburb": null,
        "city_district": null,
        "city": "Pointe aux Piments VCA",
        "state": "Pamplemousses",
        "postcode": "21508",
        "country": "Mauritius",
        "country_code": "mu"
      },
      "address": "292, Japonais Road, Triolet, 21508 Pamplemousses, Mauritius"
    },
    {
      "lat": -20.042499831469208,
      "lon": 57.567016429998645,
      "geoinfo": {
        "display_name": "Fond du Sac VCA, Pamplemousses, 21504, Mauritius",
        "road": null,
        "house_number": null,
        "neighbourhood": null,
        "suburb": null,
        "city_district": null,
        "city": "Fond du Sac VCA",
        "state": "Pamplemousses",
        "postcode": "21504",
        "country": "Mauritius",
        "country_code": "mu"
      },
      "address": "957, Fond du Sac VCA, Pamplemousses, 21504, Mauritius"
    }
  ],
  "updated_at": "2025-10-19T06:11:09.350870+00:00",
  "_kind": "geo_samples"
}