{
  "country_code": "AG",
  "country": "Antigua and Barbuda",
  "city": "Saint John’s",
  "geonameid": 3576022,
  "target_addresses": 100,
  "samples": [
    {
      "lat": 17.08065295171117,
      "lon": -61.85369679462103,
      "geoinfo": {
        "display_name": "Ebenezer, Saint Mary, Antigua, Antigua and Barbuda",
        "road": null,
        "house_number": null,
        "neighbourhood": null,
        "suburb": null,
        "city_district": null,
        "city": "Ebenezer",
        "state": "Antigua",
        "postcode": null,
        "country": "Antigua and Barbuda",
        "country_code": "ag"
      },
      "address": "518, Ebenezer, Saint Mary, 75956 Antigua, Antigua and Barbuda"
    },
    {
      "lat": 17.11561059457807,
      "lon": -61.79854735967813,
      "geoinfo": {
        "display_name": "Turtle Dove Street, Piggotts, Saint George, Antigua, Antigua and Barbuda",
        "road": "Turtle Dove Street",
        "house_number": null,
        "neighbourhood": null,
        "suburb": null,
        "city_district": null,
        "city": "Piggotts",
        "state": "Antigua",
        "postcode": null,
        "country": "Antigua and Barbuda",
        "country_code": "ag"
      },
      "address": "168, Turtle Dove Street, Piggotts, Saint George, 83850 Antigua, Antigua and Barbuda"
    },
    {
      "lat": 17.117551372036672,
      "lon": -61.80914895729016,
      "geoinfo": {
        "display_name": "St. John's, Saint John, Antigua, Antigua and Barbuda",
        "road": null,
        "house_number": null,
        "neighbourhood": null,
        "suburb": null,
        "city_district": null,
        "city": "St. John's",
        "state": "Antigua",
        "postcode": null,
        "country": "Antigua and Barbuda",
        "country_code": "ag"
      },
      "address": "531, St. John's, Saint John, 64511 Antigua, Antigua and Barbuda"
    },
    {
      "lat": 17.154368846194444,
      "lon": -61.847206494222675,
      "geoinfo": {
        "display_name": "Anchorage Road, St. John's, Saint John, Antigua, Antigua and Barbuda",
        "road": "Anchorage Road",
        "house_number": null,
        "neighbourhood": null,
        "suburb": null,
        "city_district": null,
        "city": "St. John's",
        "state": "Antigua",
        "postcode": null,
        "country": "Antigua and Barbuda",
        "country_code": "ag"
      },
      "address": "762, Anchorage Road, St. John's, Saint John, 45137 Antigua, Antigua and Barbuda"
    },
    {
      "lat": 17.112282388720626,
      "lon": -61.854936436037185,
      "geoinfo": {
        "display_name": "St. John's, Saint John, Antigua, Antigua and Barbuda",
        "road": null,
        "house_number": null,
        "neighbourhood": null,
        "suburb": null,
        "city_district": null,
        "city": "St. John's",
        "state": "Antigua",
        "postcode": null,
        "country": "Antigua and Barbuda",
        "country_code": "ag"
      },
      "address": "742, St. John's, Saint John, 01518 Antigua, Antigua and Barbuda"
    },
    {
      "lat": 17.135758452465357,
      "lon": -61.81424422125627,
      "geoinfo": {
        "display_name": "Cedar Valley Gardens, St. John's, Saint John, Antigua, Antigua and Barbuda",
        "road": null,
        "house_number": null,
        "neighbourhood": "Cedar Valley Gardens",
        "suburb": null,
        "city_district": null,
        "city": "St. John's",
        "state": "Antigua",
        "postcode": null,
        "country": "Antigua and Barbuda",
        "country_code": "ag"
      },
      "address": "162, Cedar Valley Gardens, St. John's, Saint John, 00308 Antigua, Antigua and Barbuda"
    },
    {
      "lat": 17.134878032661394,
      "lon": -61.83724819774462,
      "geoinfo": {
        "display_name": "Brysons, Friars Hill Road, St. John's, Saint John, Antigua, Antigua and Barbuda",
        "road": "Friars Hill Road",
        "house_number": null,
        "neighbourhood": null,
        "suburb": null,
        "city_district": null,
        "city": "St. John's",
        "state": "Antigua",
        "postcode": null,
        "country": "Antigua and Barbuda",
        "country_code": "ag"
      },
      "address": "091, Friars Hill Road, Saint John’s, 18909 Antigua, Antigua and Barbuda"
    },
    {
      "lat": 17.095361088926456,
      "lon": -61.87530670605174,
      "geoinfo": {
        "display_name": "Cooks Dump Road, St. John's, Saint John, Antigua, Antigua and Barbuda",
        "road": "Cooks Dump Road",
        "house_number": null,
        "neighbourhood": null,
        "suburb": null,
        "city_district": null,
        "city": "St. John's",
        "state": "Antigua",
        "postcode": null,
        "country": "Antigua and Barbuda",
        "country_code": "ag"
      },
      "address": "369, Cooks Dump Road, St. John's, Saint John, 82913 Antigua, Antigua and Barbuda"
    },
    {
      "lat": 17.130444238179106,
      "lon": -61.80247315589617,
      "geoinfo": {
        "display_name": "07, Sir George Walter Highway, Potters Village, Saint George, Antigua, Antigua and Barbuda",
        "road": "Sir George Walter Highway",
        "house_number": null,
        "neighbourhood": null,
        "suburb": null,
        "city_district": null,
        "city": "Potters Village",
        "state": "Antigua",
        "postcode": null,
        "country": "Antigua and Barbuda",
        "country_code": "ag"
      },
      "address": "07, Sir George Walter Highway, Potters Village, Saint George, 42635 Antigua, Antigua and Barbuda"
    },
    {
      "lat": 17.103841960507438,
      "lon": -61.86363258961745,
      "geoinfo": {
        "display_name": "St. John's, Saint John, Antigua, Antigua and Barbuda",
        "road": null,
        "house_number": null,
        "neighbourhood": null,
        "suburb": null,
        "city_district": null,
        "city": "St. John's",
        "state": "Antigua",
        "postcode": null,
        "country": "Antigua and Barbuda",
        "country_code": "ag"
      },
      "address": "987, St. John's, Saint John, 15226 Antigua, Antigua and Barbuda"
    },
    {
      "lat": 17.120940947938593,
      "lon": -61.864660755645595,
      "geoinfo": {
        "display_name": "Yepton Road, St. John's, Saint John, Antigua, Antigua and Barbuda",
        "road": "Yepton Road",
        "house_number": null,
        "neighbourhood": null,
        "suburb": null,
        "city_district": null,
        "city": "St. John's",
        "state": "Antigua",
        "postcode": null,
        "country": "Antigua and Barbuda",
        "country_code": "ag"
      },
      "address": "966, Yepton Road, St. John's, Saint John, 04913 Antigua, Antigua and Barbuda"
    },
    {
      "lat": 17.13088092966192,
      "lon": -61.86725712043847,
      "geoinfo": {
        "display_name": "Fort James, Fort Road, St. John's, Saint John, Antigua, Antigua and Barbuda",
        "road": "Fort Road",
        "house_number": null,
        "neighbourhood": null,
        "suburb": null,
        "city_district": null,
        "city": "St. John's",
        "state": "Antigua",
        "postcode": null,
        "country": "Antigua and Barbuda",
        "country_code": "ag"
      },
      "address": "305, Fort Road, Saint John’s, 15196 Antigua, Antigua and Barbuda"
    },
    {
      "lat": 17.15127734457978,
      "lon": -61.851618780847026,
      "geoinfo": {
        "display_name": "Casino Riviera, Fort Road, St. John's, Saint John, Antigua, Antigua and Barbuda",
        "road": "Fort Road",
        "house_number": null,
        "neighbourhood": null,
        "suburb": null,
        "city_district": null,
        "city": "St. John's",
        "state": "Antigua",
        "postcode": null,
        "country": "Antigua and Barbuda",
        "country_code": "ag"
      },
      "address": "172, Fort Road, Saint John’s, 40027 Antigua, Antigua and Barbuda"
    },
    {
      "lat": 17.1252347712662,
      "lon": -61.84564927255317,
      "geoinfo": {
        "display_name": "St. John's Street, Booby Lane, St. John's, Saint John, Antigua, Antigua and Barbuda",
        "road": "St. John's Street",
        "house_number": null,
        "neighbourhood": null,
        "suburb": null,
        "city_district": null,
        "city": "St. John's",
        "state": "Antigua",
        "postcode": null,
        "country": "Antigua and Barbuda",
        "country_code": "ag"
      },
      "address": "579, St. John's Street, Booby Lane, St. John's, Saint John, 76052 Antigua, Antigua and Barbuda"
    },
    {
      "lat": 17.107544620785898,
      "lon": -61.87216123193234,
      "geoinfo": {
        "display_name": "Cooks Dump Road, St. John's, Saint John, Antigua, Antigua and Barbuda",
        "road": "Cooks Dump Road",
        "house_number": null,
        "neighbourhood": null,
        "suburb": null,
        "city_district": null,
        "city": "St. John's",
        "state": "Antigua",
        "postcode": null,
        "country": "Antigua and Barbuda",
        "country_code": "ag"
      },
      "address": "186, Cooks Dump Road, St. John's, Saint John, 01403 Antigua, Antigua and Barbuda"
    },
    {
      "lat": 17.117301522993326,
      "lon": -61.81905966899024,
      "geoinfo": {
        "display_name": "Factory Road, Potters Village, Saint John, Antigua, Antigua and Barbuda",
        "road": "Factory Road",
        "house_number": null,
        "neighbourhood": null,
        "suburb": null,
        "city_district": null,
        "city": "Potters Village",
        "state": "Antigua",
        "postcode": null,
        "country": "Antigua and Barbuda",
        "country_code": "ag"
      },
      "address": "457, Factory Road, Potters Village, Saint John, 31439 Antigua, Antigua and Barbuda"
    },
    {
      "lat": 17.107373372348917,
      "lon": -61.8713325299587,
      "geoinfo": {
        "display_name": "Cooks Dump Road, St. John's, Saint John, Antigua, Antigua and Barbuda",
        "road": "Cooks Dump Road",
        "house_number": null,
        "neighbourhood": null,
        "suburb": null,
        "city_district": null,
        "city": "St. John's",
        "state": "Antigua",
        "postcode": null,
        "country": "Antigua and Barbuda",
        "country_code": "ag"
      },
      "address": "638, Cooks Dump Road, St. John's, Saint John, 14524 Antigua, Antigua and Barbuda"
    },
    {
      "lat": 17.15277910933469,
      "lon": -61.82463705182174,
      "geoinfo": {
        "display_name": "Santa Maria Crescent, Cedar Grove, Saint John, Antigua, Antigua and Barbuda",
        "road": "Santa Maria Crescent",
        "house_number": null,
        "neighbourhood": null,
        "suburb": null,
        "city_district": null,
        "city": "Cedar Grove",
        "state": "Antigua",
        "postcode": null,
        "country": "Antigua and Barbuda",
        "country_code": "ag"
      },
      "address": "219, Santa Maria Crescent, Cedar Grove, Saint John, 42334 Antigua, Antigua and Barbuda"
    },
    {
      "lat": 17.101963162083763,
      "lon": -61.87627686506225,
      "geoinfo": {
        "display_name": "Cooks Dump, St. John's, Saint John, Antigua, Antigua and Barbuda",
        "road": null,
        "house_number": null,
        "neighbourhood": null,
        "suburb": null,
        "city_district": null,
        "city": "St. John's",
        "state": "Antigua",
        "postcode": null,
        "country": "Antigua and Barbuda",
        "country_code": "ag"
      },
      "address": "543, Cooks Dump, St. John's, Saint John, 97637 Antigua, Antigua and Barbuda"
    },
    {
      "lat": 17.097708424228074,
      "lon": -61.82768294628838,
      "geoinfo": {
        "display_name": "St. John's, Saint John, Antigua, Antigua and Barbuda",
        "road": null,
        "house_number": null,
        "neighbourhood": null,
        "suburb": null,
        "city_district": null,
        "city": "St. John's",
        "state": "Antigua",
        "postcode": null,
        "country": "Antigua and Barbuda",
        "country_code": "ag"
      },
      "address": "055, St. John's, Saint John, 63657 Antigua, Antigua and Barbuda"
    },
    {
      "lat": 17.1410879752136,
      "lon": -61.87539458285659,
      "geoinfo": {
        "display_name": "Highaway Bay, St. John's, Saint John, Antigua, Antigua and Barbuda",
        "road": null,
        "house_number": null,
        "neighbourhood": null,
        "suburb": null,
        "city_district": null,
        "city": "St. John's",
        "state": "Antigua",
        "postcode": null,
        "country": "Antigua and Barbuda",
        "country_code": "ag"
      },
      "address": "584, Highaway Bay, St. John's, Saint John, 12302 Antigua, Antigua and Barbuda"
    },
    {
      "lat": 17.120064918259434,
      "lon": -61.8206295093193,
      "geoinfo": {
        "display_name": "St. John's, Saint John, Antigua, Antigua and Barbuda",
        "road": null,
        "house_number": null,
        "neighbourhood": null,
        "suburb": null,
        "city_district": null,
        "city": "St. John's",
        "state": "Antigua",
        "postcode": null,
        "country": "Antigua and Barbuda",
        "country_code": "ag"
      },
      "address": "209, St. John's, Saint John, 03200 Antigua, Antigua and Barbuda"
    },
    {
      "lat": 17.088126619738816,
      "lon": -61.86409988324319,
      "geoinfo": {
        "display_name": "Jennings, Saint Mary, Antigua, Antigua and Barbuda",
        "road": null,
        "house_number": null,
        "neighbourhood": null,
        "suburb": null,
        "city_district": null,
        "city": "Jennings",
        "state": "Antigua",
        "postcode": null,
        "country": "Antigua and Barbuda",
        "country_code": "ag"
      },
      "address": "568, Jennings, Saint Mary, 57114 Antigua, Antigua and Barbuda"
    },
    {
      "lat": 17.102711124660186,
      "lon": -61.872805241070495,
      "geoinfo": {
        "display_name": "Jennings, Saint Mary, Antigua, Antigua and Barbuda",
        "road": null,
        "house_number": null,
        "neighbourhood": null,
        "suburb": null,
        "city_district": null,
        "city": "Jennings",
        "state": "Antigua",
        "postcode": null,
        "country": "Antigua and Barbuda",
        "country_code": "ag"
      },
      "address": "233, Jennings, Saint Mary, 74656 Antigua, Antigua and Barbuda"
    },
    {
      "lat": 17.09486124041228,
      "lon": -61.84534345014849,
      "geoinfo": {
        "display_name": "Saint Mary, Antigua, Antigua and Barbuda",
        "road": null,
        "house_number": null,
        "neighbourhood": null,
        "suburb": null,
        "city_district": null,
        "city": null,
        "state": "Antigua",
        "postcode": null,
        "country": "Antigua and Barbuda",
        "country_code": "ag"
      },
      "address": "965, Saint John’s, 27184 Antigua, Antigua and Barbuda"
    },
    {
      "lat": 17.105493766713654,
      "lon": -61.79951182009115,
      "geoinfo": {
        "display_name": "Sea View Highway, Sea View Farm, Saint George, Antigua, Antigua and Barbuda",
        "road": "Sea View Highway",
        "house_number": null,
        "neighbourhood": null,
        "suburb": null,
        "city_district": null,
        "city": "Sea View Farm",
        "state": "Antigua",
        "postcode": null,
        "country": "Antigua and Barbuda",
        "country_code": "ag"
      },
      "address": "840, Sea View Highway, Sea View Farm, Saint George, 72202 Antigua, Antigua and Barbuda"
    },
    {
      "lat": 17.097160928527128,
      "lon": -61.84586699203806,
      "geoinfo": {
        "display_name": "Creek Side, Saint John, Antigua, Antigua and Barbuda",
        "road": null,
        "house_number": null,
        "neighbourhood": null,
        "suburb": null,
        "city_district": null,
        "city": "Creek Side",
        "state": "Antigua",
        "postcode": null,
        "country": "Antigua and Barbuda",
        "country_code": "ag"
      },
      "address": "953, Creek Side, Saint John, 75870 Antigua, Antigua and Barbuda"
    },
    {
      "lat": 17.112670410520245,
      "lon": -61.84759677580963,
      "geoinfo": {
        "display_name": "Federation Road, St. John's, Saint John, Antigua, Antigua and Barbuda",
        "road": "Federation Road",
        "house_number": null,
        "neighbourhood": null,
        "suburb": null,
        "city_district": null,
        "city": "St. John's",
        "state": "Antigua",
        "postcode": null,
        "country": "Antigua and Barbuda",
        "country_code": "ag"
      },
      "address": "362, Federation Road, St. John's, Saint John, 69310 Antigua, Antigua and Barbuda"
    },
    {
      "lat": 17.10999507986697,
      "lon": -61.82016844433736,
      "geoinfo": {
        "display_name": "Potters Village, Saint John, Antigua, Antigua and Barbuda",
        "road": null,
        "house_number": null,
        "neighbourhood": null,
        "suburb": null,
        "city_district": null,
        "city": "Potters Village",
        "state": "Antigua",
        "postcode": null,
        "country": "Antigua and Barbuda",
        "country_code": "ag"
      },
      "address": "095, Potters Village, Saint John, 05892 Antigua, Antigua and Barbuda"
    },
    {
      "lat": 17.11886204969935,
      "lon": -61.84894481915575,
      "geoinfo": {
        "display_name": "Perry Bay Road, St. John's, Saint John, Antigua, Antigua and Barbuda",
        "road": "Perry Bay Road",
        "house_number": null,
        "neighbourhood": null,
        "suburb": null,
        "city_district": null,
        "city": "St. John's",
        "state": "Antigua",
        "postcode": null,
        "country": "Antigua and Barbuda",
        "country_code": "ag"
      },
      "address": "057, Perry Bay Road, St. John's, Saint John, 97940 Antigua, Antigua and Barbuda"
    },
    {
      "lat": 17.08581663420135,
      "lon": -61.86027148740914,
      "geoinfo": {
        "display_name": "Ebenezer Service Station, Valley Road, Bolans, Saint Mary, Antigua, Antigua and Barbuda",
        "road": "Valley Road",
        "house_number": null,
        "neighbourhood": null,
        "suburb": null,
        "city_district": null,
        "city": "Bolans",
        "state": "Antigua",
        "postcode": null,
        "country": "Antigua and Barbuda",
        "country_code": "ag"
      },
      "address": "690, Valley Road, Saint John’s, 39580 Antigua, Antigua and Barbuda"
    },
    {
      "lat": 17.122935497812822,
      "lon": -61.86010964374054,
      "geoinfo": {
        "display_name": "St. John's, Saint John, Antigua, Antigua and Barbuda",
        "road": null,
        "house_number": null,
        "neighbourhood": null,
        "suburb": null,
        "city_district": null,
        "city": "St. John's",
        "state": "Antigua",
        "postcode": null,
        "country": "Antigua and Barbuda",
        "country_code": "ag"
      },
      "address": "105, St. John's, Saint John, 63153 Antigua, Antigua and Barbuda"
    },
    {
      "lat": 17.136379861131203,
      "lon": -61.875352594233114,
      "geoinfo": {
        "display_name": "Highaway Bay, St. John's, Saint John, Antigua, Antigua and Barbuda",
        "road": null,
        "house_number": null,
        "neighbourhood": null,
        "suburb": null,
        "city_district": null,
        "city": "St. John's",
        "state": "Antigua",
        "postcode": null,
        "country": "Antigua and Barbuda",
        "country_code": "ag"
      },
      "address": "768, Highaway Bay, St. John's, Saint John, 53594 Antigua, Antigua and Barbuda"
    },
    {
      "lat": 17.08439548427472,
      "lon": -61.85135662261657,
      "geoinfo": {
        "display_name": "Bendals Road, Green Castle, Saint Mary, Antigua, Antigua and Barbuda",
        "road": "Bendals Road",
        "house_number": null,
        "neighbourhood": null,
        "suburb": null,
        "city_district": null,
        "city": "Green Castle",
        "state": "Antigua",
        "postcode": null,
        "country": "Antigua and Barbuda",
        "country_code": "ag"
      },
      "address": "501, Bendals Road, Green Castle, Saint Mary, 76551 Antigua, Antigua and Barbuda"
    },
    {
      "lat": 17.13457138851985,
      "lon": -61.87703226463801,
      "geoinfo": {
        "display_name": "Highaway Bay, St. John's, Saint John, Antigua, Antigua and Barbuda",
        "road": null,
        "house_number": null,
        "neighbourhood": null,
        "suburb": null,
        "city_district": null,
        "city": "St. John's",
        "state": "Antigua",
        "postcode": null,
        "country": "Antigua and Barbuda",
        "country_code": "ag"
      },
      "address": "104, Highaway Bay, St. John's, Saint John, 18665 Antigua, Antigua and Barbuda"
    },
    {
      "lat": 17.084170733241134,
      "lon": -61.845270661365994,
      "geoinfo": {
        "display_name": "Bendals Road, Green Castle, Saint Mary, Antigua, Antigua and Barbuda",
        "road": "Bendals Road",
        "house_number": null,
        "neighbourhood": null,
        "suburb": null,
        "city_district": null,
        "city": "Green Castle",
        "state": "Antigua",
        "postcode": null,
        "country": "Antigua and Barbuda",
        "country_code": "ag"
      },
      "address": "832, Bendals Road, Green Castle, Saint Mary, 41278 Antigua, Antigua and Barbuda"
    },
    {
      "lat": 17.09688331492937,
      "lon": -61.85930892985512,
      "geoinfo": {
        "display_name": "St. John's, Saint John, Antigua, Antigua and Barbuda",
        "road": null,
        "house_number": null,
        "neighbourhood": null,
        "suburb": null,
        "city_district": null,
        "city": "St. John's",
        "state": "Antigua",
        "postcode": null,
        "country": "Antigua and Barbuda",
        "country_code": "ag"
      },
      "address": "307, St. John's, Saint John, 07878 Antigua, Antigua and Barbuda"
    },
    {
      "lat": 17.116886770040956,
      "lon": -61.845128083713426,
      "geoinfo": {
        "display_name": "Perry Bay Road, St. John's, Saint John, Antigua, Antigua and Barbuda",
        "road": "Perry Bay Road",
        "house_number": null,
        "neighbourhood": null,
        "suburb": null,
        "city_district": null,
        "city": "St. John's",
        "state": "Antigua",
        "postcode": null,
        "country": "Antigua and Barbuda",
        "country_code": "ag"
      },
      "address": "162, Perry Bay Road, St. John's, Saint John, 66502 Antigua, Antigua and Barbuda"
    },
    {
      "lat": 17.11580661508885,
      "lon": -61.85146544011956,
      "geoinfo": {
        "display_name": "St. John's, Saint John, Antigua, Antigua and Barbuda",
        "road": null,
        "house_number": null,
        "neighbourhood": null,
        "suburb": null,
        "city_district": null,
        "city": "St. John's",
        "state": "Antigua",
        "postcode": null,
        "country": "Antigua and Barbuda",
        "country_code": "ag"
      },
      "address": "703, St. John's, Saint John, 00804 Antigua, Antigua and Barbuda"
    },
    {
      "lat": 17.157050719426845,
      "lon": -61.839773042480076,
      "geoinfo": {
        "display_name": "Fountain Hill Road, St. John's, Saint John, Antigua, Antigua and Barbuda",
        "road": "Fountain Hill Road",
        "house_number": null,
        "neighbourhood": null,
        "suburb": null,
        "city_district": null,
        "city": "St. John's",
        "state": "Antigua",
        "postcode": null,
        "country": "Antigua and Barbuda",
        "country_code": "ag"
      },
      "address": "189, Fountain Hill Road, St. John's, Saint John, 68743 Antigua, Antigua and Barbuda"
    },
    {
      "lat": 17.083039568732538,
      "lon": -61.866772943573835,
      "geoinfo": {
        "display_name": "Jennings, Saint Mary, Antigua, Antigua and Barbuda",
        "road": null,
        "house_number": null,
        "neighbourhood": null,
        "suburb": null,
        "city_district": null,
        "city": "Jennings",
        "state": "Antigua",
        "postcode": null,
        "country": "Antigua and Barbuda",
        "country_code": "ag"
      },
      "address": "729, Jennings, Saint Mary, 31958 Antigua, Antigua and Barbuda"
    },
    {
      "lat": 17.120160361775255,
      "lon": -61.830446186934154,
      "geoinfo": {
        "display_name": "St. John's, Saint John, Antigua, Antigua and Barbuda",
        "road": null,
        "house_number": null,
        "neighbourhood": null,
        "suburb": null,
        "city_district": null,
        "city": "St. John's",
        "state": "Antigua",
        "postcode": null,
        "country": "Antigua and Barbuda",
        "country_code": "ag"
      },
      "address": "596, St. John's, Saint John, 13349 Antigua, Antigua and Barbuda"
    },
    {
      "lat": 17.088288847573995,
      "lon": -61.82518426685235,
      "geoinfo": {
        "display_name": "Pineapple Crescent, St. John's, Saint John, Antigua, Antigua and Barbuda",
        "road": "Pineapple Crescent",
        "house_number": null,
        "neighbourhood": null,
        "suburb": null,
        "city_district": null,
        "city": "St. John's",
        "state": "Antigua",
        "postcode": null,
        "country": "Antigua and Barbuda",
        "country_code": "ag"
      },
      "address": "785, Pineapple Crescent, St. John's, Saint John, 46449 Antigua, Antigua and Barbuda"
    },
    {
      "lat": 17.15965973290613,
      "lon": -61.847024420425434,
      "geoinfo": {
        "display_name": "Tony's, Halcyon Road, St. John's, Saint John, Antigua, Antigua and Barbuda",
        "road": "Halcyon Road",
        "house_number": null,
        "neighbourhood": null,
        "suburb": null,
        "city_district": null,
        "city": "St. John's",
        "state": "Antigua",
        "postcode": null,
        "country": "Antigua and Barbuda",
        "country_code": "ag"
      },
      "address": "053, Halcyon Road, Saint John’s, 09970 Antigua, Antigua and Barbuda"
    },
    {
      "lat": 17.09129665160078,
      "lon": -61.84294245584971,
      "geoinfo": {
        "display_name": "Saint Mary, Antigua, Antigua and Barbuda",
        "road": null,
        "house_number": null,
        "neighbourhood": null,
        "suburb": null,
        "city_district": null,
        "city": null,
        "state": "Antigua",
        "postcode": null,
        "country": "Antigua and Barbuda",
        "country_code": "ag"
      },
      "address": "375, Saint John’s, 24961 Antigua, Antigua and Barbuda"
    },
    {
      "lat": 17.133202926995782,
      "lon": -61.87917741004993,
      "geoinfo": {
        "display_name": "Royal Antigua Hotel Drive, Five Islands, Saint John, Antigua, Antigua and Barbuda",
        "road": "Royal Antigua Hotel Drive",
        "house_number": null,
        "neighbourhood": null,
        "suburb": null,
        "city_district": null,
        "city": "Five Islands",
        "state": "Antigua",
        "postcode": null,
        "country": "Antigua and Barbuda",
        "country_code": "ag"
      },
      "address": "765, Royal Antigua Hotel Drive, Five Islands, Saint John, 35408 Antigua, Antigua and Barbuda"
    },
    {
      "lat": 17.15438277842961,
      "lon": -61.83643817486228,
      "geoinfo": {
        "display_name": "Pringle Street, St. John's, Saint John, Antigua, Antigua and Barbuda",
        "road": "Pringle Street",
        "house_number": null,
        "neighbourhood": null,
        "suburb": null,
        "city_district": null,
        "city": "St. John's",
        "state": "Antigua",
        "postcode": null,
        "country": "Antigua and Barbuda",
        "country_code": "ag"
      },
      "address": "940, Pringle Street, St. John's, Saint John, 20559 Antigua, Antigua and Barbuda"
    },
    {
      "lat": 17.161285084020673,
      "lon": -61.83986547583911,
      "geoinfo": {
        "display_name": "Blue Waters, Saint John, Antigua, Antigua and Barbuda",
        "road": null,
        "house_number": null,
        "neighbourhood": null,
        "suburb": null,
        "city_district": null,
        "city": "Blue Waters",
        "state": "Antigua",
        "postcode": null,
        "country": "Antigua and Barbuda",
        "country_code": "ag"
      },
      "address": "225, Blue Waters, Saint John, 10932 Antigua, Antigua and Barbuda"
    },
    {
      "lat": 17.14859714335719,
      "lon": -61.82955248241993,
      "geoinfo": {
        "display_name": "Friars Hill Road, St. John's, Saint John, Antigua, Antigua and Barbuda",
        "road": "Friars Hill Road",
        "house_number": null,
        "neighbourhood": null,
        "suburb": null,
        "city_district": null,
        "city": "St. John's",
        "state": "Antigua",
        "postcode": null,
        "country": "Antigua and Barbuda",
        "country_code": "ag"
      },
      "address": "581, Friars Hill Road, St. John's, Saint John, 74485 Antigua, Antigua and Barbuda"
    },
    {
      "lat": 17.11700380924304,
      "lon": -61.85346628553623,
      "geoinfo": {
        "display_name": "St. John's, Saint John, Antigua, Antigua and Barbuda",
        "road": null,
        "house_number": null,
        "neighbourhood": null,
        "suburb": null,
        "city_district": null,
        "city": "St. John's",
        "state": "Antigua",
        "postcode": null,
        "country": "Antigua and Barbuda",
        "country_code": "ag"
      },
      "address": "363, St. John's, Saint John, 14223 Antigua, Antigua and Barbuda"
    },
    {
      "lat": 17.14513840783579,
      "lon": -61.86625767963467,
      "geoinfo": {
        "display_name": "Five Islands, Saint John, Antigua, Antigua and Barbuda",
        "road": null,
        "house_number": null,
        "neighbourhood": null,
        "suburb": null,
        "city_district": null,
        "city": "Five Islands",
        "state": "Antigua",
        "postcode": null,
        "country": "Antigua and Barbuda",
        "country_code": "ag"
      },
      "address": "737, Five Islands, Saint John, 49036 Antigua, Antigua and Barbuda"
    },
    {
      "lat": 17.084570063856347,
      "lon": -61.82097093749736,
      "geoinfo": {
        "display_name": "Saint Clairs Estate Road, All Saints, Saint John, Antigua, Antigua and Barbuda",
        "road": "Saint Clairs Estate Road",
        "house_number": null,
        "neighbourhood": null,
        "suburb": null,
        "city_district": null,
        "city": "All Saints",
        "state": "Antigua",
        "postcode": null,
        "country": "Antigua and Barbuda",
        "country_code": "ag"
      },
      "address": "024, Saint Clairs Estate Road, All Saints, Saint John, 56752 Antigua, Antigua and Barbuda"
    },
    {
      "lat": 17.103735258047706,
      "lon": -61.87524493898427,
      "geoinfo": {
        "display_name": "Cooks Dump, St. John's, Saint John, Antigua, Antigua and Barbuda",
        "road": null,
        "house_number": null,
        "neighbourhood": null,
        "suburb": null,
        "city_district": null,
        "city": "St. John's",
        "state": "Antigua",
        "postcode": null,
        "country": "Antigua and Barbuda",
        "country_code": "ag"
      },
      "address": "409, Cooks Dump, St. John's, Saint John, 35107 Antigua, Antigua and Barbuda"
    },
    {
      "lat": 17.127289752049954,
      "lon": -61.80978021464994,
      "geoinfo": {
        "display_name": "Central Motor Pool, Old Parham Road, St. John's, Saint John, Antigua, Antigua and Barbuda",
        "road": "Old Parham Road",
        "house_number": null,
        "neighbourhood": null,
        "suburb": null,
        "city_district": null,
        "city": "St. John's",
        "state": "Antigua",
        "postcode": null,
        "country": "Antigua and Barbuda",
        "country_code": "ag"
      },
      "address": "357, Old Parham Road, Saint John’s, 27745 Antigua, Antigua and Barbuda"
    },
    {
      "lat": 17.154789276629337,
      "lon": -61.8628332961189,
      "geoinfo": {
        "display_name": "Weatherills Point, St. John's, Antigua, Antigua and Barbuda",
        "road": null,
        "house_number": null,
        "neighbourhood": null,
        "suburb": null,
        "city_district": null,
        "city": "St. John's",
        "state": "Antigua",
        "postcode": null,
        "country": "Antigua and Barbuda",
        "country_code": "ag"
      },
      "address": "691, Saint John’s, 56670 Antigua, Antigua and Barbuda"
    },
    {
      "lat": 17.14247137520377,
      "lon": -61.87078698751296,
      "geoinfo": {
        "display_name": "Highaway Bay, St. John's, Saint John, Antigua, Antigua and Barbuda",
        "road": null,
        "house_number": null,
        "neighbourhood": null,
        "suburb": null,
        "city_district": null,
        "city": "St. John's",
        "state": "Antigua",
        "postcode": null,
        "country": "Antigua and Barbuda",
        "country_code": "ag"
      },
      "address": "765, Highaway Bay, St. John's, Saint John, 89076 Antigua, Antigua and Barbuda"
    },
    {
      "lat": 17.08218007472476,
      "lon": -61.82157131279005,
      "geoinfo": {
        "display_name": "All Saints, Saint John, Antigua, Antigua and Barbuda",
        "road": null,
        "house_number": null,
        "neighbourhood": null,
        "suburb": null,
        "city_district": null,
        "city": "All Saints",
        "state": "Antigua",
        "postcode": null,
        "country": "Antigua and Barbuda",
        "country_code": "ag"
      },
      "address": "829, All Saints, Saint John, 24417 Antigua, Antigua and Barbuda"
    },
    {
      "lat": 17.150411760003916,
      "lon": -61.85861731736402,
      "geoinfo": {
        "display_name": "Lobster Shack, Fort Road, St. John's, Saint John, Antigua, Antigua and Barbuda",
        "road": "Fort Road",
        "house_number": null,
        "neighbourhood": null,
        "suburb": null,
        "city_district": null,
        "city": "St. John's",
        "state": "Antigua",
        "postcode": null,
        "country": "Antigua and Barbuda",
        "country_code": "ag"
      },
      "address": "557, Fort Road, Saint John’s, 53875 Antigua, Antigua and Barbuda"
    },
    {
      "lat": 17.112884993417616,
      "lon": -61.79942469459488,
      "geoinfo": {
        "display_name": "Charlie's Service Station, Sir Sidney Walling Highway, Gunthorpes, Saint George, Antigua, Antigua and Barbuda",
        "road": "Sir Sidney Walling Highway",
        "house_number": null,
        "neighbourhood": null,
        "suburb": null,
        "city_district": null,
        "city": "Gunthorpes",
        "state": "Antigua",
        "postcode": null,
        "country": "Antigua and Barbuda",
        "country_code": "ag"
      },
      "address": "822, Sir Sidney Walling Highway, Saint John’s, 70386 Antigua, Antigua and Barbuda"
    },
    {
      "lat": 17.1192337653794,
      "lon": -61.804626183769386,
      "geoinfo": {
        "display_name": "Sugarapple Drive, Piggotts, Saint George, Antigua, Antigua and Barbuda",
        "road": "Sugarapple Drive",
        "house_number": null,
        "neighbourhood": null,
        "suburb": null,
        "city_district": null,
        "city": "Piggotts",
        "state": "Antigua",
        "postcode": null,
        "country": "Antigua and Barbuda",
        "country_code": "ag"
      },
      "address": "109, Sugarapple Drive, Piggotts, Saint George, 60344 Antigua, Antigua and Barbuda"
    },
    {
      "lat": 17.132948037583546,
      "lon": -61.853851731324944,
      "geoinfo": {
        "display_name": "Bay Street, St. John's, Saint John, Antigua, Antigua and Barbuda",
        "road": "Bay Street",
        "house_number": null,
        "neighbourhood": null,
        "suburb": null,
        "city_district": null,
        "city": "St. John's",
        "state": "Antigua",
        "postcode": null,
        "country": "Antigua and Barbuda",
        "country_code": "ag"
      },
      "address": "569, Bay Street, St. John's, Saint John, 44050 Antigua, Antigua and Barbuda"
    },
    {
      "lat": 17.1111935928434,
      "lon": -61.85170626728744,
      "geoinfo": {
        "display_name": "St. John's, Saint John, Antigua, Antigua and Barbuda",
        "road": null,
        "house_number": null,
        "neighbourhood": null,
        "suburb": null,
        "city_district": null,
        "city": "St. John's",
        "state": "Antigua",
        "postcode": null,
        "country": "Antigua and Barbuda",
        "country_code": "ag"
      },
      "address": "123, St. John's, Saint John, 60123 Antigua, Antigua and Barbuda"
    },
    {
      "lat": 17.151920048148018,
      "lon": -61.82651368408085,
      "geoinfo": {
        "display_name": "Old Popeshead Road, St. John's, Saint John, Antigua, Antigua and Barbuda",
        "road": "Old Popeshead Road",
        "house_number": null,
        "neighbourhood": null,
        "suburb": null,
        "city_district": null,
        "city": "St. John's",
        "state": "Antigua",
        "postcode": null,
        "country": "Antigua and Barbuda",
        "country_code": "ag"
      },
      "address": "185, Old Popeshead Road, St. John's, Saint John, 16408 Antigua, Antigua and Barbuda"
    },
    {
      "lat": 17.129458239269756,
      "lon": -61.87506532125754,
      "geoinfo": {
        "display_name": "Dove Trail, St. John's, Saint John, Antigua, Antigua and Barbuda",
        "road": "Dove Trail",
        "house_number": null,
        "neighbourhood": null,
        "suburb": null,
        "city_district": null,
        "city": "St. John's",
        "state": "Antigua",
        "postcode": null,
        "country": "Antigua and Barbuda",
        "country_code": "ag"
      },
      "address": "916, Dove Trail, St. John's, Saint John, 28684 Antigua, Antigua and Barbuda"
    },
    {
      "lat": 17.129687235495133,
      "lon": -61.86150146295181,
      "geoinfo": {
        "display_name": "St. John's, Saint John, Antigua, Antigua and Barbuda",
        "road": null,
        "house_number": null,
        "neighbourhood": null,
        "suburb": null,
        "city_district": null,
        "city": "St. John's",
        "state": "Antigua",
        "postcode": null,
        "country": "Antigua and Barbuda",
        "country_code": "ag"
      },
      "address": "297, St. John's, Saint John, 02808 Antigua, Antigua and Barbuda"
    },
    {
      "lat": 17.091625538700065,
      "lon": -61.873742767034855,
      "geoinfo": {
        "display_name": "Cooks Dump Road, St. John's, Saint John, Antigua, Antigua and Barbuda",
        "road": "Cooks Dump Road",
        "house_number": null,
        "neighbourhood": null,
        "suburb": null,
        "city_district": null,
        "city": "St. John's",
        "state": "Antigua",
        "postcode": null,
        "country": "Antigua and Barbuda",
        "country_code": "ag"
      },
      "address": "038, Cooks Dump Road, St. John's, Saint John, 33094 Antigua, Antigua and Barbuda"
    },
    {
      "lat": 17.106654461197124,
      "lon": -61.870131388963216,
      "geoinfo": {
        "display_name": "Cooks Dump Road, St. John's, Saint John, Antigua, Antigua and Barbuda",
        "road": "Cooks Dump Road",
        "house_number": null,
        "neighbourhood": null,
        "suburb": null,
        "city_district": null,
        "city": "St. John's",
        "state": "Antigua",
        "postcode": null,
        "country": "Antigua and Barbuda",
        "country_code": "ag"
      },
      "address": "353, Cooks Dump Road, St. John's, Saint John, 23378 Antigua, Antigua and Barbuda"
    },
    {
      "lat": 17.141137755420687,
      "lon": -61.85680666481834,
      "geoinfo": {
        "display_name": "Fort Road, St. John's, Saint John, Antigua, Antigua and Barbuda",
        "road": "Fort Road",
        "house_number": null,
        "neighbourhood": null,
        "suburb": null,
        "city_district": null,
        "city": "St. John's",
        "state": "Antigua",
        "postcode": null,
        "country": "Antigua and Barbuda",
        "country_code": "ag"
      },
      "address": "171, Fort Road, St. John's, Saint John, 90212 Antigua, Antigua and Barbuda"
    },
    {
      "lat": 17.118594738866,
      "lon": -61.82216390204882,
      "geoinfo": {
        "display_name": "St. John's, Saint John, Antigua, Antigua and Barbuda",
        "road": null,
        "house_number": null,
        "neighbourhood": null,
        "suburb": null,
        "city_district": null,
        "city": "St. John's",
        "state": "Antigua",
        "postcode": null,
        "country": "Antigua and Barbuda",
        "country_code": "ag"
      },
      "address": "584, St. John's, Saint John, 82061 Antigua, Antigua and Barbuda"
    },
    {
      "lat": 17.12544065511581,
      "lon": -61.86179514272793,
      "geoinfo": {
        "display_name": "Dickenson Bay Street, Antigua & Barbuda Port Authority, St. John's, Saint John, Antigua, Antigua and Barbuda",
        "road": "Dickenson Bay Street",
        "house_number": null,
        "neighbourhood": null,
        "suburb": null,
        "city_district": null,
        "city": "St. John's",
        "state": "Antigua",
        "postcode": null,
        "country": "Antigua and Barbuda",
        "country_code": "ag"
      },
      "address": "557, Dickenson Bay Street, Antigua & Barbuda Port Authority, St. John's, Saint John, 23692 Antigua, Antigua and Barbuda"
    },
    {
      "lat": 17.09507502580362,
      "lon": -61.881027970292976,
      "geoinfo": {
        "display_name": "Cooks Dump, St. John's, Saint John, Antigua, Antigua and Barbuda",
        "road": null,
        "house_number": null,
        "neighbourhood": null,
        "suburb": null,
        "city_district": null,
        "city": "St. John's",
        "state": "Antigua",
        "postcode": null,
        "country": "Antigua and Barbuda",
        "country_code": "ag"
      },
      "address": "335, Cooks Dump, St. John's, Saint John, 98414 Antigua, Antigua and Barbuda"
    },
    {
      "lat": 17.07902034483335,
      "lon": -61.84461013469192,
      "geoinfo": {
        "display_name": "Bendals Road, Green Castle, Saint Mary, Antigua, Antigua and Barbuda",
        "road": "Bendals Road",
        "house_number": null,
        "neighbourhood": null,
        "suburb": null,
        "city_district": null,
        "city": "Green Castle",
        "state": "Antigua",
        "postcode": null,
        "country": "Antigua and Barbuda",
        "country_code": "ag"
      },
      "address": "705, Bendals Road, Green Castle, Saint Mary, 37225 Antigua, Antigua and Barbuda"
    },
    {
      "lat": 17.13826914444832,
      "lon": -61.81830897369635,
      "geoinfo": {
        "display_name": "Cedar Valley Gardens, St. John's, Saint John, Antigua, Antigua and Barbuda",
        "road": null,
        "house_number": null,
        "neighbourhood": "Cedar Valley Gardens",
        "suburb": null,
        "city_district": null,
        "city": "St. John's",
        "state": "Antigua",
        "postcode": null,
        "country": "Antigua and Barbuda",
        "country_code": "ag"
      },
      "address": "917, Cedar Valley Gardens, St. John's, Saint John, 91040 Antigua, Antigua and Barbuda"
    },
    {
      "lat": 17.10150333507895,
      "lon": -61.855215226869575,
      "geoinfo": {
        "display_name": "St. John's, Saint John, Antigua, Antigua and Barbuda",
        "road": null,
        "house_number": null,
        "neighbourhood": null,
        "suburb": null,
        "city_district": null,
        "city": "St. John's",
        "state": "Antigua",
        "postcode": null,
        "country": "Antigua and Barbuda",
        "country_code": "ag"
      },
      "address": "071, St. John's, Saint John, 70607 Antigua, Antigua and Barbuda"
    },
    {
      "lat": 17.15109436823434,
      "lon": -61.85577431488792,
      "geoinfo": {
        "display_name": "Rush, Fort Road, St. John's, Saint John, Antigua, Antigua and Barbuda",
        "road": "Fort Road",
        "house_number": null,
        "neighbourhood": null,
        "suburb": null,
        "city_district": null,
        "city": "St. John's",
        "state": "Antigua",
        "postcode": null,
        "country": "Antigua and Barbuda",
        "country_code": "ag"
      },
      "address": "018, Fort Road, Saint John’s, 34264 Antigua, Antigua and Barbuda"
    },
    {
      "lat": 17.131867699710906,
      "lon": -61.88701506849441,
      "geoinfo": {
        "display_name": "Fort Barrington, Galley Bay Heights, Five Islands, Saint John, Antigua, Antigua and Barbuda",
        "road": "Galley Bay Heights",
        "house_number": null,
        "neighbourhood": null,
        "suburb": null,
        "city_district": null,
        "city": "Five Islands",
        "state": "Antigua",
        "postcode": null,
        "country": "Antigua and Barbuda",
        "country_code": "ag"
      },
      "address": "139, Galley Bay Heights, Saint John’s, 54001 Antigua, Antigua and Barbuda"
    },
    {
      "lat": 17.09393742702773,
      "lon": -61.865004934931434,
      "geoinfo": {
        "display_name": "Hall Valley Farm, Ebenezer, Saint Mary, Antigua, Antigua and Barbuda",
        "road": null,
        "house_number": null,
        "neighbourhood": null,
        "suburb": null,
        "city_district": null,
        "city": "Ebenezer",
        "state": "Antigua",
        "postcode": null,
        "country": "Antigua and Barbuda",
        "country_code": "ag"
      },
      "address": "312, Hall Valley Farm, Ebenezer, Saint Mary, 10377 Antigua, Antigua and Barbuda"
    },
    {
      "lat": 17.08255724022337,
      "lon": -61.86280517038539,
      "geoinfo": {
        "display_name": "Ebenezer, Saint Mary, Antigua, Antigua and Barbuda",
        "road": null,
        "house_number": null,
        "neighbourhood": null,
        "suburb": null,
        "city_district": null,
        "city": "Ebenezer",
        "state": "Antigua",
        "postcode": null,
        "country": "Antigua and Barbuda",
        "country_code": "ag"
      },
      "address": "971, Ebenezer, Saint Mary, 67214 Antigua, Antigua and Barbuda"
    },
    {
      "lat": 17.129755194460696,
      "lon": -61.868126899091976,
      "geoinfo": {
        "display_name": "Fort James, Fort Road, St. John's, Saint John, Antigua, Antigua and Barbuda",
        "road": "Fort Road",
        "house_number": null,
        "neighbourhood": null,
        "suburb": null,
        "city_district": null,
        "city": "St. John's",
        "state": "Antigua",
        "postcode": null,
        "country": "Antigua and Barbuda",
        "country_code": "ag"
      },
      "address": "159, Fort Road, Saint John’s, 67154 Antigua, Antigua and Barbuda"
    },
    {
      "lat": 17.139927289201754,
      "lon": -61.809706128843914,
      "geoinfo": {
        "display_name": "Cedar Valley Gardens, Barnes Hill, Saint John, Antigua, Antigua and Barbuda",
        "road": null,
        "house_number": null,
        "neighbourhood": "Cedar Valley Gardens",
        "suburb": null,
        "city_district": null,
        "city": "Barnes Hill",
        "state": "Antigua",
        "postcode": null,
        "country": "Antigua and Barbuda",
        "country_code": "ag"
      },
      "address": "938, Cedar Valley Gardens, Barnes Hill, Saint John, 96772 Antigua, Antigua and Barbuda"
    },
    {
      "lat": 17.107239922015236,
      "lon": -61.86062268042447,
      "geoinfo": {
        "display_name": "St. John's, Saint John, Antigua, Antigua and Barbuda",
        "road": null,
        "house_number": null,
        "neighbourhood": null,
        "suburb": null,
        "city_district": null,
        "city": "St. John's",
        "state": "Antigua",
        "postcode": null,
        "country": "Antigua and Barbuda",
        "country_code": "ag"
      },
      "address": "558, St. John's, Saint John, 11755 Antigua, Antigua and Barbuda"
    },
    {
      "lat": 17.14146394949758,
      "lon": -61.817420700463174,
      "geoinfo": {
        "display_name": "Palm Drive, Cedar Valley Gardens, New Winthorpes, Saint John, Antigua, Antigua and Barbuda",
        "road": "Palm Drive",
        "house_number": null,
        "neighbourhood": "Cedar Valley Gardens",
        "suburb": null,
        "city_district": null,
        "city": "New Winthorpes",
        "state": "Antigua",
        "postcode": null,
        "country": "Antigua and Barbuda",
        "country_code": "ag"
      },
      "address": "091, Palm Drive, Cedar Valley Gardens, New Winthorpes, Saint John, 60903 Antigua, Antigua and Barbuda"
    },
    {
      "lat": 17.10315351130382,
      "lon": -61.81172187892623,
      "geoinfo": {
        "display_name": "Burning Flames Highway, Potters Village, Saint John, Antigua, Antigua and Barbuda",
        "road": "Burning Flames Highway",
        "house_number": null,
        "neighbourhood": null,
        "suburb": null,
        "city_district": null,
        "city": "Potters Village",
        "state": "Antigua",
        "postcode": null,
        "country": "Antigua and Barbuda",
        "country_code": "ag"
      },
      "address": "170, Burning Flames Highway, Potters Village, Saint John, 64954 Antigua, Antigua and Barbuda"
    },
    {
      "lat": 17.079214881245075,
      "lon": -61.837723957401806,
      "geoinfo": {
        "display_name": "Bendals Road, Bendals, Saint John, Antigua, Antigua and Barbuda",
        "road": "Bendals Road",
        "house_number": null,
        "neighbourhood": null,
        "suburb": null,
        "city_district": null,
        "city": "Bendals",
        "state": "Antigua",
        "postcode": null,
        "country": "Antigua and Barbuda",
        "country_code": "ag"
      },
      "address": "771, Bendals Road, Bendals, Saint John, 87581 Antigua, Antigua and Barbuda"
    },
    {
      "lat": 17.100641245160222,
      "lon": -61.8273446142164,
      "geoinfo": {
        "display_name": "St. John's, Saint John, Antigua, Antigua and Barbuda",
        "road": null,
        "house_number": null,
        "neighbourhood": null,
        "suburb": null,
        "city_district": null,
        "city": "St. John's",
        "state": "Antigua",
        "postcode": null,
        "country": "Antigua and Barbuda",
        "country_code": "ag"
      },
      "address": "080, St. John's, Saint John, 75782 Antigua, Antigua and Barbuda"
    },
    {
      "lat": 17.113099101342737,
      "lon": -61.86130443355161,
      "geoinfo": {
        "display_name": "St. John's, Saint John, Antigua, Antigua and Barbuda",
        "road": null,
        "house_number": null,
        "neighbourhood": null,
        "suburb": null,
        "city_district": null,
        "city": "St. John's",
        "state": "Antigua",
        "postcode": null,
        "country": "Antigua and Barbuda",
        "country_code": "ag"
      },
      "address": "787, St. John's, Saint John, 28186 Antigua, Antigua and Barbuda"
    },
    {
      "lat": 17.129145341424785,
      "lon": -61.820523758069825,
      "geoinfo": {
        "display_name": "St. John's, Saint John, Antigua, Antigua and Barbuda",
        "road": null,
        "house_number": null,
        "neighbourhood": null,
        "suburb": null,
        "city_district": null,
        "city": "St. John's",
        "state": "Antigua",
        "postcode": null,
        "country": "Antigua and Barbuda",
        "country_code": "ag"
      },
      "address": "911, St. John's, Saint John, 81772 Antigua, Antigua and Barbuda"
    },
    {
      "lat": 17.139315792397372,
      "lon": -61.849963887535225,
      "geoinfo": {
        "display_name": "St. John's, Saint John, Antigua, Antigua and Barbuda",
        "road": null,
        "house_number": null,
        "neighbourhood": null,
        "suburb": null,
        "city_district": null,
        "city": "St. John's",
        "state": "Antigua",
        "postcode": null,
        "country": "Antigua and Barbuda",
        "country_code": "ag"
      },
      "address": "379, St. John's, Saint John, 35570 Antigua, Antigua and Barbuda"
    },
    {
      "lat": 17.144908964732966,
      "lon": -61.85781568603858,
      "geoinfo": {
        "display_name": "Fort Road, St. John's, Saint John, Antigua, Antigua and Barbuda",
        "road": "Fort Road",
        "house_number": null,
        "neighbourhood": null,
        "suburb": null,
        "city_district": null,
        "city": "St. John's",
        "state": "Antigua",
        "postcode": null,
        "country": "Antigua and Barbuda",
        "country_code": "ag"
      },
      "address": "967, Fort Road, St. John's, Saint John, 18099 Antigua, Antigua and Barbuda"
    },
    {
      "lat": 17.164933271681363,
      "lon": -61.85010437207648,
      "geoinfo": {
        "display_name": "Warri Pier, Halcyon Road, St. John's, Saint John, Antigua, Antigua and Barbuda",
        "road": "Halcyon Road",
        "house_number": null,
        "neighbourhood": null,
        "suburb": null,
        "city_district": null,
        "city": "St. John's",
        "state": "Antigua",
        "postcode": null,
        "country": "Antigua and Barbuda",
        "country_code": "ag"
      },
      "address": "014, Halcyon Road, Saint John’s, 50851 Antigua, Antigua and Barbuda"
    },
    {
      "lat": 17.135048589270948,
      "lon": -61.87988058788236,
      "geoinfo": {
        "display_name": "Highaway Bay, St. John's, Saint John, Antigua, Antigua and Barbuda",
        "road": null,
        "house_number": null,
        "neighbourhood": null,
        "suburb": null,
        "city_district": null,
        "city": "St. John's",
        "state": "Antigua",
        "postcode": null,
        "country": "Antigua and Barbuda",
        "country_code": "ag"
      },
      "address": "959, Highaway Bay, St. John's, Saint John, 52350 Antigua, Antigua and Barbuda"
    },
    {
      "lat": 17.10318388973081,
      "lon": -61.85588762614083,
      "geoinfo": {
        "display_name": "Seafood Road, St. John's, Saint John, Antigua, Antigua and Barbuda",
        "road": "Seafood Road",
        "house_number": null,
        "neighbourhood": null,
        "suburb": null,
        "city_district": null,
        "city": "St. John's",
        "state": "Antigua",
        "postcode": null,
        "country": "Antigua and Barbuda",
        "country_code": "ag"
      },
      "address": "019, Seafood Road, St. John's, Saint John, 56539 Antigua, Antigua and Barbuda"
    },
    {
      "lat": 17.117558888519458,
      "lon": -61.88581026746262,
      "geoinfo": {
        "display_name": "Five Islands, Saint John, Antigua, Antigua and Barbuda",
        "road": null,
        "house_number": null,
        "neighbourhood": null,
        "suburb": null,
        "city_district": null,
        "city": "Five Islands",
        "state": "Antigua",
        "postcode": null,
        "country": "Antigua and Barbuda",
        "country_code": "ag"
      },
      "address": "034, Five Islands, Saint John, 69921 Antigua, Antigua and Barbuda"
    },
    {
      "lat": 17.094292246067827,
      "lon": -61.85556060331309,
      "geoinfo": {
        "display_name": "Valley Road, Bolans, Saint Mary, Antigua, Antigua and Barbuda",
        "road": "Valley Road",
        "house_number": null,
        "neighbourhood": null,
        "suburb": null,
        "city_district": null,
        "city": "Bolans",
        "state": "Antigua",
        "postcode": null,
        "country": "Antigua and Barbuda",
        "country_code": "ag"
      },
      "address": "769, Valley Road, Bolans, Saint Mary, 78601 Antigua, Antigua and Barbuda"
    },
    {
      "lat": 17.108704121180953,
      "lon": -61.80409933230429,
      "geoinfo": {
        "display_name": "St. John's, Saint John, Antigua, Antigua and Barbuda",
        "road": null,
        "house_number": null,
        "neighbourhood": null,
        "suburb": null,
        "city_district": null,
        "city": "St. John's",
        "state": "Antigua",
        "postcode": null,
        "country": "Antigua and Barbuda",
        "country_code": "ag"
      },
      "address": "426, St. John's, Saint John, 11927 Antigua, Antigua and Barbuda"
    },
    {
      "lat": 17.153646600880258,
      "lon": -61.872968748731836,
      "geoinfo": {
        "display_name": "Five Islands, Saint John, Antigua, Antigua and Barbuda",
        "road": null,
        "house_number": null,
        "neighbourhood": null,
        "suburb": null,
        "city_district": null,
        "city": "Five Islands",
        "state": "Antigua",
        "postcode": null,
        "country": "Antigua and Barbuda",
        "country_code": "ag"
      },
      "address": "118, Five Islands, Saint John, 74158 Antigua, Antigua and Barbuda"
    },
    {
      "lat": 17.143946728523062,
      "lon": -61.83811083358863,
      "geoinfo": {
        "display_name": "West Indies Oil Road, St. John's, Saint John, Antigua, Antigua and Barbuda",
        "road": "West Indies Oil Road",
        "house_number": null,
        "neighbourhood": null,
        "suburb": null,
        "city_district": null,
        "city": "St. John's",
        "state": "Antigua",
        "postcode": null,
        "country": "Antigua and Barbuda",
        "country_code": "ag"
      },
      "address": "018, West Indies Oil Road, St. John's, Saint John, 04358 Antigua, Antigua and Barbuda"
    },
    {
      "lat": 17.145709597760025,
      "lon": -61.84328638237615,
      "geoinfo": {
        "display_name": "Evanson Road, St. John's, Saint John, Antigua, Antigua and Barbuda",
        "road": "Evanson Road",
        "house_number": null,
        "neighbourhood": null,
        "suburb": null,
        "city_district": null,
        "city": "St. John's",
        "state": "Antigua",
        "postcode": null,
        "country": "Antigua and Barbuda",
        "country_code": "ag"
      },
      "address": "026, Evanson Road, St. John's, Saint John, 20818 Antigua, Antigua and Barbuda"
    },
    {
      "lat": 17.133572516933743,
      "lon": -61.82489860600803,
      "geoinfo": {
        "display_name": "St. John's, Saint John, Antigua, Antigua and Barbuda",
        "road": null,
        "house_number": null,
        "neighbourhood": null,
        "suburb": null,
        "city_district": null,
        "city": "St. John's",
        "state": "Antigua",
        "postcode": null,
        "country": "Antigua and Barbuda",
        "country_code": "ag"
      },
      "address": "109, St. John's, Saint John, 28862 Antigua, Antigua and Barbuda"
    },
    {
      "lat": 17.150188620121256,
      "lon": -61.84996736088728,
      "geoinfo": {
        "display_name": "Casino Riviera, Fort Road, St. John's, Saint John, Antigua, Antigua and Barbuda",
        "road": "Fort Road",
        "house_number": null,
        "neighbourhood": null,
        "suburb": null,
        "city_district": null,
        "city": "St. John's",
        "state": "Antigua",
        "postcode": null,
        "country": "Antigua and Barbuda",
        "country_code": "ag"
      },
      "address": "586, Fort Road, Saint John’s, 32588 Antigua, Antigua and Barbuda"
    }
  ],
  "updated_at": "2025-10-19T02:44:49.546005+00:00",
  "_kind": "geo_samples"
}