{
  "country_code": "GL",
  "country": "Greenland",
  "city": "Nuuk",
  "geonameid": 3421319,
  "target_addresses": 100,
  "samples": [
    {
      "lat": 64.18062681355951,
      "lon": -51.64883802365586,
      "geoinfo": {
        "display_name": "Orange route, Paarnarissoq, Nuuk, Sermersooq, Greenland",
        "road": "Orange route",
        "house_number": null,
        "neighbourhood": "Paarnarissoq",
        "suburb": null,
        "city_district": null,
        "city": "Nuuk",
        "state": null,
        "postcode": null,
        "country": "Greenland",
        "country_code": "gl"
      },
      "address": "Orange route, Nuuk, Greenland"
    },
    {
      "lat": 64.19249067416847,
      "lon": -51.63469767989028,
      "geoinfo": {
        "display_name": "Nuuk, Sermersooq, 3900, Greenland",
        "road": null,
        "house_number": null,
        "neighbourhood": null,
        "suburb": null,
        "city_district": null,
        "city": "Nuuk",
        "state": null,
        "postcode": "3900",
        "country": "Greenland",
        "country_code": "gl"
      },
      "address": "Nuuk, Greenland"
    },
    {
      "lat": 64.20345966463923,
      "lon": -51.74340324300426,
      "geoinfo": {
        "display_name": "Nuuk Centrum, Nuuk, Sermersooq, 3900, Greenland",
        "road": null,
        "house_number": null,
        "neighbourhood": null,
        "suburb": "Nuuk Centrum",
        "city_district": null,
        "city": "Nuuk",
        "state": null,
        "postcode": "3900",
        "country": "Greenland",
        "country_code": "gl"
      },
      "address": "Nuuk Centrum, Nuuk, Greenland"
    },
    {
      "lat": 64.18809655170209,
      "lon": -51.72864052860338,
      "geoinfo": {
        "display_name": "12, Qernertunnguanut, Qernertunnguit, Nuuk, Sermersooq, 3900, Greenland",
        "road": "Qernertunnguanut",
        "house_number": "12",
        "neighbourhood": "Qernertunnguit",
        "suburb": null,
        "city_district": null,
        "city": "Nuuk",
        "state": null,
        "postcode": "3900",
        "country": "Greenland",
        "country_code": "gl"
      },
      "address": "12 Qernertunnguanut, Nuuk, Greenland"
    },
    {
      "lat": 64.20006969363371,
      "lon": -51.66901887241815,
      "geoinfo": {
        "display_name": "Nukappiakuluk, Nuuk, Sermersooq, 3905, Greenland",
        "road": null,
        "house_number": null,
        "neighbourhood": "Nukappiakuluk",
        "suburb": null,
        "city_district": null,
        "city": "Nuuk",
        "state": null,
        "postcode": "3905",
        "country": "Greenland",
        "country_code": "gl"
      },
      "address": "Nukappiakuluk, Nuuk, Greenland"
    },
    {
      "lat": 64.19723498606706,
      "lon": -51.73254140139061,
      "geoinfo": {
        "display_name": "Qernertunnguit, Nuuk, Sermersooq, 3900, Greenland",
        "road": null,
        "house_number": null,
        "neighbourhood": "Qernertunnguit",
        "suburb": null,
        "city_district": null,
        "city": "Nuuk",
        "state": null,
        "postcode": "3900",
        "country": "Greenland",
        "country_code": "gl"
      },
      "address": "Qernertunnguit, Nuuk, Greenland"
    },
    {
      "lat": 64.18333380322292,
      "lon": -51.70606996769683,
      "geoinfo": {
        "display_name": "6, Narsaviaq, Nuussuaq, Nuuk, Sermersooq, 3905, Greenland",
        "road": "Narsaviaq",
        "house_number": "6",
        "neighbourhood": null,
        "suburb": null,
        "city_district": null,
        "city": "Nuuk",
        "state": null,
        "postcode": "3905",
        "country": "Greenland",
        "country_code": "gl"
      },
      "address": "6 Narsaviaq, Nuuk, Greenland"
    },
    {
      "lat": 64.1664572025772,
      "lon": -51.67625100418541,
      "geoinfo": {
        "display_name": "Suloraq, Nuuk, Sermersooq, 3905, Greenland",
        "road": "Suloraq",
        "house_number": null,
        "neighbourhood": null,
        "suburb": null,
        "city_district": null,
        "city": "Nuuk",
        "state": null,
        "postcode": "3905",
        "country": "Greenland",
        "country_code": "gl"
      },
      "address": "Suloraq, Nuuk, Greenland"
    },
    {
      "lat": 64.19524766105376,
      "lon": -51.73696746383913,
      "geoinfo": {
        "display_name": "Imeqarfik, Nuuk Centrum, Nuuk, Sermersooq, 3900, Greenland",
        "road": null,
        "house_number": null,
        "neighbourhood": "Imeqarfik",
        "suburb": "Nuuk Centrum",
        "city_district": null,
        "city": "Nuuk",
        "state": null,
        "postcode": "3900",
        "country": "Greenland",
        "country_code": "gl"
      },
      "address": "Imeqarfik, Nuuk, Greenland"
    },
    {
      "lat": 64.1609488178138,
      "lon": -51.735991954470464,
      "geoinfo": {
        "display_name": "49, Jagtvej, Nuuk Centrum, Nuuk, Sermersooq, 3900, Greenland",
        "road": "Jagtvej",
        "house_number": "49",
        "neighbourhood": null,
        "suburb": "Nuuk Centrum",
        "city_district": null,
        "city": "Nuuk",
        "state": null,
        "postcode": "3900",
        "country": "Greenland",
        "country_code": "gl"
      },
      "address": "49 Jagtvej, Nuuk, Greenland"
    },
    {
      "lat": 64.1930922233308,
      "lon": -51.715453418915835,
      "geoinfo": {
        "display_name": "61, Kimmernat, Quassussuup Tungaa, Nuuk, Sermersooq, 3905, Greenland",
        "road": "Kimmernat",
        "house_number": "61",
        "neighbourhood": "Quassussuup Tungaa",
        "suburb": null,
        "city_district": null,
        "city": "Nuuk",
        "state": null,
        "postcode": "3905",
        "country": "Greenland",
        "country_code": "gl"
      },
      "address": "61 Kimmernat, Nuuk, Greenland"
    },
    {
      "lat": 64.16695033945936,
      "lon": -51.71033535123206,
      "geoinfo": {
        "display_name": "Qeqertanut, Nuuk Centrum, Nuuk, Sermersooq, 3905, Greenland",
        "road": "Qeqertanut",
        "house_number": null,
        "neighbourhood": null,
        "suburb": "Nuuk Centrum",
        "city_district": null,
        "city": "Nuuk",
        "state": null,
        "postcode": "3905",
        "country": "Greenland",
        "country_code": "gl"
      },
      "address": "Qeqertanut, Nuuk, Greenland"
    },
    {
      "lat": 64.18286427795663,
      "lon": -51.702729016251276,
      "geoinfo": {
        "display_name": "5, Qassuserfik, Nuussuaq, Nuuk, Sermersooq, 3905, Greenland",
        "road": "Qassuserfik",
        "house_number": "5",
        "neighbourhood": null,
        "suburb": null,
        "city_district": null,
        "city": "Nuuk",
        "state": null,
        "postcode": "3905",
        "country": "Greenland",
        "country_code": "gl"
      },
      "address": "5 Qassuserfik, Nuuk, Greenland"
    },
    {
      "lat": 64.16234867612752,
      "lon": -51.723655820230825,
      "geoinfo": {
        "display_name": "Polaroil, 3, Inussuk, Tuujuk, Nuuk Centrum, Nuuk, Sermersooq, 3900, Greenland",
        "road": "Inussuk",
        "house_number": "3",
        "neighbourhood": "Tuujuk",
        "suburb": "Nuuk Centrum",
        "city_district": null,
        "city": "Nuuk",
        "state": null,
        "postcode": "3900",
        "country": "Greenland",
        "country_code": "gl"
      },
      "address": "3 Inussuk, Nuuk, Greenland"
    },
    {
      "lat": 64.17843708821289,
      "lon": -51.661908237350694,
      "geoinfo": {
        "display_name": "7, Uiffak, Paarnarissoq, Nuuk, Sermersooq, 3905, Greenland",
        "road": "Uiffak",
        "house_number": "7",
        "neighbourhood": "Paarnarissoq",
        "suburb": null,
        "city_district": null,
        "city": "Nuuk",
        "state": null,
        "postcode": "3905",
        "country": "Greenland",
        "country_code": "gl"
      },
      "address": "7 Uiffak, Nuuk, Greenland"
    },
    {
      "lat": 64.16852022516605,
      "lon": -51.67848030992023,
      "geoinfo": {
        "display_name": "2, Igimaq, Innartalik, Nuuk, Sermersooq, 3905, Greenland",
        "road": "Igimaq",
        "house_number": "2",
        "neighbourhood": "Innartalik",
        "suburb": null,
        "city_district": null,
        "city": "Nuuk",
        "state": null,
        "postcode": "3905",
        "country": "Greenland",
        "country_code": "gl"
      },
      "address": "2 Igimaq, Nuuk, Greenland"
    },
    {
      "lat": 64.162860373943,
      "lon": -51.68177772915176,
      "geoinfo": {
        "display_name": "Aqqusineq Dronning Margrethe II, Ningitsivik, Nuuk, Sermersooq, 3905, Greenland",
        "road": "Aqqusineq Dronning Margrethe II",
        "house_number": null,
        "neighbourhood": "Ningitsivik",
        "suburb": null,
        "city_district": null,
        "city": "Nuuk",
        "state": null,
        "postcode": "3905",
        "country": "Greenland",
        "country_code": "gl"
      },
      "address": "Aqqusineq Dronning Margrethe II, Nuuk, Greenland"
    },
    {
      "lat": 64.15561335113537,
      "lon": -51.756524590493754,
      "geoinfo": {
        "display_name": "Qapiarfiusaaq, Nuuk Centrum, Nuuk, Sermersooq, 3900, Greenland",
        "road": null,
        "house_number": null,
        "neighbourhood": "Qapiarfiusaaq",
        "suburb": "Nuuk Centrum",
        "city_district": null,
        "city": "Nuuk",
        "state": null,
        "postcode": "3900",
        "country": "Greenland",
        "country_code": "gl"
      },
      "address": "Qapiarfiusaaq, Nuuk, Greenland"
    },
    {
      "lat": 64.18345696194766,
      "lon": -51.65642488170402,
      "geoinfo": {
        "display_name": "Paarnarissoq, Nuuk, Sermersooq, 3905, Greenland",
        "road": null,
        "house_number": null,
        "neighbourhood": "Paarnarissoq",
        "suburb": null,
        "city_district": null,
        "city": "Nuuk",
        "state": null,
        "postcode": "3905",
        "country": "Greenland",
        "country_code": "gl"
      },
      "address": "Paarnarissoq, Nuuk, Greenland"
    },
    {
      "lat": 64.20632628288966,
      "lon": -51.71691149093491,
      "geoinfo": {
        "display_name": "Quassussuup Tungaa, Nuuk, Sermersooq, 3905, Greenland",
        "road": null,
        "house_number": null,
        "neighbourhood": "Quassussuup Tungaa",
        "suburb": null,
        "city_district": null,
        "city": "Nuuk",
        "state": null,
        "postcode": "3905",
        "country": "Greenland",
        "country_code": "gl"
      },
      "address": "Quassussuup Tungaa, Nuuk, Greenland"
    },
    {
      "lat": 64.1867217181981,
      "lon": -51.707587797914854,
      "geoinfo": {
        "display_name": "Nuniaffik, Nuussuaq, Nuuk, Sermersooq, 3905, Greenland",
        "road": "Nuniaffik",
        "house_number": null,
        "neighbourhood": null,
        "suburb": null,
        "city_district": null,
        "city": "Nuuk",
        "state": null,
        "postcode": "3905",
        "country": "Greenland",
        "country_code": "gl"
      },
      "address": "Nuniaffik, Nuuk, Greenland"
    },
    {
      "lat": 64.18026744570518,
      "lon": -51.72006034320661,
      "geoinfo": {
        "display_name": "15, Industrivej, Inussussuaq, Nuuk Centrum, Nuuk, Sermersooq, 3900, Greenland",
        "road": "Industrivej",
        "house_number": "15",
        "neighbourhood": "Inussussuaq",
        "suburb": "Nuuk Centrum",
        "city_district": null,
        "city": "Nuuk",
        "state": null,
        "postcode": "3900",
        "country": "Greenland",
        "country_code": "gl"
      },
      "address": "15 Industrivej, Nuuk, Greenland"
    },
    {
      "lat": 64.18456155500763,
      "lon": -51.66658806980682,
      "geoinfo": {
        "display_name": "Sisorarfiit Skiliften, Aqisseqarajooq, Nukappiakuluk, Nuuk, Sermersooq, 3905, Greenland",
        "road": "Aqisseqarajooq",
        "house_number": null,
        "neighbourhood": "Nukappiakuluk",
        "suburb": null,
        "city_district": null,
        "city": "Nuuk",
        "state": null,
        "postcode": "3905",
        "country": "Greenland",
        "country_code": "gl"
      },
      "address": "Aqisseqarajooq, Nuuk, Greenland"
    },
    {
      "lat": 64.201123769888,
      "lon": -51.72175091011442,
      "geoinfo": {
        "display_name": "Qaurunnguaq, Nuuk, Sermersooq, 3905, Greenland",
        "road": null,
        "house_number": null,
        "neighbourhood": "Qaurunnguaq",
        "suburb": null,
        "city_district": null,
        "city": "Nuuk",
        "state": null,
        "postcode": "3905",
        "country": "Greenland",
        "country_code": "gl"
      },
      "address": "Qaurunnguaq, Nuuk, Greenland"
    },
    {
      "lat": 64.17581015783603,
      "lon": -51.6597246572553,
      "geoinfo": {
        "display_name": "17, Uiffak, Paarnarissoq, Nuuk, Sermersooq, 3905, Greenland",
        "road": "Uiffak",
        "house_number": "17",
        "neighbourhood": "Paarnarissoq",
        "suburb": null,
        "city_district": null,
        "city": "Nuuk",
        "state": null,
        "postcode": "3905",
        "country": "Greenland",
        "country_code": "gl"
      },
      "address": "17 Uiffak, Nuuk, Greenland"
    },
    {
      "lat": 64.19209175925755,
      "lon": -51.74781679164918,
      "geoinfo": {
        "display_name": "Old Nuuk, Nuuk Centrum, Nuuk, Sermersooq, 3900, Greenland",
        "road": null,
        "house_number": null,
        "neighbourhood": "Old Nuuk",
        "suburb": "Nuuk Centrum",
        "city_district": null,
        "city": "Nuuk",
        "state": null,
        "postcode": "3900",
        "country": "Greenland",
        "country_code": "gl"
      },
      "address": "Old Nuuk, Nuuk, Greenland"
    },
    {
      "lat": 64.19401381537034,
      "lon": -51.72248031901417,
      "geoinfo": {
        "display_name": "Qernertunnguit Kangerluat, Inuk Hostels, Nuuk, Sermersooq, 3900, Greenland",
        "road": "Qernertunnguit Kangerluat",
        "house_number": null,
        "neighbourhood": null,
        "suburb": null,
        "city_district": null,
        "city": "Nuuk",
        "state": null,
        "postcode": "3900",
        "country": "Greenland",
        "country_code": "gl"
      },
      "address": "Qernertunnguit Kangerluat, Nuuk, Greenland"
    },
    {
      "lat": 64.15949185552108,
      "lon": -51.67641056824608,
      "geoinfo": {
        "display_name": "Naternanut, Naternaq, Nuuk, Sermersooq, 3905, Greenland",
        "road": "Naternanut",
        "house_number": null,
        "neighbourhood": "Naternaq",
        "suburb": null,
        "city_district": null,
        "city": "Nuuk",
        "state": null,
        "postcode": "3905",
        "country": "Greenland",
        "country_code": "gl"
      },
      "address": "Naternanut, Nuuk, Greenland"
    },
    {
      "lat": 64.15500418451616,
      "lon": -51.72831410432842,
      "geoinfo": {
        "display_name": "Tuujuk, Nuuk Centrum, Nuuk, Sermersooq, 3900, Greenland",
        "road": null,
        "house_number": null,
        "neighbourhood": "Tuujuk",
        "suburb": "Nuuk Centrum",
        "city_district": null,
        "city": "Nuuk",
        "state": null,
        "postcode": "3900",
        "country": "Greenland",
        "country_code": "gl"
      },
      "address": "Tuujuk, Nuuk, Greenland"
    },
    {
      "lat": 64.15296896995393,
      "lon": -51.67174484152683,
      "geoinfo": {
        "display_name": "Pinguaraq, Nuuk, Sermersooq, 3905, Greenland",
        "road": null,
        "house_number": null,
        "neighbourhood": "Pinguaraq",
        "suburb": null,
        "city_district": null,
        "city": "Nuuk",
        "state": null,
        "postcode": "3905",
        "country": "Greenland",
        "country_code": "gl"
      },
      "address": "Pinguaraq, Nuuk, Greenland"
    },
    {
      "lat": 64.1818905728243,
      "lon": -51.738321125605715,
      "geoinfo": {
        "display_name": "13, C. E Janssensvej, Imeqarfik, Nuuk Centrum, Nuuk, Sermersooq, 3900, Greenland",
        "road": "C. E Janssensvej",
        "house_number": "13",
        "neighbourhood": "Imeqarfik",
        "suburb": "Nuuk Centrum",
        "city_district": null,
        "city": "Nuuk",
        "state": null,
        "postcode": "3900",
        "country": "Greenland",
        "country_code": "gl"
      },
      "address": "13 C. E Janssensvej, Nuuk, Greenland"
    },
    {
      "lat": 64.17528370357175,
      "lon": -51.717035290907944,
      "geoinfo": {
        "display_name": "Sarfaannguit, Inussussuaq, Nuuk Centrum, Nuuk, Sermersooq, 3900, Greenland",
        "road": "Sarfaannguit",
        "house_number": null,
        "neighbourhood": "Inussussuaq",
        "suburb": "Nuuk Centrum",
        "city_district": null,
        "city": "Nuuk",
        "state": null,
        "postcode": "3900",
        "country": "Greenland",
        "country_code": "gl"
      },
      "address": "Sarfaannguit, Nuuk, Greenland"
    },
    {
      "lat": 64.15622988404954,
      "lon": -51.700203227041264,
      "geoinfo": {
        "display_name": "Mitsimavik, Nuuk, Sermersooq, 3905, Greenland",
        "road": null,
        "house_number": null,
        "neighbourhood": "Mitsimavik",
        "suburb": null,
        "city_district": null,
        "city": "Nuuk",
        "state": null,
        "postcode": "3905",
        "country": "Greenland",
        "country_code": "gl"
      },
      "address": "Mitsimavik, Nuuk, Greenland"
    },
    {
      "lat": 64.16837749219133,
      "lon": -51.68897795516896,
      "geoinfo": {
        "display_name": "Ningitsivik, Nuuk, Sermersooq, 3905, Greenland",
        "road": null,
        "house_number": null,
        "neighbourhood": "Ningitsivik",
        "suburb": null,
        "city_district": null,
        "city": "Nuuk",
        "state": null,
        "postcode": "3905",
        "country": "Greenland",
        "country_code": "gl"
      },
      "address": "Ningitsivik, Nuuk, Greenland"
    },
    {
      "lat": 64.19417330973235,
      "lon": -51.6782468027263,
      "geoinfo": {
        "display_name": "Nuuk Airport, Nukappiakuluk, Nuuk, Sermersooq, 3905, Greenland",
        "road": "Nuuk Airport",
        "house_number": null,
        "neighbourhood": "Nukappiakuluk",
        "suburb": null,
        "city_district": null,
        "city": "Nuuk",
        "state": null,
        "postcode": "3905",
        "country": "Greenland",
        "country_code": "gl"
      },
      "address": "Nuuk Airport, Nuuk, Greenland"
    },
    {
      "lat": 64.19547634569996,
      "lon": -51.705846795001925,
      "geoinfo": {
        "display_name": "Kakillarnat, Quassussuup Tungaa, Nuuk, Sermersooq, 3905, Greenland",
        "road": "Kakillarnat",
        "house_number": null,
        "neighbourhood": "Quassussuup Tungaa",
        "suburb": null,
        "city_district": null,
        "city": "Nuuk",
        "state": null,
        "postcode": "3905",
        "country": "Greenland",
        "country_code": "gl"
      },
      "address": "Kakillarnat, Nuuk, Greenland"
    },
    {
      "lat": 64.17956466558053,
      "lon": -51.752228030382696,
      "geoinfo": {
        "display_name": "1, Iisaajap Aqq., Old Nuuk, Nuuk Centrum, Nuuk, Sermersooq, 3900, Greenland",
        "road": "Iisaajap Aqq.",
        "house_number": "1",
        "neighbourhood": "Old Nuuk",
        "suburb": "Nuuk Centrum",
        "city_district": null,
        "city": "Nuuk",
        "state": null,
        "postcode": "3900",
        "country": "Greenland",
        "country_code": "gl"
      },
      "address": "1 Iisaajap Aqq., Nuuk, Greenland"
    },
    {
      "lat": 64.15417538668483,
      "lon": -51.695083912124424,
      "geoinfo": {
        "display_name": "Mitsimavik Vejen, Mitsimavik, Nuuk, Sermersooq, 3905, Greenland",
        "road": "Mitsimavik Vejen",
        "house_number": null,
        "neighbourhood": "Mitsimavik",
        "suburb": null,
        "city_district": null,
        "city": "Nuuk",
        "state": null,
        "postcode": "3905",
        "country": "Greenland",
        "country_code": "gl"
      },
      "address": "Mitsimavik Vejen, Nuuk, Greenland"
    },
    {
      "lat": 64.17437247091667,
      "lon": -51.73459476657151,
      "geoinfo": {
        "display_name": "1A;1B, Kirkevej, Tuujuk, Nuuk Centrum, Nuuk, Sermersooq, 3900, Greenland",
        "road": "Kirkevej",
        "house_number": "1A;1B",
        "neighbourhood": "Tuujuk",
        "suburb": "Nuuk Centrum",
        "city_district": null,
        "city": "Nuuk",
        "state": null,
        "postcode": "3900",
        "country": "Greenland",
        "country_code": "gl"
      },
      "address": "1A;1B Kirkevej, Nuuk, Greenland"
    },
    {
      "lat": 64.16308515549851,
      "lon": -51.72239919542461,
      "geoinfo": {
        "display_name": "Qaqisarfik, Tuujuk, Nuuk Centrum, Nuuk, Sermersooq, 3900, Greenland",
        "road": "Qaqisarfik",
        "house_number": null,
        "neighbourhood": "Tuujuk",
        "suburb": "Nuuk Centrum",
        "city_district": null,
        "city": "Nuuk",
        "state": null,
        "postcode": "3900",
        "country": "Greenland",
        "country_code": "gl"
      },
      "address": "Qaqisarfik, Nuuk, Greenland"
    },
    {
      "lat": 64.17994525497316,
      "lon": -51.68616623576172,
      "geoinfo": {
        "display_name": "Borgmester Aniita Aqqusernga, Taqissorfik, Nuuk, Sermersooq, 3905, Greenland",
        "road": "Borgmester Aniita Aqqusernga",
        "house_number": null,
        "neighbourhood": "Taqissorfik",
        "suburb": null,
        "city_district": null,
        "city": "Nuuk",
        "state": null,
        "postcode": "3905",
        "country": "Greenland",
        "country_code": "gl"
      },
      "address": "Borgmester Aniita Aqqusernga, Nuuk, Greenland"
    },
    {
      "lat": 64.16065448658705,
      "lon": -51.68773447910361,
      "geoinfo": {
        "display_name": "Boligvej D, Ningitsivik, Nuuk, Sermersooq, 3905, Greenland",
        "road": "Boligvej D",
        "house_number": null,
        "neighbourhood": "Ningitsivik",
        "suburb": null,
        "city_district": null,
        "city": "Nuuk",
        "state": null,
        "postcode": "3905",
        "country": "Greenland",
        "country_code": "gl"
      },
      "address": "Boligvej D, Nuuk, Greenland"
    },
    {
      "lat": 64.15394090641841,
      "lon": -51.6647377523216,
      "geoinfo": {
        "display_name": "Naternaq, Nuuk, Sermersooq, 3905, Greenland",
        "road": null,
        "house_number": null,
        "neighbourhood": "Naternaq",
        "suburb": null,
        "city_district": null,
        "city": "Nuuk",
        "state": null,
        "postcode": "3905",
        "country": "Greenland",
        "country_code": "gl"
      },
      "address": "Naternaq, Nuuk, Greenland"
    },
    {
      "lat": 64.179755804725,
      "lon": -51.73519433842455,
      "geoinfo": {
        "display_name": "2, Augo Lyngip Aqqutaa, Imeqarfik, Nuuk Centrum, Nuuk, Sermersooq, 3900, Greenland",
        "road": "Augo Lyngip Aqqutaa",
        "house_number": "2",
        "neighbourhood": "Imeqarfik",
        "suburb": "Nuuk Centrum",
        "city_district": null,
        "city": "Nuuk",
        "state": null,
        "postcode": "3900",
        "country": "Greenland",
        "country_code": "gl"
      },
      "address": "2 Augo Lyngip Aqqutaa, Nuuk, Greenland"
    },
    {
      "lat": 64.18818473898156,
      "lon": -51.719370929131706,
      "geoinfo": {
        "display_name": "Eqalugalinnguit, Inussussuaq, Nuuk Centrum, Nuuk, Sermersooq, 3900, Greenland",
        "road": "Eqalugalinnguit",
        "house_number": null,
        "neighbourhood": "Inussussuaq",
        "suburb": "Nuuk Centrum",
        "city_district": null,
        "city": "Nuuk",
        "state": null,
        "postcode": "3900",
        "country": "Greenland",
        "country_code": "gl"
      },
      "address": "Eqalugalinnguit, Nuuk, Greenland"
    },
    {
      "lat": 64.15942385491292,
      "lon": -51.728392120572536,
      "geoinfo": {
        "display_name": "Kujallerpaat, Tuujuk, Nuuk Centrum, Nuuk, Sermersooq, 3900, Greenland",
        "road": "Kujallerpaat",
        "house_number": null,
        "neighbourhood": "Tuujuk",
        "suburb": "Nuuk Centrum",
        "city_district": null,
        "city": "Nuuk",
        "state": null,
        "postcode": "3900",
        "country": "Greenland",
        "country_code": "gl"
      },
      "address": "Kujallerpaat, Nuuk, Greenland"
    },
    {
      "lat": 64.1933872068117,
      "lon": -51.69927817537509,
      "geoinfo": {
        "display_name": "14, Iiminaq, Nuuk, Sermersooq, 3905, Greenland",
        "road": "Iiminaq",
        "house_number": "14",
        "neighbourhood": null,
        "suburb": null,
        "city_district": null,
        "city": "Nuuk",
        "state": null,
        "postcode": "3905",
        "country": "Greenland",
        "country_code": "gl"
      },
      "address": "14 Iiminaq, Nuuk, Greenland"
    },
    {
      "lat": 64.16677639354245,
      "lon": -51.67969560623208,
      "geoinfo": {
        "display_name": "5, Akeq, Innartalik, Nuuk, Sermersooq, 3905, Greenland",
        "road": "Akeq",
        "house_number": "5",
        "neighbourhood": "Innartalik",
        "suburb": null,
        "city_district": null,
        "city": "Nuuk",
        "state": null,
        "postcode": "3905",
        "country": "Greenland",
        "country_code": "gl"
      },
      "address": "5 Akeq, Nuuk, Greenland"
    },
    {
      "lat": 64.18481585820598,
      "lon": -51.683994152204086,
      "geoinfo": {
        "display_name": "Illerngit 2001, Taqissorfik, Nuuk, Sermersooq, 3905, Greenland",
        "road": "Illerngit 2001",
        "house_number": null,
        "neighbourhood": "Taqissorfik",
        "suburb": null,
        "city_district": null,
        "city": "Nuuk",
        "state": null,
        "postcode": "3905",
        "country": "Greenland",
        "country_code": "gl"
      },
      "address": "Illerngit 2001, Nuuk, Greenland"
    },
    {
      "lat": 64.1679079952068,
      "lon": -51.745249124072494,
      "geoinfo": {
        "display_name": "Noorlernut, Qapiarfiusaaq, Nuuk Centrum, Nuuk, Sermersooq, 3900, Greenland",
        "road": "Noorlernut",
        "house_number": null,
        "neighbourhood": "Qapiarfiusaaq",
        "suburb": "Nuuk Centrum",
        "city_district": null,
        "city": "Nuuk",
        "state": null,
        "postcode": "3900",
        "country": "Greenland",
        "country_code": "gl"
      },
      "address": "Noorlernut, Nuuk, Greenland"
    },
    {
      "lat": 64.18253067103643,
      "lon": -51.719591294496404,
      "geoinfo": {
        "display_name": "Issortarfimmut, Inussussuaq, Nuuk Centrum, Nuuk, Sermersooq, 3900, Greenland",
        "road": "Issortarfimmut",
        "house_number": null,
        "neighbourhood": "Inussussuaq",
        "suburb": "Nuuk Centrum",
        "city_district": null,
        "city": "Nuuk",
        "state": null,
        "postcode": "3900",
        "country": "Greenland",
        "country_code": "gl"
      },
      "address": "Issortarfimmut, Nuuk, Greenland"
    },
    {
      "lat": 64.18603656056828,
      "lon": -51.747714530540684,
      "geoinfo": {
        "display_name": "23, Iisaajap Aqq., Old Nuuk, Nuuk Centrum, Nuuk, Sermersooq, 3900, Greenland",
        "road": "Iisaajap Aqq.",
        "house_number": "23",
        "neighbourhood": "Old Nuuk",
        "suburb": "Nuuk Centrum",
        "city_district": null,
        "city": "Nuuk",
        "state": null,
        "postcode": "3900",
        "country": "Greenland",
        "country_code": "gl"
      },
      "address": "23 Iisaajap Aqq., Nuuk, Greenland"
    },
    {
      "lat": 64.16869250872888,
      "lon": -51.666442584511465,
      "geoinfo": {
        "display_name": "Qisisseq, Qinngorput, Nuuk, Sermersooq, 3905, Greenland",
        "road": "Qisisseq",
        "house_number": null,
        "neighbourhood": null,
        "suburb": null,
        "city_district": null,
        "city": "Nuuk",
        "state": null,
        "postcode": "3905",
        "country": "Greenland",
        "country_code": "gl"
      },
      "address": "Qisisseq, Nuuk, Greenland"
    },
    {
      "lat": 64.16146955887895,
      "lon": -51.664875962138055,
      "geoinfo": {
        "display_name": "13 A-B, Naternanut, Naternaq, Nuuk, Sermersooq, 3905, Greenland",
        "road": "Naternanut",
        "house_number": "13 A-B",
        "neighbourhood": "Naternaq",
        "suburb": null,
        "city_district": null,
        "city": "Nuuk",
        "state": null,
        "postcode": "3905",
        "country": "Greenland",
        "country_code": "gl"
      },
      "address": "13 A-B Naternanut, Nuuk, Greenland"
    },
    {
      "lat": 64.19339275866217,
      "lon": -51.696088716269756,
      "geoinfo": {
        "display_name": "Siaqqinneq, Nuussuaq, Nuuk, Sermersooq, 3905, Greenland",
        "road": "Siaqqinneq",
        "house_number": null,
        "neighbourhood": null,
        "suburb": null,
        "city_district": null,
        "city": "Nuuk",
        "state": null,
        "postcode": "3905",
        "country": "Greenland",
        "country_code": "gl"
      },
      "address": "Siaqqinneq, Nuuk, Greenland"
    },
    {
      "lat": 64.17336909223133,
      "lon": -51.67888356233096,
      "geoinfo": {
        "display_name": "7, Piloq, Taqissorfik, Nuuk, Sermersooq, 3905, Greenland",
        "road": "Piloq",
        "house_number": "7",
        "neighbourhood": "Taqissorfik",
        "suburb": null,
        "city_district": null,
        "city": "Nuuk",
        "state": null,
        "postcode": "3905",
        "country": "Greenland",
        "country_code": "gl"
      },
      "address": "7 Piloq, Nuuk, Greenland"
    },
    {
      "lat": 64.18196477657372,
      "lon": -51.73039210127851,
      "geoinfo": {
        "display_name": "Inussivik, 19, Kisserneqqortuunnguaq, Inussussuaq, Nuuk Centrum, Nuuk, Sermersooq, 3900, Greenland",
        "road": "Kisserneqqortuunnguaq",
        "house_number": "19",
        "neighbourhood": "Inussussuaq",
        "suburb": "Nuuk Centrum",
        "city_district": null,
        "city": "Nuuk",
        "state": null,
        "postcode": "3900",
        "country": "Greenland",
        "country_code": "gl"
      },
      "address": "19 Kisserneqqortuunnguaq, Nuuk, Greenland"
    },
    {
      "lat": 64.18516702473299,
      "lon": -51.73866987020277,
      "geoinfo": {
        "display_name": "31, Gertrud Raskvej, Imeqarfik, Nuuk Centrum, Nuuk, Sermersooq, 3900, Greenland",
        "road": "Gertrud Raskvej",
        "house_number": "31",
        "neighbourhood": "Imeqarfik",
        "suburb": "Nuuk Centrum",
        "city_district": null,
        "city": "Nuuk",
        "state": null,
        "postcode": "3900",
        "country": "Greenland",
        "country_code": "gl"
      },
      "address": "31 Gertrud Raskvej, Nuuk, Greenland"
    },
    {
      "lat": 64.17400679300393,
      "lon": -51.732261439664676,
      "geoinfo": {
        "display_name": "1, Ceresvej, Tuujuk, Nuuk Centrum, Nuuk, Sermersooq, 3900, Greenland",
        "road": "Ceresvej",
        "house_number": "1",
        "neighbourhood": "Tuujuk",
        "suburb": "Nuuk Centrum",
        "city_district": null,
        "city": "Nuuk",
        "state": null,
        "postcode": "3900",
        "country": "Greenland",
        "country_code": "gl"
      },
      "address": "1 Ceresvej, Nuuk, Greenland"
    },
    {
      "lat": 64.1884443506068,
      "lon": -51.71675300336413,
      "geoinfo": {
        "display_name": "62, Eqalugalinnguit, Qaurunnguaq, Nuuk, Sermersooq, 3905, Greenland",
        "road": "Eqalugalinnguit",
        "house_number": "62",
        "neighbourhood": "Qaurunnguaq",
        "suburb": null,
        "city_district": null,
        "city": "Nuuk",
        "state": null,
        "postcode": "3905",
        "country": "Greenland",
        "country_code": "gl"
      },
      "address": "62 Eqalugalinnguit, Nuuk, Greenland"
    },
    {
      "lat": 64.18036426345284,
      "lon": -51.72629276952528,
      "geoinfo": {
        "display_name": "Sipisaq Kangilleq, Inussussuaq, Nuuk Centrum, Nuuk, Sermersooq, 3900, Greenland",
        "road": "Sipisaq Kangilleq",
        "house_number": null,
        "neighbourhood": "Inussussuaq",
        "suburb": "Nuuk Centrum",
        "city_district": null,
        "city": "Nuuk",
        "state": null,
        "postcode": "3900",
        "country": "Greenland",
        "country_code": "gl"
      },
      "address": "Sipisaq Kangilleq, Nuuk, Greenland"
    },
    {
      "lat": 64.18222054638127,
      "lon": -51.73891966667477,
      "geoinfo": {
        "display_name": "12, Gertrud Raskvej, Imeqarfik, Nuuk Centrum, Nuuk, Sermersooq, 3900, Greenland",
        "road": "Gertrud Raskvej",
        "house_number": "12",
        "neighbourhood": "Imeqarfik",
        "suburb": "Nuuk Centrum",
        "city_district": null,
        "city": "Nuuk",
        "state": null,
        "postcode": "3900",
        "country": "Greenland",
        "country_code": "gl"
      },
      "address": "12 Gertrud Raskvej, Nuuk, Greenland"
    },
    {
      "lat": 64.17885919200802,
      "lon": -51.70568894260107,
      "geoinfo": {
        "display_name": "Nasiffik, 2, Iggiaanut, Nuussuaq, Nuuk, Sermersooq, 3905, Greenland",
        "road": "Iggiaanut",
        "house_number": "2",
        "neighbourhood": null,
        "suburb": null,
        "city_district": null,
        "city": "Nuuk",
        "state": null,
        "postcode": "3905",
        "country": "Greenland",
        "country_code": "gl"
      },
      "address": "2 Iggiaanut, Nuuk, Greenland"
    },
    {
      "lat": 64.16260254852997,
      "lon": -51.72741436132509,
      "geoinfo": {
        "display_name": "4, Inussuk, Tuujuk, Nuuk Centrum, Nuuk, Sermersooq, 3900, Greenland",
        "road": "Inussuk",
        "house_number": "4",
        "neighbourhood": "Tuujuk",
        "suburb": "Nuuk Centrum",
        "city_district": null,
        "city": "Nuuk",
        "state": null,
        "postcode": "3900",
        "country": "Greenland",
        "country_code": "gl"
      },
      "address": "4 Inussuk, Nuuk, Greenland"
    },
    {
      "lat": 64.16222578436745,
      "lon": -51.74674522010677,
      "geoinfo": {
        "display_name": "Biologstationen, 36, Jens Kreutzmannip Aqqutaa, Qapiarfiusaaq, Nuuk Centrum, Nuuk, Sermersooq, 3900, Greenland",
        "road": "Jens Kreutzmannip Aqqutaa",
        "house_number": "36",
        "neighbourhood": "Qapiarfiusaaq",
        "suburb": "Nuuk Centrum",
        "city_district": null,
        "city": "Nuuk",
        "state": null,
        "postcode": "3900",
        "country": "Greenland",
        "country_code": "gl"
      },
      "address": "36 Jens Kreutzmannip Aqqutaa, Nuuk, Greenland"
    },
    {
      "lat": 64.18635855358876,
      "lon": -51.73550987256981,
      "geoinfo": {
        "display_name": "19, Innannguaq, Imeqarfik, Nuuk Centrum, Nuuk, Sermersooq, 3900, Greenland",
        "road": "Innannguaq",
        "house_number": "19",
        "neighbourhood": "Imeqarfik",
        "suburb": "Nuuk Centrum",
        "city_district": null,
        "city": "Nuuk",
        "state": null,
        "postcode": "3900",
        "country": "Greenland",
        "country_code": "gl"
      },
      "address": "19 Innannguaq, Nuuk, Greenland"
    },
    {
      "lat": 64.17337218167215,
      "lon": -51.66592812151795,
      "geoinfo": {
        "display_name": "5A;5B;5C, Kuanneq, Paarnarissoq, Nuuk, Sermersooq, 3905, Greenland",
        "road": "Kuanneq",
        "house_number": "5A;5B;5C",
        "neighbourhood": "Paarnarissoq",
        "suburb": null,
        "city_district": null,
        "city": "Nuuk",
        "state": null,
        "postcode": "3905",
        "country": "Greenland",
        "country_code": "gl"
      },
      "address": "5A;5B;5C Kuanneq, Nuuk, Greenland"
    },
    {
      "lat": 64.17024738022974,
      "lon": -51.72755145835569,
      "geoinfo": {
        "display_name": "Aalisartut Aqqutaat, Tuujuk, Nuuk Centrum, Nuuk, Sermersooq, 3900, Greenland",
        "road": "Aalisartut Aqqutaat",
        "house_number": null,
        "neighbourhood": "Tuujuk",
        "suburb": "Nuuk Centrum",
        "city_district": null,
        "city": "Nuuk",
        "state": null,
        "postcode": "3900",
        "country": "Greenland",
        "country_code": "gl"
      },
      "address": "Aalisartut Aqqutaat, Nuuk, Greenland"
    },
    {
      "lat": 64.19708092334217,
      "lon": -51.71276867123011,
      "geoinfo": {
        "display_name": "64, Kigutaarnat, Quassussuup Tungaa, Nuuk, Sermersooq, 3905, Greenland",
        "road": "Kigutaarnat",
        "house_number": "64",
        "neighbourhood": "Quassussuup Tungaa",
        "suburb": null,
        "city_district": null,
        "city": "Nuuk",
        "state": null,
        "postcode": "3905",
        "country": "Greenland",
        "country_code": "gl"
      },
      "address": "64 Kigutaarnat, Nuuk, Greenland"
    },
    {
      "lat": 64.16947915589557,
      "lon": -51.66273451586707,
      "geoinfo": {
        "display_name": "Pisisseq, Qinngorput, Nuuk, Sermersooq, 3905, Greenland",
        "road": "Pisisseq",
        "house_number": null,
        "neighbourhood": null,
        "suburb": null,
        "city_district": null,
        "city": "Nuuk",
        "state": null,
        "postcode": "3905",
        "country": "Greenland",
        "country_code": "gl"
      },
      "address": "Pisisseq, Nuuk, Greenland"
    },
    {
      "lat": 64.18927211347577,
      "lon": -51.73901131325127,
      "geoinfo": {
        "display_name": "49, Gertrud Raskvej, Imeqarfik, Nuuk Centrum, Nuuk, Sermersooq, 3900, Greenland",
        "road": "Gertrud Raskvej",
        "house_number": "49",
        "neighbourhood": "Imeqarfik",
        "suburb": "Nuuk Centrum",
        "city_district": null,
        "city": "Nuuk",
        "state": null,
        "postcode": "3900",
        "country": "Greenland",
        "country_code": "gl"
      },
      "address": "49 Gertrud Raskvej, Nuuk, Greenland"
    },
    {
      "lat": 64.19598218997638,
      "lon": -51.71401868971425,
      "geoinfo": {
        "display_name": "78, Kigutaarnat, Quassussuup Tungaa, Nuuk, Sermersooq, 3905, Greenland",
        "road": "Kigutaarnat",
        "house_number": "78",
        "neighbourhood": "Quassussuup Tungaa",
        "suburb": null,
        "city_district": null,
        "city": "Nuuk",
        "state": null,
        "postcode": "3905",
        "country": "Greenland",
        "country_code": "gl"
      },
      "address": "78 Kigutaarnat, Nuuk, Greenland"
    },
    {
      "lat": 64.18529596947096,
      "lon": -51.70003988092357,
      "geoinfo": {
        "display_name": "Manguaraq 37, 37, Manguaraq, Nuussuaq, Nuuk, Sermersooq, 3905, Greenland",
        "road": "Manguaraq",
        "house_number": "37",
        "neighbourhood": null,
        "suburb": null,
        "city_district": null,
        "city": "Nuuk",
        "state": null,
        "postcode": "3905",
        "country": "Greenland",
        "country_code": "gl"
      },
      "address": "37 Manguaraq, Nuuk, Greenland"
    },
    {
      "lat": 64.18318908062245,
      "lon": -51.710953441899896,
      "geoinfo": {
        "display_name": "Nuussuaq, Inussussuaq, Nuuk Centrum, Nuuk, Sermersooq, 3905, Greenland",
        "road": "Nuussuaq",
        "house_number": null,
        "neighbourhood": "Inussussuaq",
        "suburb": "Nuuk Centrum",
        "city_district": null,
        "city": "Nuuk",
        "state": null,
        "postcode": "3905",
        "country": "Greenland",
        "country_code": "gl"
      },
      "address": "Nuussuaq, Nuuk, Greenland"
    },
    {
      "lat": 64.18801267862263,
      "lon": -51.69741781653218,
      "geoinfo": {
        "display_name": "18;20;22;24, Qattaaq, Nuussuaq, Nuuk, Sermersooq, 3905, Greenland",
        "road": "Qattaaq",
        "house_number": "18;20;22;24",
        "neighbourhood": null,
        "suburb": null,
        "city_district": null,
        "city": "Nuuk",
        "state": null,
        "postcode": "3905",
        "country": "Greenland",
        "country_code": "gl"
      },
      "address": "18;20;22;24 Qattaaq, Nuuk, Greenland"
    },
    {
      "lat": 64.17498860729411,
      "lon": -51.70478477004813,
      "geoinfo": {
        "display_name": "Nioqqutit.gl WH, 1, Qeqertanut, Nuussuaq, Nuuk, Sermersooq, 3905, Greenland",
        "road": "Qeqertanut",
        "house_number": "1",
        "neighbourhood": null,
        "suburb": null,
        "city_district": null,
        "city": "Nuuk",
        "state": null,
        "postcode": "3905",
        "country": "Greenland",
        "country_code": "gl"
      },
      "address": "1 Qeqertanut, Nuuk, Greenland"
    },
    {
      "lat": 64.17134486059592,
      "lon": -51.73895374138673,
      "geoinfo": {
        "display_name": "17, Sipisaq Avannarleq, Tuujuk, Nuuk Centrum, Nuuk, Sermersooq, 3900, Greenland",
        "road": "Sipisaq Avannarleq",
        "house_number": "17",
        "neighbourhood": "Tuujuk",
        "suburb": "Nuuk Centrum",
        "city_district": null,
        "city": "Nuuk",
        "state": null,
        "postcode": "3900",
        "country": "Greenland",
        "country_code": "gl"
      },
      "address": "17 Sipisaq Avannarleq, Nuuk, Greenland"
    },
    {
      "lat": 64.16368233287074,
      "lon": -51.6770214687552,
      "geoinfo": {
        "display_name": "Nuffit 4a;4b, 4a;4b, Nuffit, Pinguaraq, Nuuk, Sermersooq, 3905, Greenland",
        "road": "Nuffit",
        "house_number": "4a;4b",
        "neighbourhood": "Pinguaraq",
        "suburb": null,
        "city_district": null,
        "city": "Nuuk",
        "state": null,
        "postcode": "3905",
        "country": "Greenland",
        "country_code": "gl"
      },
      "address": "4a;4b Nuffit, Nuuk, Greenland"
    },
    {
      "lat": 64.19531907602084,
      "lon": -51.727105036035105,
      "geoinfo": {
        "display_name": "3A;3B;3C, Qiterlia, Qernertunnguit, Nuuk, Sermersooq, 3900, Greenland",
        "road": "Qiterlia",
        "house_number": "3A;3B;3C",
        "neighbourhood": "Qernertunnguit",
        "suburb": null,
        "city_district": null,
        "city": "Nuuk",
        "state": null,
        "postcode": "3900",
        "country": "Greenland",
        "country_code": "gl"
      },
      "address": "3A;3B;3C Qiterlia, Nuuk, Greenland"
    },
    {
      "lat": 64.19293654852115,
      "lon": -51.66922931640368,
      "geoinfo": {
        "display_name": "1A, Aqisseqarajooq, Nukappiakuluk, Nuuk, Sermersooq, 3905, Greenland",
        "road": "Aqisseqarajooq",
        "house_number": "1A",
        "neighbourhood": "Nukappiakuluk",
        "suburb": null,
        "city_district": null,
        "city": "Nuuk",
        "state": null,
        "postcode": "3905",
        "country": "Greenland",
        "country_code": "gl"
      },
      "address": "1A Aqisseqarajooq, Nuuk, Greenland"
    },
    {
      "lat": 64.17065625203438,
      "lon": -51.73385277715111,
      "geoinfo": {
        "display_name": "3, Dronning Ingridsvej, Tuujuk, Nuuk Centrum, Nuuk, Sermersooq, 3900, Greenland",
        "road": "Dronning Ingridsvej",
        "house_number": "3",
        "neighbourhood": "Tuujuk",
        "suburb": "Nuuk Centrum",
        "city_district": null,
        "city": "Nuuk",
        "state": null,
        "postcode": "3900",
        "country": "Greenland",
        "country_code": "gl"
      },
      "address": "3 Dronning Ingridsvej, Nuuk, Greenland"
    },
    {
      "lat": 64.18133158196278,
      "lon": -51.703531707992866,
      "geoinfo": {
        "display_name": "13, Qassuserfik, Nuussuaq, Nuuk, Sermersooq, 3905, Greenland",
        "road": "Qassuserfik",
        "house_number": "13",
        "neighbourhood": null,
        "suburb": null,
        "city_district": null,
        "city": "Nuuk",
        "state": null,
        "postcode": "3905",
        "country": "Greenland",
        "country_code": "gl"
      },
      "address": "13 Qassuserfik, Nuuk, Greenland"
    },
    {
      "lat": 64.18115535839948,
      "lon": -51.70771407659811,
      "geoinfo": {
        "display_name": "28, Narsarviaq, Nuussuaq, Nuuk, Sermersooq, 3905, Greenland",
        "road": "Narsarviaq",
        "house_number": "28",
        "neighbourhood": null,
        "suburb": null,
        "city_district": null,
        "city": "Nuuk",
        "state": null,
        "postcode": "3905",
        "country": "Greenland",
        "country_code": "gl"
      },
      "address": "28 Narsarviaq, Nuuk, Greenland"
    },
    {
      "lat": 64.1723148036279,
      "lon": -51.739350875628936,
      "geoinfo": {
        "display_name": "5, Noorlernut, Qapiarfiusaaq, Nuuk Centrum, Nuuk, Sermersooq, 3900, Greenland",
        "road": "Noorlernut",
        "house_number": "5",
        "neighbourhood": "Qapiarfiusaaq",
        "suburb": "Nuuk Centrum",
        "city_district": null,
        "city": "Nuuk",
        "state": null,
        "postcode": "3900",
        "country": "Greenland",
        "country_code": "gl"
      },
      "address": "5 Noorlernut, Nuuk, Greenland"
    },
    {
      "lat": 64.1743971429132,
      "lon": -51.73953564596866,
      "geoinfo": {
        "display_name": "3, Samuel Kleinschmidt Aqqutaa, Tuujuk, Nuuk Centrum, Nuuk, Sermersooq, 3900, Greenland",
        "road": "Samuel Kleinschmidt Aqqutaa",
        "house_number": "3",
        "neighbourhood": "Tuujuk",
        "suburb": "Nuuk Centrum",
        "city_district": null,
        "city": "Nuuk",
        "state": null,
        "postcode": "3900",
        "country": "Greenland",
        "country_code": "gl"
      },
      "address": "3 Samuel Kleinschmidt Aqqutaa, Nuuk, Greenland"
    },
    {
      "lat": 64.18962634348095,
      "lon": -51.688484084381116,
      "geoinfo": {
        "display_name": "Nuuk Golf Club, Pukuffik, Nuuk, Sermersooq, 3905, Greenland",
        "road": "Pukuffik",
        "house_number": null,
        "neighbourhood": null,
        "suburb": null,
        "city_district": null,
        "city": "Nuuk",
        "state": null,
        "postcode": "3905",
        "country": "Greenland",
        "country_code": "gl"
      },
      "address": "Pukuffik, Nuuk, Greenland"
    },
    {
      "lat": 64.18433205221625,
      "lon": -51.728818242722255,
      "geoinfo": {
        "display_name": "Kisserneqqortuunnguaq, Inussussuaq, Nuuk Centrum, Nuuk, Sermersooq, 3900, Greenland",
        "road": "Kisserneqqortuunnguaq",
        "house_number": null,
        "neighbourhood": "Inussussuaq",
        "suburb": "Nuuk Centrum",
        "city_district": null,
        "city": "Nuuk",
        "state": null,
        "postcode": "3900",
        "country": "Greenland",
        "country_code": "gl"
      },
      "address": "Kisserneqqortuunnguaq, Nuuk, Greenland"
    },
    {
      "lat": 64.1746207328565,
      "lon": -51.71338274565196,
      "geoinfo": {
        "display_name": "44, Nigerleq, Inussussuaq, Nuuk Centrum, Nuuk, Sermersooq, 3905, Greenland",
        "road": "Nigerleq",
        "house_number": "44",
        "neighbourhood": "Inussussuaq",
        "suburb": "Nuuk Centrum",
        "city_district": null,
        "city": "Nuuk",
        "state": null,
        "postcode": "3905",
        "country": "Greenland",
        "country_code": "gl"
      },
      "address": "44 Nigerleq, Nuuk, Greenland"
    },
    {
      "lat": 64.17359874286633,
      "lon": -51.669539415004266,
      "geoinfo": {
        "display_name": "5, Seernaq, Taqissorfik, Nuuk, Sermersooq, 3905, Greenland",
        "road": "Seernaq",
        "house_number": "5",
        "neighbourhood": "Taqissorfik",
        "suburb": null,
        "city_district": null,
        "city": "Nuuk",
        "state": null,
        "postcode": "3905",
        "country": "Greenland",
        "country_code": "gl"
      },
      "address": "5 Seernaq, Nuuk, Greenland"
    },
    {
      "lat": 64.20055669848934,
      "lon": -51.71283490418085,
      "geoinfo": {
        "display_name": "10, Kangillinnguit, Quassussuup Tungaa, Nuuk, Sermersooq, 3905, Greenland",
        "road": "Kangillinnguit",
        "house_number": "10",
        "neighbourhood": "Quassussuup Tungaa",
        "suburb": null,
        "city_district": null,
        "city": "Nuuk",
        "state": null,
        "postcode": "3905",
        "country": "Greenland",
        "country_code": "gl"
      },
      "address": "10 Kangillinnguit, Nuuk, Greenland"
    },
    {
      "lat": 64.19145376047437,
      "lon": -51.71816948106027,
      "geoinfo": {
        "display_name": "Kimmernat, Quassussuup Tungaa, Nuuk, Sermersooq, 3905, Greenland",
        "road": "Kimmernat",
        "house_number": null,
        "neighbourhood": "Quassussuup Tungaa",
        "suburb": null,
        "city_district": null,
        "city": "Nuuk",
        "state": null,
        "postcode": "3905",
        "country": "Greenland",
        "country_code": "gl"
      },
      "address": "Kimmernat, Nuuk, Greenland"
    },
    {
      "lat": 64.17297914097246,
      "lon": -51.737503422693194,
      "geoinfo": {
        "display_name": "Hans Egede, Aqqusinersuaq, Tuujuk, Nuuk Centrum, Nuuk, Sermersooq, 3900, Greenland",
        "road": "Aqqusinersuaq",
        "house_number": null,
        "neighbourhood": "Tuujuk",
        "suburb": "Nuuk Centrum",
        "city_district": null,
        "city": "Nuuk",
        "state": null,
        "postcode": "3900",
        "country": "Greenland",
        "country_code": "gl"
      },
      "address": "Aqqusinersuaq, Nuuk, Greenland"
    },
    {
      "lat": 64.1677692885188,
      "lon": -51.75381373523244,
      "geoinfo": {
        "display_name": "84, Saqqarliit, Qapiarfiusaaq, Nuuk Centrum, Nuuk, Sermersooq, 3900, Greenland",
        "road": "Saqqarliit",
        "house_number": "84",
        "neighbourhood": "Qapiarfiusaaq",
        "suburb": "Nuuk Centrum",
        "city_district": null,
        "city": "Nuuk",
        "state": null,
        "postcode": "3900",
        "country": "Greenland",
        "country_code": "gl"
      },
      "address": "84 Saqqarliit, Nuuk, Greenland"
    },
    {
      "lat": 64.16196132021082,
      "lon": -51.67878773782934,
      "geoinfo": {
        "display_name": "Nuffit, Pinguaraq, Nuuk, Sermersooq, 3905, Greenland",
        "road": "Nuffit",
        "house_number": null,
        "neighbourhood": "Pinguaraq",
        "suburb": null,
        "city_district": null,
        "city": "Nuuk",
        "state": null,
        "postcode": "3905",
        "country": "Greenland",
        "country_code": "gl"
      },
      "address": "Nuffit, Nuuk, Greenland"
    },
    {
      "lat": 64.16943195630465,
      "lon": -51.72935036971582,
      "geoinfo": {
        "display_name": "21, Aqqusinersuaq, Tuujuk, Nuuk Centrum, Nuuk, Sermersooq, 3900, Greenland",
        "road": "Aqqusinersuaq",
        "house_number": "21",
        "neighbourhood": "Tuujuk",
        "suburb": "Nuuk Centrum",
        "city_district": null,
        "city": "Nuuk",
        "state": null,
        "postcode": "3900",
        "country": "Greenland",
        "country_code": "gl"
      },
      "address": "21 Aqqusinersuaq, Nuuk, Greenland"
    },
    {
      "lat": 64.15362467299965,
      "lon": -51.73528656790326,
      "geoinfo": {
        "display_name": "Tuujuk, Nuuk Centrum, Nuuk, Sermersooq, 3900, Greenland",
        "road": null,
        "house_number": null,
        "neighbourhood": "Tuujuk",
        "suburb": "Nuuk Centrum",
        "city_district": null,
        "city": "Nuuk",
        "state": null,
        "postcode": "3900",
        "country": "Greenland",
        "country_code": "gl"
      },
      "address": "928, Tuujuk, Nuuk Centrum, Nuuk, Sermersooq, 3900, Greenland"
    },
    {
      "lat": 64.18147741533721,
      "lon": -51.660040197123806,
      "geoinfo": {
        "display_name": "Paarnarissoq, Nuuk, Sermersooq, 3905, Greenland",
        "road": null,
        "house_number": null,
        "neighbourhood": "Paarnarissoq",
        "suburb": null,
        "city_district": null,
        "city": "Nuuk",
        "state": null,
        "postcode": "3905",
        "country": "Greenland",
        "country_code": "gl"
      },
      "address": "496, Paarnarissoq, Nuuk, Sermersooq, 3905, Greenland"
    },
    {
      "lat": 64.17795456976737,
      "lon": -51.676443803044656,
      "geoinfo": {
        "display_name": "Illerngit 2001, Taqissorfik, Nuuk, Sermersooq, 3905, Greenland",
        "road": "Illerngit 2001",
        "house_number": null,
        "neighbourhood": "Taqissorfik",
        "suburb": null,
        "city_district": null,
        "city": "Nuuk",
        "state": null,
        "postcode": "3905",
        "country": "Greenland",
        "country_code": "gl"
      },
      "address": "Illerngit 2001, Taqissorfik, Nuuk, Sermersooq, 3905, Greenland"
    },
    {
      "lat": 64.18427531302648,
      "lon": -51.69994645760889,
      "geoinfo": {
        "display_name": "Sarfaarsuit, Nuuk, Sermersooq, 3905, Greenland",
        "road": "Sarfaarsuit",
        "house_number": null,
        "neighbourhood": null,
        "suburb": null,
        "city_district": null,
        "city": "Nuuk",
        "state": null,
        "postcode": "3905",
        "country": "Greenland",
        "country_code": "gl"
      },
      "address": "815, Sarfaarsuit, Nuuk, Sermersooq, 3905, Greenland"
    },
    {
      "lat": 64.21681027502484,
      "lon": -51.76373518290683,
      "geoinfo": {
        "display_name": "Nuuk, Sermersooq, 3900, Greenland",
        "road": null,
        "house_number": null,
        "neighbourhood": null,
        "suburb": null,
        "city_district": null,
        "city": "Nuuk",
        "state": null,
        "postcode": "3900",
        "country": "Greenland",
        "country_code": "gl"
      },
      "address": "613, Nuuk, Sermersooq, 3900, Greenland"
    },
    {
      "lat": 64.18816555875806,
      "lon": -51.80706550504034,
      "geoinfo": {
        "display_name": "Nuuk, Sermersooq, 3900, Greenland",
        "road": null,
        "house_number": null,
        "neighbourhood": null,
        "suburb": null,
        "city_district": null,
        "city": "Nuuk",
        "state": null,
        "postcode": "3900",
        "country": "Greenland",
        "country_code": "gl"
      },
      "address": "002, Nuuk, Sermersooq, 3900, Greenland"
    },
    {
      "lat": 64.18326705425477,
      "lon": -51.68424509979518,
      "geoinfo": {
        "display_name": "Illerngit 2001, Taqissorfik, Nuuk, Sermersooq, 3905, Greenland",
        "road": "Illerngit 2001",
        "house_number": null,
        "neighbourhood": "Taqissorfik",
        "suburb": null,
        "city_district": null,
        "city": "Nuuk",
        "state": null,
        "postcode": "3905",
        "country": "Greenland",
        "country_code": "gl"
      },
      "address": "Illerngit 2001, 3905 Nuuk, Greenland"
    },
    {
      "lat": 64.1951853539408,
      "lon": -51.799221685847876,
      "geoinfo": {
        "display_name": "Nuuk, Sermersooq, 3900, Greenland",
        "road": null,
        "house_number": null,
        "neighbourhood": null,
        "suburb": null,
        "city_district": null,
        "city": "Nuuk",
        "state": null,
        "postcode": "3900",
        "country": "Greenland",
        "country_code": "gl"
      },
      "address": "587, Nuuk, Sermersooq, 3900, Greenland"
    },
    {
      "lat": 64.18101409239323,
      "lon": -51.648831514732194,
      "geoinfo": {
        "display_name": "Orange route, Paarnarissoq, Nuuk, Sermersooq, Greenland",
        "road": "Orange route",
        "house_number": null,
        "neighbourhood": "Paarnarissoq",
        "suburb": null,
        "city_district": null,
        "city": "Nuuk",
        "state": null,
        "postcode": null,
        "country": "Greenland",
        "country_code": "gl"
      },
      "address": "506, Orange route, Paarnarissoq, Nuuk, 98095 Sermersooq, Greenland"
    },
    {
      "lat": 64.16171483174722,
      "lon": -51.74046467822789,
      "geoinfo": {
        "display_name": "Holms dyreartikler, Nuukullak, Tuujuk, Nuuk Centrum, Nuuk, Sermersooq, 3900, Greenland",
        "road": "Nuukullak",
        "house_number": null,
        "neighbourhood": "Tuujuk",
        "suburb": "Nuuk Centrum",
        "city_district": null,
        "city": "Nuuk",
        "state": null,
        "postcode": "3900",
        "country": "Greenland",
        "country_code": "gl"
      },
      "address": "389, Nuukullak, 3900 Nuuk, Greenland"
    },
    {
      "lat": 64.1833552527413,
      "lon": -51.66824378901256,
      "geoinfo": {
        "display_name": "Aqisseqarajooq, Nukappiakuluk, Nuuk, Sermersooq, 3905, Greenland",
        "road": "Aqisseqarajooq",
        "house_number": null,
        "neighbourhood": "Nukappiakuluk",
        "suburb": null,
        "city_district": null,
        "city": "Nuuk",
        "state": null,
        "postcode": "3905",
        "country": "Greenland",
        "country_code": "gl"
      },
      "address": "500, Aqisseqarajooq, Nukappiakuluk, Nuuk, Sermersooq, 3905, Greenland"
    },
    {
      "lat": 64.1720693569427,
      "lon": -51.7977184702107,
      "geoinfo": {
        "display_name": "Nuuk, Sermersooq, 3900, Greenland",
        "road": null,
        "house_number": null,
        "neighbourhood": null,
        "suburb": null,
        "city_district": null,
        "city": "Nuuk",
        "state": null,
        "postcode": "3900",
        "country": "Greenland",
        "country_code": "gl"
      },
      "address": "902, Nuuk, Sermersooq, 3900, Greenland"
    },
    {
      "lat": 64.15998696201287,
      "lon": -51.67596036629005,
      "geoinfo": {
        "display_name": "Naternanut, Naternaq, Nuuk, Sermersooq, 3905, Greenland",
        "road": "Naternanut",
        "house_number": null,
        "neighbourhood": "Naternaq",
        "suburb": null,
        "city_district": null,
        "city": "Nuuk",
        "state": null,
        "postcode": "3905",
        "country": "Greenland",
        "country_code": "gl"
      },
      "address": "263, Naternanut, Naternaq, Nuuk, Sermersooq, 3905, Greenland"
    },
    {
      "lat": 64.18339490546016,
      "lon": -51.736161347754766,
      "geoinfo": {
        "display_name": "25a, C. E Janssensvej, Imeqarfik, Nuuk Centrum, Nuuk, Sermersooq, 3900, Greenland",
        "road": "C. E Janssensvej",
        "house_number": "25a",
        "neighbourhood": "Imeqarfik",
        "suburb": "Nuuk Centrum",
        "city_district": null,
        "city": "Nuuk",
        "state": null,
        "postcode": "3900",
        "country": "Greenland",
        "country_code": "gl"
      },
      "address": "25a, C. E Janssensvej, Imeqarfik, Nuuk Centrum, Nuuk, Sermersooq, 3900, Greenland"
    },
    {
      "lat": 64.16416807349466,
      "lon": -51.7340324137995,
      "geoinfo": {
        "display_name": "37, Jagtvej, Nuuk Centrum, Nuuk, Sermersooq, 3900, Greenland",
        "road": "Jagtvej",
        "house_number": "37",
        "neighbourhood": null,
        "suburb": "Nuuk Centrum",
        "city_district": null,
        "city": "Nuuk",
        "state": null,
        "postcode": "3900",
        "country": "Greenland",
        "country_code": "gl"
      },
      "address": "37, Jagtvej, Nuuk Centrum, Nuuk, Sermersooq, 3900, Greenland"
    },
    {
      "lat": 64.21352068967182,
      "lon": -51.656277957793435,
      "geoinfo": {
        "display_name": "Nuuk, Sermersooq, 3900, Greenland",
        "road": null,
        "house_number": null,
        "neighbourhood": null,
        "suburb": null,
        "city_district": null,
        "city": "Nuuk",
        "state": null,
        "postcode": "3900",
        "country": "Greenland",
        "country_code": "gl"
      },
      "address": "667, Nuuk, Sermersooq, 3900, Greenland"
    },
    {
      "lat": 64.17488466907105,
      "lon": -51.77970136020256,
      "geoinfo": {
        "display_name": "Nuuk, Sermersooq, 3900, Greenland",
        "road": null,
        "house_number": null,
        "neighbourhood": null,
        "suburb": null,
        "city_district": null,
        "city": "Nuuk",
        "state": null,
        "postcode": "3900",
        "country": "Greenland",
        "country_code": "gl"
      },
      "address": "523, Nuuk, Sermersooq, 3900, Greenland"
    },
    {
      "lat": 64.1505094670529,
      "lon": -51.75765272744299,
      "geoinfo": {
        "display_name": "Nuuk Centrum, Nuuk, Sermersooq, 3900, Greenland",
        "road": null,
        "house_number": null,
        "neighbourhood": null,
        "suburb": "Nuuk Centrum",
        "city_district": null,
        "city": "Nuuk",
        "state": null,
        "postcode": "3900",
        "country": "Greenland",
        "country_code": "gl"
      },
      "address": "361, Nuuk Centrum, Nuuk, Sermersooq, 3900, Greenland"
    },
    {
      "lat": 64.19222041830014,
      "lon": -51.801506900541945,
      "geoinfo": {
        "display_name": "Nuuk, Sermersooq, 3900, Greenland",
        "road": null,
        "house_number": null,
        "neighbourhood": null,
        "suburb": null,
        "city_district": null,
        "city": "Nuuk",
        "state": null,
        "postcode": "3900",
        "country": "Greenland",
        "country_code": "gl"
      },
      "address": "949, Nuuk, Sermersooq, 3900, Greenland"
    },
    {
      "lat": 64.15891415507116,
      "lon": -51.73346220068967,
      "geoinfo": {
        "display_name": "Kujallerpaat, Tuujuk, Nuuk Centrum, Nuuk, Sermersooq, 3900, Greenland",
        "road": "Kujallerpaat",
        "house_number": null,
        "neighbourhood": "Tuujuk",
        "suburb": "Nuuk Centrum",
        "city_district": null,
        "city": "Nuuk",
        "state": null,
        "postcode": "3900",
        "country": "Greenland",
        "country_code": "gl"
      },
      "address": "443, Kujallerpaat, Tuujuk, Nuuk Centrum, Nuuk, Sermersooq, 3900, Greenland"
    },
    {
      "lat": 64.20584963654649,
      "lon": -51.72169834002641,
      "geoinfo": {
        "display_name": "Qaurunnguaq, Nuuk, Sermersooq, 3905, Greenland",
        "road": null,
        "house_number": null,
        "neighbourhood": "Qaurunnguaq",
        "suburb": null,
        "city_district": null,
        "city": "Nuuk",
        "state": null,
        "postcode": "3905",
        "country": "Greenland",
        "country_code": "gl"
      },
      "address": "981, Qaurunnguaq, Nuuk, Sermersooq, 3905, Greenland"
    },
    {
      "lat": 64.14896152233104,
      "lon": -51.76712022264591,
      "geoinfo": {
        "display_name": "Nuuk Centrum, Nuuk, Sermersooq, 3900, Greenland",
        "road": null,
        "house_number": null,
        "neighbourhood": null,
        "suburb": "Nuuk Centrum",
        "city_district": null,
        "city": "Nuuk",
        "state": null,
        "postcode": "3900",
        "country": "Greenland",
        "country_code": "gl"
      },
      "address": "456, Nuuk Centrum, Nuuk, Sermersooq, 3900, Greenland"
    },
    {
      "lat": 64.14331433908185,
      "lon": -51.72432782616746,
      "geoinfo": {
        "display_name": "Nuuk Centrum, Nuuk, Sermersooq, 3900, Greenland",
        "road": null,
        "house_number": null,
        "neighbourhood": null,
        "suburb": "Nuuk Centrum",
        "city_district": null,
        "city": "Nuuk",
        "state": null,
        "postcode": "3900",
        "country": "Greenland",
        "country_code": "gl"
      },
      "address": "371, Nuuk Centrum, Nuuk, Sermersooq, 3900, Greenland"
    },
    {
      "lat": 64.17810005089719,
      "lon": -51.66218615356347,
      "geoinfo": {
        "display_name": "7, Uiffak, Paarnarissoq, Nuuk, Sermersooq, 3905, Greenland",
        "road": "Uiffak",
        "house_number": "7",
        "neighbourhood": "Paarnarissoq",
        "suburb": null,
        "city_district": null,
        "city": "Nuuk",
        "state": null,
        "postcode": "3905",
        "country": "Greenland",
        "country_code": "gl"
      },
      "address": "7, Uiffak, Paarnarissoq, Nuuk, Sermersooq, 3905, Greenland"
    },
    {
      "lat": 64.15217327862781,
      "lon": -51.73591437873441,
      "geoinfo": {
        "display_name": "Nuuk Centrum, Nuuk, Sermersooq, 3900, Greenland",
        "road": null,
        "house_number": null,
        "neighbourhood": null,
        "suburb": "Nuuk Centrum",
        "city_district": null,
        "city": "Nuuk",
        "state": null,
        "postcode": "3900",
        "country": "Greenland",
        "country_code": "gl"
      },
      "address": "273, Nuuk Centrum, Nuuk, Sermersooq, 3900, Greenland"
    },
    {
      "lat": 64.14519584227638,
      "lon": -51.75959212116863,
      "geoinfo": {
        "display_name": "Nuuk Centrum, Nuuk, Sermersooq, 3900, Greenland",
        "road": null,
        "house_number": null,
        "neighbourhood": null,
        "suburb": "Nuuk Centrum",
        "city_district": null,
        "city": "Nuuk",
        "state": null,
        "postcode": "3900",
        "country": "Greenland",
        "country_code": "gl"
      },
      "address": "637, Nuuk Centrum, Nuuk, Sermersooq, 3900, Greenland"
    },
    {
      "lat": 64.17779878501673,
      "lon": -51.76165185415172,
      "geoinfo": {
        "display_name": "Qapiarfiusaaq, Nuuk Centrum, Nuuk, Sermersooq, 3900, Greenland",
        "road": null,
        "house_number": null,
        "neighbourhood": "Qapiarfiusaaq",
        "suburb": "Nuuk Centrum",
        "city_district": null,
        "city": "Nuuk",
        "state": null,
        "postcode": "3900",
        "country": "Greenland",
        "country_code": "gl"
      },
      "address": "389, Qapiarfiusaaq, Nuuk Centrum, Nuuk, Sermersooq, 3900, Greenland"
    },
    {
      "lat": 64.16116103938995,
      "lon": -51.66934455449115,
      "geoinfo": {
        "display_name": "Naternanut, Naternaq, Nuuk, Sermersooq, 3905, Greenland",
        "road": "Naternanut",
        "house_number": null,
        "neighbourhood": "Naternaq",
        "suburb": null,
        "city_district": null,
        "city": "Nuuk",
        "state": null,
        "postcode": "3905",
        "country": "Greenland",
        "country_code": "gl"
      },
      "address": "772, Naternanut, Naternaq, Nuuk, Sermersooq, 3905, Greenland"
    },
    {
      "lat": 64.1708295608058,
      "lon": -51.77425584822348,
      "geoinfo": {
        "display_name": "Nuuk Centrum, Nuuk, Sermersooq, 3900, Greenland",
        "road": null,
        "house_number": null,
        "neighbourhood": null,
        "suburb": "Nuuk Centrum",
        "city_district": null,
        "city": "Nuuk",
        "state": null,
        "postcode": "3900",
        "country": "Greenland",
        "country_code": "gl"
      },
      "address": "129, Nuuk Centrum, Nuuk, Sermersooq, 3900, Greenland"
    },
    {
      "lat": 64.21392647226286,
      "lon": -51.68518148302803,
      "geoinfo": {
        "display_name": "Nukappiakuluk, Nuuk, Sermersooq, 3905, Greenland",
        "road": null,
        "house_number": null,
        "neighbourhood": "Nukappiakuluk",
        "suburb": null,
        "city_district": null,
        "city": "Nuuk",
        "state": null,
        "postcode": "3905",
        "country": "Greenland",
        "country_code": "gl"
      },
      "address": "411, Nukappiakuluk, Nuuk, Sermersooq, 3905, Greenland"
    },
    {
      "lat": 64.1826332353869,
      "lon": -51.669737456950024,
      "geoinfo": {
        "display_name": "Illerngit 2001, Nukappiakuluk, Nuuk, Sermersooq, 3905, Greenland",
        "road": "Illerngit 2001",
        "house_number": null,
        "neighbourhood": "Nukappiakuluk",
        "suburb": null,
        "city_district": null,
        "city": "Nuuk",
        "state": null,
        "postcode": "3905",
        "country": "Greenland",
        "country_code": "gl"
      },
      "address": "Illerngit 2001, Nukappiakuluk, Nuuk, Sermersooq, 3905, Greenland"
    },
    {
      "lat": 64.16790303035057,
      "lon": -51.64022615235264,
      "geoinfo": {
        "display_name": "Orange route, Paarnarissoq, Nuuk, Sermersooq, Greenland",
        "road": "Orange route",
        "house_number": null,
        "neighbourhood": "Paarnarissoq",
        "suburb": null,
        "city_district": null,
        "city": "Nuuk",
        "state": null,
        "postcode": null,
        "country": "Greenland",
        "country_code": "gl"
      },
      "address": "607, Orange route, Paarnarissoq, Nuuk, 14665 Sermersooq, Greenland"
    },
    {
      "lat": 64.14615831968324,
      "lon": -51.755979124663504,
      "geoinfo": {
        "display_name": "Nuuk Centrum, Nuuk, Sermersooq, 3900, Greenland",
        "road": null,
        "house_number": null,
        "neighbourhood": null,
        "suburb": "Nuuk Centrum",
        "city_district": null,
        "city": "Nuuk",
        "state": null,
        "postcode": "3900",
        "country": "Greenland",
        "country_code": "gl"
      },
      "address": "198, Nuuk Centrum, Nuuk, Sermersooq, 3900, Greenland"
    },
    {
      "lat": 64.13943707696453,
      "lon": -51.715131197643835,
      "geoinfo": {
        "display_name": "Nuuk, Sermersooq, 3900, Greenland",
        "road": null,
        "house_number": null,
        "neighbourhood": null,
        "suburb": null,
        "city_district": null,
        "city": "Nuuk",
        "state": null,
        "postcode": "3900",
        "country": "Greenland",
        "country_code": "gl"
      },
      "address": "815, Nuuk, Sermersooq, 3900, Greenland"
    },
    {
      "lat": 64.1520620445509,
      "lon": -51.71131934803175,
      "geoinfo": {
        "display_name": "Nuuk Centrum, Nuuk, Sermersooq, 3900, Greenland",
        "road": null,
        "house_number": null,
        "neighbourhood": null,
        "suburb": "Nuuk Centrum",
        "city_district": null,
        "city": "Nuuk",
        "state": null,
        "postcode": "3900",
        "country": "Greenland",
        "country_code": "gl"
      },
      "address": "866, Nuuk Centrum, Nuuk, Sermersooq, 3900, Greenland"
    },
    {
      "lat": 64.18395836377752,
      "lon": -51.809667559585634,
      "geoinfo": {
        "display_name": "Nuuk, Sermersooq, 3900, Greenland",
        "road": null,
        "house_number": null,
        "neighbourhood": null,
        "suburb": null,
        "city_district": null,
        "city": "Nuuk",
        "state": null,
        "postcode": "3900",
        "country": "Greenland",
        "country_code": "gl"
      },
      "address": "406, Nuuk, Sermersooq, 3900, Greenland"
    },
    {
      "lat": 64.195296220782,
      "lon": -51.818185369788786,
      "geoinfo": {
        "display_name": "Nuuk, Sermersooq, 3900, Greenland",
        "road": null,
        "house_number": null,
        "neighbourhood": null,
        "suburb": null,
        "city_district": null,
        "city": "Nuuk",
        "state": null,
        "postcode": "3900",
        "country": "Greenland",
        "country_code": "gl"
      },
      "address": "166, Nuuk, Sermersooq, 3900, Greenland"
    },
    {
      "lat": 64.16080503896934,
      "lon": -51.644379377951466,
      "geoinfo": {
        "display_name": "Orange route, Paarnarissoq, Nuuk, Sermersooq, Greenland",
        "road": "Orange route",
        "house_number": null,
        "neighbourhood": "Paarnarissoq",
        "suburb": null,
        "city_district": null,
        "city": "Nuuk",
        "state": null,
        "postcode": null,
        "country": "Greenland",
        "country_code": "gl"
      },
      "address": "754, Orange route, Paarnarissoq, Nuuk, 13535 Sermersooq, Greenland"
    },
    {
      "lat": 64.14170941638444,
      "lon": -51.715184820445145,
      "geoinfo": {
        "display_name": "Nuuk, Sermersooq, 3900, Greenland",
        "road": null,
        "house_number": null,
        "neighbourhood": null,
        "suburb": null,
        "city_district": null,
        "city": "Nuuk",
        "state": null,
        "postcode": "3900",
        "country": "Greenland",
        "country_code": "gl"
      },
      "address": "973, Nuuk, Sermersooq, 3900, Greenland"
    },
    {
      "lat": 64.19318795263929,
      "lon": -51.7098871783452,
      "geoinfo": {
        "display_name": "Kanngillinnguanut, Quassussuup Tungaa, Nuuk, Sermersooq, 3905, Greenland",
        "road": "Kanngillinnguanut",
        "house_number": null,
        "neighbourhood": "Quassussuup Tungaa",
        "suburb": null,
        "city_district": null,
        "city": "Nuuk",
        "state": null,
        "postcode": "3905",
        "country": "Greenland",
        "country_code": "gl"
      },
      "address": "883, Kanngillinnguanut, Quassussuup Tungaa, Nuuk, Sermersooq, 3905, Greenland"
    },
    {
      "lat": 64.22056860351118,
      "lon": -51.71978421985388,
      "geoinfo": {
        "display_name": "Nuuk, Sermersooq, 3900, Greenland",
        "road": null,
        "house_number": null,
        "neighbourhood": null,
        "suburb": null,
        "city_district": null,
        "city": "Nuuk",
        "state": null,
        "postcode": "3900",
        "country": "Greenland",
        "country_code": "gl"
      },
      "address": "107, Nuuk, Sermersooq, 3900, Greenland"
    },
    {
      "lat": 64.21026680982138,
      "lon": -51.64562084901037,
      "geoinfo": {
        "display_name": "Nuuk, Sermersooq, 3900, Greenland",
        "road": null,
        "house_number": null,
        "neighbourhood": null,
        "suburb": null,
        "city_district": null,
        "city": "Nuuk",
        "state": null,
        "postcode": "3900",
        "country": "Greenland",
        "country_code": "gl"
      },
      "address": "861, Nuuk, Sermersooq, 3900, Greenland"
    },
    {
      "lat": 64.16039440821412,
      "lon": -51.691916713877916,
      "geoinfo": {
        "display_name": "Mitsimavik Vejen, Mitsimavik, Nuuk, Sermersooq, 3905, Greenland",
        "road": "Mitsimavik Vejen",
        "house_number": null,
        "neighbourhood": "Mitsimavik",
        "suburb": null,
        "city_district": null,
        "city": "Nuuk",
        "state": null,
        "postcode": "3905",
        "country": "Greenland",
        "country_code": "gl"
      },
      "address": "873, Mitsimavik Vejen, Mitsimavik, Nuuk, Sermersooq, 3905, Greenland"
    },
    {
      "lat": 64.15214953953713,
      "lon": -51.6582829725377,
      "geoinfo": {
        "display_name": "Naternaq, Nuuk, Sermersooq, 3905, Greenland",
        "road": null,
        "house_number": null,
        "neighbourhood": "Naternaq",
        "suburb": null,
        "city_district": null,
        "city": "Nuuk",
        "state": null,
        "postcode": "3905",
        "country": "Greenland",
        "country_code": "gl"
      },
      "address": "921, Naternaq, Nuuk, Sermersooq, 3905, Greenland"
    },
    {
      "lat": 64.14528375740495,
      "lon": -51.74549797015903,
      "geoinfo": {
        "display_name": "Nuuk Centrum, Nuuk, Sermersooq, 3900, Greenland",
        "road": null,
        "house_number": null,
        "neighbourhood": null,
        "suburb": "Nuuk Centrum",
        "city_district": null,
        "city": "Nuuk",
        "state": null,
        "postcode": "3900",
        "country": "Greenland",
        "country_code": "gl"
      },
      "address": "601, Nuuk Centrum, Nuuk, Sermersooq, 3900, Greenland"
    },
    {
      "lat": 64.20016907345669,
      "lon": -51.71679218410498,
      "geoinfo": {
        "display_name": "Quassussuup Tungaa, Nuuk, Sermersooq, 3905, Greenland",
        "road": null,
        "house_number": null,
        "neighbourhood": "Quassussuup Tungaa",
        "suburb": null,
        "city_district": null,
        "city": "Nuuk",
        "state": null,
        "postcode": "3905",
        "country": "Greenland",
        "country_code": "gl"
      },
      "address": "703, Quassussuup Tungaa, Nuuk, Sermersooq, 3905, Greenland"
    },
    {
      "lat": 64.17590955794878,
      "lon": -51.62977481390487,
      "geoinfo": {
        "display_name": "Nuuk, Sermersooq, 3900, Greenland",
        "road": null,
        "house_number": null,
        "neighbourhood": null,
        "suburb": null,
        "city_district": null,
        "city": "Nuuk",
        "state": null,
        "postcode": "3900",
        "country": "Greenland",
        "country_code": "gl"
      },
      "address": "090, Nuuk, Sermersooq, 3900, Greenland"
    },
    {
      "lat": 64.2205082296131,
      "lon": -51.69083787545391,
      "geoinfo": {
        "display_name": "Nuuk, Sermersooq, 3900, Greenland",
        "road": null,
        "house_number": null,
        "neighbourhood": null,
        "suburb": null,
        "city_district": null,
        "city": "Nuuk",
        "state": null,
        "postcode": "3900",
        "country": "Greenland",
        "country_code": "gl"
      },
      "address": "836, Nuuk, Sermersooq, 3900, Greenland"
    },
    {
      "lat": 64.1908616243042,
      "lon": -51.65198960339493,
      "geoinfo": {
        "display_name": "Orange route, Paarnarissoq, Nuuk, Sermersooq, Greenland",
        "road": "Orange route",
        "house_number": null,
        "neighbourhood": "Paarnarissoq",
        "suburb": null,
        "city_district": null,
        "city": "Nuuk",
        "state": null,
        "postcode": null,
        "country": "Greenland",
        "country_code": "gl"
      },
      "address": "400, Orange route, Paarnarissoq, Nuuk, 53854 Sermersooq, Greenland"
    },
    {
      "lat": 64.18599109181243,
      "lon": -51.66962968860205,
      "geoinfo": {
        "display_name": "Aqisseqarajooq, Nukappiakuluk, Nuuk, Sermersooq, 3905, Greenland",
        "road": "Aqisseqarajooq",
        "house_number": null,
        "neighbourhood": "Nukappiakuluk",
        "suburb": null,
        "city_district": null,
        "city": "Nuuk",
        "state": null,
        "postcode": "3905",
        "country": "Greenland",
        "country_code": "gl"
      },
      "address": "142, Aqisseqarajooq, Nukappiakuluk, Nuuk, Sermersooq, 3905, Greenland"
    },
    {
      "lat": 64.19870975424872,
      "lon": -51.655575016912344,
      "geoinfo": {
        "display_name": "Anstalten for Domfldte i Nuuk, Aqisseqarajooq, Nukappiakuluk, Nuuk, Sermersooq, 3905, Greenland",
        "road": "Aqisseqarajooq",
        "house_number": null,
        "neighbourhood": "Nukappiakuluk",
        "suburb": null,
        "city_district": null,
        "city": "Nuuk",
        "state": null,
        "postcode": "3905",
        "country": "Greenland",
        "country_code": "gl"
      },
      "address": "770, Aqisseqarajooq, 3905 Nuuk, Greenland"
    },
    {
      "lat": 64.18245889012113,
      "lon": -51.70575819539338,
      "geoinfo": {
        "display_name": "Nuussuaq Skolen, Narsarviaq, Nuussuaq, Nuuk, Sermersooq, 3905, Greenland",
        "road": "Narsarviaq",
        "house_number": null,
        "neighbourhood": null,
        "suburb": null,
        "city_district": null,
        "city": "Nuuk",
        "state": null,
        "postcode": "3905",
        "country": "Greenland",
        "country_code": "gl"
      },
      "address": "217, Narsarviaq, 3905 Nuuk, Greenland"
    },
    {
      "lat": 64.19067731813915,
      "lon": -51.73401509752854,
      "geoinfo": {
        "display_name": "25, Innannguaq, Imeqarfik, Nuuk Centrum, Nuuk, Sermersooq, 3900, Greenland",
        "road": "Innannguaq",
        "house_number": "25",
        "neighbourhood": "Imeqarfik",
        "suburb": "Nuuk Centrum",
        "city_district": null,
        "city": "Nuuk",
        "state": null,
        "postcode": "3900",
        "country": "Greenland",
        "country_code": "gl"
      },
      "address": "25, Innannguaq, Imeqarfik, Nuuk Centrum, Nuuk, Sermersooq, 3900, Greenland"
    },
    {
      "lat": 64.18613459517675,
      "lon": -51.82283415287191,
      "geoinfo": {
        "display_name": "Nuuk, Sermersooq, 3900, Greenland",
        "road": null,
        "house_number": null,
        "neighbourhood": null,
        "suburb": null,
        "city_district": null,
        "city": "Nuuk",
        "state": null,
        "postcode": "3900",
        "country": "Greenland",
        "country_code": "gl"
      },
      "address": "851, Nuuk, Sermersooq, 3900, Greenland"
    },
    {
      "lat": 64.17016154160982,
      "lon": -51.75042211758603,
      "geoinfo": {
        "display_name": "64, Saqqarliit, Qapiarfiusaaq, Nuuk Centrum, Nuuk, Sermersooq, 3900, Greenland",
        "road": "Saqqarliit",
        "house_number": "64",
        "neighbourhood": "Qapiarfiusaaq",
        "suburb": "Nuuk Centrum",
        "city_district": null,
        "city": "Nuuk",
        "state": null,
        "postcode": "3900",
        "country": "Greenland",
        "country_code": "gl"
      },
      "address": "64, Saqqarliit, Qapiarfiusaaq, Nuuk Centrum, Nuuk, Sermersooq, 3900, Greenland"
    },
    {
      "lat": 64.20725261423753,
      "lon": -51.73520022111348,
      "geoinfo": {
        "display_name": "Nuuk Centrum, Nuuk, Sermersooq, 3900, Greenland",
        "road": null,
        "house_number": null,
        "neighbourhood": null,
        "suburb": "Nuuk Centrum",
        "city_district": null,
        "city": "Nuuk",
        "state": null,
        "postcode": "3900",
        "country": "Greenland",
        "country_code": "gl"
      },
      "address": "435, Nuuk Centrum, Nuuk, Sermersooq, 3900, Greenland"
    },
    {
      "lat": 64.14327214097649,
      "lon": -51.75727363190427,
      "geoinfo": {
        "display_name": "Nuuk Centrum, Nuuk, Sermersooq, 3900, Greenland",
        "road": null,
        "house_number": null,
        "neighbourhood": null,
        "suburb": "Nuuk Centrum",
        "city_district": null,
        "city": "Nuuk",
        "state": null,
        "postcode": "3900",
        "country": "Greenland",
        "country_code": "gl"
      },
      "address": "525, Nuuk Centrum, Nuuk, Sermersooq, 3900, Greenland"
    },
    {
      "lat": 64.20291346770813,
      "lon": -51.698341413586846,
      "geoinfo": {
        "display_name": "Quassussuup Tungaa, Nuuk, Sermersooq, 3905, Greenland",
        "road": null,
        "house_number": null,
        "neighbourhood": "Quassussuup Tungaa",
        "suburb": null,
        "city_district": null,
        "city": "Nuuk",
        "state": null,
        "postcode": "3905",
        "country": "Greenland",
        "country_code": "gl"
      },
      "address": "377, Quassussuup Tungaa, Nuuk, Sermersooq, 3905, Greenland"
    },
    {
      "lat": 64.18040912667581,
      "lon": -51.80115626921604,
      "geoinfo": {
        "display_name": "Nuuk, Sermersooq, 3900, Greenland",
        "road": null,
        "house_number": null,
        "neighbourhood": null,
        "suburb": null,
        "city_district": null,
        "city": "Nuuk",
        "state": null,
        "postcode": "3900",
        "country": "Greenland",
        "country_code": "gl"
      },
      "address": "074, Nuuk, Sermersooq, 3900, Greenland"
    },
    {
      "lat": 64.13913063883719,
      "lon": -51.721474806035154,
      "geoinfo": {
        "display_name": "Nuuk, Sermersooq, 3900, Greenland",
        "road": null,
        "house_number": null,
        "neighbourhood": null,
        "suburb": null,
        "city_district": null,
        "city": "Nuuk",
        "state": null,
        "postcode": "3900",
        "country": "Greenland",
        "country_code": "gl"
      },
      "address": "366, Nuuk, Sermersooq, 3900, Greenland"
    },
    {
      "lat": 64.18810109777036,
      "lon": -51.710710140216435,
      "geoinfo": {
        "display_name": "Peter Thrup Heghip Aqq., Quassussuup Tungaa, Nuuk, Sermersooq, 3905, Greenland",
        "road": "Peter Thrup Heghip Aqq.",
        "house_number": null,
        "neighbourhood": "Quassussuup Tungaa",
        "suburb": null,
        "city_district": null,
        "city": "Nuuk",
        "state": null,
        "postcode": "3905",
        "country": "Greenland",
        "country_code": "gl"
      },
      "address": "883, Peter Thrup Heghip Aqq., Quassussuup Tungaa, Nuuk, Sermersooq, 3905, Greenland"
    },
    {
      "lat": 64.15999899770979,
      "lon": -51.7261110467367,
      "geoinfo": {
        "display_name": "Tuujuk, Nuuk Centrum, Nuuk, Sermersooq, 3900, Greenland",
        "road": null,
        "house_number": null,
        "neighbourhood": "Tuujuk",
        "suburb": "Nuuk Centrum",
        "city_district": null,
        "city": "Nuuk",
        "state": null,
        "postcode": "3900",
        "country": "Greenland",
        "country_code": "gl"
      },
      "address": "698, Tuujuk, Nuuk Centrum, Nuuk, Sermersooq, 3900, Greenland"
    },
    {
      "lat": 64.1829978811522,
      "lon": -51.65374349411763,
      "geoinfo": {
        "display_name": "Paarnarissoq, Nuuk, Sermersooq, 3905, Greenland",
        "road": null,
        "house_number": null,
        "neighbourhood": "Paarnarissoq",
        "suburb": null,
        "city_district": null,
        "city": "Nuuk",
        "state": null,
        "postcode": "3905",
        "country": "Greenland",
        "country_code": "gl"
      },
      "address": "236, Paarnarissoq, Nuuk, Sermersooq, 3905, Greenland"
    },
    {
      "lat": 64.14255377151217,
      "lon": -51.68120819099234,
      "geoinfo": {
        "display_name": "Siorarsiorfik, Nuuk, Sermersooq, Greenland",
        "road": null,
        "house_number": null,
        "neighbourhood": "Siorarsiorfik",
        "suburb": null,
        "city_district": null,
        "city": "Nuuk",
        "state": null,
        "postcode": null,
        "country": "Greenland",
        "country_code": "gl"
      },
      "address": "080, Siorarsiorfik, Nuuk, 97820 Sermersooq, Greenland"
    },
    {
      "lat": 64.20335014285314,
      "lon": -51.80160839261673,
      "geoinfo": {
        "display_name": "Nuuk, Sermersooq, 3900, Greenland",
        "road": null,
        "house_number": null,
        "neighbourhood": null,
        "suburb": null,
        "city_district": null,
        "city": "Nuuk",
        "state": null,
        "postcode": "3900",
        "country": "Greenland",
        "country_code": "gl"
      },
      "address": "311, Nuuk, Sermersooq, 3900, Greenland"
    },
    {
      "lat": 64.1673577370278,
      "lon": -51.815815671243136,
      "geoinfo": {
        "display_name": "Nuuk, Sermersooq, 3900, Greenland",
        "road": null,
        "house_number": null,
        "neighbourhood": null,
        "suburb": null,
        "city_district": null,
        "city": "Nuuk",
        "state": null,
        "postcode": "3900",
        "country": "Greenland",
        "country_code": "gl"
      },
      "address": "917, Nuuk, Sermersooq, 3900, Greenland"
    },
    {
      "lat": 64.20777630877288,
      "lon": -51.78501511538334,
      "geoinfo": {
        "display_name": "Nuuk, Sermersooq, 3900, Greenland",
        "road": null,
        "house_number": null,
        "neighbourhood": null,
        "suburb": null,
        "city_district": null,
        "city": "Nuuk",
        "state": null,
        "postcode": "3900",
        "country": "Greenland",
        "country_code": "gl"
      },
      "address": "520, Nuuk, Sermersooq, 3900, Greenland"
    },
    {
      "lat": 64.21387324697938,
      "lon": -51.74358012799594,
      "geoinfo": {
        "display_name": "Nuuk Centrum, Nuuk, Sermersooq, 3900, Greenland",
        "road": null,
        "house_number": null,
        "neighbourhood": null,
        "suburb": "Nuuk Centrum",
        "city_district": null,
        "city": "Nuuk",
        "state": null,
        "postcode": "3900",
        "country": "Greenland",
        "country_code": "gl"
      },
      "address": "153, Nuuk Centrum, Nuuk, Sermersooq, 3900, Greenland"
    },
    {
      "lat": 64.19767504751628,
      "lon": -51.708448454069966,
      "geoinfo": {
        "display_name": "8, Kangillinnguit, Quassussuup Tungaa, Nuuk, Sermersooq, 3905, Greenland",
        "road": "Kangillinnguit",
        "house_number": "8",
        "neighbourhood": "Quassussuup Tungaa",
        "suburb": null,
        "city_district": null,
        "city": "Nuuk",
        "state": null,
        "postcode": "3905",
        "country": "Greenland",
        "country_code": "gl"
      },
      "address": "8, Kangillinnguit, Quassussuup Tungaa, Nuuk, Sermersooq, 3905, Greenland"
    },
    {
      "lat": 64.19750965159118,
      "lon": -51.62725556578354,
      "geoinfo": {
        "display_name": "Nuuk, Sermersooq, 3900, Greenland",
        "road": null,
        "house_number": null,
        "neighbourhood": null,
        "suburb": null,
        "city_district": null,
        "city": "Nuuk",
        "state": null,
        "postcode": "3900",
        "country": "Greenland",
        "country_code": "gl"
      },
      "address": "531, Nuuk, Sermersooq, 3900, Greenland"
    },
    {
      "lat": 64.22078146799697,
      "lon": -51.73558747570474,
      "geoinfo": {
        "display_name": "Nuuk, Sermersooq, 3900, Greenland",
        "road": null,
        "house_number": null,
        "neighbourhood": null,
        "suburb": null,
        "city_district": null,
        "city": "Nuuk",
        "state": null,
        "postcode": "3900",
        "country": "Greenland",
        "country_code": "gl"
      },
      "address": "637, Nuuk, Sermersooq, 3900, Greenland"
    },
    {
      "lat": 64.19304202418843,
      "lon": -51.62168318950994,
      "geoinfo": {
        "display_name": "Nuuk, Sermersooq, 3900, Greenland",
        "road": null,
        "house_number": null,
        "neighbourhood": null,
        "suburb": null,
        "city_district": null,
        "city": "Nuuk",
        "state": null,
        "postcode": "3900",
        "country": "Greenland",
        "country_code": "gl"
      },
      "address": "113, Nuuk, Sermersooq, 3900, Greenland"
    },
    {
      "lat": 64.14643851107073,
      "lon": -51.76811567110749,
      "geoinfo": {
        "display_name": "Nuuk, Sermersooq, 3900, Greenland",
        "road": null,
        "house_number": null,
        "neighbourhood": null,
        "suburb": null,
        "city_district": null,
        "city": "Nuuk",
        "state": null,
        "postcode": "3900",
        "country": "Greenland",
        "country_code": "gl"
      },
      "address": "709, Nuuk, Sermersooq, 3900, Greenland"
    },
    {
      "lat": 64.19695286176187,
      "lon": -51.76585367518274,
      "geoinfo": {
        "display_name": "Nuuk Centrum, Nuuk, Sermersooq, 3900, Greenland",
        "road": null,
        "house_number": null,
        "neighbourhood": null,
        "suburb": "Nuuk Centrum",
        "city_district": null,
        "city": "Nuuk",
        "state": null,
        "postcode": "3900",
        "country": "Greenland",
        "country_code": "gl"
      },
      "address": "402, Nuuk Centrum, Nuuk, Sermersooq, 3900, Greenland"
    },
    {
      "lat": 64.18565367195615,
      "lon": -51.665689561349936,
      "geoinfo": {
        "display_name": "Sisorarfiit Skiliften, Aqisseqarajooq, Nukappiakuluk, Nuuk, Sermersooq, 3905, Greenland",
        "road": "Aqisseqarajooq",
        "house_number": null,
        "neighbourhood": "Nukappiakuluk",
        "suburb": null,
        "city_district": null,
        "city": "Nuuk",
        "state": null,
        "postcode": "3905",
        "country": "Greenland",
        "country_code": "gl"
      },
      "address": "328, Aqisseqarajooq, 3905 Nuuk, Greenland"
    },
    {
      "lat": 64.19566425130046,
      "lon": -51.68791989716866,
      "geoinfo": {
        "display_name": "Siaqqinneq, Nukappiakuluk, Nuuk, Sermersooq, 3905, Greenland",
        "road": "Siaqqinneq",
        "house_number": null,
        "neighbourhood": "Nukappiakuluk",
        "suburb": null,
        "city_district": null,
        "city": "Nuuk",
        "state": null,
        "postcode": "3905",
        "country": "Greenland",
        "country_code": "gl"
      },
      "address": "076, Siaqqinneq, Nukappiakuluk, Nuuk, Sermersooq, 3905, Greenland"
    },
    {
      "lat": 64.226073830432,
      "lon": -51.727627766682104,
      "geoinfo": {
        "display_name": "Nuuk, Sermersooq, 3900, Greenland",
        "road": null,
        "house_number": null,
        "neighbourhood": null,
        "suburb": null,
        "city_district": null,
        "city": "Nuuk",
        "state": null,
        "postcode": "3900",
        "country": "Greenland",
        "country_code": "gl"
      },
      "address": "246, Nuuk, Sermersooq, 3900, Greenland"
    },
    {
      "lat": 64.15622825845148,
      "lon": -51.795739115084466,
      "geoinfo": {
        "display_name": "Nuuk, Sermersooq, 3900, Greenland",
        "road": null,
        "house_number": null,
        "neighbourhood": null,
        "suburb": null,
        "city_district": null,
        "city": "Nuuk",
        "state": null,
        "postcode": "3900",
        "country": "Greenland",
        "country_code": "gl"
      },
      "address": "560, Nuuk, Sermersooq, 3900, Greenland"
    },
    {
      "lat": 64.17215281924466,
      "lon": -51.815102760010426,
      "geoinfo": {
        "display_name": "Nuuk, Sermersooq, 3900, Greenland",
        "road": null,
        "house_number": null,
        "neighbourhood": null,
        "suburb": null,
        "city_district": null,
        "city": "Nuuk",
        "state": null,
        "postcode": "3900",
        "country": "Greenland",
        "country_code": "gl"
      },
      "address": "214, Nuuk, Sermersooq, 3900, Greenland"
    },
    {
      "lat": 64.2136418724287,
      "lon": -51.66397520225514,
      "geoinfo": {
        "display_name": "Nuuk, Sermersooq, 3900, Greenland",
        "road": null,
        "house_number": null,
        "neighbourhood": null,
        "suburb": null,
        "city_district": null,
        "city": "Nuuk",
        "state": null,
        "postcode": "3900",
        "country": "Greenland",
        "country_code": "gl"
      },
      "address": "875, Nuuk, Sermersooq, 3900, Greenland"
    },
    {
      "lat": 64.15789883411306,
      "lon": -51.766803284814934,
      "geoinfo": {
        "display_name": "Nuuk Centrum, Nuuk, Sermersooq, 3900, Greenland",
        "road": null,
        "house_number": null,
        "neighbourhood": null,
        "suburb": "Nuuk Centrum",
        "city_district": null,
        "city": "Nuuk",
        "state": null,
        "postcode": "3900",
        "country": "Greenland",
        "country_code": "gl"
      },
      "address": "548, Nuuk Centrum, Nuuk, Sermersooq, 3900, Greenland"
    },
    {
      "lat": 64.22645761823232,
      "lon": -51.69376628278335,
      "geoinfo": {
        "display_name": "Nuuk, Sermersooq, 3900, Greenland",
        "road": null,
        "house_number": null,
        "neighbourhood": null,
        "suburb": null,
        "city_district": null,
        "city": "Nuuk",
        "state": null,
        "postcode": "3900",
        "country": "Greenland",
        "country_code": "gl"
      },
      "address": "617, Nuuk, Sermersooq, 3900, Greenland"
    },
    {
      "lat": 64.21023689067226,
      "lon": -51.710794023248205,
      "geoinfo": {
        "display_name": "Quassussuup Tungaa, Nuuk, Sermersooq, 3905, Greenland",
        "road": null,
        "house_number": null,
        "neighbourhood": "Quassussuup Tungaa",
        "suburb": null,
        "city_district": null,
        "city": "Nuuk",
        "state": null,
        "postcode": "3905",
        "country": "Greenland",
        "country_code": "gl"
      },
      "address": "505, Quassussuup Tungaa, Nuuk, Sermersooq, 3905, Greenland"
    },
    {
      "lat": 64.1905777023501,
      "lon": -51.72778193686505,
      "geoinfo": {
        "display_name": "4A;4B;4C, Qernertunnguanut, Qernertunnguit, Nuuk, Sermersooq, 3900, Greenland",
        "road": "Qernertunnguanut",
        "house_number": "4A;4B;4C",
        "neighbourhood": "Qernertunnguit",
        "suburb": null,
        "city_district": null,
        "city": "Nuuk",
        "state": null,
        "postcode": "3900",
        "country": "Greenland",
        "country_code": "gl"
      },
      "address": "4A;4B;4C, Qernertunnguanut, Qernertunnguit, Nuuk, Sermersooq, 3900, Greenland"
    },
    {
      "lat": 64.19286728712687,
      "lon": -51.79102044296645,
      "geoinfo": {
        "display_name": "Nuuk, Sermersooq, 3900, Greenland",
        "road": null,
        "house_number": null,
        "neighbourhood": null,
        "suburb": null,
        "city_district": null,
        "city": "Nuuk",
        "state": null,
        "postcode": "3900",
        "country": "Greenland",
        "country_code": "gl"
      },
      "address": "663, Nuuk, Sermersooq, 3900, Greenland"
    },
    {
      "lat": 64.14373995892029,
      "lon": -51.74395085994046,
      "geoinfo": {
        "display_name": "Nuuk Centrum, Nuuk, Sermersooq, 3900, Greenland",
        "road": null,
        "house_number": null,
        "neighbourhood": null,
        "suburb": "Nuuk Centrum",
        "city_district": null,
        "city": "Nuuk",
        "state": null,
        "postcode": "3900",
        "country": "Greenland",
        "country_code": "gl"
      },
      "address": "472, Nuuk Centrum, Nuuk, Sermersooq, 3900, Greenland"
    },
    {
      "lat": 64.17367335969077,
      "lon": -51.670573925817266,
      "geoinfo": {
        "display_name": "3, Seernaq, Taqissorfik, Nuuk, Sermersooq, 3905, Greenland",
        "road": "Seernaq",
        "house_number": "3",
        "neighbourhood": "Taqissorfik",
        "suburb": null,
        "city_district": null,
        "city": "Nuuk",
        "state": null,
        "postcode": "3905",
        "country": "Greenland",
        "country_code": "gl"
      },
      "address": "3, Seernaq, Taqissorfik, Nuuk, Sermersooq, 3905, Greenland"
    },
    {
      "lat": 64.18914404067903,
      "lon": -51.633946648902125,
      "geoinfo": {
        "display_name": "Nuuk, Sermersooq, 3900, Greenland",
        "road": null,
        "house_number": null,
        "neighbourhood": null,
        "suburb": null,
        "city_district": null,
        "city": "Nuuk",
        "state": null,
        "postcode": "3900",
        "country": "Greenland",
        "country_code": "gl"
      },
      "address": "374, Nuuk, Sermersooq, 3900, Greenland"
    },
    {
      "lat": 64.22326275521567,
      "lon": -51.69308493901875,
      "geoinfo": {
        "display_name": "Nuuk, Sermersooq, 3900, Greenland",
        "road": null,
        "house_number": null,
        "neighbourhood": null,
        "suburb": null,
        "city_district": null,
        "city": "Nuuk",
        "state": null,
        "postcode": "3900",
        "country": "Greenland",
        "country_code": "gl"
      },
      "address": "102, Nuuk, Sermersooq, 3900, Greenland"
    },
    {
      "lat": 64.20059586910696,
      "lon": -51.77844922943457,
      "geoinfo": {
        "display_name": "Nuuk, Sermersooq, 3900, Greenland",
        "road": null,
        "house_number": null,
        "neighbourhood": null,
        "suburb": null,
        "city_district": null,
        "city": "Nuuk",
        "state": null,
        "postcode": "3900",
        "country": "Greenland",
        "country_code": "gl"
      },
      "address": "838, Nuuk, Sermersooq, 3900, Greenland"
    },
    {
      "lat": 64.19695601317416,
      "lon": -51.72471143694767,
      "geoinfo": {
        "display_name": "Qernertunnguit Kangerluat, Inuk Hostels, Nuuk, Sermersooq, 3900, Greenland",
        "road": "Qernertunnguit Kangerluat",
        "house_number": null,
        "neighbourhood": null,
        "suburb": null,
        "city_district": null,
        "city": "Nuuk",
        "state": null,
        "postcode": "3900",
        "country": "Greenland",
        "country_code": "gl"
      },
      "address": "463, Qernertunnguit Kangerluat, Inuk Hostels, Nuuk, Sermersooq, 3900, Greenland"
    },
    {
      "lat": 64.2076948893257,
      "lon": -51.63608151988041,
      "geoinfo": {
        "display_name": "Nuuk, Sermersooq, 3900, Greenland",
        "road": null,
        "house_number": null,
        "neighbourhood": null,
        "suburb": null,
        "city_district": null,
        "city": "Nuuk",
        "state": null,
        "postcode": "3900",
        "country": "Greenland",
        "country_code": "gl"
      },
      "address": "157, Nuuk, Sermersooq, 3900, Greenland"
    },
    {
      "lat": 64.17556630035945,
      "lon": -51.690417185410816,
      "geoinfo": {
        "display_name": "Borgmester Aniita Aqqusernga, Taqissorfik, Nuuk, Sermersooq, 3905, Greenland",
        "road": "Borgmester Aniita Aqqusernga",
        "house_number": null,
        "neighbourhood": "Taqissorfik",
        "suburb": null,
        "city_district": null,
        "city": "Nuuk",
        "state": null,
        "postcode": "3905",
        "country": "Greenland",
        "country_code": "gl"
      },
      "address": "247, Borgmester Aniita Aqqusernga, Taqissorfik, Nuuk, Sermersooq, 3905, Greenland"
    },
    {
      "lat": 64.17484983134169,
      "lon": -51.69465514396007,
      "geoinfo": {
        "display_name": "Borgmester Aniita Aqqusernga, Taqissorfik, Nuuk, Sermersooq, 3905, Greenland",
        "road": "Borgmester Aniita Aqqusernga",
        "house_number": null,
        "neighbourhood": "Taqissorfik",
        "suburb": null,
        "city_district": null,
        "city": "Nuuk",
        "state": null,
        "postcode": "3905",
        "country": "Greenland",
        "country_code": "gl"
      },
      "address": "275, Borgmester Aniita Aqqusernga, Taqissorfik, Nuuk, Sermersooq, 3905, Greenland"
    },
    {
      "lat": 64.17748104712452,
      "lon": -51.78561513257471,
      "geoinfo": {
        "display_name": "Nuuk, Sermersooq, 3900, Greenland",
        "road": null,
        "house_number": null,
        "neighbourhood": null,
        "suburb": null,
        "city_district": null,
        "city": "Nuuk",
        "state": null,
        "postcode": "3900",
        "country": "Greenland",
        "country_code": "gl"
      },
      "address": "269, Nuuk, Sermersooq, 3900, Greenland"
    },
    {
      "lat": 64.17864461828347,
      "lon": -51.62111221814612,
      "geoinfo": {
        "display_name": "Orange route, Paarnarissoq, Nuuk, Sermersooq, Greenland",
        "road": "Orange route",
        "house_number": null,
        "neighbourhood": "Paarnarissoq",
        "suburb": null,
        "city_district": null,
        "city": "Nuuk",
        "state": null,
        "postcode": null,
        "country": "Greenland",
        "country_code": "gl"
      },
      "address": "427, Orange route, Paarnarissoq, Nuuk, 73061 Sermersooq, Greenland"
    },
    {
      "lat": 64.16577753481563,
      "lon": -51.708360854678524,
      "geoinfo": {
        "display_name": "Qeqertanut, Nuuk Centrum, Nuuk, Sermersooq, 3905, Greenland",
        "road": "Qeqertanut",
        "house_number": null,
        "neighbourhood": null,
        "suburb": "Nuuk Centrum",
        "city_district": null,
        "city": "Nuuk",
        "state": null,
        "postcode": "3905",
        "country": "Greenland",
        "country_code": "gl"
      },
      "address": "599, Qeqertanut, Nuuk Centrum, Nuuk, Sermersooq, 3905, Greenland"
    },
    {
      "lat": 64.21622877954205,
      "lon": -51.74686557253785,
      "geoinfo": {
        "display_name": "Nuuk, Sermersooq, 3900, Greenland",
        "road": null,
        "house_number": null,
        "neighbourhood": null,
        "suburb": null,
        "city_district": null,
        "city": "Nuuk",
        "state": null,
        "postcode": "3900",
        "country": "Greenland",
        "country_code": "gl"
      },
      "address": "502, Nuuk, Sermersooq, 3900, Greenland"
    },
    {
      "lat": 64.1912622427638,
      "lon": -51.64795977183602,
      "geoinfo": {
        "display_name": "Orange route, Paarnarissoq, Nuuk, Sermersooq, Greenland",
        "road": "Orange route",
        "house_number": null,
        "neighbourhood": "Paarnarissoq",
        "suburb": null,
        "city_district": null,
        "city": "Nuuk",
        "state": null,
        "postcode": null,
        "country": "Greenland",
        "country_code": "gl"
      },
      "address": "241, Orange route, Paarnarissoq, Nuuk, 54781 Sermersooq, Greenland"
    },
    {
      "lat": 64.19071515251832,
      "lon": -51.78347095544684,
      "geoinfo": {
        "display_name": "Nuuk, Sermersooq, 3900, Greenland",
        "road": null,
        "house_number": null,
        "neighbourhood": null,
        "suburb": null,
        "city_district": null,
        "city": "Nuuk",
        "state": null,
        "postcode": "3900",
        "country": "Greenland",
        "country_code": "gl"
      },
      "address": "773, Nuuk, Sermersooq, 3900, Greenland"
    }
  ],
  "updated_at": "2025-10-19T04:31:13.111805+00:00",
  "_kind": "geo_samples"
}