{
  "country_code": "BH",
  "country": "Bahrain",
  "city": "Dār Kulayb",
  "geonameid": 290269,
  "target_addresses": 13,
  "samples": [
    {
      "lat": 26.062221254367376,
      "lon": 50.45673125087854,
      "geoinfo": {
        "display_name": "Gulf of Bahrain, 34413, Qatar",
        "road": null,
        "house_number": null,
        "neighbourhood": null,
        "suburb": null,
        "city_district": null,
        "city": null,
        "state": null,
        "postcode": "34413",
        "country": "Qatar",
        "country_code": "qa"
      },
      "address": "Dār Kulayb, Bahrain"
    },
    {
      "lat": 26.09939873875147,
      "lon": 50.469483130693014,
      "geoinfo": {
        "display_name": "Karzakan, Northern Governorate, 1203, Bahrain",
        "road": null,
        "house_number": null,
        "neighbourhood": null,
        "suburb": null,
        "city_district": null,
        "city": "Karzakan",
        "state": "Northern Governorate",
        "postcode": "1203",
        "country": "Bahrain",
        "country_code": "bh"
      },
      "address": "Dār Kulayb, Northern Governorate, Bahrain"
    },
    {
      "lat": 26.05524369970623,
      "lon": 50.541049160482224,
      "geoinfo": {
        "display_name": "Riffa, Southern Governorate, Bahrain",
        "road": null,
        "house_number": null,
        "neighbourhood": null,
        "suburb": null,
        "city_district": null,
        "city": "Riffa",
        "state": "Southern Governorate",
        "postcode": null,
        "country": "Bahrain",
        "country_code": "bh"
      },
      "address": "Dār Kulayb, Southern Governorate, Bahrain"
    },
    {
      "lat": 26.070032064574114,
      "lon": 50.501979178934924,
      "geoinfo": {
        "display_name": "Road 4812, Zallaq, Southern Governorate, 902, Bahrain",
        "road": "Road 4812",
        "house_number": null,
        "neighbourhood": null,
        "suburb": null,
        "city_district": null,
        "city": "Zallaq",
        "state": "Southern Governorate",
        "postcode": "902",
        "country": "Bahrain",
        "country_code": "bh"
      },
      "address": "Road 4812, Dār Kulayb, Southern Governorate, Bahrain"
    },
    {
      "lat": 26.0313742438557,
      "lon": 50.509990999874475,
      "geoinfo": {
        "display_name": "Bahrain International Circuit, Road 5445, Zallaq, Southern Governorate, 902, Bahrain",
        "road": "Road 5445",
        "house_number": null,
        "neighbourhood": null,
        "suburb": null,
        "city_district": null,
        "city": "Zallaq",
        "state": "Southern Governorate",
        "postcode": "902",
        "country": "Bahrain",
        "country_code": "bh"
      },
      "address": "Road 5445, Dār Kulayb, Southern Governorate, Bahrain"
    },
    {
      "lat": 26.090159216283517,
      "lon": 50.53630637697214,
      "geoinfo": {
        "display_name": "Road 4444, Awali, Southern Governorate, 912, Bahrain",
        "road": "Road 4444",
        "house_number": null,
        "neighbourhood": null,
        "suburb": null,
        "city_district": null,
        "city": "Awali",
        "state": "Southern Governorate",
        "postcode": "912",
        "country": "Bahrain",
        "country_code": "bh"
      },
      "address": "Road 4444, Dār Kulayb, Southern Governorate, Bahrain"
    },
    {
      "lat": 26.053532164815305,
      "lon": 50.522711192424154,
      "geoinfo": {
        "display_name": "Road 7625, Awali, Southern Governorate, 902, Bahrain",
        "road": "Road 7625",
        "house_number": null,
        "neighbourhood": null,
        "suburb": null,
        "city_district": null,
        "city": "Awali",
        "state": "Southern Governorate",
        "postcode": "902",
        "country": "Bahrain",
        "country_code": "bh"
      },
      "address": "Road 7625, Dār Kulayb, Southern Governorate, Bahrain"
    },
    {
      "lat": 26.0812207872966,
      "lon": 50.477109034221556,
      "geoinfo": {
        "display_name": "Avenue 41, صدد, Northern Governorate, 902, Bahrain",
        "road": "Avenue 41",
        "house_number": null,
        "neighbourhood": null,
        "suburb": null,
        "city_district": null,
        "city": "صدد",
        "state": "Northern Governorate",
        "postcode": "902",
        "country": "Bahrain",
        "country_code": "bh"
      },
      "address": "Avenue 41, Dār Kulayb, Northern Governorate, Bahrain"
    },
    {
      "lat": 26.068433007493173,
      "lon": 50.5142744276693,
      "geoinfo": {
        "display_name": "Avenue 18, Dar Kulayb, Northern Governorate, 902, Bahrain",
        "road": "Avenue 18",
        "house_number": null,
        "neighbourhood": null,
        "suburb": null,
        "city_district": null,
        "city": "Dar Kulayb",
        "state": "Northern Governorate",
        "postcode": "902",
        "country": "Bahrain",
        "country_code": "bh"
      },
      "address": "Avenue 18, Dār Kulayb, Northern Governorate, Bahrain"
    },
    {
      "lat": 26.10174107883579,
      "lon": 50.47548758676087,
      "geoinfo": {
        "display_name": "Road 2732, Karzakan, Northern Governorate, 1203, Bahrain",
        "road": "Road 2732",
        "house_number": null,
        "neighbourhood": null,
        "suburb": null,
        "city_district": null,
        "city": "Karzakan",
        "state": "Northern Governorate",
        "postcode": "1203",
        "country": "Bahrain",
        "country_code": "bh"
      },
      "address": "Road 2732, Dār Kulayb, Northern Governorate, Bahrain"
    },
    {
      "lat": 26.060911296301352,
      "lon": 50.49718556805129,
      "geoinfo": {
        "display_name": "Road 4871, Zallaq, Southern Governorate, 902, Bahrain",
        "road": "Road 4871",
        "house_number": null,
        "neighbourhood": null,
        "suburb": null,
        "city_district": null,
        "city": "Zallaq",
        "state": "Southern Governorate",
        "postcode": "902",
        "country": "Bahrain",
        "country_code": "bh"
      },
      "address": "Road 4871, Dār Kulayb, Southern Governorate, Bahrain"
    },
    {
      "lat": 26.03399582874542,
      "lon": 50.52102653496711,
      "geoinfo": {
        "display_name": "Sakhir Air Base, Road 5414, Zallaq, Southern Governorate, 902, Bahrain",
        "road": "Road 5414",
        "house_number": null,
        "neighbourhood": null,
        "suburb": null,
        "city_district": null,
        "city": "Zallaq",
        "state": "Southern Governorate",
        "postcode": "902",
        "country": "Bahrain",
        "country_code": "bh"
      },
      "address": "Road 5414, Dār Kulayb, Southern Governorate, Bahrain"
    },
    {
      "lat": 26.067556197777787,
      "lon": 50.483886752789296,
      "geoinfo": {
        "display_name": "Avenue 51, شَهْرَكَّان, Northern Governorate, 902, Bahrain",
        "road": "Avenue 51",
        "house_number": null,
        "neighbourhood": null,
        "suburb": null,
        "city_district": null,
        "city": "شَهْرَكَّان",
        "state": "Northern Governorate",
        "postcode": "902",
        "country": "Bahrain",
        "country_code": "bh"
      },
      "address": "Avenue 51, Dār Kulayb, Northern Governorate, Bahrain"
    },
    {
      "lat": 26.091427748055015,
      "lon": 50.48200581771671,
      "geoinfo": {
        "display_name": "المالكية, Northern Governorate, 902, Bahrain",
        "road": null,
        "house_number": null,
        "neighbourhood": null,
        "suburb": null,
        "city_district": null,
        "city": "المالكية",
        "state": "Northern Governorate",
        "postcode": "902",
        "country": "Bahrain",
        "country_code": "bh"
      },
      "address": "671, Dār Kulayb, 902 Northern Governorate, Bahrain"
    },
    {
      "lat": 26.08717681449745,
      "lon": 50.486190979200416,
      "geoinfo": {
        "display_name": "Avenue 37, صدد, Northern Governorate, 902, Bahrain",
        "road": "Avenue 37",
        "house_number": null,
        "neighbourhood": null,
        "suburb": null,
        "city_district": null,
        "city": "صدد",
        "state": "Northern Governorate",
        "postcode": "902",
        "country": "Bahrain",
        "country_code": "bh"
      },
      "address": "Avenue 37, Dār Kulayb, 902 Northern Governorate, Bahrain"
    },
    {
      "lat": 26.040887160758167,
      "lon": 50.51281260661983,
      "geoinfo": {
        "display_name": "Shaikh Isa Royal Military College, Road 5445, Zallaq, Southern Governorate, 902, Bahrain",
        "road": "Road 5445",
        "house_number": null,
        "neighbourhood": null,
        "suburb": null,
        "city_district": null,
        "city": "Zallaq",
        "state": "Southern Governorate",
        "postcode": "902",
        "country": "Bahrain",
        "country_code": "bh"
      },
      "address": "Road 5445, Dār Kulayb, 902 Southern Governorate, Bahrain"
    },
    {
      "lat": 26.075696868599398,
      "lon": 50.552795747616265,
      "geoinfo": {
        "display_name": "Avenue 49, Awali, Southern Governorate, 905, Bahrain",
        "road": "Avenue 49",
        "house_number": null,
        "neighbourhood": null,
        "suburb": null,
        "city_district": null,
        "city": "Awali",
        "state": "Southern Governorate",
        "postcode": "905",
        "country": "Bahrain",
        "country_code": "bh"
      },
      "address": "Avenue 49, Dār Kulayb, 905 Southern Governorate, Bahrain"
    },
    {
      "lat": 26.043076055780176,
      "lon": 50.50806242633494,
      "geoinfo": {
        "display_name": "Zallaq, Southern Governorate, 902, Bahrain",
        "road": null,
        "house_number": null,
        "neighbourhood": null,
        "suburb": null,
        "city_district": null,
        "city": "Zallaq",
        "state": "Southern Governorate",
        "postcode": "902",
        "country": "Bahrain",
        "country_code": "bh"
      },
      "address": "525, Dār Kulayb, 902 Southern Governorate, Bahrain"
    },
    {
      "lat": 26.08980816930771,
      "lon": 50.50754524773037,
      "geoinfo": {
        "display_name": "Road 1121, Dar Kulayb, Northern Governorate, 902, Bahrain",
        "road": "Road 1121",
        "house_number": null,
        "neighbourhood": null,
        "suburb": null,
        "city_district": null,
        "city": "Dar Kulayb",
        "state": "Northern Governorate",
        "postcode": "902",
        "country": "Bahrain",
        "country_code": "bh"
      },
      "address": "Road 1121, Dar Kulayb, Northern Governorate, 902, Bahrain"
    },
    {
      "lat": 26.060863889123045,
      "lon": 50.54575158772504,
      "geoinfo": {
        "display_name": "Awali, Southern Governorate, Bahrain",
        "road": null,
        "house_number": null,
        "neighbourhood": null,
        "suburb": null,
        "city_district": null,
        "city": "Awali",
        "state": "Southern Governorate",
        "postcode": null,
        "country": "Bahrain",
        "country_code": "bh"
      },
      "address": "215, Dār Kulayb, 82198 Southern Governorate, Bahrain"
    },
    {
      "lat": 26.10866417706039,
      "lon": 50.493963183837074,
      "geoinfo": {
        "display_name": "Hamad Town, Northern Governorate, 1203, Bahrain",
        "road": null,
        "house_number": null,
        "neighbourhood": null,
        "suburb": null,
        "city_district": null,
        "city": "Hamad Town",
        "state": "Northern Governorate",
        "postcode": "1203",
        "country": "Bahrain",
        "country_code": "bh"
      },
      "address": "480, Dār Kulayb, 1203 Northern Governorate, Bahrain"
    },
    {
      "lat": 26.100279606270405,
      "lon": 50.500346314820085,
      "geoinfo": {
        "display_name": "Road 1043, Hamad Town, Northern Governorate, 1203, Bahrain",
        "road": "Road 1043",
        "house_number": null,
        "neighbourhood": null,
        "suburb": null,
        "city_district": null,
        "city": "Hamad Town",
        "state": "Northern Governorate",
        "postcode": "1203",
        "country": "Bahrain",
        "country_code": "bh"
      },
      "address": "Road 1043, Dār Kulayb, 1203 Northern Governorate, Bahrain"
    },
    {
      "lat": 26.039211000806606,
      "lon": 50.49252316437489,
      "geoinfo": {
        "display_name": "Zallaq, Southern Governorate, 902, Bahrain",
        "road": null,
        "house_number": null,
        "neighbourhood": null,
        "suburb": null,
        "city_district": null,
        "city": "Zallaq",
        "state": "Southern Governorate",
        "postcode": "902",
        "country": "Bahrain",
        "country_code": "bh"
      },
      "address": "238, Dār Kulayb, 902 Southern Governorate, Bahrain"
    },
    {
      "lat": 26.08084716937382,
      "lon": 50.509038305349605,
      "geoinfo": {
        "display_name": "Road 1402, Dar Kulayb, Northern Governorate, 902, Bahrain",
        "road": "Road 1402",
        "house_number": null,
        "neighbourhood": null,
        "suburb": null,
        "city_district": null,
        "city": "Dar Kulayb",
        "state": "Northern Governorate",
        "postcode": "902",
        "country": "Bahrain",
        "country_code": "bh"
      },
      "address": "Road 1402, Dar Kulayb, Northern Governorate, 902, Bahrain"
    },
    {
      "lat": 26.04165590462417,
      "lon": 50.48222560854319,
      "geoinfo": {
        "display_name": "Road 5759, Zallaq, Southern Governorate, 902, Bahrain",
        "road": "Road 5759",
        "house_number": null,
        "neighbourhood": null,
        "suburb": null,
        "city_district": null,
        "city": "Zallaq",
        "state": "Southern Governorate",
        "postcode": "902",
        "country": "Bahrain",
        "country_code": "bh"
      },
      "address": "Road 5759, Dār Kulayb, 902 Southern Governorate, Bahrain"
    },
    {
      "lat": 26.08513414552304,
      "lon": 50.51029515044291,
      "geoinfo": {
        "display_name": "Road 1227, Dar Kulayb, Northern Governorate, 902, Bahrain",
        "road": "Road 1227",
        "house_number": null,
        "neighbourhood": null,
        "suburb": null,
        "city_district": null,
        "city": "Dar Kulayb",
        "state": "Northern Governorate",
        "postcode": "902",
        "country": "Bahrain",
        "country_code": "bh"
      },
      "address": "Road 1227, Dar Kulayb, Northern Governorate, 902, Bahrain"
    }
  ],
  "updated_at": "2025-10-19T02:59:52.166304+00:00",
  "_kind": "geo_samples"
}