{
  "country_code": "BH",
  "country": "Bahrain",
  "city": "Jidd Ḩafş",
  "geonameid": 290215,
  "target_addresses": 13,
  "samples": [
    {
      "lat": 26.24963392595779,
      "lon": 50.56116695740351,
      "geoinfo": {
        "display_name": "Manama, Capital Governorate, 346, Bahrain",
        "road": null,
        "house_number": null,
        "neighbourhood": null,
        "suburb": null,
        "city_district": null,
        "city": "Manama",
        "state": "Capital Governorate",
        "postcode": "346",
        "country": "Bahrain",
        "country_code": "bh"
      },
      "address": "Jidd Ḩafş, Capital Governorate, Bahrain"
    },
    {
      "lat": 26.224551292332457,
      "lon": 50.57472060978545,
      "geoinfo": {
        "display_name": "Road 223, Al Salmaniya, Manama, Capital Governorate, 309, Bahrain",
        "road": "Road 223",
        "house_number": null,
        "neighbourhood": null,
        "suburb": "Al Salmaniya",
        "city_district": null,
        "city": "Manama",
        "state": "Capital Governorate",
        "postcode": "309",
        "country": "Bahrain",
        "country_code": "bh"
      },
      "address": "Road 223, Al Salmaniya, Manama, Capital Governorate, 309, Bahrain"
    },
    {
      "lat": 26.244458833677967,
      "lon": 50.56440595519675,
      "geoinfo": {
        "display_name": "Road 4652, Bahrain Financial Harbor, Sea Front, Manama, Capital Governorate, 346, Bahrain",
        "road": "Road 4652",
        "house_number": null,
        "neighbourhood": "Bahrain Financial Harbor",
        "suburb": "Sea Front",
        "city_district": null,
        "city": "Manama",
        "state": "Capital Governorate",
        "postcode": "346",
        "country": "Bahrain",
        "country_code": "bh"
      },
      "address": "Road 4652, Bahrain Financial Harbor, Sea Front, Manama, Capital Governorate, 346, Bahrain"
    },
    {
      "lat": 26.239999681147058,
      "lon": 50.52814542349364,
      "geoinfo": {
        "display_name": "Seef, Jid Hafs, Capital Governorate, 428, Bahrain",
        "road": null,
        "house_number": null,
        "neighbourhood": null,
        "suburb": "Seef",
        "city_district": null,
        "city": "Jid Hafs",
        "state": "Capital Governorate",
        "postcode": "428",
        "country": "Bahrain",
        "country_code": "bh"
      },
      "address": "678, Seef, Jid Hafs, Capital Governorate, 428, Bahrain"
    },
    {
      "lat": 26.209649359804914,
      "lon": 50.549556866133685,
      "geoinfo": {
        "display_name": "Tashan Avenue, طشان, Jid Hafs, Capital Governorate, 404, Bahrain",
        "road": "Tashan Avenue",
        "house_number": null,
        "neighbourhood": null,
        "suburb": "طشان",
        "city_district": null,
        "city": "Jid Hafs",
        "state": "Capital Governorate",
        "postcode": "404",
        "country": "Bahrain",
        "country_code": "bh"
      },
      "address": "307, Tashan Avenue, طشان, Jid Hafs, Capital Governorate, 404, Bahrain"
    },
    {
      "lat": 26.262131037054306,
      "lon": 50.55956881977324,
      "geoinfo": {
        "display_name": "Seef, Jid Hafs, Capital Governorate, 428, Bahrain",
        "road": null,
        "house_number": null,
        "neighbourhood": null,
        "suburb": "Seef",
        "city_district": null,
        "city": "Jid Hafs",
        "state": "Capital Governorate",
        "postcode": "428",
        "country": "Bahrain",
        "country_code": "bh"
      },
      "address": "497, Seef, Jid Hafs, Capital Governorate, 428, Bahrain"
    },
    {
      "lat": 26.21051784205738,
      "lon": 50.57807242010122,
      "geoinfo": {
        "display_name": "Road 3221, Bu Ashira, Manama, Capital Governorate, 1859, Bahrain",
        "road": "Road 3221",
        "house_number": null,
        "neighbourhood": null,
        "suburb": "Bu Ashira",
        "city_district": null,
        "city": "Manama",
        "state": "Capital Governorate",
        "postcode": "1859",
        "country": "Bahrain",
        "country_code": "bh"
      },
      "address": "Road 3221, Bu Ashira, Manama, Capital Governorate, 1859, Bahrain"
    },
    {
      "lat": 26.197619181349715,
      "lon": 50.53789307109611,
      "geoinfo": {
        "display_name": "السهلة الجنوبية, Jid Hafs, Capital Governorate, 701, Bahrain",
        "road": null,
        "house_number": null,
        "neighbourhood": null,
        "suburb": "السهلة الجنوبية",
        "city_district": null,
        "city": "Jid Hafs",
        "state": "Capital Governorate",
        "postcode": "701",
        "country": "Bahrain",
        "country_code": "bh"
      },
      "address": "441, السهلة الجنوبية, Jid Hafs, Capital Governorate, 701, Bahrain"
    },
    {
      "lat": 26.219939415482983,
      "lon": 50.58937025599468,
      "geoinfo": {
        "display_name": "Road 2611, Al-Qudaibiya, Manama, Capital Governorate, 308, Bahrain",
        "road": "Road 2611",
        "house_number": null,
        "neighbourhood": null,
        "suburb": "Al-Qudaibiya",
        "city_district": null,
        "city": "Manama",
        "state": "Capital Governorate",
        "postcode": "308",
        "country": "Bahrain",
        "country_code": "bh"
      },
      "address": "Road 2611, Al-Qudaibiya, Manama, Capital Governorate, 308, Bahrain"
    },
    {
      "lat": 26.19686193017858,
      "lon": 50.55711266712888,
      "geoinfo": {
        "display_name": "Road 1115, Jid Hafs, Capital Governorate, 320, Bahrain",
        "road": "Road 1115",
        "house_number": null,
        "neighbourhood": null,
        "suburb": null,
        "city_district": null,
        "city": "Jid Hafs",
        "state": "Capital Governorate",
        "postcode": "320",
        "country": "Bahrain",
        "country_code": "bh"
      },
      "address": "Road 1115, Jid Hafs, Capital Governorate, 320, Bahrain"
    }
  ],
  "updated_at": "2025-10-19T02:39:47.932076+00:00",
  "_kind": "geo_samples"
}