{
  "country_code": "BH",
  "country": "Bahrain",
  "city": "Manama",
  "geonameid": 290340,
  "target_addresses": 77,
  "samples": [
    {
      "lat": 26.22619259476622,
      "lon": 50.59481306812112,
      "geoinfo": {
        "display_name": "Abdulrahman Al-Dakhil Avenue, Al-Qudaibiya, Manama, Capital Governorate, 321, Bahrain",
        "road": "Abdulrahman Al-Dakhil Avenue",
        "house_number": null,
        "neighbourhood": null,
        "suburb": "Al-Qudaibiya",
        "city_district": null,
        "city": "Manama",
        "state": "Capital Governorate",
        "postcode": "321",
        "country": "Bahrain",
        "country_code": "bh"
      },
      "address": "Abdulrahman Al-Dakhil Avenue, Manama, Capital Governorate, Bahrain"
    },
    {
      "lat": 26.270098065963882,
      "lon": 50.59365317961555,
      "geoinfo": {
        "display_name": "Busaiteen, Muharraq Governorate, 228, Bahrain",
        "road": null,
        "house_number": null,
        "neighbourhood": null,
        "suburb": null,
        "city_district": null,
        "city": "Busaiteen",
        "state": "Muharraq Governorate",
        "postcode": "228",
        "country": "Bahrain",
        "country_code": "bh"
      },
      "address": "Manama, Muharraq Governorate, Bahrain"
    },
    {
      "lat": 26.230847236663323,
      "lon": 50.56405580959095,
      "geoinfo": {
        "display_name": "Fruit Market, Road 1405, Central Market, حي النعيم, Manama, Capital Governorate, 346, Bahrain",
        "road": "Road 1405",
        "house_number": null,
        "neighbourhood": null,
        "suburb": "حي النعيم",
        "city_district": null,
        "city": "Manama",
        "state": "Capital Governorate",
        "postcode": "346",
        "country": "Bahrain",
        "country_code": "bh"
      },
      "address": "Road 1405, Manama, Capital Governorate, Bahrain"
    },
    {
      "lat": 26.25141040194075,
      "lon": 50.5769122688747,
      "geoinfo": {
        "display_name": "Road 4607, Sea Front, Manama, Capital Governorate, 346, Bahrain",
        "road": "Road 4607",
        "house_number": null,
        "neighbourhood": null,
        "suburb": "Sea Front",
        "city_district": null,
        "city": "Manama",
        "state": "Capital Governorate",
        "postcode": "346",
        "country": "Bahrain",
        "country_code": "bh"
      },
      "address": "Road 4607, Manama, Capital Governorate, Bahrain"
    },
    {
      "lat": 26.210067261281296,
      "lon": 50.56120122519845,
      "geoinfo": {
        "display_name": "Road 6106, Khalil Kanoo Gardens, Zinj, Capital Governorate, 933, Bahrain",
        "road": "Road 6106",
        "house_number": null,
        "neighbourhood": null,
        "suburb": "Khalil Kanoo Gardens",
        "city_district": null,
        "city": "Zinj",
        "state": "Capital Governorate",
        "postcode": "933",
        "country": "Bahrain",
        "country_code": "bh"
      },
      "address": "Road 6106, Manama, Capital Governorate, Bahrain"
    },
    {
      "lat": 26.188504539868724,
      "lon": 50.564655033407334,
      "geoinfo": {
        "display_name": "Manama, Capital Governorate, 320, Bahrain",
        "road": null,
        "house_number": null,
        "neighbourhood": null,
        "suburb": null,
        "city_district": null,
        "city": "Manama",
        "state": "Capital Governorate",
        "postcode": "320",
        "country": "Bahrain",
        "country_code": "bh"
      },
      "address": "Manama, Capital Governorate, Bahrain"
    },
    {
      "lat": 26.196215103983867,
      "lon": 50.5619110476011,
      "geoinfo": {
        "display_name": "Road 1119, Manama, Capital Governorate, 320, Bahrain",
        "road": "Road 1119",
        "house_number": null,
        "neighbourhood": null,
        "suburb": null,
        "city_district": null,
        "city": "Manama",
        "state": "Capital Governorate",
        "postcode": "320",
        "country": "Bahrain",
        "country_code": "bh"
      },
      "address": "Road 1119, Manama, Capital Governorate, Bahrain"
    },
    {
      "lat": 26.239163908144548,
      "lon": 50.57937151416294,
      "geoinfo": {
        "display_name": "King Faisal Highway, Bahrain Financial Harbor, رأس رمان, Manama, Capital Governorate, 346, Bahrain",
        "road": "King Faisal Highway",
        "house_number": null,
        "neighbourhood": "Bahrain Financial Harbor",
        "suburb": "رأس رمان",
        "city_district": null,
        "city": "Manama",
        "state": "Capital Governorate",
        "postcode": "346",
        "country": "Bahrain",
        "country_code": "bh"
      },
      "address": "King Faisal Highway, Manama, Capital Governorate, Bahrain"
    },
    {
      "lat": 26.232203527824453,
      "lon": 50.552482286012925,
      "geoinfo": {
        "display_name": "Sea Front, Jid Hafs, Capital Governorate, 404, Bahrain",
        "road": null,
        "house_number": null,
        "neighbourhood": null,
        "suburb": "Sea Front",
        "city_district": null,
        "city": "Jid Hafs",
        "state": "Capital Governorate",
        "postcode": "404",
        "country": "Bahrain",
        "country_code": "bh"
      },
      "address": "Sea Front, Manama, Capital Governorate, Bahrain"
    },
    {
      "lat": 26.2392822853885,
      "lon": 50.54593731965249,
      "geoinfo": {
        "display_name": "Road 2849, Seef, Jid Hafs, Capital Governorate, 428, Bahrain",
        "road": "Road 2849",
        "house_number": null,
        "neighbourhood": null,
        "suburb": "Seef",
        "city_district": null,
        "city": "Jid Hafs",
        "state": "Capital Governorate",
        "postcode": "428",
        "country": "Bahrain",
        "country_code": "bh"
      },
      "address": "Road 2849, Manama, Capital Governorate, Bahrain"
    },
    {
      "lat": 26.2116596972477,
      "lon": 50.61183940117665,
      "geoinfo": {
        "display_name": "Avenue 22, Al Fatih, Manama, Capital Governorate, 324, Bahrain",
        "road": "Avenue 22",
        "house_number": null,
        "neighbourhood": null,
        "suburb": "Al Fatih",
        "city_district": null,
        "city": "Manama",
        "state": "Capital Governorate",
        "postcode": "324",
        "country": "Bahrain",
        "country_code": "bh"
      },
      "address": "Avenue 22, Manama, Capital Governorate, Bahrain"
    },
    {
      "lat": 26.256907181326486,
      "lon": 50.59300548981473,
      "geoinfo": {
        "display_name": "Shaik Isa Bin Salman Causeway, Muharraq, Muharraq Governorate, 228, Bahrain",
        "road": "Shaik Isa Bin Salman Causeway",
        "house_number": null,
        "neighbourhood": null,
        "suburb": null,
        "city_district": null,
        "city": "Muharraq",
        "state": "Muharraq Governorate",
        "postcode": "228",
        "country": "Bahrain",
        "country_code": "bh"
      },
      "address": "Shaik Isa Bin Salman Causeway, Manama, Muharraq Governorate, Bahrain"
    },
    {
      "lat": 26.239390848373176,
      "lon": 50.5715196754812,
      "geoinfo": {
        "display_name": "Road 4626, Bahrain Financial Harbor, Sea Front, Manama, Capital Governorate, 346, Bahrain",
        "road": "Road 4626",
        "house_number": null,
        "neighbourhood": "Bahrain Financial Harbor",
        "suburb": "Sea Front",
        "city_district": null,
        "city": "Manama",
        "state": "Capital Governorate",
        "postcode": "346",
        "country": "Bahrain",
        "country_code": "bh"
      },
      "address": "Road 4626, Manama, Capital Governorate, Bahrain"
    },
    {
      "lat": 26.189506643551642,
      "lon": 50.573841669104425,
      "geoinfo": {
        "display_name": "جدعلي, Capital Governorate, 814, Bahrain",
        "road": null,
        "house_number": null,
        "neighbourhood": null,
        "suburb": null,
        "city_district": null,
        "city": "جدعلي",
        "state": "Capital Governorate",
        "postcode": "814",
        "country": "Bahrain",
        "country_code": "bh"
      },
      "address": "Manama, 23210 Capital Governorate, Bahrain"
    },
    {
      "lat": 26.2087196166593,
      "lon": 50.62545099225919,
      "geoinfo": {
        "display_name": "U.S. Coast Guard - Patrol Forces Southwest Asia, Sheikh Khalifa Bin Salman Causeway, Mina Salman, Al Ghurayfah, Capital Governorate, 324, Bahrain",
        "road": "Sheikh Khalifa Bin Salman Causeway",
        "house_number": null,
        "neighbourhood": null,
        "suburb": "Mina Salman",
        "city_district": null,
        "city": "Al Ghurayfah",
        "state": "Capital Governorate",
        "postcode": "324",
        "country": "Bahrain",
        "country_code": "bh"
      },
      "address": "Sheikh Khalifa Bin Salman Causeway, Manama, 33601 Capital Governorate, Bahrain"
    },
    {
      "lat": 26.20224782915221,
      "lon": 50.59338011005005,
      "geoinfo": {
        "display_name": "Road 3721, Um Al Hassam, Manama, Capital Governorate, 338, Bahrain",
        "road": "Road 3721",
        "house_number": null,
        "neighbourhood": null,
        "suburb": "Um Al Hassam",
        "city_district": null,
        "city": "Manama",
        "state": "Capital Governorate",
        "postcode": "338",
        "country": "Bahrain",
        "country_code": "bh"
      },
      "address": "Road 3721, Manama, 55017 Capital Governorate, Bahrain"
    },
    {
      "lat": 26.26272753511413,
      "lon": 50.59305721500948,
      "geoinfo": {
        "display_name": "Muharraq, Muharraq Governorate, 228, Bahrain",
        "road": null,
        "house_number": null,
        "neighbourhood": null,
        "suburb": null,
        "city_district": null,
        "city": "Muharraq",
        "state": "Muharraq Governorate",
        "postcode": "228",
        "country": "Bahrain",
        "country_code": "bh"
      },
      "address": "Manama, 74282 Muharraq Governorate, Bahrain"
    },
    {
      "lat": 26.206529199143926,
      "lon": 50.59382810529631,
      "geoinfo": {
        "display_name": "Ahmed Ali Kanoo Avenue, Um Al Hassam, Al Mahooz, Capital Governorate, 338, Bahrain",
        "road": "Ahmed Ali Kanoo Avenue",
        "house_number": null,
        "neighbourhood": null,
        "suburb": "Um Al Hassam",
        "city_district": null,
        "city": "Al Mahooz",
        "state": "Capital Governorate",
        "postcode": "338",
        "country": "Bahrain",
        "country_code": "bh"
      },
      "address": "Ahmed Ali Kanoo Avenue, Manama, 64882 Capital Governorate, Bahrain"
    },
    {
      "lat": 26.230710429879714,
      "lon": 50.564774598971226,
      "geoinfo": {
        "display_name": "Road 1405, Central Market, حي النعيم, Manama, Capital Governorate, 346, Bahrain",
        "road": "Road 1405",
        "house_number": null,
        "neighbourhood": null,
        "suburb": "حي النعيم",
        "city_district": null,
        "city": "Manama",
        "state": "Capital Governorate",
        "postcode": "346",
        "country": "Bahrain",
        "country_code": "bh"
      },
      "address": "Road 1405, Manama, 03855 Capital Governorate, Bahrain"
    },
    {
      "lat": 26.18658859046906,
      "lon": 50.60148573308991,
      "geoinfo": {
        "display_name": "Mina Salman, Manama, Capital Governorate, 324, Bahrain",
        "road": null,
        "house_number": null,
        "neighbourhood": null,
        "suburb": "Mina Salman",
        "city_district": null,
        "city": "Manama",
        "state": "Capital Governorate",
        "postcode": "324",
        "country": "Bahrain",
        "country_code": "bh"
      },
      "address": "Mina Salman, Manama, 00542 Capital Governorate, Bahrain"
    },
    {
      "lat": 26.206743999299853,
      "lon": 50.57358346662658,
      "geoinfo": {
        "display_name": "Al Jabiriya Secondary Technical School, Road 3124, Bu Ghazal, Manama, Capital Governorate, 1859, Bahrain",
        "road": "Road 3124",
        "house_number": null,
        "neighbourhood": null,
        "suburb": "Bu Ghazal",
        "city_district": null,
        "city": "Manama",
        "state": "Capital Governorate",
        "postcode": "1859",
        "country": "Bahrain",
        "country_code": "bh"
      },
      "address": "Road 3124, Manama, 59491 Capital Governorate, Bahrain"
    },
    {
      "lat": 26.264940610320025,
      "lon": 50.56300103474789,
      "geoinfo": {
        "display_name": "Diplomatic Area, Manama, Capital Governorate, 317, Bahrain",
        "road": null,
        "house_number": null,
        "neighbourhood": null,
        "suburb": "Diplomatic Area",
        "city_district": null,
        "city": "Manama",
        "state": "Capital Governorate",
        "postcode": "317",
        "country": "Bahrain",
        "country_code": "bh"
      },
      "address": "Diplomatic Area, Manama, 58042 Capital Governorate, Bahrain"
    },
    {
      "lat": 26.20579811866095,
      "lon": 50.589265446868545,
      "geoinfo": {
        "display_name": "Road 3737, Umm Al Hassam, Al Mahooz, Capital Governorate, 338, Bahrain",
        "road": "Road 3737",
        "house_number": null,
        "neighbourhood": null,
        "suburb": "Umm Al Hassam",
        "city_district": null,
        "city": "Al Mahooz",
        "state": "Capital Governorate",
        "postcode": "338",
        "country": "Bahrain",
        "country_code": "bh"
      },
      "address": "Road 3737, Manama, 05916 Capital Governorate, Bahrain"
    },
    {
      "lat": 26.19992426265026,
      "lon": 50.579477705982015,
      "geoinfo": {
        "display_name": "Bu Ashira, Manama, Capital Governorate, 320, Bahrain",
        "road": null,
        "house_number": null,
        "neighbourhood": null,
        "suburb": "Bu Ashira",
        "city_district": null,
        "city": "Manama",
        "state": "Capital Governorate",
        "postcode": "320",
        "country": "Bahrain",
        "country_code": "bh"
      },
      "address": "Bu Ashira, Manama, 77740 Capital Governorate, Bahrain"
    },
    {
      "lat": 26.209237332449337,
      "lon": 50.5852264725661,
      "geoinfo": {
        "display_name": "Road 3454, Bu Ashira, Manama, Capital Governorate, 338, Bahrain",
        "road": "Road 3454",
        "house_number": null,
        "neighbourhood": null,
        "suburb": "Bu Ashira",
        "city_district": null,
        "city": "Manama",
        "state": "Capital Governorate",
        "postcode": "338",
        "country": "Bahrain",
        "country_code": "bh"
      },
      "address": "Road 3454, Bu Ashira, Manama, Capital Governorate, 338, Bahrain"
    },
    {
      "lat": 26.213633898760904,
      "lon": 50.57746264703618,
      "geoinfo": {
        "display_name": "Suqayya Avenue, Al-Suqayya, Manama, Capital Governorate, 1859, Bahrain",
        "road": "Suqayya Avenue",
        "house_number": null,
        "neighbourhood": null,
        "suburb": "Al-Suqayya",
        "city_district": null,
        "city": "Manama",
        "state": "Capital Governorate",
        "postcode": "1859",
        "country": "Bahrain",
        "country_code": "bh"
      },
      "address": "Suqayya Avenue, Al-Suqayya, Manama, Capital Governorate, 1859, Bahrain"
    },
    {
      "lat": 26.219232831692672,
      "lon": 50.56357569480792,
      "geoinfo": {
        "display_name": "Road 5641, Khalil Kanoo Gardens, الصالحية, Capital Governorate, 933, Bahrain",
        "road": "Road 5641",
        "house_number": null,
        "neighbourhood": null,
        "suburb": "Khalil Kanoo Gardens",
        "city_district": null,
        "city": "الصالحية",
        "state": "Capital Governorate",
        "postcode": "933",
        "country": "Bahrain",
        "country_code": "bh"
      },
      "address": "Road 5641, Manama, 35817 Capital Governorate, Bahrain"
    },
    {
      "lat": 26.242404192163253,
      "lon": 50.54599787301631,
      "geoinfo": {
        "display_name": "Bushido, King Abdulla II Ibn Al Hussein Avenue, Seef, Jid Hafs, Capital Governorate, 428, Bahrain",
        "road": "King Abdulla II Ibn Al Hussein Avenue",
        "house_number": null,
        "neighbourhood": null,
        "suburb": "Seef",
        "city_district": null,
        "city": "Jid Hafs",
        "state": "Capital Governorate",
        "postcode": "428",
        "country": "Bahrain",
        "country_code": "bh"
      },
      "address": "Bushido, King Abdulla II Ibn Al Hussein Avenue, Seef, Jid Hafs, Capital Governorate, 428, Bahrain"
    },
    {
      "lat": 26.249204969983154,
      "lon": 50.59893501672654,
      "geoinfo": {
        "display_name": "Shaikh Hamad Causeway, Diplomatic Area, Manama, Capital Governorate, 0319, Bahrain",
        "road": "Shaikh Hamad Causeway",
        "house_number": null,
        "neighbourhood": null,
        "suburb": "Diplomatic Area",
        "city_district": null,
        "city": "Manama",
        "state": "Capital Governorate",
        "postcode": "0319",
        "country": "Bahrain",
        "country_code": "bh"
      },
      "address": "797, Shaikh Hamad Causeway, Diplomatic Area, Manama, Capital Governorate, 0319, Bahrain"
    },
    {
      "lat": 26.224409695840222,
      "lon": 50.53674452035607,
      "geoinfo": {
        "display_name": "Road 1417, مروزان, الدِّيْهْ, Capital Governorate, 406, Bahrain",
        "road": "Road 1417",
        "house_number": null,
        "neighbourhood": null,
        "suburb": "مروزان",
        "city_district": null,
        "city": "الدِّيْهْ",
        "state": "Capital Governorate",
        "postcode": "406",
        "country": "Bahrain",
        "country_code": "bh"
      },
      "address": "Road 1417, Manama, 406 Capital Governorate, Bahrain"
    },
    {
      "lat": 26.200064200657124,
      "lon": 50.6208834233119,
      "geoinfo": {
        "display_name": "Mina Salman, Manama, Capital Governorate, 324, Bahrain",
        "road": null,
        "house_number": null,
        "neighbourhood": null,
        "suburb": "Mina Salman",
        "city_district": null,
        "city": "Manama",
        "state": "Capital Governorate",
        "postcode": "324",
        "country": "Bahrain",
        "country_code": "bh"
      },
      "address": "225, Mina Salman, Manama, Capital Governorate, 324, Bahrain"
    },
    {
      "lat": 26.228415607068552,
      "lon": 50.605996801558085,
      "geoinfo": {
        "display_name": "Prince Saud Al-Faisal Avenue, Al-Qudaibiya, Manama, Capital Governorate, 324, Bahrain",
        "road": "Prince Saud Al-Faisal Avenue",
        "house_number": null,
        "neighbourhood": null,
        "suburb": "Al-Qudaibiya",
        "city_district": null,
        "city": "Manama",
        "state": "Capital Governorate",
        "postcode": "324",
        "country": "Bahrain",
        "country_code": "bh"
      },
      "address": "182, Prince Saud Al-Faisal Avenue, Al-Qudaibiya, Manama, Capital Governorate, 324, Bahrain"
    },
    {
      "lat": 26.212966506212958,
      "lon": 50.59664418763211,
      "geoinfo": {
        "display_name": "Al Fatih Highway, Um Al Hassam, Manama, Capital Governorate, 338, Bahrain",
        "road": "Al Fatih Highway",
        "house_number": null,
        "neighbourhood": null,
        "suburb": "Um Al Hassam",
        "city_district": null,
        "city": "Manama",
        "state": "Capital Governorate",
        "postcode": "338",
        "country": "Bahrain",
        "country_code": "bh"
      },
      "address": "124, Al Fatih Highway, Um Al Hassam, Manama, Capital Governorate, 338, Bahrain"
    },
    {
      "lat": 26.188215074179915,
      "lon": 50.5860608024858,
      "geoinfo": {
        "display_name": "Avenue 80, Umm Al Hassam, Manama, Capital Governorate, 320, Bahrain",
        "road": "Avenue 80",
        "house_number": null,
        "neighbourhood": null,
        "suburb": "Umm Al Hassam",
        "city_district": null,
        "city": "Manama",
        "state": "Capital Governorate",
        "postcode": "320",
        "country": "Bahrain",
        "country_code": "bh"
      },
      "address": "Avenue 80, Umm Al Hassam, Manama, Capital Governorate, 320, Bahrain"
    },
    {
      "lat": 26.246104927280314,
      "lon": 50.58923434015056,
      "geoinfo": {
        "display_name": "King Faisal Highway, Sea Front, Manama, Capital Governorate, 317, Bahrain",
        "road": "King Faisal Highway",
        "house_number": null,
        "neighbourhood": null,
        "suburb": "Sea Front",
        "city_district": null,
        "city": "Manama",
        "state": "Capital Governorate",
        "postcode": "317",
        "country": "Bahrain",
        "country_code": "bh"
      },
      "address": "677, King Faisal Highway, Sea Front, Manama, Capital Governorate, 317, Bahrain"
    },
    {
      "lat": 26.23295082475734,
      "lon": 50.54571629396024,
      "geoinfo": {
        "display_name": "مني, Jid Hafs, Capital Governorate, 404, Bahrain",
        "road": null,
        "house_number": null,
        "neighbourhood": null,
        "suburb": "مني",
        "city_district": null,
        "city": "Jid Hafs",
        "state": "Capital Governorate",
        "postcode": "404",
        "country": "Bahrain",
        "country_code": "bh"
      },
      "address": "515, مني, Jid Hafs, Capital Governorate, 404, Bahrain"
    },
    {
      "lat": 26.223351879840596,
      "lon": 50.601862052880605,
      "geoinfo": {
        "display_name": "Prince Saud Al-Faisal Avenue, Al-Qudaibiya, Manama, Capital Governorate, 324, Bahrain",
        "road": "Prince Saud Al-Faisal Avenue",
        "house_number": null,
        "neighbourhood": null,
        "suburb": "Al-Qudaibiya",
        "city_district": null,
        "city": "Manama",
        "state": "Capital Governorate",
        "postcode": "324",
        "country": "Bahrain",
        "country_code": "bh"
      },
      "address": "462, Prince Saud Al-Faisal Avenue, Al-Qudaibiya, Manama, Capital Governorate, 324, Bahrain"
    },
    {
      "lat": 26.223101265439713,
      "lon": 50.628406666235854,
      "geoinfo": {
        "display_name": "Sheikh Khalifa Bin Salman Causeway, Muharraq, Muharraq Governorate, 111, Bahrain",
        "road": "Sheikh Khalifa Bin Salman Causeway",
        "house_number": null,
        "neighbourhood": null,
        "suburb": null,
        "city_district": null,
        "city": "Muharraq",
        "state": "Muharraq Governorate",
        "postcode": "111",
        "country": "Bahrain",
        "country_code": "bh"
      },
      "address": "433, Sheikh Khalifa Bin Salman Causeway, Manama, 111 Muharraq Governorate, Bahrain"
    },
    {
      "lat": 26.196218978437148,
      "lon": 50.58608096557182,
      "geoinfo": {
        "display_name": "Umm Al Hassam, Manama, Capital Governorate, 320, Bahrain",
        "road": null,
        "house_number": null,
        "neighbourhood": null,
        "suburb": "Umm Al Hassam",
        "city_district": null,
        "city": "Manama",
        "state": "Capital Governorate",
        "postcode": "320",
        "country": "Bahrain",
        "country_code": "bh"
      },
      "address": "433, Umm Al Hassam, Manama, Capital Governorate, 320, Bahrain"
    },
    {
      "lat": 26.219342485564447,
      "lon": 50.6045009852414,
      "geoinfo": {
        "display_name": "Road 2412, Al-Juffair, Manama, Capital Governorate, 324, Bahrain",
        "road": "Road 2412",
        "house_number": null,
        "neighbourhood": null,
        "suburb": "Al-Juffair",
        "city_district": null,
        "city": "Manama",
        "state": "Capital Governorate",
        "postcode": "324",
        "country": "Bahrain",
        "country_code": "bh"
      },
      "address": "Road 2412, Al-Juffair, Manama, Capital Governorate, 324, Bahrain"
    },
    {
      "lat": 26.20845114035043,
      "lon": 50.55006232629287,
      "geoinfo": {
        "display_name": "Tashan Avenue, طشان, Jid Hafs, Capital Governorate, 933, Bahrain",
        "road": "Tashan Avenue",
        "house_number": null,
        "neighbourhood": null,
        "suburb": "طشان",
        "city_district": null,
        "city": "Jid Hafs",
        "state": "Capital Governorate",
        "postcode": "933",
        "country": "Bahrain",
        "country_code": "bh"
      },
      "address": "063, Tashan Avenue, طشان, Jid Hafs, Capital Governorate, 933, Bahrain"
    },
    {
      "lat": 26.23721410488246,
      "lon": 50.5638832777251,
      "geoinfo": {
        "display_name": "Road 4652, Sea Front, Manama, Capital Governorate, 346, Bahrain",
        "road": "Road 4652",
        "house_number": null,
        "neighbourhood": null,
        "suburb": "Sea Front",
        "city_district": null,
        "city": "Manama",
        "state": "Capital Governorate",
        "postcode": "346",
        "country": "Bahrain",
        "country_code": "bh"
      },
      "address": "Road 4652, Sea Front, Manama, Capital Governorate, 346, Bahrain"
    },
    {
      "lat": 26.206323023197484,
      "lon": 50.59559874965924,
      "geoinfo": {
        "display_name": "Road 3901, Um Al Hassam, Manama, Capital Governorate, 338, Bahrain",
        "road": "Road 3901",
        "house_number": null,
        "neighbourhood": null,
        "suburb": "Um Al Hassam",
        "city_district": null,
        "city": "Manama",
        "state": "Capital Governorate",
        "postcode": "338",
        "country": "Bahrain",
        "country_code": "bh"
      },
      "address": "Road 3901, Um Al Hassam, Manama, Capital Governorate, 338, Bahrain"
    },
    {
      "lat": 26.191425425324304,
      "lon": 50.56805963401309,
      "geoinfo": {
        "display_name": "Manama, Capital Governorate, 320, Bahrain",
        "road": null,
        "house_number": null,
        "neighbourhood": null,
        "suburb": null,
        "city_district": null,
        "city": "Manama",
        "state": "Capital Governorate",
        "postcode": "320",
        "country": "Bahrain",
        "country_code": "bh"
      },
      "address": "751, Manama, Capital Governorate, 320, Bahrain"
    },
    {
      "lat": 26.24837320872281,
      "lon": 50.58758821455919,
      "geoinfo": {
        "display_name": "Al Fatih Highway, Sea Front, Manama, Capital Governorate, 317, Bahrain",
        "road": "Al Fatih Highway",
        "house_number": null,
        "neighbourhood": null,
        "suburb": "Sea Front",
        "city_district": null,
        "city": "Manama",
        "state": "Capital Governorate",
        "postcode": "317",
        "country": "Bahrain",
        "country_code": "bh"
      },
      "address": "250, Al Fatih Highway, Sea Front, Manama, Capital Governorate, 317, Bahrain"
    },
    {
      "lat": 26.21425809790109,
      "lon": 50.546210827047304,
      "geoinfo": {
        "display_name": "Road 5, طشان, Jid Hafs, Capital Governorate, 406, Bahrain",
        "road": "Road 5",
        "house_number": null,
        "neighbourhood": null,
        "suburb": "طشان",
        "city_district": null,
        "city": "Jid Hafs",
        "state": "Capital Governorate",
        "postcode": "406",
        "country": "Bahrain",
        "country_code": "bh"
      },
      "address": "Road 5, طشان, Jid Hafs, Capital Governorate, 406, Bahrain"
    },
    {
      "lat": 26.215723914548693,
      "lon": 50.54984347917613,
      "geoinfo": {
        "display_name": "Road 5443, مني, Jid Hafs, Capital Governorate, 404, Bahrain",
        "road": "Road 5443",
        "house_number": null,
        "neighbourhood": null,
        "suburb": "مني",
        "city_district": null,
        "city": "Jid Hafs",
        "state": "Capital Governorate",
        "postcode": "404",
        "country": "Bahrain",
        "country_code": "bh"
      },
      "address": "Road 5443, مني, Jid Hafs, Capital Governorate, 404, Bahrain"
    },
    {
      "lat": 26.216933051705922,
      "lon": 50.62010190462326,
      "geoinfo": {
        "display_name": "Road 2444, Al Fatih, Manama, Capital Governorate, 324, Bahrain",
        "road": "Road 2444",
        "house_number": null,
        "neighbourhood": null,
        "suburb": "Al Fatih",
        "city_district": null,
        "city": "Manama",
        "state": "Capital Governorate",
        "postcode": "324",
        "country": "Bahrain",
        "country_code": "bh"
      },
      "address": "Road 2444, Al Fatih, Manama, Capital Governorate, 324, Bahrain"
    },
    {
      "lat": 26.189427556316236,
      "lon": 50.579645265671374,
      "geoinfo": {
        "display_name": "Road 8203, Manama, Capital Governorate, 320, Bahrain",
        "road": "Road 8203",
        "house_number": null,
        "neighbourhood": null,
        "suburb": null,
        "city_district": null,
        "city": "Manama",
        "state": "Capital Governorate",
        "postcode": "320",
        "country": "Bahrain",
        "country_code": "bh"
      },
      "address": "Road 8203, Manama, Capital Governorate, 320, Bahrain"
    },
    {
      "lat": 26.223967488407364,
      "lon": 50.616194160481975,
      "geoinfo": {
        "display_name": "Al Fatih, Manama, Capital Governorate, 324, Bahrain",
        "road": null,
        "house_number": null,
        "neighbourhood": null,
        "suburb": "Al Fatih",
        "city_district": null,
        "city": "Manama",
        "state": "Capital Governorate",
        "postcode": "324",
        "country": "Bahrain",
        "country_code": "bh"
      },
      "address": "979, Al Fatih, Manama, Capital Governorate, 324, Bahrain"
    },
    {
      "lat": 26.203707865826374,
      "lon": 50.61425447603074,
      "geoinfo": {
        "display_name": "Road 4236, Mina Salman, Manama, Capital Governorate, 324, Bahrain",
        "road": "Road 4236",
        "house_number": null,
        "neighbourhood": null,
        "suburb": "Mina Salman",
        "city_district": null,
        "city": "Manama",
        "state": "Capital Governorate",
        "postcode": "324",
        "country": "Bahrain",
        "country_code": "bh"
      },
      "address": "Road 4236, Mina Salman, Manama, Capital Governorate, 324, Bahrain"
    },
    {
      "lat": 26.21162295665763,
      "lon": 50.618815671619835,
      "geoinfo": {
        "display_name": "Sheikh Khalifa Bin Salman Causeway, Mina Salman, Manama, Capital Governorate, 324, Bahrain",
        "road": "Sheikh Khalifa Bin Salman Causeway",
        "house_number": null,
        "neighbourhood": null,
        "suburb": "Mina Salman",
        "city_district": null,
        "city": "Manama",
        "state": "Capital Governorate",
        "postcode": "324",
        "country": "Bahrain",
        "country_code": "bh"
      },
      "address": "322, Sheikh Khalifa Bin Salman Causeway, Mina Salman, Manama, Capital Governorate, 324, Bahrain"
    },
    {
      "lat": 26.19348092529872,
      "lon": 50.58360483371737,
      "geoinfo": {
        "display_name": "Avenue 80, Umm Al Hassam, Manama, Capital Governorate, 320, Bahrain",
        "road": "Avenue 80",
        "house_number": null,
        "neighbourhood": null,
        "suburb": "Umm Al Hassam",
        "city_district": null,
        "city": "Manama",
        "state": "Capital Governorate",
        "postcode": "320",
        "country": "Bahrain",
        "country_code": "bh"
      },
      "address": "Avenue 80, Manama, 320 Capital Governorate, Bahrain"
    },
    {
      "lat": 26.18835258649381,
      "lon": 50.56820160379392,
      "geoinfo": {
        "display_name": "Road 1146, Manama, Capital Governorate, 320, Bahrain",
        "road": "Road 1146",
        "house_number": null,
        "neighbourhood": null,
        "suburb": null,
        "city_district": null,
        "city": "Manama",
        "state": "Capital Governorate",
        "postcode": "320",
        "country": "Bahrain",
        "country_code": "bh"
      },
      "address": "Road 1146, Manama, Capital Governorate, 320, Bahrain"
    },
    {
      "lat": 26.210032601909514,
      "lon": 50.598560836215704,
      "geoinfo": {
        "display_name": "Road 4155, Um Al Hassam, Manama, Capital Governorate, 338, Bahrain",
        "road": "Road 4155",
        "house_number": null,
        "neighbourhood": null,
        "suburb": "Um Al Hassam",
        "city_district": null,
        "city": "Manama",
        "state": "Capital Governorate",
        "postcode": "338",
        "country": "Bahrain",
        "country_code": "bh"
      },
      "address": "Road 4155, Um Al Hassam, Manama, Capital Governorate, 338, Bahrain"
    },
    {
      "lat": 26.186007692036807,
      "lon": 50.590149728036685,
      "geoinfo": {
        "display_name": "Shaikh Jaber Al Ahmed Al Subah Highway, Umm Al Hassam, Manama, Capital Governorate, 3044, Bahrain",
        "road": "Shaikh Jaber Al Ahmed Al Subah Highway",
        "house_number": null,
        "neighbourhood": null,
        "suburb": "Umm Al Hassam",
        "city_district": null,
        "city": "Manama",
        "state": "Capital Governorate",
        "postcode": "3044",
        "country": "Bahrain",
        "country_code": "bh"
      },
      "address": "866, Shaikh Jaber Al Ahmed Al Subah Highway, Umm Al Hassam, Manama, Capital Governorate, 3044, Bahrain"
    },
    {
      "lat": 26.21497421077376,
      "lon": 50.55489974738844,
      "geoinfo": {
        "display_name": "مسجد تاج الدين, Road 5675, Khalil Kanoo Gardens, الصالحية, Capital Governorate, 933, Bahrain",
        "road": "Road 5675",
        "house_number": null,
        "neighbourhood": null,
        "suburb": "Khalil Kanoo Gardens",
        "city_district": null,
        "city": "الصالحية",
        "state": "Capital Governorate",
        "postcode": "933",
        "country": "Bahrain",
        "country_code": "bh"
      },
      "address": "Road 5675, Manama, 933 Capital Governorate, Bahrain"
    },
    {
      "lat": 26.229785885902672,
      "lon": 50.61739604881809,
      "geoinfo": {
        "display_name": "Al Fatih, Manama, Capital Governorate, 324, Bahrain",
        "road": null,
        "house_number": null,
        "neighbourhood": null,
        "suburb": "Al Fatih",
        "city_district": null,
        "city": "Manama",
        "state": "Capital Governorate",
        "postcode": "324",
        "country": "Bahrain",
        "country_code": "bh"
      },
      "address": "161, Al Fatih, Manama, Capital Governorate, 324, Bahrain"
    },
    {
      "lat": 26.189055989748738,
      "lon": 50.60984146274285,
      "geoinfo": {
        "display_name": "Road 115, القرية (سترة), Capital Governorate, 604, Bahrain",
        "road": "Road 115",
        "house_number": null,
        "neighbourhood": null,
        "suburb": null,
        "city_district": null,
        "city": "القرية (سترة)",
        "state": "Capital Governorate",
        "postcode": "604",
        "country": "Bahrain",
        "country_code": "bh"
      },
      "address": "Road 115, Manama, 604 Capital Governorate, Bahrain"
    },
    {
      "lat": 26.206520035980482,
      "lon": 50.621466247254794,
      "geoinfo": {
        "display_name": "U.S. Coast Guard - Patrol Forces Southwest Asia, Sheikh Khalifa Bin Salman Causeway, Mina Salman, Al Ghurayfah, Capital Governorate, 324, Bahrain",
        "road": "Sheikh Khalifa Bin Salman Causeway",
        "house_number": null,
        "neighbourhood": null,
        "suburb": "Mina Salman",
        "city_district": null,
        "city": "Al Ghurayfah",
        "state": "Capital Governorate",
        "postcode": "324",
        "country": "Bahrain",
        "country_code": "bh"
      },
      "address": "715, Sheikh Khalifa Bin Salman Causeway, Manama, 324 Capital Governorate, Bahrain"
    },
    {
      "lat": 26.240476876842937,
      "lon": 50.58831077874123,
      "geoinfo": {
        "display_name": "Road 1706, Diplomatic Area, Manama, Capital Governorate, 317, Bahrain",
        "road": "Road 1706",
        "house_number": null,
        "neighbourhood": null,
        "suburb": "Diplomatic Area",
        "city_district": null,
        "city": "Manama",
        "state": "Capital Governorate",
        "postcode": "317",
        "country": "Bahrain",
        "country_code": "bh"
      },
      "address": "Road 1706, Diplomatic Area, Manama, Capital Governorate, 317, Bahrain"
    },
    {
      "lat": 26.196355020285296,
      "lon": 50.6157548626112,
      "geoinfo": {
        "display_name": "Mina Salman, Manama, Capital Governorate, 324, Bahrain",
        "road": null,
        "house_number": null,
        "neighbourhood": null,
        "suburb": "Mina Salman",
        "city_district": null,
        "city": "Manama",
        "state": "Capital Governorate",
        "postcode": "324",
        "country": "Bahrain",
        "country_code": "bh"
      },
      "address": "585, Mina Salman, Manama, Capital Governorate, 324, Bahrain"
    },
    {
      "lat": 26.23963292372678,
      "lon": 50.54229204160665,
      "geoinfo": {
        "display_name": "Bushido, King Abdulla II Ibn Al Hussein Avenue, Seef, Jid Hafs, Capital Governorate, 428, Bahrain",
        "road": "King Abdulla II Ibn Al Hussein Avenue",
        "house_number": null,
        "neighbourhood": null,
        "suburb": "Seef",
        "city_district": null,
        "city": "Jid Hafs",
        "state": "Capital Governorate",
        "postcode": "428",
        "country": "Bahrain",
        "country_code": "bh"
      },
      "address": "323, King Abdulla II Ibn Al Hussein Avenue, Manama, 428 Capital Governorate, Bahrain"
    },
    {
      "lat": 26.21410275573877,
      "lon": 50.5484795644721,
      "geoinfo": {
        "display_name": "Tashan Avenue, طشان, Jid Hafs, Capital Governorate, 404, Bahrain",
        "road": "Tashan Avenue",
        "house_number": null,
        "neighbourhood": null,
        "suburb": "طشان",
        "city_district": null,
        "city": "Jid Hafs",
        "state": "Capital Governorate",
        "postcode": "404",
        "country": "Bahrain",
        "country_code": "bh"
      },
      "address": "339, Tashan Avenue, طشان, Jid Hafs, Capital Governorate, 404, Bahrain"
    },
    {
      "lat": 26.215337241818318,
      "lon": 50.567656618183136,
      "geoinfo": {
        "display_name": "Road 2901, Al Salmaniya, Manama, Capital Governorate, 1859, Bahrain",
        "road": "Road 2901",
        "house_number": null,
        "neighbourhood": null,
        "suburb": "Al Salmaniya",
        "city_district": null,
        "city": "Manama",
        "state": "Capital Governorate",
        "postcode": "1859",
        "country": "Bahrain",
        "country_code": "bh"
      },
      "address": "Road 2901, Al Salmaniya, Manama, Capital Governorate, 1859, Bahrain"
    },
    {
      "lat": 26.253936099606,
      "lon": 50.58270121555045,
      "geoinfo": {
        "display_name": "Road 4605, Sea Front, Manama, Capital Governorate, 0317, Bahrain",
        "road": "Road 4605",
        "house_number": null,
        "neighbourhood": null,
        "suburb": "Sea Front",
        "city_district": null,
        "city": "Manama",
        "state": "Capital Governorate",
        "postcode": "0317",
        "country": "Bahrain",
        "country_code": "bh"
      },
      "address": "Road 4605, Sea Front, Manama, Capital Governorate, 0317, Bahrain"
    },
    {
      "lat": 26.245714341941873,
      "lon": 50.600788467270206,
      "geoinfo": {
        "display_name": "Diplomatic Area, Manama, Capital Governorate, 0319, Bahrain",
        "road": null,
        "house_number": null,
        "neighbourhood": null,
        "suburb": "Diplomatic Area",
        "city_district": null,
        "city": "Manama",
        "state": "Capital Governorate",
        "postcode": "0319",
        "country": "Bahrain",
        "country_code": "bh"
      },
      "address": "142, Diplomatic Area, Manama, Capital Governorate, 0319, Bahrain"
    },
    {
      "lat": 26.206907305155852,
      "lon": 50.615527557903626,
      "geoinfo": {
        "display_name": "Mina Salman, Manama, Capital Governorate, 324, Bahrain",
        "road": null,
        "house_number": null,
        "neighbourhood": null,
        "suburb": "Mina Salman",
        "city_district": null,
        "city": "Manama",
        "state": "Capital Governorate",
        "postcode": "324",
        "country": "Bahrain",
        "country_code": "bh"
      },
      "address": "054, Mina Salman, Manama, Capital Governorate, 324, Bahrain"
    },
    {
      "lat": 26.19202139628773,
      "lon": 50.61172066316534,
      "geoinfo": {
        "display_name": "Mina Salman, Manama, Capital Governorate, 324, Bahrain",
        "road": null,
        "house_number": null,
        "neighbourhood": null,
        "suburb": "Mina Salman",
        "city_district": null,
        "city": "Manama",
        "state": "Capital Governorate",
        "postcode": "324",
        "country": "Bahrain",
        "country_code": "bh"
      },
      "address": "931, Mina Salman, Manama, Capital Governorate, 324, Bahrain"
    },
    {
      "lat": 26.195814893145,
      "lon": 50.55355527850553,
      "geoinfo": {
        "display_name": "Avenue 13, السهلة الجنوبية, قرية عذاري, Capital Governorate, 701, Bahrain",
        "road": "Avenue 13",
        "house_number": null,
        "neighbourhood": null,
        "suburb": "السهلة الجنوبية",
        "city_district": null,
        "city": "قرية عذاري",
        "state": "Capital Governorate",
        "postcode": "701",
        "country": "Bahrain",
        "country_code": "bh"
      },
      "address": "Avenue 13, Manama, 701 Capital Governorate, Bahrain"
    },
    {
      "lat": 26.213343746555122,
      "lon": 50.56746334514329,
      "geoinfo": {
        "display_name": "Road 2918, Al Salmaniya, Manama, Capital Governorate, 1859, Bahrain",
        "road": "Road 2918",
        "house_number": null,
        "neighbourhood": null,
        "suburb": "Al Salmaniya",
        "city_district": null,
        "city": "Manama",
        "state": "Capital Governorate",
        "postcode": "1859",
        "country": "Bahrain",
        "country_code": "bh"
      },
      "address": "Road 2918, Al Salmaniya, Manama, Capital Governorate, 1859, Bahrain"
    },
    {
      "lat": 26.209403406024588,
      "lon": 50.59677271207183,
      "geoinfo": {
        "display_name": "Road 3841, Um Al Hassam, Manama, Capital Governorate, 338, Bahrain",
        "road": "Road 3841",
        "house_number": null,
        "neighbourhood": null,
        "suburb": "Um Al Hassam",
        "city_district": null,
        "city": "Manama",
        "state": "Capital Governorate",
        "postcode": "338",
        "country": "Bahrain",
        "country_code": "bh"
      },
      "address": "Road 3841, Um Al Hassam, Manama, Capital Governorate, 338, Bahrain"
    },
    {
      "lat": 26.23785346464445,
      "lon": 50.5849784217091,
      "geoinfo": {
        "display_name": "TASAHEEL SERVICES, 25A, Road 601, رأس رمان, Manama, Capital Governorate, 306, Bahrain",
        "road": "Road 601",
        "house_number": "25A",
        "neighbourhood": null,
        "suburb": "رأس رمان",
        "city_district": null,
        "city": "Manama",
        "state": "Capital Governorate",
        "postcode": "306",
        "country": "Bahrain",
        "country_code": "bh"
      },
      "address": "TASAHEEL SERVICES, 25A, Road 601, رأس رمان, Manama, Capital Governorate, 306, Bahrain"
    },
    {
      "lat": 26.249638963849513,
      "lon": 50.54925954224493,
      "geoinfo": {
        "display_name": "Seef, Jid Hafs, Capital Governorate, 428, Bahrain",
        "road": null,
        "house_number": null,
        "neighbourhood": null,
        "suburb": "Seef",
        "city_district": null,
        "city": "Jid Hafs",
        "state": "Capital Governorate",
        "postcode": "428",
        "country": "Bahrain",
        "country_code": "bh"
      },
      "address": "108, Seef, Jid Hafs, Capital Governorate, 428, Bahrain"
    },
    {
      "lat": 26.232032549635935,
      "lon": 50.60281738764255,
      "geoinfo": {
        "display_name": "Road 2209, Al-Qudaibiya, Manama, Capital Governorate, 0319, Bahrain",
        "road": "Road 2209",
        "house_number": null,
        "neighbourhood": null,
        "suburb": "Al-Qudaibiya",
        "city_district": null,
        "city": "Manama",
        "state": "Capital Governorate",
        "postcode": "0319",
        "country": "Bahrain",
        "country_code": "bh"
      },
      "address": "Road 2209, Al-Qudaibiya, Manama, Capital Governorate, 0319, Bahrain"
    },
    {
      "lat": 26.19868913092007,
      "lon": 50.58039247587396,
      "geoinfo": {
        "display_name": "Bu Ghazal, Manama, Capital Governorate, 320, Bahrain",
        "road": null,
        "house_number": null,
        "neighbourhood": null,
        "suburb": "Bu Ghazal",
        "city_district": null,
        "city": "Manama",
        "state": "Capital Governorate",
        "postcode": "320",
        "country": "Bahrain",
        "country_code": "bh"
      },
      "address": "187, Bu Ghazal, Manama, Capital Governorate, 320, Bahrain"
    }
  ],
  "updated_at": "2025-10-19T03:29:24.886469+00:00",
  "_kind": "geo_samples"
}