{
  "country_code": "BH",
  "country": "Bahrain",
  "city": "Sitrah",
  "geonameid": 290104,
  "target_addresses": 13,
  "samples": [
    {
      "lat": 26.156361420897994,
      "lon": 50.61124578897712,
      "geoinfo": {
        "display_name": "الخارجية, Capital Governorate, 604, Bahrain",
        "road": null,
        "house_number": null,
        "neighbourhood": null,
        "suburb": null,
        "city_district": null,
        "city": "الخارجية",
        "state": "Capital Governorate",
        "postcode": "604",
        "country": "Bahrain",
        "country_code": "bh"
      },
      "address": "Sitrah, Capital Governorate, Bahrain"
    },
    {
      "lat": 26.138488849989457,
      "lon": 50.656775986701035,
      "geoinfo": {
        "display_name": "Riffa, Southern Governorate, 912, Bahrain",
        "road": null,
        "house_number": null,
        "neighbourhood": null,
        "suburb": null,
        "city_district": null,
        "city": "Riffa",
        "state": "Southern Governorate",
        "postcode": "912",
        "country": "Bahrain",
        "country_code": "bh"
      },
      "address": "Sitrah, Southern Governorate, Bahrain"
    },
    {
      "lat": 26.175971363291453,
      "lon": 50.66413489765037,
      "geoinfo": {
        "display_name": "Al-Hidd, Muharraq Governorate, 101, Bahrain",
        "road": null,
        "house_number": null,
        "neighbourhood": null,
        "suburb": null,
        "city_district": null,
        "city": "Al-Hidd",
        "state": "Muharraq Governorate",
        "postcode": "101",
        "country": "Bahrain",
        "country_code": "bh"
      },
      "address": "Sitrah, Muharraq Governorate, Bahrain"
    },
    {
      "lat": 26.194233054747052,
      "lon": 50.59899849440206,
      "geoinfo": {
        "display_name": "International Agencies Company, Road 4308, Um Al Hassam, Manama, Capital Governorate, 338, Bahrain",
        "road": "Road 4308",
        "house_number": null,
        "neighbourhood": null,
        "suburb": "Um Al Hassam",
        "city_district": null,
        "city": "Manama",
        "state": "Capital Governorate",
        "postcode": "338",
        "country": "Bahrain",
        "country_code": "bh"
      },
      "address": "International Agencies Company, Road 4308, Um Al Hassam, Manama, Capital Governorate, 338, Bahrain"
    },
    {
      "lat": 26.189624330714015,
      "lon": 50.59313075741525,
      "geoinfo": {
        "display_name": "Shaikh Jaber Al Ahmed Al Subah Highway, Umm Al Hassam, Manama, Capital Governorate, 3044, Bahrain",
        "road": "Shaikh Jaber Al Ahmed Al Subah Highway",
        "house_number": null,
        "neighbourhood": null,
        "suburb": "Umm Al Hassam",
        "city_district": null,
        "city": "Manama",
        "state": "Capital Governorate",
        "postcode": "3044",
        "country": "Bahrain",
        "country_code": "bh"
      },
      "address": "244, Shaikh Jaber Al Ahmed Al Subah Highway, Umm Al Hassam, Manama, Capital Governorate, 3044, Bahrain"
    }
  ],
  "updated_at": "2025-10-19T01:10:34.462349+00:00",
  "_kind": "geo_samples"
}