{
  "country_code": "MU",
  "country": "Mauritius",
  "city": "Mahébourg",
  "geonameid": 934322,
  "target_addresses": 8,
  "samples": [
    {
      "lat": -20.41670528166473,
      "lon": 57.68979794189973,
      "geoinfo": {
        "display_name": "Grand Bel Air, Beau Vallon VCA, Grand Port, 51520, Mauritius",
        "road": null,
        "house_number": null,
        "neighbourhood": null,
        "suburb": null,
        "city_district": null,
        "city": "Beau Vallon VCA",
        "state": "Grand Port",
        "postcode": "51520",
        "country": "Mauritius",
        "country_code": "mu"
      },
      "address": "219, Mahébourg, 51520 Grand Port, Mauritius"
    },
    {
      "lat": -20.426942253315726,
      "lon": 57.70298329080218,
      "geoinfo": {
        "display_name": "Beau Vallon, Beau Vallon VCA, Grand Port, 01234, Mauritius",
        "road": null,
        "house_number": null,
        "neighbourhood": null,
        "suburb": "Beau Vallon",
        "city_district": null,
        "city": "Beau Vallon VCA",
        "state": "Grand Port",
        "postcode": "01234",
        "country": "Mauritius",
        "country_code": "mu"
      },
      "address": "123, Beau Vallon, Beau Vallon VCA, Grand Port, 01234, Mauritius"
    },
    {
      "lat": -20.367940945321447,
      "lon": 57.7025193126222,
      "geoinfo": {
        "display_name": "Royal Road Flacq – Mahebourg, Old Grand Port, Old Grand Port VCA, Grand Port, 51403, Mauritius",
        "road": "Royal Road Flacq – Mahebourg",
        "house_number": null,
        "neighbourhood": null,
        "suburb": null,
        "city_district": null,
        "city": "Old Grand Port VCA",
        "state": "Grand Port",
        "postcode": "51403",
        "country": "Mauritius",
        "country_code": "mu"
      },
      "address": "331, Royal Road Flacq – Mahebourg, Old Grand Port, Old Grand Port VCA, Grand Port, 51403, Mauritius"
    },
    {
      "lat": -20.423821839130007,
      "lon": 57.722480465382354,
      "geoinfo": {
        "display_name": "Pointe d'Esny Road, La Chaux, Pointe d’Esny, Beau Vallon VCA, Grand Port, 50812, Mauritius",
        "road": "Pointe d'Esny Road",
        "house_number": null,
        "neighbourhood": "La Chaux",
        "suburb": null,
        "city_district": null,
        "city": "Beau Vallon VCA",
        "state": "Grand Port",
        "postcode": "50812",
        "country": "Mauritius",
        "country_code": "mu"
      },
      "address": "084, Pointe d'Esny Road, La Chaux, Pointe d’Esny, Beau Vallon VCA, Grand Port, 50812, Mauritius"
    },
    {
      "lat": -20.4079251132599,
      "lon": 57.67631296327198,
      "geoinfo": {
        "display_name": "Grand Bel Air, Grand Bel Air VCA, Grand Port, 51520, Mauritius",
        "road": null,
        "house_number": null,
        "neighbourhood": null,
        "suburb": null,
        "city_district": null,
        "city": "Grand Bel Air VCA",
        "state": "Grand Port",
        "postcode": "51520",
        "country": "Mauritius",
        "country_code": "mu"
      },
      "address": "458, Grand Bel Air, Grand Bel Air VCA, Grand Port, 51520, Mauritius"
    },
    {
      "lat": -20.383992509741997,
      "lon": 57.73197964008087,
      "geoinfo": {
        "display_name": "Coral Residence, Old Grand Port, Old Grand Port VCA, Grand Port, 51403, Mauritius",
        "road": null,
        "house_number": null,
        "neighbourhood": null,
        "suburb": null,
        "city_district": null,
        "city": "Old Grand Port VCA",
        "state": "Grand Port",
        "postcode": "51403",
        "country": "Mauritius",
        "country_code": "mu"
      },
      "address": "520, Coral Residence, Old Grand Port, Old Grand Port VCA, Grand Port, 51403, Mauritius"
    },
    {
      "lat": -20.38366728239423,
      "lon": 57.68396783676114,
      "geoinfo": {
        "display_name": "Rivière des Créoles, Rivière des Créoles VCA, Grand Port, 50810, Mauritius",
        "road": null,
        "house_number": null,
        "neighbourhood": null,
        "suburb": null,
        "city_district": null,
        "city": "Rivière des Créoles VCA",
        "state": "Grand Port",
        "postcode": "50810",
        "country": "Mauritius",
        "country_code": "mu"
      },
      "address": "594, Rivière des Créoles, Rivière des Créoles VCA, Grand Port, 50810, Mauritius"
    },
    {
      "lat": -20.4036973780913,
      "lon": 57.65279498116744,
      "geoinfo": {
        "display_name": "Deux Bras, New Grove VCA, Grand Port, 51516, Mauritius",
        "road": null,
        "house_number": null,
        "neighbourhood": null,
        "suburb": null,
        "city_district": null,
        "city": "New Grove VCA",
        "state": "Grand Port",
        "postcode": "51516",
        "country": "Mauritius",
        "country_code": "mu"
      },
      "address": "575, Deux Bras, New Grove VCA, Grand Port, 51516, Mauritius"
    }
  ],
  "updated_at": "2025-10-19T05:18:23.526025+00:00",
  "_kind": "geo_samples"
}