{
  "country_code": "MU",
  "country": "Mauritius",
  "city": "Port Louis",
  "geonameid": 934154,
  "target_addresses": 8,
  "samples": [
    {
      "lat": -20.19255419927062,
      "lon": 57.502165735583965,
      "geoinfo": {
        "display_name": "Morcellement Raffray, Pailles, Town of Port-Louis, Ward 2, South, Moka, 11401, Mauritius",
        "road": null,
        "house_number": null,
        "neighbourhood": null,
        "suburb": "Pailles",
        "city_district": "Town of Port-Louis, Ward 2, South",
        "city": null,
        "state": "Moka",
        "postcode": "11401",
        "country": "Mauritius",
        "country_code": "mu"
      },
      "address": "Pailles, Port Louis, Moka, Mauritius"
    },
    {
      "lat": -20.15659333918859,
      "lon": 57.52496564045637,
      "geoinfo": {
        "display_name": "Carreau Lalo, Cité la Cure, Town of Port-Louis, Ward 8, Port Louis, 11801, Mauritius",
        "road": null,
        "house_number": null,
        "neighbourhood": null,
        "suburb": "Cité la Cure",
        "city_district": "Town of Port-Louis, Ward 8",
        "city": "Port Louis",
        "state": "Port Louis",
        "postcode": "11801",
        "country": "Mauritius",
        "country_code": "mu"
      },
      "address": "Cité la Cure, Port Louis, Port Louis, Mauritius"
    },
    {
      "lat": -20.154035011312512,
      "lon": 57.500636946365496,
      "geoinfo": {
        "display_name": "Port West Access, Mer Rouge Industrial Area, Chinatown, Mer Rouge, Town of Port-Louis, Ward 6, Port Louis, 11307, Mauritius",
        "road": "Port West Access",
        "house_number": null,
        "neighbourhood": null,
        "suburb": "Mer Rouge",
        "city_district": "Town of Port-Louis, Ward 6",
        "city": "Port Louis",
        "state": "Port Louis",
        "postcode": "11307",
        "country": "Mauritius",
        "country_code": "mu"
      },
      "address": "Port West Access, Port Louis, Port Louis, Mauritius"
    },
    {
      "lat": -20.19085581475387,
      "lon": 57.48776693858575,
      "geoinfo": {
        "display_name": "Gold Avenue, Morcellement Le Rock, Pailles, Town of Port-Louis, Ward 2, South, Moka, 11221, Mauritius",
        "road": "Gold Avenue",
        "house_number": null,
        "neighbourhood": null,
        "suburb": "Pailles",
        "city_district": "Town of Port-Louis, Ward 2, South",
        "city": null,
        "state": "Moka",
        "postcode": "11221",
        "country": "Mauritius",
        "country_code": "mu"
      },
      "address": "Gold Avenue, Port Louis, Moka, Mauritius"
    },
    {
      "lat": -20.188595334531524,
      "lon": 57.49634942689656,
      "geoinfo": {
        "display_name": "Avenue Cardinal 5, Morcellement Raffray, Pailles, Town of Port-Louis, Ward 2, South, Moka, 11221, Mauritius",
        "road": "Avenue Cardinal 5",
        "house_number": null,
        "neighbourhood": null,
        "suburb": "Pailles",
        "city_district": "Town of Port-Louis, Ward 2, South",
        "city": null,
        "state": "Moka",
        "postcode": "11221",
        "country": "Mauritius",
        "country_code": "mu"
      },
      "address": "Avenue Cardinal 5, Port Louis, Moka, Mauritius"
    },
    {
      "lat": -20.14693608778754,
      "lon": 57.50478998126941,
      "geoinfo": {
        "display_name": "Rue Caudray, Cité Roche Bois, Mer Rouge, Town of Port-Louis, Ward 6, Port Louis, 11603, Mauritius",
        "road": "Rue Caudray",
        "house_number": null,
        "neighbourhood": null,
        "suburb": "Mer Rouge",
        "city_district": "Town of Port-Louis, Ward 6",
        "city": "Port Louis",
        "state": "Port Louis",
        "postcode": "11603",
        "country": "Mauritius",
        "country_code": "mu"
      },
      "address": "Rue Caudray, Port Louis, Port Louis, Mauritius"
    },
    {
      "lat": -20.17013057491843,
      "lon": 57.45867368881043,
      "geoinfo": {
        "display_name": "Town of Port-Louis, Ward 1, West, Pointe aux Sables, Black River, 11121, Mauritius",
        "road": null,
        "house_number": null,
        "neighbourhood": null,
        "suburb": null,
        "city_district": "Town of Port-Louis, Ward 1, West",
        "city": "Pointe aux Sables",
        "state": "Black River",
        "postcode": "11121",
        "country": "Mauritius",
        "country_code": "mu"
      },
      "address": "Town of Port-Louis, Ward 1, West, Port Louis, Black River, Mauritius"
    },
    {
      "lat": -20.17249526165866,
      "lon": 57.51360097644684,
      "geoinfo": {
        "display_name": "G.M.D. Atchia State College, Boulevard Victoria, Tranquebar, Town of Port-Louis, Ward 4, Port Louis, 11410, Mauritius",
        "road": "Boulevard Victoria",
        "house_number": null,
        "neighbourhood": null,
        "suburb": null,
        "city_district": "Town of Port-Louis, Ward 4",
        "city": "Port Louis",
        "state": "Port Louis",
        "postcode": "11410",
        "country": "Mauritius",
        "country_code": "mu"
      },
      "address": "Boulevard Victoria, Port Louis, Port Louis, Mauritius"
    },
    {
      "lat": -20.155821367218405,
      "lon": 57.53968043263778,
      "geoinfo": {
        "display_name": "Cité la Cure, Town of Port-Louis, Ward 8, Port Louis, 11803, Mauritius",
        "road": null,
        "house_number": null,
        "neighbourhood": null,
        "suburb": "Cité la Cure",
        "city_district": "Town of Port-Louis, Ward 8",
        "city": "Port Louis",
        "state": "Port Louis",
        "postcode": "11803",
        "country": "Mauritius",
        "country_code": "mu"
      },
      "address": "Cité la Cure, Town of Port-Louis, Ward 8, Port Louis, 11803, Mauritius"
    },
    {
      "lat": -20.199047844270517,
      "lon": 57.47291370985174,
      "geoinfo": {
        "display_name": "Riverside Lane, Belle Etoile, Coromandel, Town of Beau-Bassin / Rose Hill, Ward 6, Beau Bassin / Rose Hill, Plaines Wilhems, 71601, Mauritius",
        "road": "Riverside Lane",
        "house_number": null,
        "neighbourhood": null,
        "suburb": "Coromandel",
        "city_district": "Town of Beau-Bassin / Rose Hill, Ward 6",
        "city": "Beau Bassin / Rose Hill",
        "state": "Plaines Wilhems",
        "postcode": "71601",
        "country": "Mauritius",
        "country_code": "mu"
      },
      "address": "Riverside Lane, Belle Etoile, Coromandel, Town of Beau-Bassin / Rose Hill, Ward 6, Beau Bassin / Rose Hill, Plaines Wilhems, 71601, Mauritius"
    },
    {
      "lat": -20.139050635675062,
      "lon": 57.46370903960734,
      "geoinfo": {
        "display_name": "Mer Rouge, Town of Port-Louis, Ward 6, Port Louis, 11603, Mauritius",
        "road": null,
        "house_number": null,
        "neighbourhood": null,
        "suburb": "Mer Rouge",
        "city_district": "Town of Port-Louis, Ward 6",
        "city": "Port Louis",
        "state": "Port Louis",
        "postcode": "11603",
        "country": "Mauritius",
        "country_code": "mu"
      },
      "address": "Mer Rouge, Town of Port-Louis, Ward 6, Port Louis, 11603, Mauritius"
    },
    {
      "lat": -20.18596380021094,
      "lon": 57.47581307742327,
      "geoinfo": {
        "display_name": "Camp Chapelon, Town of Port-Louis, Ward 2, North, Port Louis, 90802, Mauritius",
        "road": null,
        "house_number": null,
        "neighbourhood": null,
        "suburb": null,
        "city_district": "Town of Port-Louis, Ward 2, North",
        "city": "Port Louis",
        "state": "Port Louis",
        "postcode": "90802",
        "country": "Mauritius",
        "country_code": "mu"
      },
      "address": "Camp Chapelon, Town of Port-Louis, Ward 2, North, Port Louis, 90802, Mauritius"
    },
    {
      "lat": -20.151359858247346,
      "lon": 57.524642017639394,
      "geoinfo": {
        "display_name": "Abercrombie, Saint Croix, Town of Port-Louis, Ward 7, Port Louis, 11701, Mauritius",
        "road": null,
        "house_number": null,
        "neighbourhood": null,
        "suburb": "Saint Croix",
        "city_district": "Town of Port-Louis, Ward 7",
        "city": "Port Louis",
        "state": "Port Louis",
        "postcode": "11701",
        "country": "Mauritius",
        "country_code": "mu"
      },
      "address": "Abercrombie, Saint Croix, Town of Port-Louis, Ward 7, Port Louis, 11701, Mauritius"
    },
    {
      "lat": -20.181169506955495,
      "lon": 57.532824355726554,
      "geoinfo": {
        "display_name": "Caroline Road, Vallee Des Pretres, Town of Port-Louis, Ward 8, Port Louis, 11803, Mauritius",
        "road": "Caroline Road",
        "house_number": null,
        "neighbourhood": null,
        "suburb": "Vallee Des Pretres",
        "city_district": "Town of Port-Louis, Ward 8",
        "city": "Port Louis",
        "state": "Port Louis",
        "postcode": "11803",
        "country": "Mauritius",
        "country_code": "mu"
      },
      "address": "Caroline Road, Vallee Des Pretres, Town of Port-Louis, Ward 8, Port Louis, 11803, Mauritius"
    },
    {
      "lat": -20.12713127504178,
      "lon": 57.51625109620626,
      "geoinfo": {
        "display_name": "Jin Fei Link Road, Riche Terre, Le Hochet, Le Hochet VCA, Pamplemousses, 21731, Mauritius",
        "road": "Jin Fei Link Road",
        "house_number": null,
        "neighbourhood": "Riche Terre",
        "suburb": null,
        "city_district": null,
        "city": "Le Hochet VCA",
        "state": "Pamplemousses",
        "postcode": "21731",
        "country": "Mauritius",
        "country_code": "mu"
      },
      "address": "477, Jin Fei Link Road, Riche Terre, Le Hochet, Le Hochet VCA, Pamplemousses, 21731, Mauritius"
    },
    {
      "lat": -20.17415865525903,
      "lon": 57.54370186019425,
      "geoinfo": {
        "display_name": "Vallee Des Pretres, Town of Port-Louis, Ward 8, Port Louis, 11803, Mauritius",
        "road": null,
        "house_number": null,
        "neighbourhood": null,
        "suburb": "Vallee Des Pretres",
        "city_district": "Town of Port-Louis, Ward 8",
        "city": "Port Louis",
        "state": "Port Louis",
        "postcode": "11803",
        "country": "Mauritius",
        "country_code": "mu"
      },
      "address": "Vallee Des Pretres, Town of Port-Louis, Ward 8, Port Louis, 11803, Mauritius"
    }
  ],
  "updated_at": "2025-10-19T04:26:03.709069+00:00",
  "_kind": "geo_samples"
}