{
  "country_code": "MU",
  "country": "Mauritius",
  "city": "Quatre Bornes",
  "geonameid": 934131,
  "target_addresses": 8,
  "samples": [
    {
      "lat": -20.26553146783117,
      "lon": 57.52263836629098,
      "geoinfo": {
        "display_name": "Belle Terre, Vacoas-Phoenix, Plaines Wilhems, 72201, Mauritius",
        "road": null,
        "house_number": null,
        "neighbourhood": null,
        "suburb": null,
        "city_district": null,
        "city": "Vacoas-Phoenix",
        "state": "Plaines Wilhems",
        "postcode": "72201",
        "country": "Mauritius",
        "country_code": "mu"
      },
      "address": "Quatre Bornes, Plaines Wilhems, Mauritius"
    },
    {
      "lat": -20.25145141847178,
      "lon": 57.49554099628192,
      "geoinfo": {
        "display_name": "Trianon, Ebene Cybercity, Town of Quatre-Bornes, Ward 2, Quatre Bornes, Plaines Wilhems, 72201, Mauritius",
        "road": null,
        "house_number": null,
        "neighbourhood": null,
        "suburb": "Ebene Cybercity",
        "city_district": "Town of Quatre-Bornes, Ward 2",
        "city": "Quatre Bornes",
        "state": "Plaines Wilhems",
        "postcode": "72201",
        "country": "Mauritius",
        "country_code": "mu"
      },
      "address": "Ebene Cybercity, Quatre Bornes, Plaines Wilhems, Mauritius"
    },
    {
      "lat": -20.257408616360003,
      "lon": 57.4555479716874,
      "geoinfo": {
        "display_name": "Corps de Garde trail, Town of Beau-Bassin / Rose Hill, Ward 1, Beau Bassin / Rose Hill, Plaines Wilhems, 71407, Mauritius",
        "road": "Corps de Garde trail",
        "house_number": null,
        "neighbourhood": null,
        "suburb": null,
        "city_district": "Town of Beau-Bassin / Rose Hill, Ward 1",
        "city": "Beau Bassin / Rose Hill",
        "state": "Plaines Wilhems",
        "postcode": "71407",
        "country": "Mauritius",
        "country_code": "mu"
      },
      "address": "Corps de Garde trail, Quatre Bornes, Plaines Wilhems, Mauritius"
    },
    {
      "lat": -20.27291189193238,
      "lon": 57.485396680661395,
      "geoinfo": {
        "display_name": "Avenue des Geais, Sodnac, Town of Quatre-Bornes, Ward 2, Quatre Bornes, Plaines Wilhems, 72208, Mauritius",
        "road": "Avenue des Geais",
        "house_number": null,
        "neighbourhood": null,
        "suburb": "Sodnac",
        "city_district": "Town of Quatre-Bornes, Ward 2",
        "city": "Quatre Bornes",
        "state": "Plaines Wilhems",
        "postcode": "72208",
        "country": "Mauritius",
        "country_code": "mu"
      },
      "address": "Avenue des Geais, Quatre Bornes, Plaines Wilhems, Mauritius"
    },
    {
      "lat": -20.284928578250618,
      "lon": 57.44990890359235,
      "geoinfo": {
        "display_name": "Palma, Town of Quatre-Bornes, Ward 4, West, Quatre Bornes, Black River, 72444, Mauritius",
        "road": null,
        "house_number": null,
        "neighbourhood": null,
        "suburb": "Palma",
        "city_district": "Town of Quatre-Bornes, Ward 4, West",
        "city": "Quatre Bornes",
        "state": "Black River",
        "postcode": "72444",
        "country": "Mauritius",
        "country_code": "mu"
      },
      "address": "Palma, Quatre Bornes, Black River, Mauritius"
    },
    {
      "lat": -20.255029184545716,
      "lon": 57.453607914889794,
      "geoinfo": {
        "display_name": "Corps de Garde trail, Town of Beau-Bassin / Rose Hill, Ward 2, Bambous VCA, Black River, 71407, Mauritius",
        "road": "Corps de Garde trail",
        "house_number": null,
        "neighbourhood": null,
        "suburb": null,
        "city_district": "Town of Beau-Bassin / Rose Hill, Ward 2",
        "city": "Bambous VCA",
        "state": "Black River",
        "postcode": "71407",
        "country": "Mauritius",
        "country_code": "mu"
      },
      "address": "Corps de Garde trail, Quatre Bornes, Black River, Mauritius"
    },
    {
      "lat": -20.29324841051352,
      "lon": 57.47532756826527,
      "geoinfo": {
        "display_name": "Vingta, Solferino, Town of Vacoas-Phoenix, Ward 3, Vacoas-Phoenix, Plaines Wilhems, 73324, Mauritius",
        "road": null,
        "house_number": null,
        "neighbourhood": null,
        "suburb": "Solferino",
        "city_district": "Town of Vacoas-Phoenix, Ward 3",
        "city": "Vacoas-Phoenix",
        "state": "Plaines Wilhems",
        "postcode": "73324",
        "country": "Mauritius",
        "country_code": "mu"
      },
      "address": "Solferino, Quatre Bornes, Plaines Wilhems, Mauritius"
    },
    {
      "lat": -20.27994892483214,
      "lon": 57.44824898307424,
      "geoinfo": {
        "display_name": "Cascavelle VCA West, Black River, 72444, Mauritius",
        "road": null,
        "house_number": null,
        "neighbourhood": null,
        "suburb": null,
        "city_district": null,
        "city": "Cascavelle VCA West",
        "state": "Black River",
        "postcode": "72444",
        "country": "Mauritius",
        "country_code": "mu"
      },
      "address": "Quatre Bornes, Black River, Mauritius"
    }
  ],
  "updated_at": "2025-10-16T19:54:56.042356+00:00",
  "_kind": "geo_samples"
}