{
  "country_code": "MU",
  "country": "Mauritius",
  "city": "Vacoas",
  "geonameid": 933945,
  "target_addresses": 8,
  "samples": [
    {
      "lat": -20.27099722872321,
      "lon": 57.44417834412069,
      "geoinfo": {
        "display_name": "Cascavelle VCA West, Black River, 72444, Mauritius",
        "road": null,
        "house_number": null,
        "neighbourhood": null,
        "suburb": null,
        "city_district": null,
        "city": "Cascavelle VCA West",
        "state": "Black River",
        "postcode": "72444",
        "country": "Mauritius",
        "country_code": "mu"
      },
      "address": "Vacoas, Black River, Mauritius"
    },
    {
      "lat": -20.293076132873253,
      "lon": 57.50851436423672,
      "geoinfo": {
        "display_name": "Balgobin lane, Saint Paul, Vacoas-Phoenix, Plaines Wilhems, 74232, Mauritius",
        "road": "Balgobin lane",
        "house_number": null,
        "neighbourhood": null,
        "suburb": "Saint Paul",
        "city_district": null,
        "city": "Vacoas-Phoenix",
        "state": "Plaines Wilhems",
        "postcode": "74232",
        "country": "Mauritius",
        "country_code": "mu"
      },
      "address": "Balgobin lane, Vacoas, Plaines Wilhems, Mauritius"
    },
    {
      "lat": -20.2800574271111,
      "lon": 57.46982127638819,
      "geoinfo": {
        "display_name": "Jackson, Cité Kennedy, Candos, Vacoas-Phoenix, Plaines Wilhems, 72444, Mauritius",
        "road": null,
        "house_number": null,
        "neighbourhood": "Jackson",
        "suburb": "Candos",
        "city_district": null,
        "city": "Vacoas-Phoenix",
        "state": "Plaines Wilhems",
        "postcode": "72444",
        "country": "Mauritius",
        "country_code": "mu"
      },
      "address": "Jackson, Vacoas, Plaines Wilhems, Mauritius"
    },
    {
      "lat": -20.26217648420047,
      "lon": 57.50456955271928,
      "geoinfo": {
        "display_name": "Vacoas-Phoenix, Plaines Wilhems, 72208, Mauritius",
        "road": null,
        "house_number": null,
        "neighbourhood": null,
        "suburb": null,
        "city_district": null,
        "city": "Vacoas-Phoenix",
        "state": "Plaines Wilhems",
        "postcode": "72208",
        "country": "Mauritius",
        "country_code": "mu"
      },
      "address": "Vacoas, Plaines Wilhems, Mauritius"
    },
    {
      "lat": -20.266668503576923,
      "lon": 57.49322156341016,
      "geoinfo": {
        "display_name": "Oxenham, Port Louis – The South Motorway, Sodnac, Town of Quatre-Bornes, Ward 2, Quatre Bornes, Plaines Wilhems, 72208, Mauritius",
        "road": "Port Louis – The South Motorway",
        "house_number": null,
        "neighbourhood": null,
        "suburb": "Sodnac",
        "city_district": "Town of Quatre-Bornes, Ward 2",
        "city": "Quatre Bornes",
        "state": "Plaines Wilhems",
        "postcode": "72208",
        "country": "Mauritius",
        "country_code": "mu"
      },
      "address": "Port Louis – The South Motorway, Vacoas, Plaines Wilhems, Mauritius"
    },
    {
      "lat": -20.326457522144832,
      "lon": 57.499092536886934,
      "geoinfo": {
        "display_name": "Town of Curepipe, Ward 5, Vacoas-Phoenix, Plaines Wilhems, 74504, Mauritius",
        "road": null,
        "house_number": null,
        "neighbourhood": null,
        "suburb": null,
        "city_district": "Town of Curepipe, Ward 5",
        "city": "Vacoas-Phoenix",
        "state": "Plaines Wilhems",
        "postcode": "74504",
        "country": "Mauritius",
        "country_code": "mu"
      },
      "address": "Town of Curepipe, Ward 5, Vacoas, Plaines Wilhems, Mauritius"
    },
    {
      "lat": -20.273454270297957,
      "lon": 57.5116225381857,
      "geoinfo": {
        "display_name": "Highlands, Phoenix, Vacoas-Phoenix, Plaines Wilhems, 73411, Mauritius",
        "road": null,
        "house_number": null,
        "neighbourhood": null,
        "suburb": "Phoenix",
        "city_district": null,
        "city": "Vacoas-Phoenix",
        "state": "Plaines Wilhems",
        "postcode": "73411",
        "country": "Mauritius",
        "country_code": "mu"
      },
      "address": "Phoenix, Vacoas, Plaines Wilhems, Mauritius"
    },
    {
      "lat": -20.265789281722427,
      "lon": 57.493593877344054,
      "geoinfo": {
        "display_name": "Sodnac, Town of Quatre-Bornes, Ward 2, Quatre Bornes, Plaines Wilhems, 72208, Mauritius",
        "road": null,
        "house_number": null,
        "neighbourhood": null,
        "suburb": "Sodnac",
        "city_district": "Town of Quatre-Bornes, Ward 2",
        "city": "Quatre Bornes",
        "state": "Plaines Wilhems",
        "postcode": "72208",
        "country": "Mauritius",
        "country_code": "mu"
      },
      "address": "Sodnac, Vacoas, Plaines Wilhems, Mauritius"
    },
    {
      "lat": -20.292248148267134,
      "lon": 57.501391674014585,
      "geoinfo": {
        "display_name": "Gymkhana Golf Course, Nalletamby Road, Town of Vacoas-Phoenix, Ward 4, Vacoas-Phoenix, Plaines Wilhems, 73411, Mauritius",
        "road": "Nalletamby Road",
        "house_number": null,
        "neighbourhood": null,
        "suburb": null,
        "city_district": "Town of Vacoas-Phoenix, Ward 4",
        "city": "Vacoas-Phoenix",
        "state": "Plaines Wilhems",
        "postcode": "73411",
        "country": "Mauritius",
        "country_code": "mu"
      },
      "address": "983, Nalletamby Road, Vacoas, 73411 Plaines Wilhems, Mauritius"
    },
    {
      "lat": -20.303545692045446,
      "lon": 57.47179640752939,
      "geoinfo": {
        "display_name": "Avenue Hibiscus, Town of Vacoas-Phoenix, Ward 3, Vacoas-Phoenix, Plaines Wilhems, 73324, Mauritius",
        "road": "Avenue Hibiscus",
        "house_number": null,
        "neighbourhood": null,
        "suburb": null,
        "city_district": "Town of Vacoas-Phoenix, Ward 3",
        "city": "Vacoas-Phoenix",
        "state": "Plaines Wilhems",
        "postcode": "73324",
        "country": "Mauritius",
        "country_code": "mu"
      },
      "address": "961, Avenue Hibiscus, Vacoas, 73324 Plaines Wilhems, Mauritius"
    },
    {
      "lat": -20.318873729002952,
      "lon": 57.51534349457986,
      "geoinfo": {
        "display_name": "Emile Pitot Street, Town of Curepipe, Ward 2, Vacoas-Phoenix, Plaines Wilhems, 74208, Mauritius",
        "road": "Emile Pitot Street",
        "house_number": null,
        "neighbourhood": null,
        "suburb": null,
        "city_district": "Town of Curepipe, Ward 2",
        "city": "Vacoas-Phoenix",
        "state": "Plaines Wilhems",
        "postcode": "74208",
        "country": "Mauritius",
        "country_code": "mu"
      },
      "address": "Emile Pitot Street, Town of Curepipe, Ward 2, Vacoas-Phoenix, Plaines Wilhems, 74208, Mauritius"
    },
    {
      "lat": -20.32254302820253,
      "lon": 57.51174502279324,
      "geoinfo": {
        "display_name": "Albert Daruty de Grandpre Street, Town of Curepipe, Ward 5, Vacoas-Phoenix, Plaines Wilhems, 74504, Mauritius",
        "road": "Albert Daruty de Grandpre Street",
        "house_number": null,
        "neighbourhood": null,
        "suburb": null,
        "city_district": "Town of Curepipe, Ward 5",
        "city": "Vacoas-Phoenix",
        "state": "Plaines Wilhems",
        "postcode": "74504",
        "country": "Mauritius",
        "country_code": "mu"
      },
      "address": "Albert Daruty de Grandpre Street, Town of Curepipe, Ward 5, Vacoas-Phoenix, Plaines Wilhems, 74504, Mauritius"
    },
    {
      "lat": -20.269927988646025,
      "lon": 57.45644228453267,
      "geoinfo": {
        "display_name": "Palma, Town of Quatre-Bornes, Ward 4, West, Quatre Bornes, Plaines Wilhems, 72444, Mauritius",
        "road": null,
        "house_number": null,
        "neighbourhood": null,
        "suburb": "Palma",
        "city_district": "Town of Quatre-Bornes, Ward 4, West",
        "city": "Quatre Bornes",
        "state": "Plaines Wilhems",
        "postcode": "72444",
        "country": "Mauritius",
        "country_code": "mu"
      },
      "address": "Palma, Town of Quatre-Bornes, Ward 4, West, Quatre Bornes, Plaines Wilhems, 72444, Mauritius"
    },
    {
      "lat": -20.326551636321675,
      "lon": 57.49372698949105,
      "geoinfo": {
        "display_name": "Malakoff Road, Town of Curepipe, Ward 5, Curepipe, Plaines Wilhems, 73126, Mauritius",
        "road": "Malakoff Road",
        "house_number": null,
        "neighbourhood": null,
        "suburb": null,
        "city_district": "Town of Curepipe, Ward 5",
        "city": "Curepipe",
        "state": "Plaines Wilhems",
        "postcode": "73126",
        "country": "Mauritius",
        "country_code": "mu"
      },
      "address": "Malakoff Road, Town of Curepipe, Ward 5, Curepipe, Plaines Wilhems, 73126, Mauritius"
    },
    {
      "lat": -20.336920627620085,
      "lon": 57.45545395505486,
      "geoinfo": {
        "display_name": "Tamarin VCA, Black River, Mauritius",
        "road": null,
        "house_number": null,
        "neighbourhood": null,
        "suburb": null,
        "city_district": null,
        "city": "Tamarin VCA",
        "state": "Black River",
        "postcode": null,
        "country": "Mauritius",
        "country_code": "mu"
      },
      "address": "120, Vacoas, 89284 Black River, Mauritius"
    },
    {
      "lat": -20.325755689687433,
      "lon": 57.44603058462729,
      "geoinfo": {
        "display_name": "Tamarin VCA, Black River, Mauritius",
        "road": null,
        "house_number": null,
        "neighbourhood": null,
        "suburb": null,
        "city_district": null,
        "city": "Tamarin VCA",
        "state": "Black River",
        "postcode": null,
        "country": "Mauritius",
        "country_code": "mu"
      },
      "address": "161, Vacoas, 48425 Black River, Mauritius"
    }
  ],
  "updated_at": "2025-10-19T06:06:07.286550+00:00",
  "_kind": "geo_samples"
}