{
  "country_code": "MA",
  "country": "Morocco",
  "city": "Aguelmous",
  "geonameid": 2561290,
  "target_addresses": 3,
  "samples": [
    {
      "lat": 33.18508403945506,
      "lon": -5.856156655229843,
      "geoinfo": {
        "display_name": "Aguelmous, caïdat de Aguelmous, Cercle d'Aguelmous دائرة أكلموس, Khénifra Province, Béni Mellal-Khénifra, 54052, Morocco",
        "road": null,
        "house_number": null,
        "neighbourhood": null,
        "suburb": null,
        "city_district": null,
        "city": "Aguelmous",
        "state": null,
        "postcode": "54052",
        "country": "Morocco",
        "country_code": "ma"
      },
      "address": "Aguelmous, Morocco"
    },
    {
      "lat": 33.15672299909291,
      "lon": -5.817610985046877,
      "geoinfo": {
        "display_name": "Aguelmous, caïdat de Aguelmous, Cercle d'Aguelmous دائرة أكلموس, Khénifra Province, Béni Mellal-Khénifra, 54052, Morocco",
        "road": null,
        "house_number": null,
        "neighbourhood": null,
        "suburb": null,
        "city_district": null,
        "city": "Aguelmous",
        "state": null,
        "postcode": "54052",
        "country": "Morocco",
        "country_code": "ma"
      },
      "address": "077, Aguelmous, caïdat de Aguelmous, Cercle d'Aguelmous دائرة أكلموس, Khénifra Province, Béni Mellal-Khénifra, 54052, Morocco"
    },
    {
      "lat": 33.171494529103875,
      "lon": -5.832675910936461,
      "geoinfo": {
        "display_name": "Aguelmous, caïdat de Aguelmous, Cercle d'Aguelmous دائرة أكلموس, Khénifra Province, Béni Mellal-Khénifra, 54052, Morocco",
        "road": null,
        "house_number": null,
        "neighbourhood": null,
        "suburb": null,
        "city_district": null,
        "city": "Aguelmous",
        "state": null,
        "postcode": "54052",
        "country": "Morocco",
        "country_code": "ma"
      },
      "address": "959, Aguelmous, caïdat de Aguelmous, Cercle d'Aguelmous دائرة أكلموس, Khénifra Province, Béni Mellal-Khénifra, 54052, Morocco"
    }
  ],
  "updated_at": "2025-10-19T05:40:38.190495+00:00",
  "_kind": "geo_samples"
}