{
  "country_code": "MQ",
  "country": "Martinique",
  "city": "Fort-de-France",
  "geonameid": 3570675,
  "target_addresses": 13,
  "samples": [
    {
      "lat": 14.59468550448656,
      "lon": -61.051131766505726,
      "geoinfo": {
        "display_name": "Avenue Camille Darsières, Fort-de-France, Martinique, 97200, France",
        "road": "Avenue Camille Darsières",
        "house_number": null,
        "neighbourhood": null,
        "suburb": null,
        "city_district": null,
        "city": "Fort-de-France",
        "state": "Martinique",
        "postcode": "97200",
        "country": "France",
        "country_code": "fr"
      },
      "address": "Avenue Camille Darsières, Fort-de-France, Martinique, Martinique"
    },
    {
      "lat": 14.579438999734585,
      "lon": -61.060272746245914,
      "geoinfo": {
        "display_name": "Martinique, France",
        "road": null,
        "house_number": null,
        "neighbourhood": null,
        "suburb": null,
        "city_district": null,
        "city": null,
        "state": "Martinique",
        "postcode": null,
        "country": "France",
        "country_code": "fr"
      },
      "address": "Fort-de-France, Martinique, Martinique"
    },
    {
      "lat": 14.585518501806026,
      "lon": -61.0522950823772,
      "geoinfo": {
        "display_name": "Tourterelles-Nord, Fort-de-France, Martinique, 97200, France",
        "road": null,
        "house_number": null,
        "neighbourhood": "Tourterelles-Nord",
        "suburb": null,
        "city_district": null,
        "city": "Fort-de-France",
        "state": "Martinique",
        "postcode": "97200",
        "country": "France",
        "country_code": "fr"
      },
      "address": "Tourterelles-Nord, Fort-de-France, Martinique, Martinique"
    },
    {
      "lat": 14.626496217275834,
      "lon": -61.03584968888409,
      "geoinfo": {
        "display_name": "Rue des Pois Doux, Fort-de-France, Martinique, 97232, France",
        "road": "Rue des Pois Doux",
        "house_number": null,
        "neighbourhood": null,
        "suburb": null,
        "city_district": null,
        "city": "Fort-de-France",
        "state": "Martinique",
        "postcode": "97232",
        "country": "France",
        "country_code": "fr"
      },
      "address": "Rue des Pois Doux, Fort-de-France, Martinique, Martinique"
    },
    {
      "lat": 14.618484440307094,
      "lon": -61.065244627105145,
      "geoinfo": {
        "display_name": "Fort Desaix, Route du Général Mangin, Fort-de-France, Martinique, 97200, France",
        "road": "Route du Général Mangin",
        "house_number": null,
        "neighbourhood": null,
        "suburb": null,
        "city_district": null,
        "city": "Fort-de-France",
        "state": "Martinique",
        "postcode": "97200",
        "country": "France",
        "country_code": "fr"
      },
      "address": "Route du Général Mangin, Fort-de-France, Martinique, Martinique"
    },
    {
      "lat": 14.63525172030318,
      "lon": -61.080560250907276,
      "geoinfo": {
        "display_name": "Rue de la Coursive, Morne Coco, Fort-de-France, Martinique, 97234, France",
        "road": "Rue de la Coursive",
        "house_number": null,
        "neighbourhood": null,
        "suburb": null,
        "city_district": null,
        "city": "Fort-de-France",
        "state": "Martinique",
        "postcode": "97234",
        "country": "France",
        "country_code": "fr"
      },
      "address": "Rue de la Coursive, Fort-de-France, Martinique, Martinique"
    },
    {
      "lat": 14.620154263185793,
      "lon": -61.09445567911545,
      "geoinfo": {
        "display_name": "Université des Antilles - Campus Schoelcher, Route de l'Université, L'Enclos, Schœlcher, Fort-de-France, Martinique, 97233, France",
        "road": "Route de l'Université",
        "house_number": null,
        "neighbourhood": null,
        "suburb": null,
        "city_district": null,
        "city": "Schœlcher",
        "state": "Martinique",
        "postcode": "97233",
        "country": "France",
        "country_code": "fr"
      },
      "address": "Route de l'Université, Fort-de-France, Martinique, Martinique"
    },
    {
      "lat": 14.62048281954659,
      "lon": -61.03494471230015,
      "geoinfo": {
        "display_name": "Impasse la Trompeuse, Les Hauts de Californie, Le Lamentin, Fort-de-France, Martinique, 97232, France",
        "road": "Impasse la Trompeuse",
        "house_number": null,
        "neighbourhood": null,
        "suburb": "Les Hauts de Californie",
        "city_district": null,
        "city": "Le Lamentin",
        "state": "Martinique",
        "postcode": "97232",
        "country": "France",
        "country_code": "fr"
      },
      "address": "Impasse la Trompeuse, Fort-de-France, Martinique, Martinique"
    },
    {
      "lat": 14.646599338379248,
      "lon": -61.08558661019741,
      "geoinfo": {
        "display_name": "Chemin de Bois Thibault, Morne Coco, Balata, Fort-de-France, Martinique, 97234, France",
        "road": "Chemin de Bois Thibault",
        "house_number": null,
        "neighbourhood": null,
        "suburb": null,
        "city_district": null,
        "city": "Fort-de-France",
        "state": "Martinique",
        "postcode": "97234",
        "country": "France",
        "country_code": "fr"
      },
      "address": "Chemin de Bois Thibault, Fort-de-France, Martinique, Martinique"
    },
    {
      "lat": 14.617511288431695,
      "lon": -61.08574451733148,
      "geoinfo": {
        "display_name": "Rue des Rameaux, Schœlcher, Fort-de-France, Martinique, 97233, France",
        "road": "Rue des Rameaux",
        "house_number": null,
        "neighbourhood": null,
        "suburb": null,
        "city_district": null,
        "city": "Schœlcher",
        "state": "Martinique",
        "postcode": "97233",
        "country": "France",
        "country_code": "fr"
      },
      "address": "Rue des Rameaux, Fort-de-France, Martinique, Martinique"
    },
    {
      "lat": 14.608386830110708,
      "lon": -61.05641092930828,
      "geoinfo": {
        "display_name": "Avenue Maurice Bishop, Saint-Thérèse-Est, Fort-de-France, Martinique, 97200, France",
        "road": "Avenue Maurice Bishop",
        "house_number": null,
        "neighbourhood": "Saint-Thérèse-Est",
        "suburb": null,
        "city_district": null,
        "city": "Fort-de-France",
        "state": "Martinique",
        "postcode": "97200",
        "country": "France",
        "country_code": "fr"
      },
      "address": "Avenue Maurice Bishop, Fort-de-France, Martinique, Martinique"
    },
    {
      "lat": 14.61489038866518,
      "lon": -61.06356381864057,
      "geoinfo": {
        "display_name": "Impasse du Lieutenant Lapeyre, Fort-de-France, Martinique, 97200, France",
        "road": "Impasse du Lieutenant Lapeyre",
        "house_number": null,
        "neighbourhood": null,
        "suburb": null,
        "city_district": null,
        "city": "Fort-de-France",
        "state": "Martinique",
        "postcode": "97200",
        "country": "France",
        "country_code": "fr"
      },
      "address": "Impasse du Lieutenant Lapeyre, Fort-de-France, Martinique, Martinique"
    },
    {
      "lat": 14.619633613613352,
      "lon": -61.08034091375698,
      "geoinfo": {
        "display_name": "Lotissement Duplan, Fort-de-France, Martinique, 97233, France",
        "road": "Lotissement Duplan",
        "house_number": null,
        "neighbourhood": null,
        "suburb": null,
        "city_district": null,
        "city": "Fort-de-France",
        "state": "Martinique",
        "postcode": "97233",
        "country": "France",
        "country_code": "fr"
      },
      "address": "Lotissement Duplan, Fort-de-France, Martinique, Martinique"
    },
    {
      "lat": 14.611928399984107,
      "lon": -61.06325567314381,
      "geoinfo": {
        "display_name": "Rue du Pompon Soldat, Fort-de-France, Martinique, 97200, France",
        "road": "Rue du Pompon Soldat",
        "house_number": null,
        "neighbourhood": null,
        "suburb": null,
        "city_district": null,
        "city": "Fort-de-France",
        "state": "Martinique",
        "postcode": "97200",
        "country": "France",
        "country_code": "fr"
      },
      "address": "413, Rue du Pompon Soldat, Fort-de-France, 97200 Martinique, Martinique"
    },
    {
      "lat": 14.635572160478683,
      "lon": -61.06413857247996,
      "geoinfo": {
        "display_name": "Chemin Desbrosses la Vallée, Cité des Sinistrés, Fort-de-France, Martinique, 97234, France",
        "road": "Chemin Desbrosses la Vallée",
        "house_number": null,
        "neighbourhood": null,
        "suburb": null,
        "city_district": null,
        "city": "Fort-de-France",
        "state": "Martinique",
        "postcode": "97234",
        "country": "France",
        "country_code": "fr"
      },
      "address": "634, Chemin Desbrosses la Vallée, Fort-de-France, 97234 Martinique, Martinique"
    },
    {
      "lat": 14.569223645774713,
      "lon": -61.09951964018605,
      "geoinfo": {
        "display_name": "Martinique, France",
        "road": null,
        "house_number": null,
        "neighbourhood": null,
        "suburb": null,
        "city_district": null,
        "city": null,
        "state": "Martinique",
        "postcode": null,
        "country": "France",
        "country_code": "fr"
      },
      "address": "809, Fort-de-France, 42664 Martinique, Martinique"
    },
    {
      "lat": 14.645886205228708,
      "lon": -61.08656243935329,
      "geoinfo": {
        "display_name": "Route de la Fontaine Didier, Fort-de-France, Martinique, 97233, France",
        "road": "Route de la Fontaine Didier",
        "house_number": null,
        "neighbourhood": null,
        "suburb": null,
        "city_district": null,
        "city": "Fort-de-France",
        "state": "Martinique",
        "postcode": "97233",
        "country": "France",
        "country_code": "fr"
      },
      "address": "270, Route de la Fontaine Didier, Fort-de-France, 97233 Martinique, Martinique"
    },
    {
      "lat": 14.600072754735834,
      "lon": -61.07603269180363,
      "geoinfo": {
        "display_name": "Rue du Grand Caraïbe, Fort-de-France, Martinique, 97200, France",
        "road": "Rue du Grand Caraïbe",
        "house_number": null,
        "neighbourhood": null,
        "suburb": null,
        "city_district": null,
        "city": "Fort-de-France",
        "state": "Martinique",
        "postcode": "97200",
        "country": "France",
        "country_code": "fr"
      },
      "address": "831, Rue du Grand Caraïbe, Fort-de-France, 97200 Martinique, Martinique"
    },
    {
      "lat": 14.639737456246113,
      "lon": -61.094888707228755,
      "geoinfo": {
        "display_name": "Rue de Bethléem, Schœlcher, Fort-de-France, Martinique, 97233, France",
        "road": "Rue de Bethléem",
        "house_number": null,
        "neighbourhood": null,
        "suburb": null,
        "city_district": null,
        "city": "Schœlcher",
        "state": "Martinique",
        "postcode": "97233",
        "country": "France",
        "country_code": "fr"
      },
      "address": "104, Rue de Bethléem, Fort-de-France, 97233 Martinique, Martinique"
    },
    {
      "lat": 14.599328777667022,
      "lon": -61.02995602064537,
      "geoinfo": {
        "display_name": "Morne Cabri, Le Lamentin, Fort-de-France, Martinique, 97232, France",
        "road": null,
        "house_number": null,
        "neighbourhood": null,
        "suburb": null,
        "city_district": null,
        "city": "Le Lamentin",
        "state": "Martinique",
        "postcode": "97232",
        "country": "France",
        "country_code": "fr"
      },
      "address": "197, Fort-de-France, 97232 Martinique, Martinique"
    },
    {
      "lat": 14.573842043239598,
      "lon": -61.076119771950175,
      "geoinfo": {
        "display_name": "Martinique, France",
        "road": null,
        "house_number": null,
        "neighbourhood": null,
        "suburb": null,
        "city_district": null,
        "city": null,
        "state": "Martinique",
        "postcode": null,
        "country": "France",
        "country_code": "fr"
      },
      "address": "523, Fort-de-France, 97361 Martinique, Martinique"
    },
    {
      "lat": 14.586757929620484,
      "lon": -61.1066218410096,
      "geoinfo": {
        "display_name": "L'Enclos, Schœlcher, Fort-de-France, Martinique, 97233, France",
        "road": null,
        "house_number": null,
        "neighbourhood": null,
        "suburb": null,
        "city_district": null,
        "city": "Schœlcher",
        "state": "Martinique",
        "postcode": "97233",
        "country": "France",
        "country_code": "fr"
      },
      "address": "329, Fort-de-France, 97233 Martinique, Martinique"
    },
    {
      "lat": 14.609807551109814,
      "lon": -61.082627772465415,
      "geoinfo": {
        "display_name": "Fort-de-France, Martinique, 97233, France",
        "road": null,
        "house_number": null,
        "neighbourhood": null,
        "suburb": null,
        "city_district": null,
        "city": "Fort-de-France",
        "state": "Martinique",
        "postcode": "97233",
        "country": "France",
        "country_code": "fr"
      },
      "address": "644, Fort-de-France, 97233 Martinique, Martinique"
    },
    {
      "lat": 14.641884682063388,
      "lon": -61.08769068645696,
      "geoinfo": {
        "display_name": "Schœlcher, Fort-de-France, Martinique, 97233, France",
        "road": null,
        "house_number": null,
        "neighbourhood": null,
        "suburb": null,
        "city_district": null,
        "city": "Schœlcher",
        "state": "Martinique",
        "postcode": "97233",
        "country": "France",
        "country_code": "fr"
      },
      "address": "991, Fort-de-France, 97233 Martinique, Martinique"
    },
    {
      "lat": 14.577017448111574,
      "lon": -61.09964475292039,
      "geoinfo": {
        "display_name": "Martinique, France",
        "road": null,
        "house_number": null,
        "neighbourhood": null,
        "suburb": null,
        "city_district": null,
        "city": null,
        "state": "Martinique",
        "postcode": null,
        "country": "France",
        "country_code": "fr"
      },
      "address": "810, Fort-de-France, 40180 Martinique, Martinique"
    },
    {
      "lat": 14.601560342271172,
      "lon": -61.11280610093587,
      "geoinfo": {
        "display_name": "Anse Gouraud, Schœlcher, Fort-de-France, Martinique, 97233, France",
        "road": null,
        "house_number": null,
        "neighbourhood": null,
        "suburb": null,
        "city_district": null,
        "city": "Schœlcher",
        "state": "Martinique",
        "postcode": "97233",
        "country": "France",
        "country_code": "fr"
      },
      "address": "811, Fort-de-France, 97233 Martinique, Martinique"
    }
  ],
  "updated_at": "2025-10-19T06:02:57.972995+00:00",
  "_kind": "geo_samples"
}