{
  "country_code": "MQ",
  "country": "Martinique",
  "city": "La Trinité",
  "geonameid": 3570446,
  "target_addresses": 13,
  "samples": [
    {
      "lat": 14.77845688899259,
      "lon": -60.97355426773075,
      "geoinfo": {
        "display_name": "L'Anse Azerot, Sainte-Marie, La Trinité, Martinique, 97230, France",
        "road": null,
        "house_number": null,
        "neighbourhood": null,
        "suburb": null,
        "city_district": null,
        "city": "Sainte-Marie",
        "state": "Martinique",
        "postcode": "97230",
        "country": "France",
        "country_code": "fr"
      },
      "address": "La Trinité, Martinique, Martinique"
    },
    {
      "lat": 14.746174289761408,
      "lon": -60.92608975989349,
      "geoinfo": {
        "display_name": "Chemin de Spoutourne, La Trinité, Martinique, 97220, France",
        "road": "Chemin de Spoutourne",
        "house_number": null,
        "neighbourhood": null,
        "suburb": null,
        "city_district": null,
        "city": "La Trinité",
        "state": "Martinique",
        "postcode": "97220",
        "country": "France",
        "country_code": "fr"
      },
      "address": "Chemin de Spoutourne, La Trinité, Martinique, Martinique"
    },
    {
      "lat": 14.74657961063607,
      "lon": -60.934491592733295,
      "geoinfo": {
        "display_name": "Chemin de l’Anse Bellune, La Trinité, Martinique, 97220, France",
        "road": "Chemin de l’Anse Bellune",
        "house_number": null,
        "neighbourhood": null,
        "suburb": null,
        "city_district": null,
        "city": "La Trinité",
        "state": "Martinique",
        "postcode": "97220",
        "country": "France",
        "country_code": "fr"
      },
      "address": "Chemin de l’Anse Bellune, La Trinité, Martinique, Martinique"
    },
    {
      "lat": 14.725369929086796,
      "lon": -60.947570818732004,
      "geoinfo": {
        "display_name": "Route Nationale 1, La Trinité, Martinique, 97220, France",
        "road": "Route Nationale 1",
        "house_number": null,
        "neighbourhood": null,
        "suburb": null,
        "city_district": null,
        "city": "La Trinité",
        "state": "Martinique",
        "postcode": "97220",
        "country": "France",
        "country_code": "fr"
      },
      "address": "Route Nationale 1, La Trinité, Martinique, Martinique"
    },
    {
      "lat": 14.706352591943242,
      "lon": -60.96768362683676,
      "geoinfo": {
        "display_name": "Impasse Fond Glissé, La Trinité, Martinique, 97220, France",
        "road": "Impasse Fond Glissé",
        "house_number": null,
        "neighbourhood": null,
        "suburb": null,
        "city_district": null,
        "city": "La Trinité",
        "state": "Martinique",
        "postcode": "97220",
        "country": "France",
        "country_code": "fr"
      },
      "address": "Impasse Fond Glissé, La Trinité, Martinique, Martinique"
    },
    {
      "lat": 14.762792152133025,
      "lon": -60.92723528032958,
      "geoinfo": {
        "display_name": "Sentier Pointe à Bibi - Pointe Rouge, La Trinité, Martinique, 97220, France",
        "road": "Sentier Pointe à Bibi - Pointe Rouge",
        "house_number": null,
        "neighbourhood": null,
        "suburb": null,
        "city_district": null,
        "city": "La Trinité",
        "state": "Martinique",
        "postcode": "97220",
        "country": "France",
        "country_code": "fr"
      },
      "address": "Sentier Pointe à Bibi - Pointe Rouge, La Trinité, Martinique, Martinique"
    },
    {
      "lat": 14.744340334066004,
      "lon": -61.00896395820135,
      "geoinfo": {
        "display_name": "386, Rue de la Marmitte, Rivière Canari, Morne des Esses, Sainte-Marie, La Trinité, Martinique, 97230, France",
        "road": "Rue de la Marmitte",
        "house_number": "386",
        "neighbourhood": null,
        "suburb": null,
        "city_district": null,
        "city": "Sainte-Marie",
        "state": "Martinique",
        "postcode": "97230",
        "country": "France",
        "country_code": "fr"
      },
      "address": "386 Rue de la Marmitte, La Trinité, Martinique, Martinique"
    },
    {
      "lat": 14.720989362736166,
      "lon": -60.967163225740265,
      "geoinfo": {
        "display_name": "Route Départementale 3, Lotissement Brin d'Amour, La Trinité, Martinique, 97220, France",
        "road": "Route Départementale 3",
        "house_number": null,
        "neighbourhood": null,
        "suburb": null,
        "city_district": null,
        "city": "La Trinité",
        "state": "Martinique",
        "postcode": "97220",
        "country": "France",
        "country_code": "fr"
      },
      "address": "Route Départementale 3, La Trinité, Martinique, Martinique"
    },
    {
      "lat": 14.748083476783178,
      "lon": -60.98962154526937,
      "geoinfo": {
        "display_name": "Chemin de les Hauts, La Trinité, Martinique, 97220, France",
        "road": "Chemin de les Hauts",
        "house_number": null,
        "neighbourhood": null,
        "suburb": null,
        "city_district": null,
        "city": "La Trinité",
        "state": "Martinique",
        "postcode": "97220",
        "country": "France",
        "country_code": "fr"
      },
      "address": "Chemin de les Hauts, La Trinité, Martinique, Martinique"
    },
    {
      "lat": 14.756762086294124,
      "lon": -60.98844935838844,
      "geoinfo": {
        "display_name": "470, Rue Mornes à Roches, Rodon, Bon AIr, Sainte-Marie, La Trinité, Martinique, 97230, France",
        "road": "Rue Mornes à Roches",
        "house_number": "470",
        "neighbourhood": null,
        "suburb": null,
        "city_district": null,
        "city": "Sainte-Marie",
        "state": "Martinique",
        "postcode": "97230",
        "country": "France",
        "country_code": "fr"
      },
      "address": "470 Rue Mornes à Roches, La Trinité, Martinique, Martinique"
    },
    {
      "lat": 14.714568520204276,
      "lon": -60.9834318414496,
      "geoinfo": {
        "display_name": "Chemin de la Vierge, La Trinité, Martinique, 97220, France",
        "road": "Chemin de la Vierge",
        "house_number": null,
        "neighbourhood": null,
        "suburb": null,
        "city_district": null,
        "city": "La Trinité",
        "state": "Martinique",
        "postcode": "97220",
        "country": "France",
        "country_code": "fr"
      },
      "address": "Chemin de la Vierge, La Trinité, Martinique, Martinique"
    },
    {
      "lat": 14.741603430624373,
      "lon": -60.973286890473595,
      "geoinfo": {
        "display_name": "Chemin de la Brise, La Trinité, Martinique, 97220, France",
        "road": "Chemin de la Brise",
        "house_number": null,
        "neighbourhood": null,
        "suburb": null,
        "city_district": null,
        "city": "La Trinité",
        "state": "Martinique",
        "postcode": "97220",
        "country": "France",
        "country_code": "fr"
      },
      "address": "Chemin de la Brise, La Trinité, Martinique, Martinique"
    },
    {
      "lat": 14.751437553556556,
      "lon": -60.930152241428274,
      "geoinfo": {
        "display_name": "Route de la Caravelle, La Trinité, Martinique, 97220, France",
        "road": "Route de la Caravelle",
        "house_number": null,
        "neighbourhood": null,
        "suburb": null,
        "city_district": null,
        "city": "La Trinité",
        "state": "Martinique",
        "postcode": "97220",
        "country": "France",
        "country_code": "fr"
      },
      "address": "Route de la Caravelle, La Trinité, Martinique, Martinique"
    },
    {
      "lat": 14.71265430409156,
      "lon": -60.9643531133472,
      "geoinfo": {
        "display_name": "D 3, La Trinité, Martinique, 97220, France",
        "road": "D 3",
        "house_number": null,
        "neighbourhood": null,
        "suburb": null,
        "city_district": null,
        "city": "La Trinité",
        "state": "Martinique",
        "postcode": "97220",
        "country": "France",
        "country_code": "fr"
      },
      "address": "D 3, La Trinité, 97220 Martinique, Martinique"
    },
    {
      "lat": 14.736249440951537,
      "lon": -60.933131312252726,
      "geoinfo": {
        "display_name": "Pointe Jean-Claude, La Trinité, Martinique, 97220, France",
        "road": null,
        "house_number": null,
        "neighbourhood": null,
        "suburb": null,
        "city_district": null,
        "city": "La Trinité",
        "state": "Martinique",
        "postcode": "97220",
        "country": "France",
        "country_code": "fr"
      },
      "address": "398, La Trinité, 97220 Martinique, Martinique"
    },
    {
      "lat": 14.77287705928578,
      "lon": -60.982490258781276,
      "geoinfo": {
        "display_name": "Impasse Tocla, L'Anse Azerot, Sainte-Marie, La Trinité, Martinique, 97230, France",
        "road": "Impasse Tocla",
        "house_number": null,
        "neighbourhood": null,
        "suburb": null,
        "city_district": null,
        "city": "Sainte-Marie",
        "state": "Martinique",
        "postcode": "97230",
        "country": "France",
        "country_code": "fr"
      },
      "address": "513, Impasse Tocla, La Trinité, 97230 Martinique, Martinique"
    },
    {
      "lat": 14.759398218617624,
      "lon": -60.944488258614506,
      "geoinfo": {
        "display_name": "Pointe de la Batterie, La Trinité, Martinique, 97220, France",
        "road": null,
        "house_number": null,
        "neighbourhood": null,
        "suburb": null,
        "city_district": null,
        "city": "La Trinité",
        "state": "Martinique",
        "postcode": "97220",
        "country": "France",
        "country_code": "fr"
      },
      "address": "225, La Trinité, 97220 Martinique, Martinique"
    },
    {
      "lat": 14.758155324838166,
      "lon": -61.00235716386884,
      "geoinfo": {
        "display_name": "Rodon, Bon AIr, Sainte-Marie, La Trinité, Martinique, 97230, France",
        "road": null,
        "house_number": null,
        "neighbourhood": null,
        "suburb": null,
        "city_district": null,
        "city": "Sainte-Marie",
        "state": "Martinique",
        "postcode": "97230",
        "country": "France",
        "country_code": "fr"
      },
      "address": "582, La Trinité, 97230 Martinique, Martinique"
    },
    {
      "lat": 14.732500237322279,
      "lon": -60.94575033390918,
      "geoinfo": {
        "display_name": "Impasse Cassia-Alata, La Trinité, Martinique, 97220, France",
        "road": "Impasse Cassia-Alata",
        "house_number": null,
        "neighbourhood": null,
        "suburb": null,
        "city_district": null,
        "city": "La Trinité",
        "state": "Martinique",
        "postcode": "97220",
        "country": "France",
        "country_code": "fr"
      },
      "address": "740, Impasse Cassia-Alata, La Trinité, 97220 Martinique, Martinique"
    },
    {
      "lat": 14.696778806973208,
      "lon": -60.97685294908331,
      "geoinfo": {
        "display_name": "D 1, Le Robert, La Trinité, Martinique, 97231, France",
        "road": "D 1",
        "house_number": null,
        "neighbourhood": null,
        "suburb": null,
        "city_district": null,
        "city": "Le Robert",
        "state": "Martinique",
        "postcode": "97231",
        "country": "France",
        "country_code": "fr"
      },
      "address": "D 1, La Trinité, 97231 Martinique, Martinique"
    },
    {
      "lat": 14.761735616893763,
      "lon": -60.97302199595126,
      "geoinfo": {
        "display_name": "La Trinité, Martinique, 97220, France",
        "road": null,
        "house_number": null,
        "neighbourhood": null,
        "suburb": null,
        "city_district": null,
        "city": "La Trinité",
        "state": "Martinique",
        "postcode": "97220",
        "country": "France",
        "country_code": "fr"
      },
      "address": "255, La Trinité, 97220 Martinique, Martinique"
    },
    {
      "lat": 14.70880329384796,
      "lon": -60.940674989620355,
      "geoinfo": {
        "display_name": "Le Robert, La Trinité, Martinique, 97231, France",
        "road": null,
        "house_number": null,
        "neighbourhood": null,
        "suburb": null,
        "city_district": null,
        "city": "Le Robert",
        "state": "Martinique",
        "postcode": "97231",
        "country": "France",
        "country_code": "fr"
      },
      "address": "244, La Trinité, 97231 Martinique, Martinique"
    },
    {
      "lat": 14.723622001341594,
      "lon": -60.99397424978737,
      "geoinfo": {
        "display_name": "Chemin Paula, Gros-Morne, La Trinité, Martinique, 97213, France",
        "road": "Chemin Paula",
        "house_number": null,
        "neighbourhood": null,
        "suburb": null,
        "city_district": null,
        "city": "Gros-Morne",
        "state": "Martinique",
        "postcode": "97213",
        "country": "France",
        "country_code": "fr"
      },
      "address": "596, Chemin Paula, La Trinité, 97213 Martinique, Martinique"
    },
    {
      "lat": 14.752882347832546,
      "lon": -60.96639779861544,
      "geoinfo": {
        "display_name": "Chemin de Cosmy, La Trinité, Martinique, 97220, France",
        "road": "Chemin de Cosmy",
        "house_number": null,
        "neighbourhood": null,
        "suburb": null,
        "city_district": null,
        "city": "La Trinité",
        "state": "Martinique",
        "postcode": "97220",
        "country": "France",
        "country_code": "fr"
      },
      "address": "884, Chemin de Cosmy, La Trinité, 97220 Martinique, Martinique"
    },
    {
      "lat": 14.750733571505332,
      "lon": -61.00207197039328,
      "geoinfo": {
        "display_name": "267, Impasse de la Randonnée, Bon Air, Bon AIr, Sainte-Marie, La Trinité, Martinique, 97230, France",
        "road": "Impasse de la Randonnée",
        "house_number": "267",
        "neighbourhood": null,
        "suburb": null,
        "city_district": null,
        "city": "Sainte-Marie",
        "state": "Martinique",
        "postcode": "97230",
        "country": "France",
        "country_code": "fr"
      },
      "address": "267, Impasse de la Randonnée, La Trinité, 97230 Martinique, Martinique"
    },
    {
      "lat": 14.730392197370586,
      "lon": -60.93252878883173,
      "geoinfo": {
        "display_name": "Pointe Jean-Claude, La Trinité, Martinique, 97220, France",
        "road": null,
        "house_number": null,
        "neighbourhood": null,
        "suburb": null,
        "city_district": null,
        "city": "La Trinité",
        "state": "Martinique",
        "postcode": "97220",
        "country": "France",
        "country_code": "fr"
      },
      "address": "696, La Trinité, 97220 Martinique, Martinique"
    }
  ],
  "updated_at": "2025-10-19T06:00:29.491170+00:00",
  "_kind": "geo_samples"
}