{
  "country_code": "MQ",
  "country": "Martinique",
  "city": "Le Lamentin",
  "geonameid": 3570428,
  "target_addresses": 13,
  "samples": [
    {
      "lat": 14.583698825403191,
      "lon": -61.003532655056404,
      "geoinfo": {
        "display_name": "Chemin Carrère, Le Lamentin, Fort-de-France, Martinique, 97232, France",
        "road": "Chemin Carrère",
        "house_number": null,
        "neighbourhood": null,
        "suburb": null,
        "city_district": null,
        "city": "Le Lamentin",
        "state": "Martinique",
        "postcode": "97232",
        "country": "France",
        "country_code": "fr"
      },
      "address": "Chemin Carrère, Le Lamentin, Martinique, Martinique"
    },
    {
      "lat": 14.603832084106303,
      "lon": -60.98035736979145,
      "geoinfo": {
        "display_name": "Place d'Armes, Zone Industrielle Place D'Armes, Le Lamentin, Fort-de-France, Martinique, 97232, France",
        "road": null,
        "house_number": null,
        "neighbourhood": null,
        "suburb": null,
        "city_district": null,
        "city": "Le Lamentin",
        "state": "Martinique",
        "postcode": "97232",
        "country": "France",
        "country_code": "fr"
      },
      "address": "Le Lamentin, Martinique, Martinique"
    },
    {
      "lat": 14.603348042761617,
      "lon": -60.96380738563487,
      "geoinfo": {
        "display_name": "Chemin Tolobé, Dikos, Le Marin, Martinique, 97224, France",
        "road": "Chemin Tolobé",
        "house_number": null,
        "neighbourhood": null,
        "suburb": null,
        "city_district": null,
        "city": "Dikos",
        "state": "Martinique",
        "postcode": "97224",
        "country": "France",
        "country_code": "fr"
      },
      "address": "Chemin Tolobé, Le Lamentin, Martinique, Martinique"
    },
    {
      "lat": 14.625009126212362,
      "lon": -60.981900185324825,
      "geoinfo": {
        "display_name": "N 1, Le Lamentin, Fort-de-France, Martinique, 97232, France",
        "road": "N 1",
        "house_number": null,
        "neighbourhood": null,
        "suburb": null,
        "city_district": null,
        "city": "Le Lamentin",
        "state": "Martinique",
        "postcode": "97232",
        "country": "France",
        "country_code": "fr"
      },
      "address": "N 1, Le Lamentin, Martinique, Martinique"
    },
    {
      "lat": 14.62227123684196,
      "lon": -60.97356908309974,
      "geoinfo": {
        "display_name": "N 2006, Le Lamentin, Fort-de-France, Martinique, 97232, France",
        "road": "N 2006",
        "house_number": null,
        "neighbourhood": null,
        "suburb": null,
        "city_district": null,
        "city": "Le Lamentin",
        "state": "Martinique",
        "postcode": "97232",
        "country": "France",
        "country_code": "fr"
      },
      "address": "N 2006, Le Lamentin, Martinique, Martinique"
    },
    {
      "lat": 14.63009361230996,
      "lon": -61.00811794861727,
      "geoinfo": {
        "display_name": "D 15, Le Lamentin, Fort-de-France, Martinique, 97232, France",
        "road": "D 15",
        "house_number": null,
        "neighbourhood": null,
        "suburb": null,
        "city_district": null,
        "city": "Le Lamentin",
        "state": "Martinique",
        "postcode": "97232",
        "country": "France",
        "country_code": "fr"
      },
      "address": "D 15, Le Lamentin, Martinique, Martinique"
    },
    {
      "lat": 14.644920520159015,
      "lon": -61.03127024358119,
      "geoinfo": {
        "display_name": "Impasse Simax 2, Le Lamentin, Fort-de-France, Martinique, 97232, France",
        "road": "Impasse Simax 2",
        "house_number": null,
        "neighbourhood": null,
        "suburb": null,
        "city_district": null,
        "city": "Le Lamentin",
        "state": "Martinique",
        "postcode": "97232",
        "country": "France",
        "country_code": "fr"
      },
      "address": "Impasse Simax 2, Le Lamentin, Martinique, Martinique"
    },
    {
      "lat": 14.594397371413168,
      "lon": -61.00027516247806,
      "geoinfo": {
        "display_name": "Martinique Aimé Césaire International Airport, N 5, Le Lamentin, Fort-de-France, Martinique, 97232, France",
        "road": "N 5",
        "house_number": null,
        "neighbourhood": null,
        "suburb": null,
        "city_district": null,
        "city": "Le Lamentin",
        "state": "Martinique",
        "postcode": "97232",
        "country": "France",
        "country_code": "fr"
      },
      "address": "N 5, Le Lamentin, Martinique, Martinique"
    },
    {
      "lat": 14.586814926903376,
      "lon": -61.01131114937463,
      "geoinfo": {
        "display_name": "Rue Piétonne Félix Edmond, La Ferme de Perrine, Le Lamentin, Fort-de-France, Martinique, 97232, France",
        "road": "Rue Piétonne Félix Edmond",
        "house_number": null,
        "neighbourhood": null,
        "suburb": null,
        "city_district": null,
        "city": "Le Lamentin",
        "state": "Martinique",
        "postcode": "97232",
        "country": "France",
        "country_code": "fr"
      },
      "address": "Rue Piétonne Félix Edmond, Le Lamentin, Martinique, Martinique"
    },
    {
      "lat": 14.631986363327464,
      "lon": -61.008146960806215,
      "geoinfo": {
        "display_name": "Chemin Elegance, Le Lamentin, Fort-de-France, Martinique, 97232, France",
        "road": "Chemin Elegance",
        "house_number": null,
        "neighbourhood": null,
        "suburb": null,
        "city_district": null,
        "city": "Le Lamentin",
        "state": "Martinique",
        "postcode": "97232",
        "country": "France",
        "country_code": "fr"
      },
      "address": "Chemin Elegance, Le Lamentin, Martinique, Martinique"
    },
    {
      "lat": 14.624326654661084,
      "lon": -61.03122869101073,
      "geoinfo": {
        "display_name": "Les Hauts de Californie, Le Lamentin, Fort-de-France, Martinique, 97232, France",
        "road": null,
        "house_number": null,
        "neighbourhood": null,
        "suburb": "Les Hauts de Californie",
        "city_district": null,
        "city": "Le Lamentin",
        "state": "Martinique",
        "postcode": "97232",
        "country": "France",
        "country_code": "fr"
      },
      "address": "Les Hauts de Californie, Le Lamentin, Martinique, Martinique"
    },
    {
      "lat": 14.605431011903725,
      "lon": -60.99177493383735,
      "geoinfo": {
        "display_name": "D 3, Le Lamentin, Fort-de-France, Martinique, 97232, France",
        "road": "D 3",
        "house_number": null,
        "neighbourhood": null,
        "suburb": null,
        "city_district": null,
        "city": "Le Lamentin",
        "state": "Martinique",
        "postcode": "97232",
        "country": "France",
        "country_code": "fr"
      },
      "address": "D 3, Le Lamentin, Martinique, Martinique"
    },
    {
      "lat": 14.609374768298903,
      "lon": -61.02938714186553,
      "geoinfo": {
        "display_name": "Raffinerie de la SARA, Impasse Bulver, Le Lamentin, Fort-de-France, Martinique, 97232, France",
        "road": "Impasse Bulver",
        "house_number": null,
        "neighbourhood": null,
        "suburb": null,
        "city_district": null,
        "city": "Le Lamentin",
        "state": "Martinique",
        "postcode": "97232",
        "country": "France",
        "country_code": "fr"
      },
      "address": "Impasse Bulver, Le Lamentin, Martinique, Martinique"
    },
    {
      "lat": 14.616916532036024,
      "lon": -60.999181588024875,
      "geoinfo": {
        "display_name": "Rue Martin Luther King, Le Lamentin, Fort-de-France, Martinique, 97232, France",
        "road": "Rue Martin Luther King",
        "house_number": null,
        "neighbourhood": null,
        "suburb": null,
        "city_district": null,
        "city": "Le Lamentin",
        "state": "Martinique",
        "postcode": "97232",
        "country": "France",
        "country_code": "fr"
      },
      "address": "993, Rue Martin Luther King, Le Lamentin, 97232 Martinique, Martinique"
    },
    {
      "lat": 14.609662101136543,
      "lon": -60.961430724468094,
      "geoinfo": {
        "display_name": "Le Lamentin, Fort-de-France, Martinique, 97232, France",
        "road": null,
        "house_number": null,
        "neighbourhood": null,
        "suburb": null,
        "city_district": null,
        "city": "Le Lamentin",
        "state": "Martinique",
        "postcode": "97232",
        "country": "France",
        "country_code": "fr"
      },
      "address": "668, Le Lamentin, 97232 Martinique, Martinique"
    },
    {
      "lat": 14.606444803441677,
      "lon": -60.96296155577919,
      "geoinfo": {
        "display_name": "Chemin Tolobé, Dikos, Le Marin, Martinique, 97224, France",
        "road": "Chemin Tolobé",
        "house_number": null,
        "neighbourhood": null,
        "suburb": null,
        "city_district": null,
        "city": "Dikos",
        "state": "Martinique",
        "postcode": "97224",
        "country": "France",
        "country_code": "fr"
      },
      "address": "379, Chemin Tolobé, Le Lamentin, 97224 Martinique, Martinique"
    },
    {
      "lat": 14.582451310583803,
      "lon": -60.967025052791044,
      "geoinfo": {
        "display_name": "Ducos, Dikos, Le Marin, Martinique, 97224, France",
        "road": null,
        "house_number": null,
        "neighbourhood": null,
        "suburb": null,
        "city_district": null,
        "city": "Dikos",
        "state": "Martinique",
        "postcode": "97224",
        "country": "France",
        "country_code": "fr"
      },
      "address": "808, Le Lamentin, 97224 Martinique, Martinique"
    },
    {
      "lat": 14.640572603859109,
      "lon": -60.967031291672996,
      "geoinfo": {
        "display_name": "Chemin Sodo, Le Lamentin, Fort-de-France, Martinique, 97232, France",
        "road": "Chemin Sodo",
        "house_number": null,
        "neighbourhood": null,
        "suburb": null,
        "city_district": null,
        "city": "Le Lamentin",
        "state": "Martinique",
        "postcode": "97232",
        "country": "France",
        "country_code": "fr"
      },
      "address": "472, Chemin Sodo, Le Lamentin, 97232 Martinique, Martinique"
    },
    {
      "lat": 14.616520760649166,
      "lon": -61.00388343501701,
      "geoinfo": {
        "display_name": "Rue du Gué Tafia, Le Lamentin, Fort-de-France, Martinique, 97232, France",
        "road": "Rue du Gué Tafia",
        "house_number": null,
        "neighbourhood": null,
        "suburb": null,
        "city_district": null,
        "city": "Le Lamentin",
        "state": "Martinique",
        "postcode": "97232",
        "country": "France",
        "country_code": "fr"
      },
      "address": "185, Rue du Gué Tafia, Le Lamentin, 97232 Martinique, Martinique"
    },
    {
      "lat": 14.641850423397637,
      "lon": -60.963742360146014,
      "geoinfo": {
        "display_name": "Le Lamentin, Fort-de-France, Martinique, 97232, France",
        "road": null,
        "house_number": null,
        "neighbourhood": null,
        "suburb": null,
        "city_district": null,
        "city": "Le Lamentin",
        "state": "Martinique",
        "postcode": "97232",
        "country": "France",
        "country_code": "fr"
      },
      "address": "437, Le Lamentin, 97232 Martinique, Martinique"
    },
    {
      "lat": 14.608458865763671,
      "lon": -61.038447535565375,
      "geoinfo": {
        "display_name": "Fort-de-France, Martinique, 97200, France",
        "road": null,
        "house_number": null,
        "neighbourhood": null,
        "suburb": null,
        "city_district": null,
        "city": "Fort-de-France",
        "state": "Martinique",
        "postcode": "97200",
        "country": "France",
        "country_code": "fr"
      },
      "address": "782, Le Lamentin, 97200 Martinique, Martinique"
    },
    {
      "lat": 14.60186420622893,
      "lon": -60.983457258546544,
      "geoinfo": {
        "display_name": "Place d'Armes, Zone Industrielle Place D'Armes, Le Lamentin, Fort-de-France, Martinique, 97232, France",
        "road": null,
        "house_number": null,
        "neighbourhood": null,
        "suburb": null,
        "city_district": null,
        "city": "Le Lamentin",
        "state": "Martinique",
        "postcode": "97232",
        "country": "France",
        "country_code": "fr"
      },
      "address": "898, Le Lamentin, 97232 Martinique, Martinique"
    },
    {
      "lat": 14.594069471091698,
      "lon": -60.99492138226463,
      "geoinfo": {
        "display_name": "N 5, Le Lamentin, Fort-de-France, Martinique, 97232, France",
        "road": "N 5",
        "house_number": null,
        "neighbourhood": null,
        "suburb": null,
        "city_district": null,
        "city": "Le Lamentin",
        "state": "Martinique",
        "postcode": "97232",
        "country": "France",
        "country_code": "fr"
      },
      "address": "N 5, Le Lamentin, 97232 Martinique, Martinique"
    },
    {
      "lat": 14.57202057975955,
      "lon": -61.01249810955847,
      "geoinfo": {
        "display_name": "Martinique, France",
        "road": null,
        "house_number": null,
        "neighbourhood": null,
        "suburb": null,
        "city_district": null,
        "city": null,
        "state": "Martinique",
        "postcode": null,
        "country": "France",
        "country_code": "fr"
      },
      "address": "469, Le Lamentin, 08991 Martinique, Martinique"
    },
    {
      "lat": 14.586925840152874,
      "lon": -60.99417427248188,
      "geoinfo": {
        "display_name": "Hippodrome de Carrère, Chemin Carrère, Le Lamentin, Fort-de-France, Martinique, 97232, France",
        "road": "Chemin Carrère",
        "house_number": null,
        "neighbourhood": null,
        "suburb": null,
        "city_district": null,
        "city": "Le Lamentin",
        "state": "Martinique",
        "postcode": "97232",
        "country": "France",
        "country_code": "fr"
      },
      "address": "662, Chemin Carrère, Le Lamentin, 97232 Martinique, Martinique"
    },
    {
      "lat": 14.627315671692443,
      "lon": -61.0155899020076,
      "geoinfo": {
        "display_name": "Residence le Lauréat Acajou, Le Lamentin, Fort-de-France, Martinique, 97232, France",
        "road": "Residence le Lauréat Acajou",
        "house_number": null,
        "neighbourhood": null,
        "suburb": null,
        "city_district": null,
        "city": "Le Lamentin",
        "state": "Martinique",
        "postcode": "97232",
        "country": "France",
        "country_code": "fr"
      },
      "address": "346, Residence le Lauréat Acajou, Le Lamentin, 97232 Martinique, Martinique"
    }
  ],
  "updated_at": "2025-10-19T05:46:00.827284+00:00",
  "_kind": "geo_samples"
}