{
  "country_code": "BS",
  "country": "Bahamas",
  "city": "Freeport",
  "geonameid": 3572375,
  "target_addresses": 25,
  "samples": [
    {
      "lat": 26.55424547077875,
      "lon": -78.71991907117203,
      "geoinfo": {
        "display_name": "City of Freeport, Bahamas",
        "road": null,
        "house_number": null,
        "neighbourhood": null,
        "suburb": null,
        "city_district": null,
        "city": "City of Freeport",
        "state": null,
        "postcode": null,
        "country": "Bahamas",
        "country_code": "bs"
      },
      "address": "Freeport, Bahamas"
    },
    {
      "lat": 26.499029399070935,
      "lon": -78.7085786341162,
      "geoinfo": {
        "display_name": "Churchill Road, Bahamia, City of Freeport, Bahamas",
        "road": "Churchill Road",
        "house_number": null,
        "neighbourhood": null,
        "suburb": "Bahamia",
        "city_district": null,
        "city": "City of Freeport",
        "state": null,
        "postcode": null,
        "country": "Bahamas",
        "country_code": "bs"
      },
      "address": "Churchill Road, Freeport, Bahamas"
    },
    {
      "lat": 26.521414868664735,
      "lon": -78.681595115496,
      "geoinfo": {
        "display_name": "44, Gladstone Terrace, Poinciana Gardens, City of Freeport, Bahamas",
        "road": "Gladstone Terrace",
        "house_number": "44",
        "neighbourhood": "Poinciana Gardens",
        "suburb": null,
        "city_district": null,
        "city": "City of Freeport",
        "state": null,
        "postcode": null,
        "country": "Bahamas",
        "country_code": "bs"
      },
      "address": "44 Gladstone Terrace, Freeport, Bahamas"
    },
    {
      "lat": 26.542907014726126,
      "lon": -78.73705046222918,
      "geoinfo": {
        "display_name": "Queen's Cove, City of Freeport, Bahamas",
        "road": null,
        "house_number": null,
        "neighbourhood": null,
        "suburb": "Queen's Cove",
        "city_district": null,
        "city": "City of Freeport",
        "state": null,
        "postcode": null,
        "country": "Bahamas",
        "country_code": "bs"
      },
      "address": "Queen's Cove, Freeport, Bahamas"
    },
    {
      "lat": 26.512903413728893,
      "lon": -78.6773606854809,
      "geoinfo": {
        "display_name": "Galleon Avenue, Maliboo Reef, City of Freeport, Bahamas",
        "road": "Galleon Avenue",
        "house_number": null,
        "neighbourhood": "Maliboo Reef",
        "suburb": null,
        "city_district": null,
        "city": "City of Freeport",
        "state": null,
        "postcode": null,
        "country": "Bahamas",
        "country_code": "bs"
      },
      "address": "Galleon Avenue, Freeport, Bahamas"
    },
    {
      "lat": 26.537330181498383,
      "lon": -78.69084081490615,
      "geoinfo": {
        "display_name": "Hudson Avenue, Hudson Estates, City of Freeport, Bahamas",
        "road": "Hudson Avenue",
        "house_number": null,
        "neighbourhood": "Hudson Estates",
        "suburb": null,
        "city_district": null,
        "city": "City of Freeport",
        "state": null,
        "postcode": null,
        "country": "Bahamas",
        "country_code": "bs"
      },
      "address": "Hudson Avenue, Freeport, Bahamas"
    },
    {
      "lat": 26.51254583387029,
      "lon": -78.68292483529558,
      "geoinfo": {
        "display_name": "St. George high School, Sunset Avenue, Rial Park, Bahamia, City of Freeport, Bahamas",
        "road": "Sunset Avenue",
        "house_number": null,
        "neighbourhood": "Rial Park",
        "suburb": "Bahamia",
        "city_district": null,
        "city": "City of Freeport",
        "state": null,
        "postcode": null,
        "country": "Bahamas",
        "country_code": "bs"
      },
      "address": "Sunset Avenue, Freeport, Bahamas"
    },
    {
      "lat": 26.50317014170368,
      "lon": -78.66833328628877,
      "geoinfo": {
        "display_name": "7, Montego Road, City of Freeport, Bahamas",
        "road": "Montego Road",
        "house_number": "7",
        "neighbourhood": null,
        "suburb": null,
        "city_district": null,
        "city": "City of Freeport",
        "state": null,
        "postcode": null,
        "country": "Bahamas",
        "country_code": "bs"
      },
      "address": "7 Montego Road, Freeport, Bahamas"
    },
    {
      "lat": 26.524070232437936,
      "lon": -78.66059617096359,
      "geoinfo": {
        "display_name": "Coral Gardens, Lucaya, City of Freeport, Bahamas",
        "road": null,
        "house_number": null,
        "neighbourhood": "Coral Gardens",
        "suburb": null,
        "city_district": null,
        "city": "City of Freeport",
        "state": null,
        "postcode": null,
        "country": "Bahamas",
        "country_code": "bs"
      },
      "address": "Coral Gardens, Freeport, Bahamas"
    },
    {
      "lat": 26.52625710970107,
      "lon": -78.67508302939737,
      "geoinfo": {
        "display_name": "104, Magellan Crescent, Poinciana Gardens, City of Freeport, Bahamas",
        "road": "Magellan Crescent",
        "house_number": "104",
        "neighbourhood": "Poinciana Gardens",
        "suburb": null,
        "city_district": null,
        "city": "City of Freeport",
        "state": null,
        "postcode": null,
        "country": "Bahamas",
        "country_code": "bs"
      },
      "address": "104 Magellan Crescent, Freeport, Bahamas"
    },
    {
      "lat": 26.542235498246352,
      "lon": -78.69212473149655,
      "geoinfo": {
        "display_name": "East Atlantic Drive, City of Freeport, Bahamas",
        "road": "East Atlantic Drive",
        "house_number": null,
        "neighbourhood": null,
        "suburb": null,
        "city_district": null,
        "city": "City of Freeport",
        "state": null,
        "postcode": null,
        "country": "Bahamas",
        "country_code": "bs"
      },
      "address": "East Atlantic Drive, Freeport, Bahamas"
    },
    {
      "lat": 26.51734512325484,
      "lon": -78.68228446584654,
      "geoinfo": {
        "display_name": "Kennedy Drive, Mayfair Court, City of Freeport, Bahamas",
        "road": "Kennedy Drive",
        "house_number": null,
        "neighbourhood": "Mayfair Court",
        "suburb": null,
        "city_district": null,
        "city": "City of Freeport",
        "state": null,
        "postcode": null,
        "country": "Bahamas",
        "country_code": "bs"
      },
      "address": "Kennedy Drive, Freeport, Bahamas"
    },
    {
      "lat": 26.515469143563546,
      "lon": -78.73134961044833,
      "geoinfo": {
        "display_name": "Sunrise, City of Freeport, Bahamas",
        "road": null,
        "house_number": null,
        "neighbourhood": null,
        "suburb": "Sunrise",
        "city_district": null,
        "city": "City of Freeport",
        "state": null,
        "postcode": null,
        "country": "Bahamas",
        "country_code": "bs"
      },
      "address": "Sunrise, Freeport, Bahamas"
    },
    {
      "lat": 26.521160742882945,
      "lon": -78.67330355671585,
      "geoinfo": {
        "display_name": "Beachway Drive, Coral Gardens, Lucaya, City of Freeport, Bahamas",
        "road": "Beachway Drive",
        "house_number": null,
        "neighbourhood": "Coral Gardens",
        "suburb": null,
        "city_district": null,
        "city": "City of Freeport",
        "state": null,
        "postcode": null,
        "country": "Bahamas",
        "country_code": "bs"
      },
      "address": "Beachway Drive, Freeport, Bahamas"
    },
    {
      "lat": 26.51042878764925,
      "lon": -78.71841100323374,
      "geoinfo": {
        "display_name": "Braemar Circle, Regency Park, City of Freeport, Bahamas",
        "road": "Braemar Circle",
        "house_number": null,
        "neighbourhood": null,
        "suburb": "Regency Park",
        "city_district": null,
        "city": "City of Freeport",
        "state": null,
        "postcode": null,
        "country": "Bahamas",
        "country_code": "bs"
      },
      "address": "Braemar Circle, Freeport, Bahamas"
    },
    {
      "lat": 26.499761149955862,
      "lon": -78.73255426048657,
      "geoinfo": {
        "display_name": "Hunters Road, Mack Town, West Grand Bahama, Bahamas",
        "road": "Hunters Road",
        "house_number": null,
        "neighbourhood": null,
        "suburb": null,
        "city_district": null,
        "city": "West Grand Bahama",
        "state": null,
        "postcode": null,
        "country": "Bahamas",
        "country_code": "bs"
      },
      "address": "Hunters Road, Freeport, Bahamas"
    },
    {
      "lat": 26.506183023902583,
      "lon": -78.6710298776804,
      "geoinfo": {
        "display_name": "11, Flamingo Lane, Maliboo Reef, City of Freeport, Bahamas",
        "road": "Flamingo Lane",
        "house_number": "11",
        "neighbourhood": "Maliboo Reef",
        "suburb": null,
        "city_district": null,
        "city": "City of Freeport",
        "state": null,
        "postcode": null,
        "country": "Bahamas",
        "country_code": "bs"
      },
      "address": "11 Flamingo Lane, Freeport, Bahamas"
    },
    {
      "lat": 26.52265849675859,
      "lon": -78.69739712974143,
      "geoinfo": {
        "display_name": "Ponciana Drive, Poinciana Gardens, City of Freeport, Bahamas",
        "road": "Ponciana Drive",
        "house_number": null,
        "neighbourhood": "Poinciana Gardens",
        "suburb": null,
        "city_district": null,
        "city": "City of Freeport",
        "state": null,
        "postcode": null,
        "country": "Bahamas",
        "country_code": "bs"
      },
      "address": "Ponciana Drive, Freeport, Bahamas"
    },
    {
      "lat": 26.531995511953717,
      "lon": -78.69874412611851,
      "geoinfo": {
        "display_name": "Adelson, West Atlantic Road, City of Freeport, Bahamas",
        "road": "West Atlantic Road",
        "house_number": null,
        "neighbourhood": null,
        "suburb": null,
        "city_district": null,
        "city": "City of Freeport",
        "state": null,
        "postcode": null,
        "country": "Bahamas",
        "country_code": "bs"
      },
      "address": "West Atlantic Road, Freeport, Bahamas"
    },
    {
      "lat": 26.53615472955436,
      "lon": -78.71166669826113,
      "geoinfo": {
        "display_name": "Milton Street, City of Freeport, Bahamas",
        "road": "Milton Street",
        "house_number": null,
        "neighbourhood": null,
        "suburb": null,
        "city_district": null,
        "city": "City of Freeport",
        "state": null,
        "postcode": null,
        "country": "Bahamas",
        "country_code": "bs"
      },
      "address": "Milton Street, Freeport, Bahamas"
    },
    {
      "lat": 26.547628703400576,
      "lon": -78.68242080794593,
      "geoinfo": {
        "display_name": "Grand Bahama Highway, Freeport Ridge Estate, City of Freeport, Bahamas",
        "road": "Grand Bahama Highway",
        "house_number": null,
        "neighbourhood": "Freeport Ridge Estate",
        "suburb": null,
        "city_district": null,
        "city": "City of Freeport",
        "state": null,
        "postcode": null,
        "country": "Bahamas",
        "country_code": "bs"
      },
      "address": "Grand Bahama Highway, Freeport, Bahamas"
    },
    {
      "lat": 26.531987795502793,
      "lon": -78.7275892153321,
      "geoinfo": {
        "display_name": "Queen's Highway, Regency Park, City of Freeport, Bahamas",
        "road": "Queen's Highway",
        "house_number": null,
        "neighbourhood": null,
        "suburb": "Regency Park",
        "city_district": null,
        "city": "City of Freeport",
        "state": null,
        "postcode": null,
        "country": "Bahamas",
        "country_code": "bs"
      },
      "address": "Queen's Highway, Freeport, Bahamas"
    },
    {
      "lat": 26.5214529562167,
      "lon": -78.6764843577166,
      "geoinfo": {
        "display_name": "85, Gambier Drive, Coral Gardens, Lucaya, City of Freeport, Bahamas",
        "road": "Gambier Drive",
        "house_number": "85",
        "neighbourhood": "Coral Gardens",
        "suburb": null,
        "city_district": null,
        "city": "City of Freeport",
        "state": null,
        "postcode": null,
        "country": "Bahamas",
        "country_code": "bs"
      },
      "address": "85 Gambier Drive, Freeport, Bahamas"
    },
    {
      "lat": 26.534770302671024,
      "lon": -78.66417119276755,
      "geoinfo": {
        "display_name": "Woodcock Loop, Lucaya, City of Freeport, Bahamas",
        "road": "Woodcock Loop",
        "house_number": null,
        "neighbourhood": null,
        "suburb": null,
        "city_district": null,
        "city": "City of Freeport",
        "state": null,
        "postcode": null,
        "country": "Bahamas",
        "country_code": "bs"
      },
      "address": "Woodcock Loop, Freeport, Bahamas"
    },
    {
      "lat": 26.522799740201645,
      "lon": -78.73085561348381,
      "geoinfo": {
        "display_name": "Grand Bahamian Way, Sunrise, City of Freeport, Bahamas",
        "road": "Grand Bahamian Way",
        "house_number": null,
        "neighbourhood": null,
        "suburb": "Sunrise",
        "city_district": null,
        "city": "City of Freeport",
        "state": null,
        "postcode": null,
        "country": "Bahamas",
        "country_code": "bs"
      },
      "address": "Grand Bahamian Way, Freeport, Bahamas"
    },
    {
      "lat": 26.525445726696372,
      "lon": -78.67544422184109,
      "geoinfo": {
        "display_name": "Cartier Circle, Mayfair Court, City of Freeport, Bahamas",
        "road": "Cartier Circle",
        "house_number": null,
        "neighbourhood": "Mayfair Court",
        "suburb": null,
        "city_district": null,
        "city": "City of Freeport",
        "state": null,
        "postcode": null,
        "country": "Bahamas",
        "country_code": "bs"
      },
      "address": "685, Cartier Circle, Mayfair Court, 26617 City of Freeport, Bahamas"
    },
    {
      "lat": 26.521546125178006,
      "lon": -78.67714720662173,
      "geoinfo": {
        "display_name": "Gambier Drive, Coral Gardens, Lucaya, City of Freeport, Bahamas",
        "road": "Gambier Drive",
        "house_number": null,
        "neighbourhood": "Coral Gardens",
        "suburb": null,
        "city_district": null,
        "city": "City of Freeport",
        "state": null,
        "postcode": null,
        "country": "Bahamas",
        "country_code": "bs"
      },
      "address": "649, Gambier Drive, Coral Gardens, Lucaya, 54228 City of Freeport, Bahamas"
    },
    {
      "lat": 26.542037848648942,
      "lon": -78.654758383562,
      "geoinfo": {
        "display_name": "35, Faith Avenue, City of Freeport, Bahamas",
        "road": "Faith Avenue",
        "house_number": "35",
        "neighbourhood": null,
        "suburb": null,
        "city_district": null,
        "city": "City of Freeport",
        "state": null,
        "postcode": null,
        "country": "Bahamas",
        "country_code": "bs"
      },
      "address": "35, Faith Avenue, 68667 City of Freeport, Bahamas"
    },
    {
      "lat": 26.523167703286056,
      "lon": -78.7474084107675,
      "geoinfo": {
        "display_name": "Queen's Highway, Sunrise, City of Freeport, Bahamas",
        "road": "Queen's Highway",
        "house_number": null,
        "neighbourhood": null,
        "suburb": "Sunrise",
        "city_district": null,
        "city": "City of Freeport",
        "state": null,
        "postcode": null,
        "country": "Bahamas",
        "country_code": "bs"
      },
      "address": "922, Queen's Highway, Sunrise, 14094 City of Freeport, Bahamas"
    },
    {
      "lat": 26.552002039124062,
      "lon": -78.69009251479443,
      "geoinfo": {
        "display_name": "Grand Bahama Highway, Freeport Ridge Estate, City of Freeport, Bahamas",
        "road": "Grand Bahama Highway",
        "house_number": null,
        "neighbourhood": "Freeport Ridge Estate",
        "suburb": null,
        "city_district": null,
        "city": "City of Freeport",
        "state": null,
        "postcode": null,
        "country": "Bahamas",
        "country_code": "bs"
      },
      "address": "051, Grand Bahama Highway, Freeport Ridge Estate, 43661 City of Freeport, Bahamas"
    },
    {
      "lat": 26.543014694774183,
      "lon": -78.72533421103208,
      "geoinfo": {
        "display_name": "Queen's Cove, City of Freeport, Bahamas",
        "road": null,
        "house_number": null,
        "neighbourhood": null,
        "suburb": "Queen's Cove",
        "city_district": null,
        "city": "City of Freeport",
        "state": null,
        "postcode": null,
        "country": "Bahamas",
        "country_code": "bs"
      },
      "address": "839, Queen's Cove, 76577 City of Freeport, Bahamas"
    },
    {
      "lat": 26.530376763458584,
      "lon": -78.70393314479855,
      "geoinfo": {
        "display_name": "Tripp Circle, City of Freeport, Bahamas",
        "road": "Tripp Circle",
        "house_number": null,
        "neighbourhood": null,
        "suburb": null,
        "city_district": null,
        "city": "City of Freeport",
        "state": null,
        "postcode": null,
        "country": "Bahamas",
        "country_code": "bs"
      },
      "address": "709, Tripp Circle, 89656 City of Freeport, Bahamas"
    },
    {
      "lat": 26.53531644805757,
      "lon": -78.6504636996404,
      "geoinfo": {
        "display_name": "Egret Circle, Lucaya, City of Freeport, Bahamas",
        "road": "Egret Circle",
        "house_number": null,
        "neighbourhood": null,
        "suburb": null,
        "city_district": null,
        "city": "City of Freeport",
        "state": null,
        "postcode": null,
        "country": "Bahamas",
        "country_code": "bs"
      },
      "address": "510, Egret Circle, Lucaya, 56533 City of Freeport, Bahamas"
    },
    {
      "lat": 26.552604638844375,
      "lon": -78.66341321059141,
      "geoinfo": {
        "display_name": "Doit Center, Grand Bahama Highway, Freeport Ridge Estate, City of Freeport, Bahamas",
        "road": "Grand Bahama Highway",
        "house_number": null,
        "neighbourhood": "Freeport Ridge Estate",
        "suburb": null,
        "city_district": null,
        "city": "City of Freeport",
        "state": null,
        "postcode": null,
        "country": "Bahamas",
        "country_code": "bs"
      },
      "address": "496, Grand Bahama Highway, 38549 Freeport, Bahamas"
    },
    {
      "lat": 26.522955581070487,
      "lon": -78.68787752603956,
      "geoinfo": {
        "display_name": "Smith Circle, City of Freeport, Bahamas",
        "road": "Smith Circle",
        "house_number": null,
        "neighbourhood": null,
        "suburb": null,
        "city_district": null,
        "city": "City of Freeport",
        "state": null,
        "postcode": null,
        "country": "Bahamas",
        "country_code": "bs"
      },
      "address": "779, Smith Circle, 89397 City of Freeport, Bahamas"
    },
    {
      "lat": 26.50065026870554,
      "lon": -78.70108247809934,
      "geoinfo": {
        "display_name": "Pinta Avenue, Rial Park, Bahamia, City of Freeport, Bahamas",
        "road": "Pinta Avenue",
        "house_number": null,
        "neighbourhood": "Rial Park",
        "suburb": "Bahamia",
        "city_district": null,
        "city": "City of Freeport",
        "state": null,
        "postcode": null,
        "country": "Bahamas",
        "country_code": "bs"
      },
      "address": "239, Pinta Avenue, Rial Park, Bahamia, 20904 City of Freeport, Bahamas"
    },
    {
      "lat": 26.492831948855507,
      "lon": -78.69331906815368,
      "geoinfo": {
        "display_name": "Port of Call Drive, Bahamia, City of Freeport, Bahamas",
        "road": "Port of Call Drive",
        "house_number": null,
        "neighbourhood": null,
        "suburb": "Bahamia",
        "city_district": null,
        "city": "City of Freeport",
        "state": null,
        "postcode": null,
        "country": "Bahamas",
        "country_code": "bs"
      },
      "address": "167, Port of Call Drive, Bahamia, 09401 City of Freeport, Bahamas"
    },
    {
      "lat": 26.550471617336292,
      "lon": -78.73460566650421,
      "geoinfo": {
        "display_name": "Queen's Cove, City of Freeport, Bahamas",
        "road": null,
        "house_number": null,
        "neighbourhood": null,
        "suburb": "Queen's Cove",
        "city_district": null,
        "city": "City of Freeport",
        "state": null,
        "postcode": null,
        "country": "Bahamas",
        "country_code": "bs"
      },
      "address": "179, Queen's Cove, 07203 City of Freeport, Bahamas"
    },
    {
      "lat": 26.537541121715037,
      "lon": -78.71459152756856,
      "geoinfo": {
        "display_name": "Queen's Highway, Regency Park, City of Freeport, Bahamas",
        "road": "Queen's Highway",
        "house_number": null,
        "neighbourhood": null,
        "suburb": "Regency Park",
        "city_district": null,
        "city": "City of Freeport",
        "state": null,
        "postcode": null,
        "country": "Bahamas",
        "country_code": "bs"
      },
      "address": "431, Queen's Highway, Regency Park, 72994 City of Freeport, Bahamas"
    },
    {
      "lat": 26.527819960634925,
      "lon": -78.65293573106011,
      "geoinfo": {
        "display_name": "East Sunrise Highway, Arden Forest, Lucaya, City of Freeport, Bahamas",
        "road": "East Sunrise Highway",
        "house_number": null,
        "neighbourhood": "Arden Forest",
        "suburb": null,
        "city_district": null,
        "city": "City of Freeport",
        "state": null,
        "postcode": null,
        "country": "Bahamas",
        "country_code": "bs"
      },
      "address": "458, East Sunrise Highway, Arden Forest, Lucaya, 65364 City of Freeport, Bahamas"
    },
    {
      "lat": 26.50330093054465,
      "lon": -78.69272105199812,
      "geoinfo": {
        "display_name": "242, Greenturtle Street, Imperial Park, Bahamia, City of Freeport, Bahamas",
        "road": "Greenturtle Street",
        "house_number": "242",
        "neighbourhood": "Imperial Park",
        "suburb": "Bahamia",
        "city_district": null,
        "city": "City of Freeport",
        "state": null,
        "postcode": null,
        "country": "Bahamas",
        "country_code": "bs"
      },
      "address": "242, Greenturtle Street, Imperial Park, Bahamia, 16985 City of Freeport, Bahamas"
    },
    {
      "lat": 26.524691620448774,
      "lon": -78.715225221285,
      "geoinfo": {
        "display_name": "Richmond Avenue, Regency Park, City of Freeport, Bahamas",
        "road": "Richmond Avenue",
        "house_number": null,
        "neighbourhood": null,
        "suburb": "Regency Park",
        "city_district": null,
        "city": "City of Freeport",
        "state": null,
        "postcode": null,
        "country": "Bahamas",
        "country_code": "bs"
      },
      "address": "266, Richmond Avenue, Regency Park, 75594 City of Freeport, Bahamas"
    },
    {
      "lat": 26.512160835221124,
      "lon": -78.69361739728161,
      "geoinfo": {
        "display_name": "East Atlantic Drive, Rial Park, Bahamia, City of Freeport, Bahamas",
        "road": "East Atlantic Drive",
        "house_number": null,
        "neighbourhood": "Rial Park",
        "suburb": "Bahamia",
        "city_district": null,
        "city": "City of Freeport",
        "state": null,
        "postcode": null,
        "country": "Bahamas",
        "country_code": "bs"
      },
      "address": "923, East Atlantic Drive, Rial Park, Bahamia, 79632 City of Freeport, Bahamas"
    },
    {
      "lat": 26.533336103488327,
      "lon": -78.6851072574138,
      "geoinfo": {
        "display_name": "Mallory Lane, Hudson Estates, City of Freeport, Bahamas",
        "road": "Mallory Lane",
        "house_number": null,
        "neighbourhood": "Hudson Estates",
        "suburb": null,
        "city_district": null,
        "city": "City of Freeport",
        "state": null,
        "postcode": null,
        "country": "Bahamas",
        "country_code": "bs"
      },
      "address": "599, Mallory Lane, Hudson Estates, 35295 City of Freeport, Bahamas"
    },
    {
      "lat": 26.527514094955183,
      "lon": -78.6604362047961,
      "geoinfo": {
        "display_name": "Lucaya, City of Freeport, Bahamas",
        "road": null,
        "house_number": null,
        "neighbourhood": null,
        "suburb": null,
        "city_district": null,
        "city": "City of Freeport",
        "state": null,
        "postcode": null,
        "country": "Bahamas",
        "country_code": "bs"
      },
      "address": "215, Lucaya, 88765 City of Freeport, Bahamas"
    },
    {
      "lat": 26.49716608578851,
      "lon": -78.6934168909077,
      "geoinfo": {
        "display_name": "102, Seahawk Cay, Bahamia, City of Freeport, Bahamas",
        "road": "Seahawk Cay",
        "house_number": "102",
        "neighbourhood": null,
        "suburb": "Bahamia",
        "city_district": null,
        "city": "City of Freeport",
        "state": null,
        "postcode": null,
        "country": "Bahamas",
        "country_code": "bs"
      },
      "address": "102, Seahawk Cay, Bahamia, 25509 City of Freeport, Bahamas"
    },
    {
      "lat": 26.530430368891924,
      "lon": -78.66420538532904,
      "geoinfo": {
        "display_name": "Sir Jack Hayward High School, Gooseberry Drive, Lucaya, City of Freeport, Bahamas",
        "road": "Gooseberry Drive",
        "house_number": null,
        "neighbourhood": null,
        "suburb": null,
        "city_district": null,
        "city": "City of Freeport",
        "state": null,
        "postcode": null,
        "country": "Bahamas",
        "country_code": "bs"
      },
      "address": "606, Gooseberry Drive, 15935 Freeport, Bahamas"
    }
  ],
  "updated_at": "2025-10-19T02:58:16.289749+00:00",
  "_kind": "geo_samples"
}