{
  "country_code": "FO",
  "country": "Faroe Islands",
  "city": "Tórshavn",
  "geonameid": 2611396,
  "target_addresses": 100,
  "samples": [
    {
      "lat": 61.982430766296524,
      "lon": -6.748072987814599,
      "geoinfo": {
        "display_name": "Glyvursvegur, Argir, Kirkjubøur, Tórshavnar kommuna, Streymoy region, 160, Faroe Islands",
        "road": "Glyvursvegur",
        "house_number": null,
        "neighbourhood": null,
        "suburb": null,
        "city_district": null,
        "city": "Argir",
        "state": null,
        "postcode": "160",
        "country": "Faroe Islands",
        "country_code": "fo"
      },
      "address": "Glyvursvegur, Tórshavn, Faroe Islands"
    },
    {
      "lat": 61.98900241070416,
      "lon": -6.839744141699761,
      "geoinfo": {
        "display_name": "Velbastaðvegur, Djúpagil, Velbastaður, Tórshavnar kommuna, Streymoy region, 176, Faroe Islands",
        "road": "Velbastaðvegur",
        "house_number": null,
        "neighbourhood": "Djúpagil",
        "suburb": null,
        "city_district": null,
        "city": "Velbastaður",
        "state": null,
        "postcode": "176",
        "country": "Faroe Islands",
        "country_code": "fo"
      },
      "address": "Velbastaðvegur, Tórshavn, Faroe Islands"
    },
    {
      "lat": 61.97451456286677,
      "lon": -6.7141669814838725,
      "geoinfo": {
        "display_name": "Faroe Islands",
        "road": null,
        "house_number": null,
        "neighbourhood": null,
        "suburb": null,
        "city_district": null,
        "city": null,
        "state": null,
        "postcode": null,
        "country": "Faroe Islands",
        "country_code": "fo"
      },
      "address": "Tórshavn, Faroe Islands"
    },
    {
      "lat": 62.01416330004588,
      "lon": -6.78488652332455,
      "geoinfo": {
        "display_name": "32, Varðabú, Tórshavn, Tórshavnar kommuna, Streymoy region, 100, Faroe Islands",
        "road": "Varðabú",
        "house_number": "32",
        "neighbourhood": null,
        "suburb": null,
        "city_district": null,
        "city": "Tórshavn",
        "state": null,
        "postcode": "100",
        "country": "Faroe Islands",
        "country_code": "fo"
      },
      "address": "32 Varðabú, Tórshavn, Faroe Islands"
    },
    {
      "lat": 62.0423666074706,
      "lon": -6.801909856469166,
      "geoinfo": {
        "display_name": "Havnarvegur, Sandvíkahjalli, Hoyvík, Tórshavnar kommuna, Streymoy region, 188, Faroe Islands",
        "road": "Havnarvegur",
        "house_number": null,
        "neighbourhood": "Sandvíkahjalli",
        "suburb": null,
        "city_district": null,
        "city": "Hoyvík",
        "state": null,
        "postcode": "188",
        "country": "Faroe Islands",
        "country_code": "fo"
      },
      "address": "Havnarvegur, Tórshavn, Faroe Islands"
    },
    {
      "lat": 62.02265257373116,
      "lon": -6.755593929523615,
      "geoinfo": {
        "display_name": "Boðanesgøta, Hoyvík, Tórshavnar kommuna, Streymoy region, 188, Faroe Islands",
        "road": "Boðanesgøta",
        "house_number": null,
        "neighbourhood": null,
        "suburb": null,
        "city_district": null,
        "city": "Hoyvík",
        "state": null,
        "postcode": "188",
        "country": "Faroe Islands",
        "country_code": "fo"
      },
      "address": "Boðanesgøta, Tórshavn, Faroe Islands"
    },
    {
      "lat": 62.003035383775575,
      "lon": -6.782460387376417,
      "geoinfo": {
        "display_name": "14A, Eirargarður, Tinganes, Tórshavn, Tórshavnar kommuna, Streymoy region, 100, Faroe Islands",
        "road": "Eirargarður",
        "house_number": "14A",
        "neighbourhood": null,
        "suburb": null,
        "city_district": null,
        "city": "Tórshavn",
        "state": null,
        "postcode": "100",
        "country": "Faroe Islands",
        "country_code": "fo"
      },
      "address": "14A Eirargarður, Tórshavn, Faroe Islands"
    },
    {
      "lat": 62.0437186111234,
      "lon": -6.830575519823406,
      "geoinfo": {
        "display_name": "Hvítanesvegur, Sandvíkahjalli, Hvítanes, Hoyvík, Tórshavnar kommuna, Streymoy region, 188, Faroe Islands",
        "road": "Hvítanesvegur",
        "house_number": null,
        "neighbourhood": "Sandvíkahjalli",
        "suburb": null,
        "city_district": null,
        "city": "Hvítanes",
        "state": null,
        "postcode": "188",
        "country": "Faroe Islands",
        "country_code": "fo"
      },
      "address": "Hvítanesvegur, Tórshavn, Faroe Islands"
    },
    {
      "lat": 62.025082562646325,
      "lon": -6.804055140728173,
      "geoinfo": {
        "display_name": "Húsareynstunnilin, Tórshavn, Tórshavnar kommuna, Streymoy region, 100, Faroe Islands",
        "road": "Húsareynstunnilin",
        "house_number": null,
        "neighbourhood": null,
        "suburb": null,
        "city_district": null,
        "city": "Tórshavn",
        "state": null,
        "postcode": "100",
        "country": "Faroe Islands",
        "country_code": "fo"
      },
      "address": "Húsareynstunnilin, Tórshavn, Faroe Islands"
    },
    {
      "lat": 62.01653775905729,
      "lon": -6.848874337824512,
      "geoinfo": {
        "display_name": "Liasarvegur, Tórshavn, Tórshavnar kommuna, Streymoy region, 100, Faroe Islands",
        "road": "Liasarvegur",
        "house_number": null,
        "neighbourhood": null,
        "suburb": null,
        "city_district": null,
        "city": "Tórshavn",
        "state": null,
        "postcode": "100",
        "country": "Faroe Islands",
        "country_code": "fo"
      },
      "address": "Liasarvegur, Tórshavn, Faroe Islands"
    },
    {
      "lat": 61.996058995044926,
      "lon": -6.813295589458985,
      "geoinfo": {
        "display_name": "11, Við Sandá, Kirkjubøur, Tórshavnar kommuna, Streymoy region, 160, Faroe Islands",
        "road": "Við Sandá",
        "house_number": "11",
        "neighbourhood": null,
        "suburb": null,
        "city_district": null,
        "city": "Kirkjubøur",
        "state": null,
        "postcode": "160",
        "country": "Faroe Islands",
        "country_code": "fo"
      },
      "address": "11 Við Sandá, Tórshavn, Faroe Islands"
    },
    {
      "lat": 62.01330964553981,
      "lon": -6.813898487264477,
      "geoinfo": {
        "display_name": "Oyggjarvegur, Tórshavn, Tórshavnar kommuna, Streymoy region, 100, Faroe Islands",
        "road": "Oyggjarvegur",
        "house_number": null,
        "neighbourhood": null,
        "suburb": null,
        "city_district": null,
        "city": "Tórshavn",
        "state": null,
        "postcode": "100",
        "country": "Faroe Islands",
        "country_code": "fo"
      },
      "address": "Oyggjarvegur, Tórshavn, Faroe Islands"
    },
    {
      "lat": 61.99652372678058,
      "lon": -6.82182851993391,
      "geoinfo": {
        "display_name": "1, Undir Miðhorni, Tórshavn, Tórshavnar kommuna, Streymoy region, 100, Faroe Islands",
        "road": "Undir Miðhorni",
        "house_number": "1",
        "neighbourhood": null,
        "suburb": null,
        "city_district": null,
        "city": "Tórshavn",
        "state": null,
        "postcode": "100",
        "country": "Faroe Islands",
        "country_code": "fo"
      },
      "address": "1 Undir Miðhorni, Tórshavn, Faroe Islands"
    },
    {
      "lat": 62.020637749117725,
      "lon": -6.8111331694285715,
      "geoinfo": {
        "display_name": "Undir Húsareyni, Tórshavn, Tórshavnar kommuna, Streymoy region, 100, Faroe Islands",
        "road": "Undir Húsareyni",
        "house_number": null,
        "neighbourhood": null,
        "suburb": null,
        "city_district": null,
        "city": "Tórshavn",
        "state": null,
        "postcode": "100",
        "country": "Faroe Islands",
        "country_code": "fo"
      },
      "address": "Undir Húsareyni, Tórshavn, Faroe Islands"
    },
    {
      "lat": 62.00023029834958,
      "lon": -6.799990368174782,
      "geoinfo": {
        "display_name": "Gamli Velbastaðvegur, Tórshavn, Tórshavnar kommuna, Streymoy region, 100, Faroe Islands",
        "road": "Gamli Velbastaðvegur",
        "house_number": null,
        "neighbourhood": null,
        "suburb": null,
        "city_district": null,
        "city": "Tórshavn",
        "state": null,
        "postcode": "100",
        "country": "Faroe Islands",
        "country_code": "fo"
      },
      "address": "Gamli Velbastaðvegur, Tórshavn, Faroe Islands"
    },
    {
      "lat": 61.99776505686007,
      "lon": -6.8049078327828605,
      "geoinfo": {
        "display_name": "Føroya Bjór, Akranesgøta, Tórshavn, Tórshavnar kommuna, Streymoy region, 100, Faroe Islands",
        "road": "Akranesgøta",
        "house_number": null,
        "neighbourhood": null,
        "suburb": null,
        "city_district": null,
        "city": "Tórshavn",
        "state": null,
        "postcode": "100",
        "country": "Faroe Islands",
        "country_code": "fo"
      },
      "address": "Akranesgøta, Tórshavn, Faroe Islands"
    },
    {
      "lat": 62.00428895176056,
      "lon": -6.803437790327401,
      "geoinfo": {
        "display_name": "30, Undir Gráasteini, Tórshavn, Tórshavnar kommuna, Streymoy region, 100, Faroe Islands",
        "road": "Undir Gráasteini",
        "house_number": "30",
        "neighbourhood": null,
        "suburb": null,
        "city_district": null,
        "city": "Tórshavn",
        "state": null,
        "postcode": "100",
        "country": "Faroe Islands",
        "country_code": "fo"
      },
      "address": "30 Undir Gráasteini, Tórshavn, Faroe Islands"
    },
    {
      "lat": 62.01137598394507,
      "lon": -6.752418460261885,
      "geoinfo": {
        "display_name": "Eystfalssker, Yviri við Strond, Tinganes, Tórshavn, Tórshavnar kommuna, Streymoy region, 100, Faroe Islands",
        "road": "Yviri við Strond",
        "house_number": null,
        "neighbourhood": null,
        "suburb": null,
        "city_district": "Tórshavn",
        "city": "Tórshavn",
        "state": null,
        "postcode": "100",
        "country": "Faroe Islands",
        "country_code": "fo"
      },
      "address": "Yviri við Strond, Tórshavn, Faroe Islands"
    },
    {
      "lat": 61.997435739656865,
      "lon": -6.828520400648025,
      "geoinfo": {
        "display_name": "Tórshavn, Tórshavnar kommuna, Streymoy region, 100, Faroe Islands",
        "road": null,
        "house_number": null,
        "neighbourhood": null,
        "suburb": null,
        "city_district": "Tórshavn",
        "city": "Tórshavn",
        "state": null,
        "postcode": "100",
        "country": "Faroe Islands",
        "country_code": "fo"
      },
      "address": "Tórshavn, Tórshavn, Faroe Islands"
    },
    {
      "lat": 62.001992184263194,
      "lon": -6.830711769657065,
      "geoinfo": {
        "display_name": "34, Granagøta, Norðasta Horn, Tórshavn, Tórshavnar kommuna, Streymoy region, 100, Faroe Islands",
        "road": "Granagøta",
        "house_number": "34",
        "neighbourhood": null,
        "suburb": null,
        "city_district": "Tórshavn",
        "city": "Tórshavn",
        "state": null,
        "postcode": "100",
        "country": "Faroe Islands",
        "country_code": "fo"
      },
      "address": "34 Granagøta, Tórshavn, Faroe Islands"
    },
    {
      "lat": 62.026056565704664,
      "lon": -6.785375645950088,
      "geoinfo": {
        "display_name": "25, Birnugøta, Tórshavn, Tórshavnar kommuna, Streymoy region, 100, Faroe Islands",
        "road": "Birnugøta",
        "house_number": "25",
        "neighbourhood": null,
        "suburb": null,
        "city_district": "Tórshavn",
        "city": "Tórshavn",
        "state": null,
        "postcode": "100",
        "country": "Faroe Islands",
        "country_code": "fo"
      },
      "address": "25 Birnugøta, Tórshavn, Faroe Islands"
    },
    {
      "lat": 62.00550287144873,
      "lon": -6.788523583222099,
      "geoinfo": {
        "display_name": "4, Heygsvegur, Tórshavn, Tórshavnar kommuna, Streymoy region, 100, Faroe Islands",
        "road": "Heygsvegur",
        "house_number": "4",
        "neighbourhood": null,
        "suburb": null,
        "city_district": "Tórshavn",
        "city": "Tórshavn",
        "state": null,
        "postcode": "100",
        "country": "Faroe Islands",
        "country_code": "fo"
      },
      "address": "4 Heygsvegur, Tórshavn, Faroe Islands"
    },
    {
      "lat": 62.02890096332256,
      "lon": -6.812715883262437,
      "geoinfo": {
        "display_name": "60, Sundsvegur, Hoyvík, Tórshavnar kommuna, Streymoy region, 100, Faroe Islands",
        "road": "Sundsvegur",
        "house_number": "60",
        "neighbourhood": null,
        "suburb": null,
        "city_district": null,
        "city": "Hoyvík",
        "state": null,
        "postcode": "100",
        "country": "Faroe Islands",
        "country_code": "fo"
      },
      "address": "60 Sundsvegur, Tórshavn, Faroe Islands"
    },
    {
      "lat": 62.013366653762915,
      "lon": -6.794593829153679,
      "geoinfo": {
        "display_name": "34, Kongsgil, Tórshavn, Tórshavnar kommuna, Streymoy region, 100, Faroe Islands",
        "road": "Kongsgil",
        "house_number": "34",
        "neighbourhood": null,
        "suburb": null,
        "city_district": "Tórshavn",
        "city": "Tórshavn",
        "state": null,
        "postcode": "100",
        "country": "Faroe Islands",
        "country_code": "fo"
      },
      "address": "34 Kongsgil, Tórshavn, Faroe Islands"
    },
    {
      "lat": 62.01549605396821,
      "lon": -6.784186241154646,
      "geoinfo": {
        "display_name": "3, Kráarvegur, Tórshavn, Tórshavnar kommuna, Streymoy region, 100, Faroe Islands",
        "road": "Kráarvegur",
        "house_number": "3",
        "neighbourhood": null,
        "suburb": null,
        "city_district": "Tórshavn",
        "city": "Tórshavn",
        "state": null,
        "postcode": "100",
        "country": "Faroe Islands",
        "country_code": "fo"
      },
      "address": "3 Kráarvegur, Tórshavn, Faroe Islands"
    },
    {
      "lat": 62.00364943421913,
      "lon": -6.822178793461859,
      "geoinfo": {
        "display_name": "Reiðgøta, Tórshavn, Tórshavnar kommuna, Streymoy region, 100, Faroe Islands",
        "road": "Reiðgøta",
        "house_number": null,
        "neighbourhood": null,
        "suburb": null,
        "city_district": "Tórshavn",
        "city": "Tórshavn",
        "state": null,
        "postcode": "100",
        "country": "Faroe Islands",
        "country_code": "fo"
      },
      "address": "Reiðgøta, Tórshavn, Faroe Islands"
    },
    {
      "lat": 62.000335062006904,
      "lon": -6.831957979344509,
      "geoinfo": {
        "display_name": "19, Blankagøta, Norðasta Horn, Tórshavn, Tórshavnar kommuna, Streymoy region, 100, Faroe Islands",
        "road": "Blankagøta",
        "house_number": "19",
        "neighbourhood": null,
        "suburb": null,
        "city_district": "Tórshavn",
        "city": "Tórshavn",
        "state": null,
        "postcode": "100",
        "country": "Faroe Islands",
        "country_code": "fo"
      },
      "address": "19 Blankagøta, Tórshavn, Faroe Islands"
    },
    {
      "lat": 62.023414058680146,
      "lon": -6.776869810831058,
      "geoinfo": {
        "display_name": "Tórsbreyt, Undir Svartafossi, Tórshavn, Tórshavnar kommuna, Streymoy region, 100, Faroe Islands",
        "road": "Undir Svartafossi",
        "house_number": null,
        "neighbourhood": null,
        "suburb": null,
        "city_district": "Tórshavn",
        "city": "Tórshavn",
        "state": null,
        "postcode": "100",
        "country": "Faroe Islands",
        "country_code": "fo"
      },
      "address": "Undir Svartafossi, Tórshavn, Faroe Islands"
    },
    {
      "lat": 62.0252389477738,
      "lon": -6.777677529866674,
      "geoinfo": {
        "display_name": "8, Undir Svartafossi, Tórshavn, Tórshavnar kommuna, Streymoy region, 100, Faroe Islands",
        "road": "Undir Svartafossi",
        "house_number": "8",
        "neighbourhood": null,
        "suburb": null,
        "city_district": "Tórshavn",
        "city": "Tórshavn",
        "state": null,
        "postcode": "100",
        "country": "Faroe Islands",
        "country_code": "fo"
      },
      "address": "8 Undir Svartafossi, Tórshavn, Faroe Islands"
    },
    {
      "lat": 62.00310036085249,
      "lon": -6.766183006942227,
      "geoinfo": {
        "display_name": "50, Eystara Bryggja, Tinganes, Tórshavn, Tórshavnar kommuna, Streymoy region, 100, Faroe Islands",
        "road": "Eystara Bryggja",
        "house_number": "50",
        "neighbourhood": null,
        "suburb": null,
        "city_district": "Tórshavn",
        "city": "Tórshavn",
        "state": null,
        "postcode": "100",
        "country": "Faroe Islands",
        "country_code": "fo"
      },
      "address": "50 Eystara Bryggja, Tórshavn, Faroe Islands"
    },
    {
      "lat": 62.004316613375984,
      "lon": -6.787954651648008,
      "geoinfo": {
        "display_name": "Heygsvegur Cycle Path, Tórshavn, Tórshavnar kommuna, Streymoy region, 100, Faroe Islands",
        "road": "Heygsvegur Cycle Path",
        "house_number": null,
        "neighbourhood": null,
        "suburb": null,
        "city_district": "Tórshavn",
        "city": "Tórshavn",
        "state": null,
        "postcode": "100",
        "country": "Faroe Islands",
        "country_code": "fo"
      },
      "address": "Heygsvegur Cycle Path, Tórshavn, Faroe Islands"
    },
    {
      "lat": 62.001131761019025,
      "lon": -6.761905224383506,
      "geoinfo": {
        "display_name": "60, Eystara Bryggja, Tinganes, Tórshavn, Tórshavnar kommuna, Streymoy region, 100, Faroe Islands",
        "road": "Eystara Bryggja",
        "house_number": "60",
        "neighbourhood": null,
        "suburb": null,
        "city_district": "Tórshavn",
        "city": "Tórshavn",
        "state": null,
        "postcode": "100",
        "country": "Faroe Islands",
        "country_code": "fo"
      },
      "address": "60 Eystara Bryggja, Tórshavn, Faroe Islands"
    },
    {
      "lat": 62.0053423528535,
      "lon": -6.791239733157444,
      "geoinfo": {
        "display_name": "13, Hetlandsvegur, Tórshavn, Tórshavnar kommuna, Streymoy region, 100, Faroe Islands",
        "road": "Hetlandsvegur",
        "house_number": "13",
        "neighbourhood": null,
        "suburb": null,
        "city_district": "Tórshavn",
        "city": "Tórshavn",
        "state": null,
        "postcode": "100",
        "country": "Faroe Islands",
        "country_code": "fo"
      },
      "address": "13 Hetlandsvegur, Tórshavn, Faroe Islands"
    },
    {
      "lat": 62.00645114692991,
      "lon": -6.798146400647337,
      "geoinfo": {
        "display_name": "Glasir, 3, Janusargøta, Tórshavn, Tórshavnar kommuna, Streymoy region, 100, Faroe Islands",
        "road": "Janusargøta",
        "house_number": "3",
        "neighbourhood": null,
        "suburb": null,
        "city_district": "Tórshavn",
        "city": "Tórshavn",
        "state": null,
        "postcode": "100",
        "country": "Faroe Islands",
        "country_code": "fo"
      },
      "address": "3 Janusargøta, Tórshavn, Faroe Islands"
    },
    {
      "lat": 62.00566859728003,
      "lon": -6.805225218461828,
      "geoinfo": {
        "display_name": "17, Vesturgøta, Tórshavn, Tórshavnar kommuna, Streymoy region, 100, Faroe Islands",
        "road": "Vesturgøta",
        "house_number": "17",
        "neighbourhood": null,
        "suburb": null,
        "city_district": "Tórshavn",
        "city": "Tórshavn",
        "state": null,
        "postcode": "100",
        "country": "Faroe Islands",
        "country_code": "fo"
      },
      "address": "17 Vesturgøta, Tórshavn, Faroe Islands"
    },
    {
      "lat": 61.999880498820886,
      "lon": -6.789946428118037,
      "geoinfo": {
        "display_name": "2, Í Vika, Tórshavn, Tórshavnar kommuna, Streymoy region, 100, Faroe Islands",
        "road": "Í Vika",
        "house_number": "2",
        "neighbourhood": null,
        "suburb": null,
        "city_district": "Tórshavn",
        "city": "Tórshavn",
        "state": null,
        "postcode": "100",
        "country": "Faroe Islands",
        "country_code": "fo"
      },
      "address": "2 Í Vika, Tórshavn, Faroe Islands"
    },
    {
      "lat": 62.03119277355558,
      "lon": -6.80664551390944,
      "geoinfo": {
        "display_name": "92, Villingadalsvegur, Tórshavn, Tórshavnar kommuna, Streymoy region, 100, Faroe Islands",
        "road": "Villingadalsvegur",
        "house_number": "92",
        "neighbourhood": null,
        "suburb": null,
        "city_district": "Tórshavn",
        "city": "Tórshavn",
        "state": null,
        "postcode": "100",
        "country": "Faroe Islands",
        "country_code": "fo"
      },
      "address": "92 Villingadalsvegur, Tórshavn, Faroe Islands"
    },
    {
      "lat": 62.019824357323984,
      "lon": -6.785913408613842,
      "geoinfo": {
        "display_name": "41, Gundadalsvegur, Tórshavn, Tórshavnar kommuna, Streymoy region, 100, Faroe Islands",
        "road": "Gundadalsvegur",
        "house_number": "41",
        "neighbourhood": null,
        "suburb": null,
        "city_district": null,
        "city": "Tórshavn",
        "state": null,
        "postcode": "100",
        "country": "Faroe Islands",
        "country_code": "fo"
      },
      "address": "41 Gundadalsvegur, Tórshavn, Faroe Islands"
    },
    {
      "lat": 62.00585402956874,
      "lon": -6.826785250067872,
      "geoinfo": {
        "display_name": "Fjósið í Havnardali, Kráarheyggjur, Tórshavn, Tórshavnar kommuna, Streymoy region, 100, Faroe Islands",
        "road": "Kráarheyggjur",
        "house_number": null,
        "neighbourhood": null,
        "suburb": null,
        "city_district": null,
        "city": "Tórshavn",
        "state": null,
        "postcode": "100",
        "country": "Faroe Islands",
        "country_code": "fo"
      },
      "address": "Kráarheyggjur, Tórshavn, Faroe Islands"
    },
    {
      "lat": 62.02417727103397,
      "lon": -6.7843168962226885,
      "geoinfo": {
        "display_name": "6, Birnugøta, Tórshavn, Tórshavnar kommuna, Streymoy region, 100, Faroe Islands",
        "road": "Birnugøta",
        "house_number": "6",
        "neighbourhood": null,
        "suburb": null,
        "city_district": null,
        "city": "Tórshavn",
        "state": null,
        "postcode": "100",
        "country": "Faroe Islands",
        "country_code": "fo"
      },
      "address": "6 Birnugøta, Tórshavn, Faroe Islands"
    },
    {
      "lat": 62.01343768591573,
      "lon": -6.859026227609234,
      "geoinfo": {
        "display_name": "93, Liasarvegur, Tórshavn, Tórshavnar kommuna, Streymoy region, 100, Faroe Islands",
        "road": "Liasarvegur",
        "house_number": "93",
        "neighbourhood": null,
        "suburb": null,
        "city_district": null,
        "city": "Tórshavn",
        "state": null,
        "postcode": "100",
        "country": "Faroe Islands",
        "country_code": "fo"
      },
      "address": "93 Liasarvegur, Tórshavn, Faroe Islands"
    },
    {
      "lat": 62.01773590533164,
      "lon": -6.794148430708023,
      "geoinfo": {
        "display_name": "28, Undir Krákugjógv, Tórshavn, Tórshavnar kommuna, Streymoy region, 100, Faroe Islands",
        "road": "Undir Krákugjógv",
        "house_number": "28",
        "neighbourhood": null,
        "suburb": null,
        "city_district": null,
        "city": "Tórshavn",
        "state": null,
        "postcode": "100",
        "country": "Faroe Islands",
        "country_code": "fo"
      },
      "address": "28 Undir Krákugjógv, Tórshavn, Faroe Islands"
    },
    {
      "lat": 62.01755004746372,
      "lon": -6.766434585618583,
      "geoinfo": {
        "display_name": "4, Myrisnípuvegur, Tórshavn, Tórshavnar kommuna, Streymoy region, 100, Faroe Islands",
        "road": "Myrisnípuvegur",
        "house_number": "4",
        "neighbourhood": null,
        "suburb": null,
        "city_district": null,
        "city": "Tórshavn",
        "state": null,
        "postcode": "100",
        "country": "Faroe Islands",
        "country_code": "fo"
      },
      "address": "4 Myrisnípuvegur, Tórshavn, Faroe Islands"
    },
    {
      "lat": 62.009972677782635,
      "lon": -6.7963201972783684,
      "geoinfo": {
        "display_name": "58, Marknagilsvegur, Tórshavn, Tórshavnar kommuna, Streymoy region, 100, Faroe Islands",
        "road": "Marknagilsvegur",
        "house_number": "58",
        "neighbourhood": null,
        "suburb": null,
        "city_district": null,
        "city": "Tórshavn",
        "state": null,
        "postcode": "100",
        "country": "Faroe Islands",
        "country_code": "fo"
      },
      "address": "58 Marknagilsvegur, Tórshavn, Faroe Islands"
    },
    {
      "lat": 62.02160009867254,
      "lon": -6.788227499028308,
      "geoinfo": {
        "display_name": "12, Sóljugøta, Tórshavn, Tórshavnar kommuna, Streymoy region, 100, Faroe Islands",
        "road": "Sóljugøta",
        "house_number": "12",
        "neighbourhood": null,
        "suburb": null,
        "city_district": null,
        "city": "Tórshavn",
        "state": null,
        "postcode": "100",
        "country": "Faroe Islands",
        "country_code": "fo"
      },
      "address": "12 Sóljugøta, Tórshavn, Faroe Islands"
    },
    {
      "lat": 62.029193748461346,
      "lon": -6.792601248696627,
      "geoinfo": {
        "display_name": "Sundsvegur, Tórshavn, Tórshavnar kommuna, Streymoy region, 100, Faroe Islands",
        "road": "Sundsvegur",
        "house_number": null,
        "neighbourhood": null,
        "suburb": null,
        "city_district": null,
        "city": "Tórshavn",
        "state": null,
        "postcode": "100",
        "country": "Faroe Islands",
        "country_code": "fo"
      },
      "address": "Sundsvegur, Tórshavn, Faroe Islands"
    },
    {
      "lat": 62.01221409591714,
      "lon": -6.770274962488311,
      "geoinfo": {
        "display_name": "20, R.C. Effersøes gøta, Tinganes, Tórshavn, Tórshavnar kommuna, Streymoy region, 100, Faroe Islands",
        "road": "R.C. Effersøes gøta",
        "house_number": "20",
        "neighbourhood": null,
        "suburb": null,
        "city_district": null,
        "city": "Tórshavn",
        "state": null,
        "postcode": "100",
        "country": "Faroe Islands",
        "country_code": "fo"
      },
      "address": "20 R.C. Effersøes gøta, Tórshavn, Faroe Islands"
    },
    {
      "lat": 62.02044198144243,
      "lon": -6.7931902386680445,
      "geoinfo": {
        "display_name": "46, Ryskigøta, Tórshavn, Tórshavnar kommuna, Streymoy region, 100, Faroe Islands",
        "road": "Ryskigøta",
        "house_number": "46",
        "neighbourhood": null,
        "suburb": null,
        "city_district": null,
        "city": "Tórshavn",
        "state": null,
        "postcode": "100",
        "country": "Faroe Islands",
        "country_code": "fo"
      },
      "address": "46 Ryskigøta, Tórshavn, Faroe Islands"
    },
    {
      "lat": 62.017193892860575,
      "lon": -6.79745550348469,
      "geoinfo": {
        "display_name": "44, Oyggjarvegur, Tórshavn, Tórshavnar kommuna, Streymoy region, 100, Faroe Islands",
        "road": "Oyggjarvegur",
        "house_number": "44",
        "neighbourhood": null,
        "suburb": null,
        "city_district": null,
        "city": "Tórshavn",
        "state": null,
        "postcode": "100",
        "country": "Faroe Islands",
        "country_code": "fo"
      },
      "address": "44 Oyggjarvegur, Tórshavn, Faroe Islands"
    },
    {
      "lat": 62.02476327884672,
      "lon": -6.792701375410185,
      "geoinfo": {
        "display_name": "9, Baraldsgøta, Tórshavn, Tórshavnar kommuna, Streymoy region, 100, Faroe Islands",
        "road": "Baraldsgøta",
        "house_number": "9",
        "neighbourhood": null,
        "suburb": null,
        "city_district": null,
        "city": "Tórshavn",
        "state": null,
        "postcode": "100",
        "country": "Faroe Islands",
        "country_code": "fo"
      },
      "address": "9 Baraldsgøta, Tórshavn, Faroe Islands"
    },
    {
      "lat": 62.006469231763425,
      "lon": -6.795562208510833,
      "geoinfo": {
        "display_name": "22, Perskonugøta, Tórshavn, Tórshavnar kommuna, Streymoy region, 100, Faroe Islands",
        "road": "Perskonugøta",
        "house_number": "22",
        "neighbourhood": null,
        "suburb": null,
        "city_district": null,
        "city": "Tórshavn",
        "state": null,
        "postcode": "100",
        "country": "Faroe Islands",
        "country_code": "fo"
      },
      "address": "22 Perskonugøta, Tórshavn, Faroe Islands"
    },
    {
      "lat": 62.030951558192456,
      "lon": -6.801666157169402,
      "geoinfo": {
        "display_name": "29, Sundsvegur, Tórshavn, Tórshavnar kommuna, Streymoy region, 100, Faroe Islands",
        "road": "Sundsvegur",
        "house_number": "29",
        "neighbourhood": null,
        "suburb": null,
        "city_district": null,
        "city": "Tórshavn",
        "state": null,
        "postcode": "100",
        "country": "Faroe Islands",
        "country_code": "fo"
      },
      "address": "29 Sundsvegur, Tórshavn, Faroe Islands"
    },
    {
      "lat": 62.020285101749685,
      "lon": -6.787607075618771,
      "geoinfo": {
        "display_name": "49, Gundadalsvegur, Tórshavn, Tórshavnar kommuna, Streymoy region, 100, Faroe Islands",
        "road": "Gundadalsvegur",
        "house_number": "49",
        "neighbourhood": null,
        "suburb": null,
        "city_district": null,
        "city": "Tórshavn",
        "state": null,
        "postcode": "100",
        "country": "Faroe Islands",
        "country_code": "fo"
      },
      "address": "49 Gundadalsvegur, Tórshavn, Faroe Islands"
    },
    {
      "lat": 62.001804821906276,
      "lon": -6.780141961368019,
      "geoinfo": {
        "display_name": "J.C. Svabos gøta, Tinganes, Tórshavn, Tórshavnar kommuna, Streymoy region, 100, Faroe Islands",
        "road": "J.C. Svabos gøta",
        "house_number": null,
        "neighbourhood": null,
        "suburb": null,
        "city_district": null,
        "city": "Tórshavn",
        "state": null,
        "postcode": "100",
        "country": "Faroe Islands",
        "country_code": "fo"
      },
      "address": "J.C. Svabos gøta, Tórshavn, Faroe Islands"
    },
    {
      "lat": 62.01947864316776,
      "lon": -6.768058697153978,
      "geoinfo": {
        "display_name": "Mylnan, Smyrilsvegur, Tórshavn, Tórshavnar kommuna, Streymoy region, 100, Faroe Islands",
        "road": "Smyrilsvegur",
        "house_number": null,
        "neighbourhood": null,
        "suburb": null,
        "city_district": null,
        "city": "Tórshavn",
        "state": null,
        "postcode": "100",
        "country": "Faroe Islands",
        "country_code": "fo"
      },
      "address": "Smyrilsvegur, Tórshavn, Faroe Islands"
    },
    {
      "lat": 61.994245228257626,
      "lon": -6.81396585987032,
      "geoinfo": {
        "display_name": "Við Sandá, Kirkjubøur, Tórshavnar kommuna, Streymoy region, 160, Faroe Islands",
        "road": "Við Sandá",
        "house_number": null,
        "neighbourhood": null,
        "suburb": null,
        "city_district": null,
        "city": "Kirkjubøur",
        "state": null,
        "postcode": "160",
        "country": "Faroe Islands",
        "country_code": "fo"
      },
      "address": "Við Sandá, Tórshavn, Faroe Islands"
    },
    {
      "lat": 62.00990967728085,
      "lon": -6.779702398651713,
      "geoinfo": {
        "display_name": "20, Jóannesar Paturssonar gøta, Tinganes, Tórshavn, Tórshavnar kommuna, Streymoy region, 100, Faroe Islands",
        "road": "Jóannesar Paturssonar gøta",
        "house_number": "20",
        "neighbourhood": null,
        "suburb": null,
        "city_district": null,
        "city": "Tórshavn",
        "state": null,
        "postcode": "100",
        "country": "Faroe Islands",
        "country_code": "fo"
      },
      "address": "20 Jóannesar Paturssonar gøta, Tórshavn, Faroe Islands"
    },
    {
      "lat": 62.00461450034999,
      "lon": -6.787151370685716,
      "geoinfo": {
        "display_name": "6, Bóndabrekka, Tórshavn, Tórshavnar kommuna, Streymoy region, 100, Faroe Islands",
        "road": "Bóndabrekka",
        "house_number": "6",
        "neighbourhood": null,
        "suburb": null,
        "city_district": null,
        "city": "Tórshavn",
        "state": null,
        "postcode": "100",
        "country": "Faroe Islands",
        "country_code": "fo"
      },
      "address": "6 Bóndabrekka, Tórshavn, Faroe Islands"
    },
    {
      "lat": 61.99726109643558,
      "lon": -6.774232856047344,
      "geoinfo": {
        "display_name": "Argjavegur, Argir, Kirkjubøur, Tórshavnar kommuna, Streymoy region, 160, Faroe Islands",
        "road": "Argjavegur",
        "house_number": null,
        "neighbourhood": null,
        "suburb": null,
        "city_district": null,
        "city": "Argir",
        "state": null,
        "postcode": "160",
        "country": "Faroe Islands",
        "country_code": "fo"
      },
      "address": "Argjavegur, Tórshavn, Faroe Islands"
    },
    {
      "lat": 62.01481825405957,
      "lon": -6.789254975343168,
      "geoinfo": {
        "display_name": "1, Skotarók, Tórshavn, Tórshavnar kommuna, Streymoy region, 100, Faroe Islands",
        "road": "Skotarók",
        "house_number": "1",
        "neighbourhood": null,
        "suburb": null,
        "city_district": null,
        "city": "Tórshavn",
        "state": null,
        "postcode": "100",
        "country": "Faroe Islands",
        "country_code": "fo"
      },
      "address": "1 Skotarók, Tórshavn, Faroe Islands"
    },
    {
      "lat": 62.01609561272689,
      "lon": -6.786573470956321,
      "geoinfo": {
        "display_name": "9, Heiðaskákið, Tórshavn, Tórshavnar kommuna, Streymoy region, 100, Faroe Islands",
        "road": "Heiðaskákið",
        "house_number": "9",
        "neighbourhood": null,
        "suburb": null,
        "city_district": null,
        "city": "Tórshavn",
        "state": null,
        "postcode": "100",
        "country": "Faroe Islands",
        "country_code": "fo"
      },
      "address": "9 Heiðaskákið, Tórshavn, Faroe Islands"
    },
    {
      "lat": 62.005770124269034,
      "lon": -6.767506382012325,
      "geoinfo": {
        "display_name": "TInganes, Tinganes, Tórshavn, Tórshavnar kommuna, Streymoy region, 100, Faroe Islands",
        "road": "Tinganes",
        "house_number": null,
        "neighbourhood": null,
        "suburb": null,
        "city_district": null,
        "city": "Tórshavn",
        "state": null,
        "postcode": "100",
        "country": "Faroe Islands",
        "country_code": "fo"
      },
      "address": "Tinganes, Tórshavn, Faroe Islands"
    },
    {
      "lat": 62.000304377557335,
      "lon": -6.823036373068475,
      "geoinfo": {
        "display_name": "15, Skemmingsgøta, Norðasta Horn, Tórshavn, Tórshavnar kommuna, Streymoy region, 100, Faroe Islands",
        "road": "Skemmingsgøta",
        "house_number": "15",
        "neighbourhood": null,
        "suburb": null,
        "city_district": null,
        "city": "Tórshavn",
        "state": null,
        "postcode": "100",
        "country": "Faroe Islands",
        "country_code": "fo"
      },
      "address": "15 Skemmingsgøta, Tórshavn, Faroe Islands"
    },
    {
      "lat": 62.004777419489535,
      "lon": -6.805138638751908,
      "geoinfo": {
        "display_name": "7, Grásteinsgøta, Tórshavn, Tórshavnar kommuna, Streymoy region, 100, Faroe Islands",
        "road": "Grásteinsgøta",
        "house_number": "7",
        "neighbourhood": null,
        "suburb": null,
        "city_district": null,
        "city": "Tórshavn",
        "state": null,
        "postcode": "100",
        "country": "Faroe Islands",
        "country_code": "fo"
      },
      "address": "7 Grásteinsgøta, Tórshavn, Faroe Islands"
    },
    {
      "lat": 62.00800753584857,
      "lon": -6.794570066468383,
      "geoinfo": {
        "display_name": "4, Vilhelmstrøð, Tórshavn, Tórshavnar kommuna, Streymoy region, 100, Faroe Islands",
        "road": "Vilhelmstrøð",
        "house_number": "4",
        "neighbourhood": null,
        "suburb": null,
        "city_district": null,
        "city": "Tórshavn",
        "state": null,
        "postcode": "100",
        "country": "Faroe Islands",
        "country_code": "fo"
      },
      "address": "4 Vilhelmstrøð, Tórshavn, Faroe Islands"
    },
    {
      "lat": 62.01683988099384,
      "lon": -6.76699430573237,
      "geoinfo": {
        "display_name": "1B, Mýrisnípuvegur, Tórshavn, Tórshavnar kommuna, Streymoy region, 100, Faroe Islands",
        "road": "Mýrisnípuvegur",
        "house_number": "1B",
        "neighbourhood": null,
        "suburb": null,
        "city_district": null,
        "city": "Tórshavn",
        "state": null,
        "postcode": "100",
        "country": "Faroe Islands",
        "country_code": "fo"
      },
      "address": "1B, Mýrisnípuvegur, Tórshavn, Tórshavnar kommuna, Streymoy region, 100, Faroe Islands"
    },
    {
      "lat": 62.02196412692578,
      "lon": -6.835598570216032,
      "geoinfo": {
        "display_name": "Oyggjarvegur, Tórshavn, Tórshavnar kommuna, Streymoy region, 100, Faroe Islands",
        "road": "Oyggjarvegur",
        "house_number": null,
        "neighbourhood": null,
        "suburb": null,
        "city_district": null,
        "city": "Tórshavn",
        "state": null,
        "postcode": "100",
        "country": "Faroe Islands",
        "country_code": "fo"
      },
      "address": "263, Oyggjarvegur, Tórshavn, Tórshavnar kommuna, Streymoy region, 100, Faroe Islands"
    },
    {
      "lat": 62.000260437523046,
      "lon": -6.8161125390742825,
      "geoinfo": {
        "display_name": "Velbastaðvegur, Tórshavn, Tórshavnar kommuna, Streymoy region, 100, Faroe Islands",
        "road": "Velbastaðvegur",
        "house_number": null,
        "neighbourhood": null,
        "suburb": null,
        "city_district": null,
        "city": "Tórshavn",
        "state": null,
        "postcode": "100",
        "country": "Faroe Islands",
        "country_code": "fo"
      },
      "address": "474, Velbastaðvegur, Tórshavn, Tórshavnar kommuna, Streymoy region, 100, Faroe Islands"
    },
    {
      "lat": 62.001121085980955,
      "lon": -6.819541997293935,
      "geoinfo": {
        "display_name": "25, Skemmingsgøta, Norðasta Horn, Tórshavn, Tórshavnar kommuna, Streymoy region, 100, Faroe Islands",
        "road": "Skemmingsgøta",
        "house_number": "25",
        "neighbourhood": null,
        "suburb": null,
        "city_district": null,
        "city": "Tórshavn",
        "state": null,
        "postcode": "100",
        "country": "Faroe Islands",
        "country_code": "fo"
      },
      "address": "25, Skemmingsgøta, Norðasta Horn, Tórshavn, Tórshavnar kommuna, Streymoy region, 100, Faroe Islands"
    },
    {
      "lat": 62.00354865782734,
      "lon": -6.777334649808611,
      "geoinfo": {
        "display_name": "Á Frælsinum Cycle Path, Tinganes, Tórshavn, Tórshavnar kommuna, Streymoy region, 100, Faroe Islands",
        "road": "Á Frælsinum Cycle Path",
        "house_number": null,
        "neighbourhood": null,
        "suburb": null,
        "city_district": null,
        "city": "Tórshavn",
        "state": null,
        "postcode": "100",
        "country": "Faroe Islands",
        "country_code": "fo"
      },
      "address": "164, Á Frælsinum Cycle Path, Tinganes, Tórshavn, Tórshavnar kommuna, Streymoy region, 100, Faroe Islands"
    },
    {
      "lat": 62.0096532010837,
      "lon": -6.855006469801585,
      "geoinfo": {
        "display_name": "Liasarvegur, Tórshavn, Tórshavnar kommuna, Streymoy region, 100, Faroe Islands",
        "road": "Liasarvegur",
        "house_number": null,
        "neighbourhood": null,
        "suburb": null,
        "city_district": null,
        "city": "Tórshavn",
        "state": null,
        "postcode": "100",
        "country": "Faroe Islands",
        "country_code": "fo"
      },
      "address": "170, Liasarvegur, Tórshavn, Tórshavnar kommuna, Streymoy region, 100, Faroe Islands"
    },
    {
      "lat": 61.98637643375114,
      "lon": -6.852006058728716,
      "geoinfo": {
        "display_name": "Velbastaðvegur, Á Stórheyggi, Velbastaður, Tórshavnar kommuna, Streymoy region, 176, Faroe Islands",
        "road": "Velbastaðvegur",
        "house_number": null,
        "neighbourhood": "Á Stórheyggi",
        "suburb": null,
        "city_district": null,
        "city": "Velbastaður",
        "state": null,
        "postcode": "176",
        "country": "Faroe Islands",
        "country_code": "fo"
      },
      "address": "580, Velbastaðvegur, 176 Tórshavn, Faroe Islands"
    },
    {
      "lat": 62.00867786585173,
      "lon": -6.807290338068502,
      "geoinfo": {
        "display_name": "Havnarvegur, Tórshavn, Tórshavnar kommuna, Streymoy region, 100, Faroe Islands",
        "road": "Havnarvegur",
        "house_number": null,
        "neighbourhood": null,
        "suburb": null,
        "city_district": null,
        "city": "Tórshavn",
        "state": null,
        "postcode": "100",
        "country": "Faroe Islands",
        "country_code": "fo"
      },
      "address": "314, Havnarvegur, Tórshavn, Tórshavnar kommuna, Streymoy region, 100, Faroe Islands"
    },
    {
      "lat": 61.98350381609837,
      "lon": -6.763080030327608,
      "geoinfo": {
        "display_name": "Glyvursvegur, Argir, Kirkjubøur, Tórshavnar kommuna, Streymoy region, 160, Faroe Islands",
        "road": "Glyvursvegur",
        "house_number": null,
        "neighbourhood": null,
        "suburb": null,
        "city_district": null,
        "city": "Argir",
        "state": null,
        "postcode": "160",
        "country": "Faroe Islands",
        "country_code": "fo"
      },
      "address": "309, Glyvursvegur, 160 Tórshavn, Faroe Islands"
    },
    {
      "lat": 61.97654362676264,
      "lon": -6.745258924338469,
      "geoinfo": {
        "display_name": "Glyvursvegur, Argir, Kirkjubøur, Tórshavnar kommuna, Streymoy region, 160, Faroe Islands",
        "road": "Glyvursvegur",
        "house_number": null,
        "neighbourhood": null,
        "suburb": null,
        "city_district": null,
        "city": "Argir",
        "state": null,
        "postcode": "160",
        "country": "Faroe Islands",
        "country_code": "fo"
      },
      "address": "027, Glyvursvegur, 160 Tórshavn, Faroe Islands"
    },
    {
      "lat": 61.995613909509515,
      "lon": -6.830575911690538,
      "geoinfo": {
        "display_name": "Tórshavn, Tórshavnar kommuna, Streymoy region, 100, Faroe Islands",
        "road": null,
        "house_number": null,
        "neighbourhood": null,
        "suburb": null,
        "city_district": null,
        "city": "Tórshavn",
        "state": null,
        "postcode": "100",
        "country": "Faroe Islands",
        "country_code": "fo"
      },
      "address": "988, Tórshavn, Tórshavnar kommuna, Streymoy region, 100, Faroe Islands"
    },
    {
      "lat": 62.02840995182354,
      "lon": -6.826956416528683,
      "geoinfo": {
        "display_name": "Tórshavn, Tórshavnar kommuna, Streymoy region, 100, Faroe Islands",
        "road": null,
        "house_number": null,
        "neighbourhood": null,
        "suburb": null,
        "city_district": null,
        "city": "Tórshavn",
        "state": null,
        "postcode": "100",
        "country": "Faroe Islands",
        "country_code": "fo"
      },
      "address": "046, Tórshavn, Tórshavnar kommuna, Streymoy region, 100, Faroe Islands"
    },
    {
      "lat": 62.042023654043255,
      "lon": -6.778473533716823,
      "geoinfo": {
        "display_name": "Hvítanesvegur, Uppi í Bygd, Hvítanes, Hoyvík, Tórshavnar kommuna, Streymoy region, 188, Faroe Islands",
        "road": "Hvítanesvegur",
        "house_number": null,
        "neighbourhood": "Uppi í Bygd",
        "suburb": null,
        "city_district": null,
        "city": "Hvítanes",
        "state": null,
        "postcode": "188",
        "country": "Faroe Islands",
        "country_code": "fo"
      },
      "address": "518, Hvítanesvegur, 188 Tórshavn, Faroe Islands"
    },
    {
      "lat": 61.99798400897719,
      "lon": -6.8119272380280975,
      "geoinfo": {
        "display_name": "Tórshavn, Tórshavnar kommuna, Streymoy region, 100, Faroe Islands",
        "road": null,
        "house_number": null,
        "neighbourhood": null,
        "suburb": null,
        "city_district": null,
        "city": "Tórshavn",
        "state": null,
        "postcode": "100",
        "country": "Faroe Islands",
        "country_code": "fo"
      },
      "address": "669, Tórshavn, Tórshavnar kommuna, Streymoy region, 100, Faroe Islands"
    },
    {
      "lat": 62.0156243044771,
      "lon": -6.780414218342311,
      "geoinfo": {
        "display_name": "12, Mariugøta, Tinganes, Tórshavn, Tórshavnar kommuna, Streymoy region, 100, Faroe Islands",
        "road": "Mariugøta",
        "house_number": "12",
        "neighbourhood": null,
        "suburb": null,
        "city_district": null,
        "city": "Tórshavn",
        "state": null,
        "postcode": "100",
        "country": "Faroe Islands",
        "country_code": "fo"
      },
      "address": "12, Mariugøta, Tinganes, Tórshavn, Tórshavnar kommuna, Streymoy region, 100, Faroe Islands"
    },
    {
      "lat": 62.00891104115004,
      "lon": -6.797796507932355,
      "geoinfo": {
        "display_name": "19, Í Svanga, Tórshavn, Tórshavnar kommuna, Streymoy region, 100, Faroe Islands",
        "road": "Í Svanga",
        "house_number": "19",
        "neighbourhood": null,
        "suburb": null,
        "city_district": null,
        "city": "Tórshavn",
        "state": null,
        "postcode": "100",
        "country": "Faroe Islands",
        "country_code": "fo"
      },
      "address": "19, Í Svanga, Tórshavn, Tórshavnar kommuna, Streymoy region, 100, Faroe Islands"
    },
    {
      "lat": 62.00309821305711,
      "lon": -6.799746929878071,
      "geoinfo": {
        "display_name": "98, Landavegur, Tórshavn, Tórshavnar kommuna, Streymoy region, 100, Faroe Islands",
        "road": "Landavegur",
        "house_number": "98",
        "neighbourhood": null,
        "suburb": null,
        "city_district": null,
        "city": "Tórshavn",
        "state": null,
        "postcode": "100",
        "country": "Faroe Islands",
        "country_code": "fo"
      },
      "address": "98, Landavegur, Tórshavn, Tórshavnar kommuna, Streymoy region, 100, Faroe Islands"
    },
    {
      "lat": 62.02342333114008,
      "lon": -6.779810957025338,
      "geoinfo": {
        "display_name": "4, Undir Svartafossi, Tórshavn, Tórshavnar kommuna, Streymoy region, 100, Faroe Islands",
        "road": "Undir Svartafossi",
        "house_number": "4",
        "neighbourhood": null,
        "suburb": null,
        "city_district": null,
        "city": "Tórshavn",
        "state": null,
        "postcode": "100",
        "country": "Faroe Islands",
        "country_code": "fo"
      },
      "address": "4, Undir Svartafossi, Tórshavn, Tórshavnar kommuna, Streymoy region, 100, Faroe Islands"
    },
    {
      "lat": 62.00177548394841,
      "lon": -6.755425956742555,
      "geoinfo": {
        "display_name": "Grønidammur, Tórshavn, Tórshavnar kommuna, Streymoy region, 100, Faroe Islands",
        "road": null,
        "house_number": null,
        "neighbourhood": null,
        "suburb": null,
        "city_district": null,
        "city": "Tórshavn",
        "state": null,
        "postcode": "100",
        "country": "Faroe Islands",
        "country_code": "fo"
      },
      "address": "532, Grønidammur, Tórshavn, Tórshavnar kommuna, Streymoy region, 100, Faroe Islands"
    },
    {
      "lat": 62.0083183854969,
      "lon": -6.782333808479848,
      "geoinfo": {
        "display_name": "5, Grønlandsvegur, Tinganes, Tórshavn, Tórshavnar kommuna, Streymoy region, 100, Faroe Islands",
        "road": "Grønlandsvegur",
        "house_number": "5",
        "neighbourhood": null,
        "suburb": null,
        "city_district": null,
        "city": "Tórshavn",
        "state": null,
        "postcode": "100",
        "country": "Faroe Islands",
        "country_code": "fo"
      },
      "address": "5, Grønlandsvegur, Tinganes, Tórshavn, Tórshavnar kommuna, Streymoy region, 100, Faroe Islands"
    },
    {
      "lat": 62.015779779253364,
      "lon": -6.816180193178494,
      "geoinfo": {
        "display_name": "Oyggjarvegur, Tórshavn, Tórshavnar kommuna, Streymoy region, 100, Faroe Islands",
        "road": "Oyggjarvegur",
        "house_number": null,
        "neighbourhood": null,
        "suburb": null,
        "city_district": null,
        "city": "Tórshavn",
        "state": null,
        "postcode": "100",
        "country": "Faroe Islands",
        "country_code": "fo"
      },
      "address": "211, Oyggjarvegur, Tórshavn, Tórshavnar kommuna, Streymoy region, 100, Faroe Islands"
    },
    {
      "lat": 62.0157605457,
      "lon": -6.861279504408938,
      "geoinfo": {
        "display_name": "93, Liasarvegur, Tórshavn, Tórshavnar kommuna, Streymoy region, 100, Faroe Islands",
        "road": "Liasarvegur",
        "house_number": "93",
        "neighbourhood": null,
        "suburb": null,
        "city_district": null,
        "city": "Tórshavn",
        "state": null,
        "postcode": "100",
        "country": "Faroe Islands",
        "country_code": "fo"
      },
      "address": "93, Liasarvegur, Tórshavn, Tórshavnar kommuna, Streymoy region, 100, Faroe Islands"
    },
    {
      "lat": 62.003740527030764,
      "lon": -6.80458011658676,
      "geoinfo": {
        "display_name": "4, Grásteinsgøta, Tórshavn, Tórshavnar kommuna, Streymoy region, 100, Faroe Islands",
        "road": "Grásteinsgøta",
        "house_number": "4",
        "neighbourhood": null,
        "suburb": null,
        "city_district": null,
        "city": "Tórshavn",
        "state": null,
        "postcode": "100",
        "country": "Faroe Islands",
        "country_code": "fo"
      },
      "address": "4, Grásteinsgøta, Tórshavn, Tórshavnar kommuna, Streymoy region, 100, Faroe Islands"
    },
    {
      "lat": 61.981007824141805,
      "lon": -6.763991406926086,
      "geoinfo": {
        "display_name": "Glyvursvegur, Argir, Kirkjubøur, Tórshavnar kommuna, Streymoy region, 160, Faroe Islands",
        "road": "Glyvursvegur",
        "house_number": null,
        "neighbourhood": null,
        "suburb": null,
        "city_district": null,
        "city": "Argir",
        "state": null,
        "postcode": "160",
        "country": "Faroe Islands",
        "country_code": "fo"
      },
      "address": "961, Glyvursvegur, 160 Tórshavn, Faroe Islands"
    },
    {
      "lat": 62.04386336761508,
      "lon": -6.802410637321172,
      "geoinfo": {
        "display_name": "Havnarvegur, Sandvíkahjalli, Hoyvík, Tórshavnar kommuna, Streymoy region, 188, Faroe Islands",
        "road": "Havnarvegur",
        "house_number": null,
        "neighbourhood": "Sandvíkahjalli",
        "suburb": null,
        "city_district": null,
        "city": "Hoyvík",
        "state": null,
        "postcode": "188",
        "country": "Faroe Islands",
        "country_code": "fo"
      },
      "address": "121, Havnarvegur, 188 Tórshavn, Faroe Islands"
    },
    {
      "lat": 62.02107699707656,
      "lon": -6.800317515477534,
      "geoinfo": {
        "display_name": "Húsareynstunnilin, Tórshavn, Tórshavnar kommuna, Streymoy region, 100, Faroe Islands",
        "road": "Húsareynstunnilin",
        "house_number": null,
        "neighbourhood": null,
        "suburb": null,
        "city_district": null,
        "city": "Tórshavn",
        "state": null,
        "postcode": "100",
        "country": "Faroe Islands",
        "country_code": "fo"
      },
      "address": "851, Húsareynstunnilin, Tórshavn, Tórshavnar kommuna, Streymoy region, 100, Faroe Islands"
    },
    {
      "lat": 62.01874563747247,
      "lon": -6.782073111191912,
      "geoinfo": {
        "display_name": "Oman Viðarlund, Tórshavn, Tórshavnar kommuna, Streymoy region, 100, Faroe Islands",
        "road": "Oman Viðarlund",
        "house_number": null,
        "neighbourhood": null,
        "suburb": null,
        "city_district": null,
        "city": "Tórshavn",
        "state": null,
        "postcode": "100",
        "country": "Faroe Islands",
        "country_code": "fo"
      },
      "address": "793, Oman Viðarlund, Tórshavn, Tórshavnar kommuna, Streymoy region, 100, Faroe Islands"
    },
    {
      "lat": 62.00828505110208,
      "lon": -6.783756455795717,
      "geoinfo": {
        "display_name": "60, Jóannesar Paturssonar gøta, Tinganes, Tórshavn, Tórshavnar kommuna, Streymoy region, 100, Faroe Islands",
        "road": "Jóannesar Paturssonar gøta",
        "house_number": "60",
        "neighbourhood": null,
        "suburb": null,
        "city_district": null,
        "city": "Tórshavn",
        "state": null,
        "postcode": "100",
        "country": "Faroe Islands",
        "country_code": "fo"
      },
      "address": "60, Jóannesar Paturssonar gøta, Tinganes, Tórshavn, Tórshavnar kommuna, Streymoy region, 100, Faroe Islands"
    },
    {
      "lat": 62.011549245661016,
      "lon": -6.758025375024043,
      "geoinfo": {
        "display_name": "Yviri við Strond, Tinganes, Tórshavn, Tórshavnar kommuna, Streymoy region, 100, Faroe Islands",
        "road": "Yviri við Strond",
        "house_number": null,
        "neighbourhood": null,
        "suburb": null,
        "city_district": null,
        "city": "Tórshavn",
        "state": null,
        "postcode": "100",
        "country": "Faroe Islands",
        "country_code": "fo"
      },
      "address": "102, Yviri við Strond, Tinganes, Tórshavn, Tórshavnar kommuna, Streymoy region, 100, Faroe Islands"
    },
    {
      "lat": 62.032192075297516,
      "lon": -6.793199886515018,
      "geoinfo": {
        "display_name": "Flatarvegur, Hvítanes, Hoyvík, Tórshavnar kommuna, Streymoy region, 188, Faroe Islands",
        "road": "Flatarvegur",
        "house_number": null,
        "neighbourhood": null,
        "suburb": null,
        "city_district": null,
        "city": "Hvítanes",
        "state": null,
        "postcode": "188",
        "country": "Faroe Islands",
        "country_code": "fo"
      },
      "address": "100, Flatarvegur, 188 Tórshavn, Faroe Islands"
    },
    {
      "lat": 62.024359591595214,
      "lon": -6.761188154965535,
      "geoinfo": {
        "display_name": "Yviri við Strond, Tinganes, Tórshavn, Tórshavnar kommuna, Streymoy region, 100, Faroe Islands",
        "road": "Yviri við Strond",
        "house_number": null,
        "neighbourhood": null,
        "suburb": null,
        "city_district": null,
        "city": "Tórshavn",
        "state": null,
        "postcode": "100",
        "country": "Faroe Islands",
        "country_code": "fo"
      },
      "address": "748, Yviri við Strond, Tinganes, Tórshavn, Tórshavnar kommuna, Streymoy region, 100, Faroe Islands"
    },
    {
      "lat": 62.04451262281235,
      "lon": -6.786562256422428,
      "geoinfo": {
        "display_name": "Havnarvegur, Sandvíkahjalli, Hvítanes, Hoyvík, Tórshavnar kommuna, Streymoy region, 188, Faroe Islands",
        "road": "Havnarvegur",
        "house_number": null,
        "neighbourhood": "Sandvíkahjalli",
        "suburb": null,
        "city_district": null,
        "city": "Hvítanes",
        "state": null,
        "postcode": "188",
        "country": "Faroe Islands",
        "country_code": "fo"
      },
      "address": "308, Havnarvegur, 188 Tórshavn, Faroe Islands"
    },
    {
      "lat": 62.02349660850447,
      "lon": -6.760218024394803,
      "geoinfo": {
        "display_name": "Yviri við Strond, Tinganes, Tórshavn, Tórshavnar kommuna, Streymoy region, 100, Faroe Islands",
        "road": "Yviri við Strond",
        "house_number": null,
        "neighbourhood": null,
        "suburb": null,
        "city_district": null,
        "city": "Tórshavn",
        "state": null,
        "postcode": "100",
        "country": "Faroe Islands",
        "country_code": "fo"
      },
      "address": "261, Yviri við Strond, Tinganes, Tórshavn, Tórshavnar kommuna, Streymoy region, 100, Faroe Islands"
    },
    {
      "lat": 61.980109726406944,
      "lon": -6.758210152022367,
      "geoinfo": {
        "display_name": "Glyvursvegur, Argir, Kirkjubøur, Tórshavnar kommuna, Streymoy region, 160, Faroe Islands",
        "road": "Glyvursvegur",
        "house_number": null,
        "neighbourhood": null,
        "suburb": null,
        "city_district": null,
        "city": "Argir",
        "state": null,
        "postcode": "160",
        "country": "Faroe Islands",
        "country_code": "fo"
      },
      "address": "244, Glyvursvegur, 160 Tórshavn, Faroe Islands"
    },
    {
      "lat": 62.01164956052187,
      "lon": -6.835778949442829,
      "geoinfo": {
        "display_name": "Liasarvegur, Tórshavn, Tórshavnar kommuna, Streymoy region, 100, Faroe Islands",
        "road": "Liasarvegur",
        "house_number": null,
        "neighbourhood": null,
        "suburb": null,
        "city_district": null,
        "city": "Tórshavn",
        "state": null,
        "postcode": "100",
        "country": "Faroe Islands",
        "country_code": "fo"
      },
      "address": "154, Liasarvegur, Tórshavn, Tórshavnar kommuna, Streymoy region, 100, Faroe Islands"
    }
  ],
  "updated_at": "2025-10-19T04:13:03.825258+00:00",
  "_kind": "geo_samples"
}