{
  "country_code": "PR",
  "country": "Puerto Rico",
  "city": "Carolina",
  "geonameid": 4563243,
  "target_addresses": 5,
  "samples": [
    {
      "lat": 18.347291268653148,
      "lon": -65.93168427236608,
      "geoinfo": {
        "display_name": "Santa Cruz, Carolina, Puerto Rico, 00987, United States",
        "road": null,
        "house_number": null,
        "neighbourhood": null,
        "suburb": "Santa Cruz",
        "city_district": "Santa Cruz",
        "city": "Carolina",
        "state": "Puerto Rico",
        "postcode": "00987",
        "country": "United States",
        "country_code": "us"
      },
      "address": "Santa Cruz, Carolina, Puerto Rico, Puerto Rico"
    },
    {
      "lat": 18.386657337800344,
      "lon": -65.91681461635555,
      "geoinfo": {
        "display_name": "Calle 1, Sector Villa Borinquen, Torrecilla Alta, Canóvanas, Puerto Rico, 00760, United States",
        "road": "Calle 1",
        "house_number": null,
        "neighbourhood": "Sector Villa Borinquen",
        "suburb": "Torrecilla Alta",
        "city_district": "Torrecilla Alta",
        "city": "Canóvanas",
        "state": "Puerto Rico",
        "postcode": "00760",
        "country": "United States",
        "country_code": "us"
      },
      "address": "Calle 1, Carolina, Puerto Rico, Puerto Rico"
    },
    {
      "lat": 18.420797767582947,
      "lon": -65.96578732076242,
      "geoinfo": {
        "display_name": "Hoyo Mulas, Carolina, Puerto Rico, 00982, United States",
        "road": null,
        "house_number": null,
        "neighbourhood": null,
        "suburb": null,
        "city_district": "Hoyo Mulas",
        "city": "Carolina",
        "state": "Puerto Rico",
        "postcode": "00982",
        "country": "United States",
        "country_code": "us"
      },
      "address": "Hoyo Mulas, Carolina, Puerto Rico, Puerto Rico"
    },
    {
      "lat": 18.393941436738203,
      "lon": -65.95965616315799,
      "geoinfo": {
        "display_name": "Complejo Deportivo Wenceslao Rodríguez Estrella, Calle Eloy Hernández / Calle 24, Urbanización Villa Carolina 3ra Sección, Hoyo Mulas, Carolina, Puerto Rico, 00985, United States",
        "road": "Calle Eloy Hernández / Calle 24",
        "house_number": null,
        "neighbourhood": "Urbanización Villa Carolina 3ra Sección",
        "suburb": null,
        "city_district": "Hoyo Mulas",
        "city": "Carolina",
        "state": "Puerto Rico",
        "postcode": "00985",
        "country": "United States",
        "country_code": "us"
      },
      "address": "Calle Eloy Hernández / Calle 24, Carolina, Puerto Rico, Puerto Rico"
    },
    {
      "lat": 18.407926532735097,
      "lon": -65.95261342969032,
      "geoinfo": {
        "display_name": "Avenida Paseo de los Gigantes / Avenida Monserrate, Buena Vista, Hoyo Mulas, Carolina, Puerto Rico, 00985, United States",
        "road": "Avenida Paseo de los Gigantes / Avenida Monserrate",
        "house_number": null,
        "neighbourhood": "Buena Vista",
        "suburb": "Hoyo Mulas",
        "city_district": "Hoyo Mulas",
        "city": "Carolina",
        "state": "Puerto Rico",
        "postcode": "00985",
        "country": "United States",
        "country_code": "us"
      },
      "address": "Avenida Paseo de los Gigantes / Avenida Monserrate, Carolina, Puerto Rico, Puerto Rico"
    },
    {
      "lat": 18.34870210845752,
      "lon": -65.96665465224622,
      "geoinfo": {
        "display_name": "15532, Carretera Simón \"Monsín\" Rivera Llanos, Sector Vista Cacao, Estancia Seysa, Cacao, Carolina, Puerto Rico, 00987, United States",
        "road": "Carretera Simón \"Monsín\" Rivera Llanos",
        "house_number": "15532",
        "neighbourhood": "Sector Vista Cacao",
        "suburb": null,
        "city_district": "Cacao",
        "city": "Carolina",
        "state": "Puerto Rico",
        "postcode": "00987",
        "country": "United States",
        "country_code": "us"
      },
      "address": "15532, Carretera Simón \"Monsín\" Rivera Llanos, Sector Vista Cacao, Estancia Seysa, Cacao, Carolina, Puerto Rico, 00987, United States"
    },
    {
      "lat": 18.368354632352045,
      "lon": -65.97072664454652,
      "geoinfo": {
        "display_name": "Desvío Los Parceleros, Sector Campeche, Sector Los Flores, Martín González, Carolina, Puerto Rico, 00987, United States",
        "road": "Desvío Los Parceleros",
        "house_number": null,
        "neighbourhood": "Sector Campeche",
        "suburb": null,
        "city_district": "Martín González",
        "city": "Carolina",
        "state": "Puerto Rico",
        "postcode": "00987",
        "country": "United States",
        "country_code": "us"
      },
      "address": "780, Desvío Los Parceleros, Sector Campeche, Sector Los Flores, Martín González, Carolina, Puerto Rico, 00987, United States"
    },
    {
      "lat": 18.3686457302219,
      "lon": -65.93460536858773,
      "geoinfo": {
        "display_name": "275, Calle Margarita, Buenaventura, Trujillo Bajo, Carolina, Puerto Rico, 00987, United States",
        "road": "Calle Margarita",
        "house_number": "275",
        "neighbourhood": "Buenaventura",
        "suburb": null,
        "city_district": "Trujillo Bajo",
        "city": "Carolina",
        "state": "Puerto Rico",
        "postcode": "00987",
        "country": "United States",
        "country_code": "us"
      },
      "address": "275, Calle Margarita, Buenaventura, Trujillo Bajo, Carolina, Puerto Rico, 00987, United States"
    },
    {
      "lat": 18.399292175358106,
      "lon": -65.94394827965633,
      "geoinfo": {
        "display_name": "Carretera Hoyo Mulas - Torrecilla Alta, Buena Vista, Hoyo Mulas, Carolina, Puerto Rico, 00985, United States",
        "road": "Carretera Hoyo Mulas - Torrecilla Alta",
        "house_number": null,
        "neighbourhood": "Buena Vista",
        "suburb": "Hoyo Mulas",
        "city_district": "Hoyo Mulas",
        "city": "Carolina",
        "state": "Puerto Rico",
        "postcode": "00985",
        "country": "United States",
        "country_code": "us"
      },
      "address": "723, Carretera Hoyo Mulas - Torrecilla Alta, Buena Vista, Hoyo Mulas, Carolina, Puerto Rico, 00985, United States"
    },
    {
      "lat": 18.401104390498023,
      "lon": -65.99605006989371,
      "geoinfo": {
        "display_name": "800, Calle José E. Brisson, Urbanización Country Club, Sabana Llana Norte, Río Piedras, San Juan, Puerto Rico, 00924, United States",
        "road": "Calle José E. Brisson",
        "house_number": "800",
        "neighbourhood": "Urbanización Country Club",
        "suburb": null,
        "city_district": "Sabana Llana Norte",
        "city": "Río Piedras",
        "state": "Puerto Rico",
        "postcode": "00924",
        "country": "United States",
        "country_code": "us"
      },
      "address": "800, Calle José E. Brisson, Urbanización Country Club, Sabana Llana Norte, Río Piedras, San Juan, Puerto Rico, 00924, United States"
    }
  ],
  "updated_at": "2025-10-19T04:23:33.081710+00:00",
  "_kind": "geo_samples"
}