{
  "country_code": "PR",
  "country": "Puerto Rico",
  "city": "Cayey",
  "geonameid": 4563308,
  "target_addresses": 5,
  "samples": [
    {
      "lat": 18.143027472779817,
      "lon": -66.1443888417307,
      "geoinfo": {
        "display_name": "74, Calle Orquídea, Comunidad Campo Bello, Rincón, Cidra, Puerto Rico, 00739, United States",
        "road": "Calle Orquídea",
        "house_number": "74",
        "neighbourhood": null,
        "suburb": null,
        "city_district": "Rincón",
        "city": null,
        "state": "Puerto Rico",
        "postcode": "00739",
        "country": "United States",
        "country_code": "us"
      },
      "address": "74 Calle Orquídea, Cayey, Puerto Rico, Puerto Rico"
    },
    {
      "lat": 18.129571324128026,
      "lon": -66.14723197850098,
      "geoinfo": {
        "display_name": "154, Calle Alameda, Comunidad La Loma, Rincón, Cayey, Puerto Rico, 00736, United States",
        "road": "Calle Alameda",
        "house_number": "154",
        "neighbourhood": null,
        "suburb": null,
        "city_district": "Rincón",
        "city": "Cayey",
        "state": "Puerto Rico",
        "postcode": "00736",
        "country": "United States",
        "country_code": "us"
      },
      "address": "154 Calle Alameda, Cayey, Puerto Rico, Puerto Rico"
    },
    {
      "lat": 18.08942166448596,
      "lon": -66.19732482292636,
      "geoinfo": {
        "display_name": "Autopista Luis A. Ferré, Lapa, Cayey, Puerto Rico, 00736, United States",
        "road": "Autopista Luis A. Ferré",
        "house_number": null,
        "neighbourhood": null,
        "suburb": "Lapa",
        "city_district": "Lapa",
        "city": null,
        "state": "Puerto Rico",
        "postcode": "00736",
        "country": "United States",
        "country_code": "us"
      },
      "address": "Autopista Luis A. Ferré, Cayey, Puerto Rico, Puerto Rico"
    },
    {
      "lat": 18.108251425209396,
      "lon": -66.13383375942128,
      "geoinfo": {
        "display_name": "Calle A, Alturas del Prado, Cedro, Cayey, Puerto Rico, 00736, United States",
        "road": "Calle A",
        "house_number": null,
        "neighbourhood": null,
        "suburb": null,
        "city_district": "Cedro",
        "city": null,
        "state": "Puerto Rico",
        "postcode": "00736",
        "country": "United States",
        "country_code": "us"
      },
      "address": "Calle A, Cayey, Puerto Rico, Puerto Rico"
    },
    {
      "lat": 18.14656379407059,
      "lon": -66.18176846487864,
      "geoinfo": {
        "display_name": "Comunidad Capilla, Toíta, Cidra, Puerto Rico, 00736, United States",
        "road": null,
        "house_number": null,
        "neighbourhood": null,
        "suburb": null,
        "city_district": "Toíta",
        "city": null,
        "state": "Puerto Rico",
        "postcode": "00736",
        "country": "United States",
        "country_code": "us"
      },
      "address": "Toíta, Cayey, Puerto Rico, Puerto Rico"
    },
    {
      "lat": 18.081116304977034,
      "lon": -66.16338418225584,
      "geoinfo": {
        "display_name": "Ruta Panorámica Luis Muñoz Marín, Sector Lorenzo Vega, Sumido, Cayey, Puerto Rico, 00736, United States",
        "road": "Ruta Panorámica Luis Muñoz Marín",
        "house_number": null,
        "neighbourhood": null,
        "suburb": null,
        "city_district": "Sumido",
        "city": "Cayey",
        "state": "Puerto Rico",
        "postcode": "00736",
        "country": "United States",
        "country_code": "us"
      },
      "address": "635, Ruta Panorámica Luis Muñoz Marín, Sector Lorenzo Vega, Sumido, Cayey, Puerto Rico, 00736, United States"
    },
    {
      "lat": 18.131135838907774,
      "lon": -66.20640911002049,
      "geoinfo": {
        "display_name": "Sector Rivera, Matón Abajo, Cayey, Puerto Rico, 00634, United States",
        "road": null,
        "house_number": null,
        "neighbourhood": null,
        "suburb": null,
        "city_district": "Matón Abajo",
        "city": null,
        "state": "Puerto Rico",
        "postcode": "00634",
        "country": "United States",
        "country_code": "us"
      },
      "address": "045, Sector Rivera, Matón Abajo, Cayey, Puerto Rico, 00634, United States"
    },
    {
      "lat": 18.094636354877206,
      "lon": -66.16337833383426,
      "geoinfo": {
        "display_name": "Calle Ramón Monche Hernández, Sector Gorrito, Quebrada Arriba, Cayey, Puerto Rico, 00736, United States",
        "road": "Calle Ramón Monche Hernández",
        "house_number": null,
        "neighbourhood": null,
        "suburb": null,
        "city_district": "Quebrada Arriba",
        "city": "Cayey",
        "state": "Puerto Rico",
        "postcode": "00736",
        "country": "United States",
        "country_code": "us"
      },
      "address": "302, Calle Ramón Monche Hernández, Sector Gorrito, Quebrada Arriba, Cayey, Puerto Rico, 00736, United States"
    },
    {
      "lat": 18.11301557839927,
      "lon": -66.16845103867097,
      "geoinfo": {
        "display_name": "El Coquí, Comunidad Carrasquillo, Barrio Pueblo, Cayey, Puerto Rico, 00736, United States",
        "road": null,
        "house_number": null,
        "neighbourhood": "El Coquí",
        "suburb": null,
        "city_district": "Barrio Pueblo",
        "city": "Cayey",
        "state": "Puerto Rico",
        "postcode": "00736",
        "country": "United States",
        "country_code": "us"
      },
      "address": "674, El Coquí, Cayey, 00736 Puerto Rico, Puerto Rico"
    },
    {
      "lat": 18.1343074520603,
      "lon": -66.2018449563396,
      "geoinfo": {
        "display_name": "Calle 2, Parcelas Nuevas de Toíta, Toíta, Cayey, Puerto Rico, United States",
        "road": "Calle 2",
        "house_number": null,
        "neighbourhood": null,
        "suburb": null,
        "city_district": "Toíta",
        "city": null,
        "state": "Puerto Rico",
        "postcode": null,
        "country": "United States",
        "country_code": "us"
      },
      "address": "Calle 2, Parcelas Nuevas de Toíta, Toíta, Cayey, 23367 Puerto Rico, United States"
    }
  ],
  "updated_at": "2025-10-19T06:13:39.334213+00:00",
  "_kind": "geo_samples"
}