{
  "country_code": "PR",
  "country": "Puerto Rico",
  "city": "Fajardo",
  "geonameid": 4564946,
  "target_addresses": 5,
  "samples": [
    {
      "lat": 18.310892954959943,
      "lon": -65.61683389375709,
      "geoinfo": {
        "display_name": "Quebrada Vueltas, Fajardo, Puerto Rico, 00740, United States",
        "road": null,
        "house_number": null,
        "neighbourhood": null,
        "suburb": "Quebrada Vueltas",
        "city_district": "Quebrada Vueltas",
        "city": null,
        "state": "Puerto Rico",
        "postcode": "00740",
        "country": "United States",
        "country_code": "us"
      },
      "address": "Quebrada Vueltas, Fajardo, Puerto Rico, Puerto Rico"
    },
    {
      "lat": 18.35227641087607,
      "lon": -65.61969966187172,
      "geoinfo": {
        "display_name": "Las Croabas, Cabezas, Fajardo, Puerto Rico, 00740, United States",
        "road": null,
        "house_number": null,
        "neighbourhood": null,
        "suburb": null,
        "city_district": "Cabezas",
        "city": null,
        "state": "Puerto Rico",
        "postcode": "00740",
        "country": "United States",
        "country_code": "us"
      },
      "address": "Cabezas, Fajardo, Puerto Rico, Puerto Rico"
    },
    {
      "lat": 18.344843638375103,
      "lon": -65.66252892025204,
      "geoinfo": {
        "display_name": "53, Calle Ceiba, Monte Brisas 5, Quebrada Fajardo, Fajardo, Puerto Rico, 00738, United States",
        "road": "Calle Ceiba",
        "house_number": "53",
        "neighbourhood": "Monte Brisas 5",
        "suburb": "Quebrada Fajardo",
        "city_district": "Quebrada Fajardo",
        "city": null,
        "state": "Puerto Rico",
        "postcode": "00738",
        "country": "United States",
        "country_code": "us"
      },
      "address": "53 Calle Ceiba, Fajardo, Puerto Rico, Puerto Rico"
    },
    {
      "lat": 18.359105242148868,
      "lon": -65.6346548472547,
      "geoinfo": {
        "display_name": "Arthur Hills Golf Course, Carretera Cabezas de San Juan, Soroco, Las Croabas, Cabezas, Fajardo, Puerto Rico, 00740, United States",
        "road": "Carretera Cabezas de San Juan",
        "house_number": null,
        "neighbourhood": "Soroco",
        "suburb": null,
        "city_district": "Cabezas",
        "city": null,
        "state": "Puerto Rico",
        "postcode": "00740",
        "country": "United States",
        "country_code": "us"
      },
      "address": "Carretera Cabezas de San Juan, Fajardo, Puerto Rico, Puerto Rico"
    },
    {
      "lat": 18.31387743391655,
      "lon": -65.6695481818325,
      "geoinfo": {
        "display_name": "Florencio, Fajardo, Puerto Rico, 00738, United States",
        "road": null,
        "house_number": null,
        "neighbourhood": null,
        "suburb": "Florencio",
        "city_district": "Florencio",
        "city": null,
        "state": "Puerto Rico",
        "postcode": "00738",
        "country": "United States",
        "country_code": "us"
      },
      "address": "Florencio, Fajardo, Puerto Rico, Puerto Rico"
    },
    {
      "lat": 18.354251240681762,
      "lon": -65.64603942381076,
      "geoinfo": {
        "display_name": "Avenida El Conquistador, Sardinera, Fajardo, Puerto Rico, 00740, United States",
        "road": "Avenida El Conquistador",
        "house_number": null,
        "neighbourhood": null,
        "suburb": "Sardinera",
        "city_district": "Sardinera",
        "city": null,
        "state": "Puerto Rico",
        "postcode": "00740",
        "country": "United States",
        "country_code": "us"
      },
      "address": "750, Avenida El Conquistador, Sardinera, Fajardo, Puerto Rico, 00740, United States"
    },
    {
      "lat": 18.309131125097696,
      "lon": -65.62253206010057,
      "geoinfo": {
        "display_name": "Luis M. Cintrón, Quebrada Vueltas, Fajardo, Puerto Rico, 00740, United States",
        "road": null,
        "house_number": null,
        "neighbourhood": "Luis M. Cintrón",
        "suburb": "Quebrada Vueltas",
        "city_district": "Quebrada Vueltas",
        "city": null,
        "state": "Puerto Rico",
        "postcode": "00740",
        "country": "United States",
        "country_code": "us"
      },
      "address": "855, Luis M. Cintrón, Quebrada Vueltas, Fajardo, Puerto Rico, 00740, United States"
    },
    {
      "lat": 18.336266039955788,
      "lon": -65.66475232507757,
      "geoinfo": {
        "display_name": "NUC University - División Técnica IBC, Avenida Regimiento 65 de Infantería, Valle Verde, Quebrada Fajardo, Barrio Pueblo, Fajardo, Puerto Rico, 00738, United States",
        "road": "Avenida Regimiento 65 de Infantería",
        "house_number": null,
        "neighbourhood": "Valle Verde",
        "suburb": null,
        "city_district": "Quebrada Fajardo",
        "city": "Barrio Pueblo",
        "state": "Puerto Rico",
        "postcode": "00738",
        "country": "United States",
        "country_code": "us"
      },
      "address": "NUC University - División Técnica IBC, Avenida Regimiento 65 de Infantería, Valle Verde, Quebrada Fajardo, Barrio Pueblo, Fajardo, Puerto Rico, 00738, United States"
    },
    {
      "lat": 18.29775273846631,
      "lon": -65.68355823313858,
      "geoinfo": {
        "display_name": "Avenida Santiago Iglesias Pantín, Barriada Roosevelt, Río Arriba, Barrio Pueblo, Fajardo, Puerto Rico, 00738, United States",
        "road": "Avenida Santiago Iglesias Pantín",
        "house_number": null,
        "neighbourhood": "Barriada Roosevelt",
        "suburb": null,
        "city_district": "Río Arriba",
        "city": "Barrio Pueblo",
        "state": "Puerto Rico",
        "postcode": "00738",
        "country": "United States",
        "country_code": "us"
      },
      "address": "456, Avenida Santiago Iglesias Pantín, Barriada Roosevelt, Río Arriba, Barrio Pueblo, Fajardo, Puerto Rico, 00738, United States"
    },
    {
      "lat": 18.307283455202327,
      "lon": -65.6119127230809,
      "geoinfo": {
        "display_name": "Demajagua, Fajardo, Puerto Rico, 00735, United States",
        "road": null,
        "house_number": null,
        "neighbourhood": null,
        "suburb": "Demajagua",
        "city_district": "Demajagua",
        "city": null,
        "state": "Puerto Rico",
        "postcode": "00735",
        "country": "United States",
        "country_code": "us"
      },
      "address": "229, Demajagua, Fajardo, Puerto Rico, 00735, United States"
    }
  ],
  "updated_at": "2025-10-19T06:34:28.273393+00:00",
  "_kind": "geo_samples"
}