{
  "country_code": "PR",
  "country": "Puerto Rico",
  "city": "Guaynabo",
  "geonameid": 4565119,
  "target_addresses": 5,
  "samples": [
    {
      "lat": 18.331084649527725,
      "lon": -66.12042414133553,
      "geoinfo": {
        "display_name": "Sector Manzano, Camarones, Guaynabo, Puerto Rico, 00970, United States",
        "road": null,
        "house_number": null,
        "neighbourhood": null,
        "suburb": null,
        "city_district": "Camarones",
        "city": null,
        "state": "Puerto Rico",
        "postcode": "00970",
        "country": "United States",
        "country_code": "us"
      },
      "address": "Camarones, Guaynabo, Puerto Rico, Puerto Rico"
    },
    {
      "lat": 18.362844658234344,
      "lon": -66.10757364652711,
      "geoinfo": {
        "display_name": "Avenida Las Cumbres, Monte Verde, Sector Meliá León, Frailes, Guaynabo, Puerto Rico, 00969, United States",
        "road": "Avenida Las Cumbres",
        "house_number": null,
        "neighbourhood": "Monte Verde",
        "suburb": null,
        "city_district": "Frailes",
        "city": "Guaynabo",
        "state": "Puerto Rico",
        "postcode": "00969",
        "country": "United States",
        "country_code": "us"
      },
      "address": "Avenida Las Cumbres, Guaynabo, Puerto Rico, Puerto Rico"
    },
    {
      "lat": 18.386832184642447,
      "lon": -66.11120679230075,
      "geoinfo": {
        "display_name": "J-4, Calle Churchill, Los Filtros, Frailes, Guaynabo, Puerto Rico, 00966, United States",
        "road": "Calle Churchill",
        "house_number": "J-4",
        "neighbourhood": null,
        "suburb": null,
        "city_district": "Frailes",
        "city": null,
        "state": "Puerto Rico",
        "postcode": "00966",
        "country": "United States",
        "country_code": "us"
      },
      "address": "J-4 Calle Churchill, Guaynabo, Puerto Rico, Puerto Rico"
    },
    {
      "lat": 18.343059334336385,
      "lon": -66.10804211201265,
      "geoinfo": {
        "display_name": "28, Calle Apama, Sector Los Apama, Camarones, Guaynabo, Puerto Rico, 00969, United States",
        "road": "Calle Apama",
        "house_number": "28",
        "neighbourhood": null,
        "suburb": null,
        "city_district": "Camarones",
        "city": "Guaynabo",
        "state": "Puerto Rico",
        "postcode": "00969",
        "country": "United States",
        "country_code": "us"
      },
      "address": "28 Calle Apama, Guaynabo, Puerto Rico, Puerto Rico"
    },
    {
      "lat": 18.332988018983663,
      "lon": -66.12708724944908,
      "geoinfo": {
        "display_name": "Santa Rosa II, Sector Los Nazarios II, Santa Rosa, Guaynabo, Puerto Rico, 00970, United States",
        "road": null,
        "house_number": null,
        "neighbourhood": null,
        "suburb": null,
        "city_district": "Santa Rosa",
        "city": "Guaynabo",
        "state": "Puerto Rico",
        "postcode": "00970",
        "country": "United States",
        "country_code": "us"
      },
      "address": "Santa Rosa, Guaynabo, Puerto Rico, Puerto Rico"
    },
    {
      "lat": 18.36329449091675,
      "lon": -66.1193596647168,
      "geoinfo": {
        "display_name": "Avenida Juan Carlos de Borbón, Monte Mayor, Sector Augusto Báez, Santa Rosa, Guaynabo, Puerto Rico, 00970, United States",
        "road": "Avenida Juan Carlos de Borbón",
        "house_number": null,
        "neighbourhood": "Monte Mayor",
        "suburb": null,
        "city_district": "Santa Rosa",
        "city": "Guaynabo",
        "state": "Puerto Rico",
        "postcode": "00970",
        "country": "United States",
        "country_code": "us"
      },
      "address": "474, Avenida Juan Carlos de Borbón, Monte Mayor, Sector Augusto Báez, Santa Rosa, Guaynabo, Puerto Rico, 00970, United States"
    },
    {
      "lat": 18.34147698034747,
      "lon": -66.14723069232058,
      "geoinfo": {
        "display_name": "239, Calle Basilio, Sector Pepe Torres, Minillas, Bayamón, Puerto Rico, 00956, United States",
        "road": "Calle Basilio",
        "house_number": "239",
        "neighbourhood": null,
        "suburb": null,
        "city_district": "Minillas",
        "city": "Bayamón",
        "state": "Puerto Rico",
        "postcode": "00956",
        "country": "United States",
        "country_code": "us"
      },
      "address": "239, Calle Basilio, Sector Pepe Torres, Minillas, Bayamón, Puerto Rico, 00956, United States"
    },
    {
      "lat": 18.36315713709863,
      "lon": -66.12332811336466,
      "geoinfo": {
        "display_name": "D-18, Calle Los Picachos, Quintas Reales, Sector Rivera, Santa Rosa, Guaynabo, Puerto Rico, 00970, United States",
        "road": "Calle Los Picachos",
        "house_number": "D-18",
        "neighbourhood": "Quintas Reales",
        "suburb": null,
        "city_district": "Santa Rosa",
        "city": "Guaynabo",
        "state": "Puerto Rico",
        "postcode": "00970",
        "country": "United States",
        "country_code": "us"
      },
      "address": "D-18, Calle Los Picachos, Quintas Reales, Sector Rivera, Santa Rosa, Guaynabo, Puerto Rico, 00970, United States"
    },
    {
      "lat": 18.37538638151365,
      "lon": -66.08599060700156,
      "geoinfo": {
        "display_name": "1903, Calle Orquídea, Urbanización Santa María, Monacillo Urbano, Río Piedras, San Juan, Puerto Rico, 00927, United States",
        "road": "Calle Orquídea",
        "house_number": "1903",
        "neighbourhood": "Urbanización Santa María",
        "suburb": "Monacillo Urbano",
        "city_district": "Monacillo Urbano",
        "city": "Río Piedras",
        "state": "Puerto Rico",
        "postcode": "00927",
        "country": "United States",
        "country_code": "us"
      },
      "address": "1903, Calle Orquídea, Urbanización Santa María, Monacillo Urbano, Río Piedras, San Juan, Puerto Rico, 00927, United States"
    },
    {
      "lat": 18.354788614189182,
      "lon": -66.15048211182751,
      "geoinfo": {
        "display_name": "N-14, Calle Hungría, Urbanización Santa Juanita, 12ma Sección, Sector Rodríguez, Minillas, Bayamón, Puerto Rico, 00956, United States",
        "road": "Calle Hungría",
        "house_number": "N-14",
        "neighbourhood": "Urbanización Santa Juanita, 12ma Sección",
        "suburb": null,
        "city_district": "Minillas",
        "city": "Bayamón",
        "state": "Puerto Rico",
        "postcode": "00956",
        "country": "United States",
        "country_code": "us"
      },
      "address": "N-14, Calle Hungría, Urbanización Santa Juanita, 12ma Sección, Sector Rodríguez, Minillas, Bayamón, Puerto Rico, 00956, United States"
    }
  ],
  "updated_at": "2025-10-19T06:41:54.589516+00:00",
  "_kind": "geo_samples"
}