{
  "country_code": "PR",
  "country": "Puerto Rico",
  "city": "Manatí",
  "geonameid": 4566137,
  "target_addresses": 5,
  "samples": [
    {
      "lat": 18.469774035662212,
      "lon": -66.47629872041733,
      "geoinfo": {
        "display_name": "MTB 7, Tierras Nuevas Saliente, Manatí, Puerto Rico, 00674, United States",
        "road": "MTB 7",
        "house_number": null,
        "neighbourhood": null,
        "suburb": null,
        "city_district": "Tierras Nuevas Saliente",
        "city": null,
        "state": "Puerto Rico",
        "postcode": "00674",
        "country": "United States",
        "country_code": "us"
      },
      "address": "MTB 7, Manatí, Puerto Rico, Puerto Rico"
    },
    {
      "lat": 18.453534578198802,
      "lon": -66.45888543706307,
      "geoinfo": {
        "display_name": "Segunda Laguna Maccutto Trail, Comunidad Piñeiro, Tierras Nuevas Saliente, Manatí, Puerto Rico, 00674, United States",
        "road": "Segunda Laguna Maccutto Trail",
        "house_number": null,
        "neighbourhood": null,
        "suburb": null,
        "city_district": "Tierras Nuevas Saliente",
        "city": null,
        "state": "Puerto Rico",
        "postcode": "00674",
        "country": "United States",
        "country_code": "us"
      },
      "address": "Segunda Laguna Maccutto Trail, Manatí, Puerto Rico, Puerto Rico"
    },
    {
      "lat": 18.39094092584339,
      "lon": -66.47948895505581,
      "geoinfo": {
        "display_name": "Río Arriba Saliente, Manatí, Puerto Rico, 00674, United States",
        "road": null,
        "house_number": null,
        "neighbourhood": null,
        "suburb": "Río Arriba Saliente",
        "city_district": "Río Arriba Saliente",
        "city": null,
        "state": "Puerto Rico",
        "postcode": "00674",
        "country": "United States",
        "country_code": "us"
      },
      "address": "Río Arriba Saliente, Manatí, Puerto Rico, Puerto Rico"
    },
    {
      "lat": 18.452131838079037,
      "lon": -66.48241085943289,
      "geoinfo": {
        "display_name": "Carretera San José, Comunidad Los Rábanos, Tierras Nuevas Saliente, Manatí, Puerto Rico, 00674, United States",
        "road": "Carretera San José",
        "house_number": null,
        "neighbourhood": null,
        "suburb": null,
        "city_district": "Tierras Nuevas Saliente",
        "city": "Manatí",
        "state": "Puerto Rico",
        "postcode": "00674",
        "country": "United States",
        "country_code": "us"
      },
      "address": "Carretera San José, Manatí, Puerto Rico, Puerto Rico"
    },
    {
      "lat": 18.415739301277185,
      "lon": -66.46418851721798,
      "geoinfo": {
        "display_name": "Barriada Polvorín, Coto Sur, Manatí, Puerto Rico, 00674, United States",
        "road": null,
        "house_number": null,
        "neighbourhood": null,
        "suburb": null,
        "city_district": "Coto Sur",
        "city": null,
        "state": "Puerto Rico",
        "postcode": "00674",
        "country": "United States",
        "country_code": "us"
      },
      "address": "Coto Sur, Manatí, Puerto Rico, Puerto Rico"
    },
    {
      "lat": 18.436037583681365,
      "lon": -66.50140317016636,
      "geoinfo": {
        "display_name": "Calle Olimpia, Bajura Afuera, Manatí, Puerto Rico, 00701, United States",
        "road": "Calle Olimpia",
        "house_number": null,
        "neighbourhood": null,
        "suburb": "Bajura Afuera",
        "city_district": "Bajura Afuera",
        "city": "Manatí",
        "state": "Puerto Rico",
        "postcode": "00701",
        "country": "United States",
        "country_code": "us"
      },
      "address": "780, Calle Olimpia, Bajura Afuera, Manatí, Puerto Rico, 00701, United States"
    },
    {
      "lat": 18.39381959320909,
      "lon": -66.46155419247904,
      "geoinfo": {
        "display_name": "Río Arriba Saliente, Manatí, Puerto Rico, 00674, United States",
        "road": null,
        "house_number": null,
        "neighbourhood": null,
        "suburb": "Río Arriba Saliente",
        "city_district": "Río Arriba Saliente",
        "city": null,
        "state": "Puerto Rico",
        "postcode": "00674",
        "country": "United States",
        "country_code": "us"
      },
      "address": "884, Río Arriba Saliente, Manatí, Puerto Rico, 00674, United States"
    },
    {
      "lat": 18.459340195160912,
      "lon": -66.49538155197686,
      "geoinfo": {
        "display_name": "Carretera 685, La Luisa, Colinas del Norte, Tierras Nuevas Poniente, Manatí, Puerto Rico, 00701, United States",
        "road": "Carretera 685",
        "house_number": null,
        "neighbourhood": null,
        "suburb": null,
        "city_district": "Tierras Nuevas Poniente",
        "city": "Manatí",
        "state": "Puerto Rico",
        "postcode": "00701",
        "country": "United States",
        "country_code": "us"
      },
      "address": "Carretera 685, La Luisa, Colinas del Norte, Tierras Nuevas Poniente, Manatí, Puerto Rico, 00701, United States"
    },
    {
      "lat": 18.39680975585604,
      "lon": -66.47401425520256,
      "geoinfo": {
        "display_name": "PR-668, Sector Pugnado, Río Arriba Saliente, Manatí, Puerto Rico, 00674, United States",
        "road": "PR-668",
        "house_number": null,
        "neighbourhood": null,
        "suburb": null,
        "city_district": "Río Arriba Saliente",
        "city": null,
        "state": "Puerto Rico",
        "postcode": "00674",
        "country": "United States",
        "country_code": "us"
      },
      "address": "PR-668, Sector Pugnado, Río Arriba Saliente, Manatí, Puerto Rico, 00674, United States"
    },
    {
      "lat": 18.455808103131638,
      "lon": -66.48573513302149,
      "geoinfo": {
        "display_name": "49, Calle México, Comunidad Los Rábanos, Tierras Nuevas Saliente, Manatí, Puerto Rico, 00674, United States",
        "road": "Calle México",
        "house_number": "49",
        "neighbourhood": null,
        "suburb": null,
        "city_district": "Tierras Nuevas Saliente",
        "city": null,
        "state": "Puerto Rico",
        "postcode": "00674",
        "country": "United States",
        "country_code": "us"
      },
      "address": "49, Calle México, Comunidad Los Rábanos, Tierras Nuevas Saliente, Manatí, Puerto Rico, 00674, United States"
    }
  ],
  "updated_at": "2025-10-19T09:13:36.133703+00:00",
  "_kind": "geo_samples"
}