{
  "country_code": "PR",
  "country": "Puerto Rico",
  "city": "Ponce",
  "geonameid": 4566880,
  "target_addresses": 27,
  "samples": [
    {
      "lat": 17.992711339636546,
      "lon": -66.63829382720509,
      "geoinfo": {
        "display_name": "Camino Planta de Tratamiento, Punto Oro, Canas, Ponce, Puerto Rico, 00732, United States",
        "road": "Camino Planta de Tratamiento",
        "house_number": null,
        "neighbourhood": "Punto Oro",
        "suburb": null,
        "city_district": "Canas",
        "city": "Ponce",
        "state": "Puerto Rico",
        "postcode": "00732",
        "country": "United States",
        "country_code": "us"
      },
      "address": "Camino Planta de Tratamiento, Ponce, Puerto Rico, Puerto Rico"
    },
    {
      "lat": 17.983958038680672,
      "lon": -66.59145604257614,
      "geoinfo": {
        "display_name": "Autopista Luis A. Ferré, Bucaná, Ponce, Puerto Rico, 00734, United States",
        "road": "Autopista Luis A. Ferré",
        "house_number": null,
        "neighbourhood": null,
        "suburb": "Bucaná",
        "city_district": "Bucaná",
        "city": "Ponce",
        "state": "Puerto Rico",
        "postcode": "00734",
        "country": "United States",
        "country_code": "us"
      },
      "address": "Autopista Luis A. Ferré, Ponce, Puerto Rico, Puerto Rico"
    },
    {
      "lat": 17.98747710246604,
      "lon": -66.65222488327058,
      "geoinfo": {
        "display_name": "Avenida Las Brisas, Canas, Ponce, Puerto Rico, 00732, United States",
        "road": "Avenida Las Brisas",
        "house_number": null,
        "neighbourhood": null,
        "suburb": null,
        "city_district": "Canas",
        "city": "Ponce",
        "state": "Puerto Rico",
        "postcode": "00732",
        "country": "United States",
        "country_code": "us"
      },
      "address": "Avenida Las Brisas, Ponce, Puerto Rico, Puerto Rico"
    },
    {
      "lat": 17.99265108304983,
      "lon": -66.64933540334108,
      "geoinfo": {
        "display_name": "2987, Calle El Cofresí, Punto Oro, Canas, Ponce, Puerto Rico, 00728, United States",
        "road": "Calle El Cofresí",
        "house_number": "2987",
        "neighbourhood": "Punto Oro",
        "suburb": null,
        "city_district": "Canas",
        "city": "Ponce",
        "state": "Puerto Rico",
        "postcode": "00728",
        "country": "United States",
        "country_code": "us"
      },
      "address": "2987 Calle El Cofresí, Ponce, Puerto Rico, Puerto Rico"
    },
    {
      "lat": 17.97160934711259,
      "lon": -66.63190795529347,
      "geoinfo": {
        "display_name": "Puerto Viejo (Palmita), Playa, Ponce, Puerto Rico, 00734, United States",
        "road": null,
        "house_number": null,
        "neighbourhood": "Puerto Viejo (Palmita)",
        "suburb": "Playa",
        "city_district": "Playa",
        "city": "Ponce",
        "state": "Puerto Rico",
        "postcode": "00734",
        "country": "United States",
        "country_code": "us"
      },
      "address": "Puerto Viejo (Palmita), Ponce, Puerto Rico, Puerto Rico"
    },
    {
      "lat": 18.012884960195752,
      "lon": -66.59654935143251,
      "geoinfo": {
        "display_name": "Calle Paseo Real, Portales del Prado, San Antón, Ponce, Puerto Rico, 00733, United States",
        "road": "Calle Paseo Real",
        "house_number": null,
        "neighbourhood": null,
        "suburb": null,
        "city_district": "San Antón",
        "city": "Ponce",
        "state": "Puerto Rico",
        "postcode": "00733",
        "country": "United States",
        "country_code": "us"
      },
      "address": "Calle Paseo Real, Portales del Prado, San Antón, Ponce, Puerto Rico, 00733, United States"
    },
    {
      "lat": 18.00493298475419,
      "lon": -66.63267767146779,
      "geoinfo": {
        "display_name": "2102, Calle Drama, Baldorioty, Canas Urbano, Ponce, Puerto Rico, 00728, United States",
        "road": "Calle Drama",
        "house_number": "2102",
        "neighbourhood": "Baldorioty",
        "suburb": "Canas Urbano",
        "city_district": "Canas Urbano",
        "city": "Ponce",
        "state": "Puerto Rico",
        "postcode": "00728",
        "country": "United States",
        "country_code": "us"
      },
      "address": "2102, Calle Drama, Baldorioty, Canas Urbano, Ponce, Puerto Rico, 00728, United States"
    },
    {
      "lat": 17.985023366284768,
      "lon": -66.60563284270009,
      "geoinfo": {
        "display_name": "1298, Calle Samoa, Urbanización Villa del Carmen, Playa, Ponce, Puerto Rico, 00716, United States",
        "road": "Calle Samoa",
        "house_number": "1298",
        "neighbourhood": null,
        "suburb": "Playa",
        "city_district": "Playa",
        "city": "Ponce",
        "state": "Puerto Rico",
        "postcode": "00716",
        "country": "United States",
        "country_code": "us"
      },
      "address": "1298, Calle Samoa, Urbanización Villa del Carmen, Playa, Ponce, Puerto Rico, 00716, United States"
    },
    {
      "lat": 18.046279944443565,
      "lon": -66.59935905385998,
      "geoinfo": {
        "display_name": "Machuelo Arriba, Ponce, Puerto Rico, 00708, United States",
        "road": null,
        "house_number": null,
        "neighbourhood": null,
        "suburb": null,
        "city_district": "Machuelo Arriba",
        "city": "Ponce",
        "state": "Puerto Rico",
        "postcode": "00708",
        "country": "United States",
        "country_code": "us"
      },
      "address": "380, Machuelo Arriba, Ponce, Puerto Rico, 00708, United States"
    },
    {
      "lat": 18.019904180817594,
      "lon": -66.62951855980695,
      "geoinfo": {
        "display_name": "Calle B, Ferrán, Portugués Urbano, Ponce, Puerto Rico, 00731, United States",
        "road": "Calle B",
        "house_number": null,
        "neighbourhood": "Ferrán",
        "suburb": "Portugués Urbano",
        "city_district": "Portugués Urbano",
        "city": "Ponce",
        "state": "Puerto Rico",
        "postcode": "00731",
        "country": "United States",
        "country_code": "us"
      },
      "address": "630, Calle B, Ferrán, Portugués Urbano, Ponce, Puerto Rico, 00731, United States"
    },
    {
      "lat": 17.996242842177235,
      "lon": -66.57964837825195,
      "geoinfo": {
        "display_name": "Vayas, Ponce, Puerto Rico, 00715, United States",
        "road": null,
        "house_number": null,
        "neighbourhood": null,
        "suburb": "Vayas",
        "city_district": "Vayas",
        "city": "Ponce",
        "state": "Puerto Rico",
        "postcode": "00715",
        "country": "United States",
        "country_code": "us"
      },
      "address": "963, Vayas, Ponce, Puerto Rico, 00715, United States"
    },
    {
      "lat": 18.012121692242197,
      "lon": -66.62381932486977,
      "geoinfo": {
        "display_name": "39, Calle Magnolia, Segundo, Ponce, Puerto Rico, 00730, United States",
        "road": "Calle Magnolia",
        "house_number": "39",
        "neighbourhood": null,
        "suburb": "Segundo",
        "city_district": "Segundo",
        "city": "Ponce",
        "state": "Puerto Rico",
        "postcode": "00730",
        "country": "United States",
        "country_code": "us"
      },
      "address": "39, Calle Magnolia, Segundo, Ponce, Puerto Rico, 00730, United States"
    },
    {
      "lat": 18.026217488400075,
      "lon": -66.60964710721895,
      "geoinfo": {
        "display_name": "Callejón del Río, Machuelo Abajo, Ponce, Puerto Rico, 00730, United States",
        "road": "Callejón del Río",
        "house_number": null,
        "neighbourhood": null,
        "suburb": "Machuelo Abajo",
        "city_district": "Machuelo Abajo",
        "city": "Ponce",
        "state": "Puerto Rico",
        "postcode": "00730",
        "country": "United States",
        "country_code": "us"
      },
      "address": "033, Callejón del Río, Machuelo Abajo, Ponce, Puerto Rico, 00730, United States"
    },
    {
      "lat": 18.00978863474084,
      "lon": -66.66565322696361,
      "geoinfo": {
        "display_name": "Punta Diamante, Canas, Ponce, Puerto Rico, 00732, United States",
        "road": null,
        "house_number": null,
        "neighbourhood": "Punta Diamante",
        "suburb": null,
        "city_district": "Canas",
        "city": "Ponce",
        "state": "Puerto Rico",
        "postcode": "00732",
        "country": "United States",
        "country_code": "us"
      },
      "address": "293, Punta Diamante, Canas, Ponce, Puerto Rico, 00732, United States"
    },
    {
      "lat": 18.019972735345892,
      "lon": -66.64645389030036,
      "geoinfo": {
        "display_name": "Anillo de Circunvalación Norte (Extensión Avenida Baramaya), Magueyes Urbano, Canas Urbano, Ponce, Puerto Rico, 00728, United States",
        "road": "Anillo de Circunvalación Norte (Extensión Avenida Baramaya)",
        "house_number": null,
        "neighbourhood": null,
        "suburb": "Magueyes Urbano",
        "city_district": "Canas Urbano",
        "city": "Ponce",
        "state": "Puerto Rico",
        "postcode": "00728",
        "country": "United States",
        "country_code": "us"
      },
      "address": "087, Anillo de Circunvalación Norte (Extensión Avenida Baramaya), Magueyes Urbano, Canas Urbano, Ponce, Puerto Rico, 00728, United States"
    },
    {
      "lat": 18.02520495758646,
      "lon": -66.58384174726068,
      "geoinfo": {
        "display_name": "Alta Vista, Sabanetas, Ponce, Puerto Rico, 00708, United States",
        "road": null,
        "house_number": null,
        "neighbourhood": "Alta Vista",
        "suburb": "Sabanetas",
        "city_district": "Sabanetas",
        "city": "Ponce",
        "state": "Puerto Rico",
        "postcode": "00708",
        "country": "United States",
        "country_code": "us"
      },
      "address": "047, Alta Vista, Sabanetas, Ponce, Puerto Rico, 00708, United States"
    },
    {
      "lat": 18.038257106419334,
      "lon": -66.65522703686678,
      "geoinfo": {
        "display_name": "3400, Calle Josefina Moll, Canas, Ponce, Puerto Rico, 00728, United States",
        "road": "Calle Josefina Moll",
        "house_number": "3400",
        "neighbourhood": null,
        "suburb": null,
        "city_district": "Canas",
        "city": "Ponce",
        "state": "Puerto Rico",
        "postcode": "00728",
        "country": "United States",
        "country_code": "us"
      },
      "address": "3400, Calle Josefina Moll, Canas, Ponce, Puerto Rico, 00728, United States"
    },
    {
      "lat": 17.980507853608927,
      "lon": -66.60578234641405,
      "geoinfo": {
        "display_name": "Calle Sentina, Urbanización Villa del Carmen, Playa, Ponce, Puerto Rico, 00734, United States",
        "road": "Calle Sentina",
        "house_number": null,
        "neighbourhood": null,
        "suburb": "Playa",
        "city_district": "Playa",
        "city": "Ponce",
        "state": "Puerto Rico",
        "postcode": "00734",
        "country": "United States",
        "country_code": "us"
      },
      "address": "058, Calle Sentina, Urbanización Villa del Carmen, Playa, Ponce, Puerto Rico, 00734, United States"
    },
    {
      "lat": 17.996550919464386,
      "lon": -66.6378475864579,
      "geoinfo": {
        "display_name": "Ponce Bypass, Punto Oro, Canas, Ponce, Puerto Rico, 00717, United States",
        "road": "Ponce Bypass",
        "house_number": null,
        "neighbourhood": "Punto Oro",
        "suburb": null,
        "city_district": "Canas",
        "city": "Ponce",
        "state": "Puerto Rico",
        "postcode": "00717",
        "country": "United States",
        "country_code": "us"
      },
      "address": "698, Ponce Bypass, Punto Oro, Canas, Ponce, Puerto Rico, 00717, United States"
    },
    {
      "lat": 17.973146506278262,
      "lon": -66.61052668287785,
      "geoinfo": {
        "display_name": "Avenida Santiago de los Caballeros, Puerto Viejo (Palmita), Playa, Ponce, Puerto Rico, 00734, United States",
        "road": "Avenida Santiago de los Caballeros",
        "house_number": null,
        "neighbourhood": "Puerto Viejo (Palmita)",
        "suburb": "Playa",
        "city_district": "Playa",
        "city": "Ponce",
        "state": "Puerto Rico",
        "postcode": "00734",
        "country": "United States",
        "country_code": "us"
      },
      "address": "527, Avenida Santiago de los Caballeros, Puerto Viejo (Palmita), Playa, Ponce, Puerto Rico, 00734, United States"
    },
    {
      "lat": 17.975805905243124,
      "lon": -66.60838487946238,
      "geoinfo": {
        "display_name": "Avenida Caribe, Playa, Ponce, Puerto Rico, 00734, United States",
        "road": "Avenida Caribe",
        "house_number": null,
        "neighbourhood": null,
        "suburb": "Playa",
        "city_district": "Playa",
        "city": "Ponce",
        "state": "Puerto Rico",
        "postcode": "00734",
        "country": "United States",
        "country_code": "us"
      },
      "address": "208, Avenida Caribe, Playa, Ponce, Puerto Rico, 00734, United States"
    },
    {
      "lat": 18.035646558451234,
      "lon": -66.64184679173543,
      "geoinfo": {
        "display_name": "Carretera Ponce - Adjuntas, El Madrigal, Magueyes, Ponce, Puerto Rico, 00730, United States",
        "road": "Carretera Ponce - Adjuntas",
        "house_number": null,
        "neighbourhood": "El Madrigal",
        "suburb": null,
        "city_district": "Magueyes",
        "city": "Ponce",
        "state": "Puerto Rico",
        "postcode": "00730",
        "country": "United States",
        "country_code": "us"
      },
      "address": "238, Carretera Ponce - Adjuntas, El Madrigal, Magueyes, Ponce, Puerto Rico, 00730, United States"
    },
    {
      "lat": 18.025121760898568,
      "lon": -66.61700900199362,
      "geoinfo": {
        "display_name": "Portugués Urbano, Ponce, Puerto Rico, 00730, United States",
        "road": null,
        "house_number": null,
        "neighbourhood": null,
        "suburb": "Portugués Urbano",
        "city_district": "Portugués Urbano",
        "city": "Ponce",
        "state": "Puerto Rico",
        "postcode": "00730",
        "country": "United States",
        "country_code": "us"
      },
      "address": "743, Portugués Urbano, Ponce, Puerto Rico, 00730, United States"
    },
    {
      "lat": 18.00053181542888,
      "lon": -66.5838262495171,
      "geoinfo": {
        "display_name": "Autopista Luis A. Ferré, Vayas, Ponce, Puerto Rico, 00734, United States",
        "road": "Autopista Luis A. Ferré",
        "house_number": null,
        "neighbourhood": null,
        "suburb": "Vayas",
        "city_district": "Vayas",
        "city": "Ponce",
        "state": "Puerto Rico",
        "postcode": "00734",
        "country": "United States",
        "country_code": "us"
      },
      "address": "385, Autopista Luis A. Ferré, Vayas, Ponce, Puerto Rico, 00734, United States"
    },
    {
      "lat": 18.03749027889746,
      "lon": -66.63359187756022,
      "geoinfo": {
        "display_name": "Calle 23, Estancias del Madrigal, Magueyes, Ponce, Puerto Rico, 00730, United States",
        "road": "Calle 23",
        "house_number": null,
        "neighbourhood": "Estancias del Madrigal",
        "suburb": null,
        "city_district": "Magueyes",
        "city": "Ponce",
        "state": "Puerto Rico",
        "postcode": "00730",
        "country": "United States",
        "country_code": "us"
      },
      "address": "Calle 23, Estancias del Madrigal, Magueyes, Ponce, Puerto Rico, 00730, United States"
    },
    {
      "lat": 18.051982463816167,
      "lon": -66.61414081498077,
      "geoinfo": {
        "display_name": "Carretera Portugués, Portugués, Ponce, Puerto Rico, 00733, United States",
        "road": "Carretera Portugués",
        "house_number": null,
        "neighbourhood": null,
        "suburb": "Portugués",
        "city_district": "Portugués",
        "city": "Ponce",
        "state": "Puerto Rico",
        "postcode": "00733",
        "country": "United States",
        "country_code": "us"
      },
      "address": "376, Carretera Portugués, Portugués, Ponce, Puerto Rico, 00733, United States"
    },
    {
      "lat": 18.005019908115187,
      "lon": -66.62412107432758,
      "geoinfo": {
        "display_name": "699, Calle Dr. Virgilio Biaggi, Baldorioty, Canas Urbano, Primero, Ponce, Puerto Rico, 00717, United States",
        "road": "Calle Dr. Virgilio Biaggi",
        "house_number": "699",
        "neighbourhood": "Baldorioty",
        "suburb": "Canas Urbano",
        "city_district": "Primero",
        "city": "Ponce",
        "state": "Puerto Rico",
        "postcode": "00717",
        "country": "United States",
        "country_code": "us"
      },
      "address": "699, Calle Dr. Virgilio Biaggi, Baldorioty, Canas Urbano, Primero, Ponce, Puerto Rico, 00717, United States"
    }
  ],
  "updated_at": "2025-10-19T06:07:55.485397+00:00",
  "_kind": "geo_samples"
}