{
  "country_code": "SS",
  "country": "South Sudan",
  "city": "Leer",
  "geonameid": 371466,
  "target_addresses": 7,
  "samples": [
    {
      "lat": 8.265572448718734,
      "lon": 30.13953102258514,
      "geoinfo": {
        "display_name": "Kaygaii, Leer, Unity, South Sudan",
        "road": null,
        "house_number": null,
        "neighbourhood": null,
        "suburb": null,
        "city_district": null,
        "city": "Kaygaii",
        "state": "Unity",
        "postcode": null,
        "country": "South Sudan",
        "country_code": "ss"
      },
      "address": "Leer, Unity, South Sudan"
    },
    {
      "lat": 8.323017790828121,
      "lon": 30.13031430288388,
      "geoinfo": {
        "display_name": "Bentui-Leer Road, Gier, Leer, Unity, South Sudan",
        "road": "Bentui-Leer Road",
        "house_number": null,
        "neighbourhood": null,
        "suburb": null,
        "city_district": null,
        "city": "Gier",
        "state": "Unity",
        "postcode": null,
        "country": "South Sudan",
        "country_code": "ss"
      },
      "address": "Bentui-Leer Road, Leer, Unity, South Sudan"
    },
    {
      "lat": 8.307464417152033,
      "lon": 30.117232912467603,
      "geoinfo": {
        "display_name": "Leer International Airport, Leer-Adok Road, Leer, Unity, South Sudan",
        "road": "Leer-Adok Road",
        "house_number": null,
        "neighbourhood": null,
        "suburb": null,
        "city_district": null,
        "city": "Leer",
        "state": "Unity",
        "postcode": null,
        "country": "South Sudan",
        "country_code": "ss"
      },
      "address": "Leer-Adok Road, Leer, Unity, South Sudan"
    },
    {
      "lat": 8.298457288533964,
      "lon": 30.105332040210875,
      "geoinfo": {
        "display_name": "Giel 1, Leer, Unity, South Sudan",
        "road": null,
        "house_number": null,
        "neighbourhood": null,
        "suburb": null,
        "city_district": null,
        "city": "Giel 1",
        "state": "Unity",
        "postcode": null,
        "country": "South Sudan",
        "country_code": "ss"
      },
      "address": "Giel 1, Leer, 78408 Unity, South Sudan"
    },
    {
      "lat": 8.302864382384133,
      "lon": 30.171037047027628,
      "geoinfo": {
        "display_name": "Dar es Salam Road (Char Franco), Leer, Unity, South Sudan",
        "road": "Dar es Salam Road (Char Franco)",
        "house_number": null,
        "neighbourhood": null,
        "suburb": null,
        "city_district": null,
        "city": "Leer",
        "state": "Unity",
        "postcode": null,
        "country": "South Sudan",
        "country_code": "ss"
      },
      "address": "003, Dar es Salam Road (Char Franco), Leer, 32168 Unity, South Sudan"
    },
    {
      "lat": 8.287528216451705,
      "lon": 30.105980729899464,
      "geoinfo": {
        "display_name": "Giel 1, Leer, Unity, South Sudan",
        "road": null,
        "house_number": null,
        "neighbourhood": null,
        "suburb": null,
        "city_district": null,
        "city": "Giel 1",
        "state": "Unity",
        "postcode": null,
        "country": "South Sudan",
        "country_code": "ss"
      },
      "address": "Giel 1, Leer, 53583 Unity, South Sudan"
    },
    {
      "lat": 8.294625418957045,
      "lon": 30.15666898379837,
      "geoinfo": {
        "display_name": "Leer-Adok Road, Leer, Unity, South Sudan",
        "road": "Leer-Adok Road",
        "house_number": null,
        "neighbourhood": null,
        "suburb": null,
        "city_district": null,
        "city": "Leer",
        "state": "Unity",
        "postcode": null,
        "country": "South Sudan",
        "country_code": "ss"
      },
      "address": "500, Leer-Adok Road, Leer, 61897 Unity, South Sudan"
    },
    {
      "lat": 8.303761873056146,
      "lon": 30.1805143856063,
      "geoinfo": {
        "display_name": "Kaygaii, Leer, Unity, South Sudan",
        "road": null,
        "house_number": null,
        "neighbourhood": null,
        "suburb": null,
        "city_district": null,
        "city": "Kaygaii",
        "state": "Unity",
        "postcode": null,
        "country": "South Sudan",
        "country_code": "ss"
      },
      "address": "763, Kaygaii, Leer, 48726 Unity, South Sudan"
    },
    {
      "lat": 8.311042399263208,
      "lon": 30.117368481467405,
      "geoinfo": {
        "display_name": "Leer International Airport, Leer-Adok Road, Leer, Unity, South Sudan",
        "road": "Leer-Adok Road",
        "house_number": null,
        "neighbourhood": null,
        "suburb": null,
        "city_district": null,
        "city": "Leer",
        "state": "Unity",
        "postcode": null,
        "country": "South Sudan",
        "country_code": "ss"
      },
      "address": "711, Leer-Adok Road, Leer, 31313 Unity, South Sudan"
    },
    {
      "lat": 8.282866769927663,
      "lon": 30.15512735199562,
      "geoinfo": {
        "display_name": "Kaygaii, Leer, Unity, South Sudan",
        "road": null,
        "house_number": null,
        "neighbourhood": null,
        "suburb": null,
        "city_district": null,
        "city": "Kaygaii",
        "state": "Unity",
        "postcode": null,
        "country": "South Sudan",
        "country_code": "ss"
      },
      "address": "864, Kaygaii, Leer, 79340 Unity, South Sudan"
    }
  ],
  "updated_at": "2025-10-19T06:56:26.237963+00:00",
  "_kind": "geo_samples"
}