{
  "country_code": "SS",
  "country": "South Sudan",
  "city": "Malakal",
  "geonameid": 370737,
  "target_addresses": 7,
  "samples": [
    {
      "lat": 9.523556951348032,
      "lon": 31.629058722403613,
      "geoinfo": {
        "display_name": "Awarajwok, Malakal, Upper Nile, South Sudan",
        "road": null,
        "house_number": null,
        "neighbourhood": null,
        "suburb": null,
        "city_district": null,
        "city": "Awarajwok",
        "state": "Upper Nile",
        "postcode": null,
        "country": "South Sudan",
        "country_code": "ss"
      },
      "address": "Malakal, Upper Nile, South Sudan"
    },
    {
      "lat": 9.544287538744804,
      "lon": 31.677855557286684,
      "geoinfo": {
        "display_name": "Nagdiar Road, Malakal, Makal Shilluk Island, Malakal, Upper Nile, South Sudan",
        "road": "Nagdiar Road",
        "house_number": null,
        "neighbourhood": null,
        "suburb": null,
        "city_district": null,
        "city": "Malakal",
        "state": "Upper Nile",
        "postcode": null,
        "country": "South Sudan",
        "country_code": "ss"
      },
      "address": "Nagdiar Road, Malakal, Upper Nile, South Sudan"
    },
    {
      "lat": 9.537191129440776,
      "lon": 31.666242845396624,
      "geoinfo": {
        "display_name": "Andayat Avenue, Malakal, Makal Shilluk Island, Malakal, Upper Nile, South Sudan",
        "road": "Andayat Avenue",
        "house_number": null,
        "neighbourhood": null,
        "suburb": null,
        "city_district": null,
        "city": "Malakal",
        "state": "Upper Nile",
        "postcode": null,
        "country": "South Sudan",
        "country_code": "ss"
      },
      "address": "Andayat Avenue, Malakal, Upper Nile, South Sudan"
    },
    {
      "lat": 9.556855178066026,
      "lon": 31.657714625770932,
      "geoinfo": {
        "display_name": "Malakal-Wuntau__East, Malakal, Makal Shilluk Island, Malakal, Upper Nile, South Sudan",
        "road": "Malakal-Wuntau__East",
        "house_number": null,
        "neighbourhood": null,
        "suburb": null,
        "city_district": null,
        "city": "Malakal",
        "state": "Upper Nile",
        "postcode": null,
        "country": "South Sudan",
        "country_code": "ss"
      },
      "address": "Malakal-Wuntau__East, Malakal, Upper Nile, South Sudan"
    },
    {
      "lat": 9.503324040784754,
      "lon": 31.67013662224491,
      "geoinfo": {
        "display_name": "Nyikango Road, Malakal, Makal Shilluk Island, Malakal, Upper Nile, South Sudan",
        "road": "Nyikango Road",
        "house_number": null,
        "neighbourhood": null,
        "suburb": null,
        "city_district": null,
        "city": "Malakal",
        "state": "Upper Nile",
        "postcode": null,
        "country": "South Sudan",
        "country_code": "ss"
      },
      "address": "Nyikango Road, Malakal, Upper Nile, South Sudan"
    },
    {
      "lat": 9.521689376265899,
      "lon": 31.65498725857556,
      "geoinfo": {
        "display_name": "Shiluk Street, Malakal, Makal Shilluk Island, Malakal, Upper Nile, South Sudan",
        "road": "Shiluk Street",
        "house_number": null,
        "neighbourhood": null,
        "suburb": null,
        "city_district": null,
        "city": "Malakal",
        "state": "Upper Nile",
        "postcode": null,
        "country": "South Sudan",
        "country_code": "ss"
      },
      "address": "Shiluk Street, Malakal, Upper Nile, South Sudan"
    },
    {
      "lat": 9.492014776113848,
      "lon": 31.653205041485034,
      "geoinfo": {
        "display_name": "Doleib Hill-Malakal Road, Malakal, Upper Nile, South Sudan",
        "road": "Doleib Hill-Malakal Road",
        "house_number": null,
        "neighbourhood": null,
        "suburb": null,
        "city_district": null,
        "city": "Malakal",
        "state": "Upper Nile",
        "postcode": null,
        "country": "South Sudan",
        "country_code": "ss"
      },
      "address": "Doleib Hill-Malakal Road, Malakal, Upper Nile, South Sudan"
    },
    {
      "lat": 9.537689142964755,
      "lon": 31.65336441992257,
      "geoinfo": {
        "display_name": "Cemetery Road, Malakal, Makal Shilluk Island, Malakal, Upper Nile, South Sudan",
        "road": "Cemetery Road",
        "house_number": null,
        "neighbourhood": null,
        "suburb": null,
        "city_district": null,
        "city": "Malakal",
        "state": "Upper Nile",
        "postcode": null,
        "country": "South Sudan",
        "country_code": "ss"
      },
      "address": "741, Cemetery Road, Malakal, Makal Shilluk Island, Malakal, 47048 Upper Nile, South Sudan"
    },
    {
      "lat": 9.525849047427226,
      "lon": 31.6619777056624,
      "geoinfo": {
        "display_name": "Malakal, Makal Shilluk Island, Malakal, Upper Nile, South Sudan",
        "road": null,
        "house_number": null,
        "neighbourhood": null,
        "suburb": null,
        "city_district": null,
        "city": "Malakal",
        "state": "Upper Nile",
        "postcode": null,
        "country": "South Sudan",
        "country_code": "ss"
      },
      "address": "855, Malakal, Makal Shilluk Island, Malakal, 19513 Upper Nile, South Sudan"
    },
    {
      "lat": 9.524490310856558,
      "lon": 31.62703381587677,
      "geoinfo": {
        "display_name": "Awarajwok, Malakal, Upper Nile, South Sudan",
        "road": null,
        "house_number": null,
        "neighbourhood": null,
        "suburb": null,
        "city_district": null,
        "city": "Awarajwok",
        "state": "Upper Nile",
        "postcode": null,
        "country": "South Sudan",
        "country_code": "ss"
      },
      "address": "869, Awarajwok, Malakal, 41624 Upper Nile, South Sudan"
    },
    {
      "lat": 9.538224227172366,
      "lon": 31.645388590500342,
      "geoinfo": {
        "display_name": "Malakal, Makal Shilluk Island, Malakal, Upper Nile, South Sudan",
        "road": null,
        "house_number": null,
        "neighbourhood": null,
        "suburb": null,
        "city_district": null,
        "city": "Malakal",
        "state": "Upper Nile",
        "postcode": null,
        "country": "South Sudan",
        "country_code": "ss"
      },
      "address": "869, Malakal, Makal Shilluk Island, Malakal, 16962 Upper Nile, South Sudan"
    },
    {
      "lat": 9.513288428328742,
      "lon": 31.664513347948187,
      "geoinfo": {
        "display_name": "Malakal, Makal Shilluk Island, Malakal, Upper Nile, South Sudan",
        "road": null,
        "house_number": null,
        "neighbourhood": null,
        "suburb": null,
        "city_district": null,
        "city": "Malakal",
        "state": "Upper Nile",
        "postcode": null,
        "country": "South Sudan",
        "country_code": "ss"
      },
      "address": "063, Malakal, Makal Shilluk Island, Malakal, 56616 Upper Nile, South Sudan"
    },
    {
      "lat": 9.562027685590689,
      "lon": 31.68419856025717,
      "geoinfo": {
        "display_name": "Malakal, Makal Shilluk Island, Malakal, Upper Nile, South Sudan",
        "road": null,
        "house_number": null,
        "neighbourhood": null,
        "suburb": null,
        "city_district": null,
        "city": "Malakal",
        "state": "Upper Nile",
        "postcode": null,
        "country": "South Sudan",
        "country_code": "ss"
      },
      "address": "028, Malakal, Makal Shilluk Island, Malakal, 48516 Upper Nile, South Sudan"
    },
    {
      "lat": 9.521262561390666,
      "lon": 31.662339896676816,
      "geoinfo": {
        "display_name": "Malakal, Makal Shilluk Island, Malakal, Upper Nile, South Sudan",
        "road": null,
        "house_number": null,
        "neighbourhood": null,
        "suburb": null,
        "city_district": null,
        "city": "Malakal",
        "state": "Upper Nile",
        "postcode": null,
        "country": "South Sudan",
        "country_code": "ss"
      },
      "address": "504, Malakal, Makal Shilluk Island, Malakal, 25199 Upper Nile, South Sudan"
    }
  ],
  "updated_at": "2025-10-19T09:48:25.604369+00:00",
  "_kind": "geo_samples"
}