{
  "country_code": "SS",
  "country": "South Sudan",
  "city": "Wau",
  "geonameid": 363885,
  "target_addresses": 7,
  "samples": [
    {
      "lat": 7.683750760839865,
      "lon": 27.994712173811894,
      "geoinfo": {
        "display_name": "Wau, Western Bahr el Ghazal State, South Sudan",
        "road": null,
        "house_number": null,
        "neighbourhood": null,
        "suburb": null,
        "city_district": null,
        "city": "Wau",
        "state": "Western Bahr el Ghazal State",
        "postcode": null,
        "country": "South Sudan",
        "country_code": "ss"
      },
      "address": "Wau, Western Bahr el Ghazal State, South Sudan"
    },
    {
      "lat": 7.6730902886888375,
      "lon": 27.965653646497294,
      "geoinfo": {
        "display_name": "Bisellia-Wau Road, Bagari, Wau, Western Bahr el Ghazal State, South Sudan",
        "road": "Bisellia-Wau Road",
        "house_number": null,
        "neighbourhood": null,
        "suburb": null,
        "city_district": null,
        "city": "Bagari",
        "state": "Western Bahr el Ghazal State",
        "postcode": null,
        "country": "South Sudan",
        "country_code": "ss"
      },
      "address": "Bisellia-Wau Road, Wau, Western Bahr el Ghazal State, South Sudan"
    },
    {
      "lat": 7.691151679633716,
      "lon": 28.00693162792011,
      "geoinfo": {
        "display_name": "UNICEF office, Public Services Street, Wau, Western Bahr el Ghazal State, South Sudan",
        "road": "Public Services Street",
        "house_number": null,
        "neighbourhood": null,
        "suburb": null,
        "city_district": null,
        "city": "Wau",
        "state": "Western Bahr el Ghazal State",
        "postcode": null,
        "country": "South Sudan",
        "country_code": "ss"
      },
      "address": "Public Services Street, Wau, Western Bahr el Ghazal State, South Sudan"
    },
    {
      "lat": 7.698326326651389,
      "lon": 28.008374757104317,
      "geoinfo": {
        "display_name": "Wau-Kuajiena, Jur River, Western Bahr el Ghazal State, South Sudan",
        "road": "Wau-Kuajiena",
        "house_number": null,
        "neighbourhood": null,
        "suburb": null,
        "city_district": null,
        "city": null,
        "state": "Western Bahr el Ghazal State",
        "postcode": null,
        "country": "South Sudan",
        "country_code": "ss"
      },
      "address": "Wau-Kuajiena, Wau, Western Bahr el Ghazal State, South Sudan"
    },
    {
      "lat": 7.66402941528586,
      "lon": 27.979245317245564,
      "geoinfo": {
        "display_name": "Wau-Tambura Road, Wau, Western Bahr el Ghazal State, South Sudan",
        "road": "Wau-Tambura Road",
        "house_number": null,
        "neighbourhood": null,
        "suburb": null,
        "city_district": null,
        "city": "Wau",
        "state": "Western Bahr el Ghazal State",
        "postcode": null,
        "country": "South Sudan",
        "country_code": "ss"
      },
      "address": "Wau-Tambura Road, Wau, Western Bahr el Ghazal State, South Sudan"
    },
    {
      "lat": 7.693904876610496,
      "lon": 27.968530032657473,
      "geoinfo": {
        "display_name": "Wau-Raja Road, Wau, Western Bahr el Ghazal State, South Sudan",
        "road": "Wau-Raja Road",
        "house_number": null,
        "neighbourhood": null,
        "suburb": null,
        "city_district": null,
        "city": "Wau",
        "state": "Western Bahr el Ghazal State",
        "postcode": null,
        "country": "South Sudan",
        "country_code": "ss"
      },
      "address": "Wau-Raja Road, Wau, Western Bahr el Ghazal State, South Sudan"
    },
    {
      "lat": 7.686405806223076,
      "lon": 27.953821869637444,
      "geoinfo": {
        "display_name": "Wau-Raja Road, Wau, Western Bahr el Ghazal State, South Sudan",
        "road": "Wau-Raja Road",
        "house_number": null,
        "neighbourhood": null,
        "suburb": null,
        "city_district": null,
        "city": "Wau",
        "state": "Western Bahr el Ghazal State",
        "postcode": null,
        "country": "South Sudan",
        "country_code": "ss"
      },
      "address": "374, Wau-Raja Road, Wau, 82770 Western Bahr el Ghazal State, South Sudan"
    },
    {
      "lat": 7.680294153244415,
      "lon": 28.02912440983473,
      "geoinfo": {
        "display_name": "Wau, Western Bahr el Ghazal State, South Sudan",
        "road": null,
        "house_number": null,
        "neighbourhood": null,
        "suburb": null,
        "city_district": null,
        "city": "Wau",
        "state": "Western Bahr el Ghazal State",
        "postcode": null,
        "country": "South Sudan",
        "country_code": "ss"
      },
      "address": "105, Wau, 00714 Western Bahr el Ghazal State, South Sudan"
    },
    {
      "lat": 7.706008646769647,
      "lon": 27.967749762253646,
      "geoinfo": {
        "display_name": "Wau, Western Bahr el Ghazal State, South Sudan",
        "road": null,
        "house_number": null,
        "neighbourhood": null,
        "suburb": null,
        "city_district": null,
        "city": "Wau",
        "state": "Western Bahr el Ghazal State",
        "postcode": null,
        "country": "South Sudan",
        "country_code": "ss"
      },
      "address": "591, Wau, 90150 Western Bahr el Ghazal State, South Sudan"
    },
    {
      "lat": 7.723031912119444,
      "lon": 27.972590821697604,
      "geoinfo": {
        "display_name": "Wau, Western Bahr el Ghazal State, South Sudan",
        "road": null,
        "house_number": null,
        "neighbourhood": null,
        "suburb": null,
        "city_district": null,
        "city": "Wau",
        "state": "Western Bahr el Ghazal State",
        "postcode": null,
        "country": "South Sudan",
        "country_code": "ss"
      },
      "address": "833, Wau, 95989 Western Bahr el Ghazal State, South Sudan"
    },
    {
      "lat": 7.732905032663357,
      "lon": 28.01838042946831,
      "geoinfo": {
        "display_name": "Jur River, Western Bahr el Ghazal State, South Sudan",
        "road": null,
        "house_number": null,
        "neighbourhood": null,
        "suburb": null,
        "city_district": null,
        "city": null,
        "state": "Western Bahr el Ghazal State",
        "postcode": null,
        "country": "South Sudan",
        "country_code": "ss"
      },
      "address": "370, Wau, 01823 Western Bahr el Ghazal State, South Sudan"
    },
    {
      "lat": 7.717473395721244,
      "lon": 28.00806780476111,
      "geoinfo": {
        "display_name": "Wau, Western Bahr el Ghazal State, South Sudan",
        "road": null,
        "house_number": null,
        "neighbourhood": null,
        "suburb": null,
        "city_district": null,
        "city": "Wau",
        "state": "Western Bahr el Ghazal State",
        "postcode": null,
        "country": "South Sudan",
        "country_code": "ss"
      },
      "address": "871, Wau, 02867 Western Bahr el Ghazal State, South Sudan"
    },
    {
      "lat": 7.736677552081197,
      "lon": 27.982425413525895,
      "geoinfo": {
        "display_name": "Jur River, Western Bahr el Ghazal State, South Sudan",
        "road": null,
        "house_number": null,
        "neighbourhood": null,
        "suburb": null,
        "city_district": null,
        "city": null,
        "state": "Western Bahr el Ghazal State",
        "postcode": null,
        "country": "South Sudan",
        "country_code": "ss"
      },
      "address": "165, Wau, 29210 Western Bahr el Ghazal State, South Sudan"
    }
  ],
  "updated_at": "2025-10-19T06:58:48.390135+00:00",
  "_kind": "geo_samples"
}