{
  "country_code": "SS",
  "country": "South Sudan",
  "city": "Yambio",
  "geonameid": 363656,
  "target_addresses": 7,
  "samples": [
    {
      "lat": 4.544469885375247,
      "lon": 28.368842904041294,
      "geoinfo": {
        "display_name": "Yambio, Western Equatoria, South Sudan",
        "road": null,
        "house_number": null,
        "neighbourhood": null,
        "suburb": null,
        "city_district": null,
        "city": "Yambio",
        "state": "Western Equatoria",
        "postcode": null,
        "country": "South Sudan",
        "country_code": "ss"
      },
      "address": "Yambio, Western Equatoria, South Sudan"
    },
    {
      "lat": 4.554577952670433,
      "lon": 28.39983788842319,
      "geoinfo": {
        "display_name": "Timbiro Road, Timbiro, Yambio, Western Equatoria, South Sudan",
        "road": "Timbiro Road",
        "house_number": null,
        "neighbourhood": "Timbiro",
        "suburb": null,
        "city_district": null,
        "city": "Yambio",
        "state": "Western Equatoria",
        "postcode": null,
        "country": "South Sudan",
        "country_code": "ss"
      },
      "address": "Timbiro Road, Yambio, Western Equatoria, South Sudan"
    },
    {
      "lat": 4.566246363355698,
      "lon": 28.365383041478246,
      "geoinfo": {
        "display_name": "Bagadi Avenue, Yambio, Western Equatoria, South Sudan",
        "road": "Bagadi Avenue",
        "house_number": null,
        "neighbourhood": null,
        "suburb": null,
        "city_district": null,
        "city": "Yambio",
        "state": "Western Equatoria",
        "postcode": null,
        "country": "South Sudan",
        "country_code": "ss"
      },
      "address": "Bagadi Avenue, Yambio, Western Equatoria, South Sudan"
    },
    {
      "lat": 4.55846381625226,
      "lon": 28.361896629962217,
      "geoinfo": {
        "display_name": "Bureangburu Road, Yambio, Western Equatoria, South Sudan",
        "road": "Bureangburu Road",
        "house_number": null,
        "neighbourhood": null,
        "suburb": null,
        "city_district": null,
        "city": "Yambio",
        "state": "Western Equatoria",
        "postcode": null,
        "country": "South Sudan",
        "country_code": "ss"
      },
      "address": "Bureangburu Road, Yambio, Western Equatoria, South Sudan"
    },
    {
      "lat": 4.573994217517049,
      "lon": 28.36335934288917,
      "geoinfo": {
        "display_name": "Sangba Street, Yambio, Western Equatoria, South Sudan",
        "road": "Sangba Street",
        "house_number": null,
        "neighbourhood": null,
        "suburb": null,
        "city_district": null,
        "city": "Yambio",
        "state": "Western Equatoria",
        "postcode": null,
        "country": "South Sudan",
        "country_code": "ss"
      },
      "address": "Sangba Street, Yambio, Western Equatoria, South Sudan"
    },
    {
      "lat": 4.57644946206462,
      "lon": 28.436175170349937,
      "geoinfo": {
        "display_name": "Midland Highway, Bazungua, Yambio, Western Equatoria, South Sudan",
        "road": "Midland Highway",
        "house_number": null,
        "neighbourhood": null,
        "suburb": "Bazungua",
        "city_district": null,
        "city": "Yambio",
        "state": "Western Equatoria",
        "postcode": null,
        "country": "South Sudan",
        "country_code": "ss"
      },
      "address": "Midland Highway, Yambio, Western Equatoria, South Sudan"
    },
    {
      "lat": 4.573250702245418,
      "lon": 28.391808520760005,
      "geoinfo": {
        "display_name": "St. Mary Primary School, Wellington Street, Yambio, Western Equatoria, South Sudan",
        "road": "Wellington Street",
        "house_number": null,
        "neighbourhood": null,
        "suburb": null,
        "city_district": null,
        "city": "Yambio",
        "state": "Western Equatoria",
        "postcode": null,
        "country": "South Sudan",
        "country_code": "ss"
      },
      "address": "Wellington Street, Yambio, Western Equatoria, South Sudan"
    },
    {
      "lat": 4.543174354795427,
      "lon": 28.42547607152347,
      "geoinfo": {
        "display_name": "Yambio, Western Equatoria, South Sudan",
        "road": null,
        "house_number": null,
        "neighbourhood": null,
        "suburb": null,
        "city_district": null,
        "city": "Yambio",
        "state": "Western Equatoria",
        "postcode": null,
        "country": "South Sudan",
        "country_code": "ss"
      },
      "address": "880, Yambio, 81142 Western Equatoria, South Sudan"
    },
    {
      "lat": 4.554220409409421,
      "lon": 28.380128752396445,
      "geoinfo": {
        "display_name": "Yambio, Western Equatoria, South Sudan",
        "road": null,
        "house_number": null,
        "neighbourhood": null,
        "suburb": null,
        "city_district": null,
        "city": "Yambio",
        "state": "Western Equatoria",
        "postcode": null,
        "country": "South Sudan",
        "country_code": "ss"
      },
      "address": "100, Yambio, 07301 Western Equatoria, South Sudan"
    },
    {
      "lat": 4.563017763581083,
      "lon": 28.38128698496644,
      "geoinfo": {
        "display_name": "Yambio, Western Equatoria, South Sudan",
        "road": null,
        "house_number": null,
        "neighbourhood": null,
        "suburb": null,
        "city_district": null,
        "city": "Yambio",
        "state": "Western Equatoria",
        "postcode": null,
        "country": "South Sudan",
        "country_code": "ss"
      },
      "address": "254, Yambio, 78298 Western Equatoria, South Sudan"
    },
    {
      "lat": 4.584705193548108,
      "lon": 28.41711867831097,
      "geoinfo": {
        "display_name": "Yambio, Western Equatoria, South Sudan",
        "road": null,
        "house_number": null,
        "neighbourhood": null,
        "suburb": null,
        "city_district": null,
        "city": "Yambio",
        "state": "Western Equatoria",
        "postcode": null,
        "country": "South Sudan",
        "country_code": "ss"
      },
      "address": "599, Yambio, 39224 Western Equatoria, South Sudan"
    },
    {
      "lat": 4.537707606996457,
      "lon": 28.412659728009487,
      "geoinfo": {
        "display_name": "Yambio, Western Equatoria, South Sudan",
        "road": null,
        "house_number": null,
        "neighbourhood": null,
        "suburb": null,
        "city_district": null,
        "city": "Yambio",
        "state": "Western Equatoria",
        "postcode": null,
        "country": "South Sudan",
        "country_code": "ss"
      },
      "address": "878, Yambio, 02561 Western Equatoria, South Sudan"
    },
    {
      "lat": 4.568429274441118,
      "lon": 28.37188825589256,
      "geoinfo": {
        "display_name": "Baati Street, Yambio, Western Equatoria, South Sudan",
        "road": "Baati Street",
        "house_number": null,
        "neighbourhood": null,
        "suburb": null,
        "city_district": null,
        "city": "Yambio",
        "state": "Western Equatoria",
        "postcode": null,
        "country": "South Sudan",
        "country_code": "ss"
      },
      "address": "872, Baati Street, Yambio, 07476 Western Equatoria, South Sudan"
    },
    {
      "lat": 4.559109053336552,
      "lon": 28.362533526796366,
      "geoinfo": {
        "display_name": "Bureangburu Road, Yambio, Western Equatoria, South Sudan",
        "road": "Bureangburu Road",
        "house_number": null,
        "neighbourhood": null,
        "suburb": null,
        "city_district": null,
        "city": "Yambio",
        "state": "Western Equatoria",
        "postcode": null,
        "country": "South Sudan",
        "country_code": "ss"
      },
      "address": "804, Bureangburu Road, Yambio, 18084 Western Equatoria, South Sudan"
    }
  ],
  "updated_at": "2025-10-19T06:56:00.656136+00:00",
  "_kind": "geo_samples"
}