{
  "country_code": "SS",
  "country": "South Sudan",
  "city": "Yei",
  "geonameid": 363619,
  "target_addresses": 7,
  "samples": [
    {
      "lat": 4.092545210443752,
      "lon": 30.63614317690296,
      "geoinfo": {
        "display_name": "Lutaya, Yei, Central Equatoria, South Sudan",
        "road": null,
        "house_number": null,
        "neighbourhood": null,
        "suburb": "Lutaya",
        "city_district": null,
        "city": "Yei",
        "state": "Central Equatoria",
        "postcode": null,
        "country": "South Sudan",
        "country_code": "ss"
      },
      "address": "Lutaya, Yei, Central Equatoria, South Sudan"
    },
    {
      "lat": 4.103182504036786,
      "lon": 30.698209793510006,
      "geoinfo": {
        "display_name": "Armier II, Yei, Central Equatoria, South Sudan",
        "road": null,
        "house_number": null,
        "neighbourhood": null,
        "suburb": "Armier II",
        "city_district": null,
        "city": "Yei",
        "state": "Central Equatoria",
        "postcode": null,
        "country": "South Sudan",
        "country_code": "ss"
      },
      "address": "Armier II, Yei, Central Equatoria, South Sudan"
    },
    {
      "lat": 4.076741747102784,
      "lon": 30.668925474280748,
      "geoinfo": {
        "display_name": "Hai City, Yei, Central Equatoria, South Sudan",
        "road": null,
        "house_number": null,
        "neighbourhood": null,
        "suburb": "Hai City",
        "city_district": null,
        "city": "Yei",
        "state": "Central Equatoria",
        "postcode": null,
        "country": "South Sudan",
        "country_code": "ss"
      },
      "address": "Hai City, Yei, Central Equatoria, South Sudan"
    },
    {
      "lat": 4.130237365812416,
      "lon": 30.661494117133802,
      "geoinfo": {
        "display_name": "Logobero, Yei, Central Equatoria, South Sudan",
        "road": null,
        "house_number": null,
        "neighbourhood": null,
        "suburb": "Logobero",
        "city_district": null,
        "city": "Yei",
        "state": "Central Equatoria",
        "postcode": null,
        "country": "South Sudan",
        "country_code": "ss"
      },
      "address": "Logobero, Yei, Central Equatoria, South Sudan"
    },
    {
      "lat": 4.125946340091286,
      "lon": 30.64823038778843,
      "geoinfo": {
        "display_name": "Harversters, Yei, Central Equatoria, South Sudan",
        "road": null,
        "house_number": null,
        "neighbourhood": null,
        "suburb": "Harversters",
        "city_district": null,
        "city": "Yei",
        "state": "Central Equatoria",
        "postcode": null,
        "country": "South Sudan",
        "country_code": "ss"
      },
      "address": "Harversters, Yei, Central Equatoria, South Sudan"
    },
    {
      "lat": 4.1242150373053414,
      "lon": 30.705714218452638,
      "geoinfo": {
        "display_name": "Buaba Juba, Yei, Central Equatoria, South Sudan",
        "road": null,
        "house_number": null,
        "neighbourhood": null,
        "suburb": "Buaba Juba",
        "city_district": null,
        "city": "Yei",
        "state": "Central Equatoria",
        "postcode": null,
        "country": "South Sudan",
        "country_code": "ss"
      },
      "address": "Buaba Juba, Yei, Central Equatoria, South Sudan"
    },
    {
      "lat": 4.135681859944083,
      "lon": 30.66000338022965,
      "geoinfo": {
        "display_name": "Yei, Central Equatoria, South Sudan",
        "road": null,
        "house_number": null,
        "neighbourhood": null,
        "suburb": null,
        "city_district": null,
        "city": null,
        "state": "Central Equatoria",
        "postcode": null,
        "country": "South Sudan",
        "country_code": "ss"
      },
      "address": "Yei, Central Equatoria, South Sudan"
    },
    {
      "lat": 4.135104382618831,
      "lon": 30.68558365942889,
      "geoinfo": {
        "display_name": "Lainya, Central Equatoria, South Sudan",
        "road": null,
        "house_number": null,
        "neighbourhood": null,
        "suburb": null,
        "city_district": null,
        "city": null,
        "state": "Central Equatoria",
        "postcode": null,
        "country": "South Sudan",
        "country_code": "ss"
      },
      "address": "777, Yei, 81189 Central Equatoria, South Sudan"
    },
    {
      "lat": 4.087148769904551,
      "lon": 30.679496488497605,
      "geoinfo": {
        "display_name": "Jigomoni, Yei, Central Equatoria, South Sudan",
        "road": null,
        "house_number": null,
        "neighbourhood": null,
        "suburb": "Jigomoni",
        "city_district": null,
        "city": "Yei",
        "state": "Central Equatoria",
        "postcode": null,
        "country": "South Sudan",
        "country_code": "ss"
      },
      "address": "106, Jigomoni, Yei, 33956 Central Equatoria, South Sudan"
    },
    {
      "lat": 4.099580546515631,
      "lon": 30.695299580948053,
      "geoinfo": {
        "display_name": "Jazeera Village, Yei, Central Equatoria, South Sudan",
        "road": null,
        "house_number": null,
        "neighbourhood": null,
        "suburb": "Jazeera Village",
        "city_district": null,
        "city": "Yei",
        "state": "Central Equatoria",
        "postcode": null,
        "country": "South Sudan",
        "country_code": "ss"
      },
      "address": "930, Jazeera Village, Yei, 90457 Central Equatoria, South Sudan"
    },
    {
      "lat": 4.069884970903098,
      "lon": 30.694137380760104,
      "geoinfo": {
        "display_name": "Hai Gezira, Yei, Central Equatoria, South Sudan",
        "road": null,
        "house_number": null,
        "neighbourhood": null,
        "suburb": "Hai Gezira",
        "city_district": null,
        "city": "Yei",
        "state": "Central Equatoria",
        "postcode": null,
        "country": "South Sudan",
        "country_code": "ss"
      },
      "address": "633, Hai Gezira, Yei, 14586 Central Equatoria, South Sudan"
    },
    {
      "lat": 4.097170796224067,
      "lon": 30.64652699571503,
      "geoinfo": {
        "display_name": "Lakujo Road, Abrama zone, Yei, Central Equatoria, South Sudan",
        "road": "Lakujo Road",
        "house_number": null,
        "neighbourhood": null,
        "suburb": "Abrama zone",
        "city_district": null,
        "city": "Yei",
        "state": "Central Equatoria",
        "postcode": null,
        "country": "South Sudan",
        "country_code": "ss"
      },
      "address": "262, Lakujo Road, Abrama zone, Yei, 97150 Central Equatoria, South Sudan"
    },
    {
      "lat": 4.113375527984653,
      "lon": 30.648284930304083,
      "geoinfo": {
        "display_name": "Yei-Faraksika Road, Harversters, Yei, Central Equatoria, South Sudan",
        "road": "Yei-Faraksika Road",
        "house_number": null,
        "neighbourhood": null,
        "suburb": "Harversters",
        "city_district": null,
        "city": "Yei",
        "state": "Central Equatoria",
        "postcode": null,
        "country": "South Sudan",
        "country_code": "ss"
      },
      "address": "849, Yei-Faraksika Road, Harversters, Yei, 34137 Central Equatoria, South Sudan"
    },
    {
      "lat": 4.135516490384193,
      "lon": 30.6725592002324,
      "geoinfo": {
        "display_name": "Lainya, Central Equatoria, South Sudan",
        "road": null,
        "house_number": null,
        "neighbourhood": null,
        "suburb": null,
        "city_district": null,
        "city": null,
        "state": "Central Equatoria",
        "postcode": null,
        "country": "South Sudan",
        "country_code": "ss"
      },
      "address": "828, Yei, 16785 Central Equatoria, South Sudan"
    }
  ],
  "updated_at": "2025-10-19T06:59:04.454115+00:00",
  "_kind": "geo_samples"
}