{
  "country_code": "FI",
  "country": "Finland",
  "city": "Jakobstad",
  "geonameid": 656130,
  "target_addresses": 6,
  "samples": [
    {
      "lat": 63.65677221271976,
      "lon": 22.696195765377723,
      "geoinfo": {
        "display_name": "Vasavägen, Lappfjärden, Jakobstad, Jakobstad sub-region, Ostrobothnia, Mainland Finland, 68630, Finland",
        "road": "Vasavägen",
        "house_number": null,
        "neighbourhood": null,
        "suburb": null,
        "city_district": null,
        "city": "Jakobstad",
        "state": "Ostrobothnia",
        "postcode": "68630",
        "country": "Finland",
        "country_code": "fi"
      },
      "address": "Vasavägen, Jakobstad, Ostrobothnia, Finland"
    },
    {
      "lat": 63.63751864908606,
      "lon": 22.718790848445124,
      "geoinfo": {
        "display_name": "Kavelbrogränd, Pedersöre, Jakobstad sub-region, Ostrobothnia, Mainland Finland, 68600, Finland",
        "road": "Kavelbrogränd",
        "house_number": null,
        "neighbourhood": null,
        "suburb": null,
        "city_district": null,
        "city": "Pedersöre",
        "state": "Ostrobothnia",
        "postcode": "68600",
        "country": "Finland",
        "country_code": "fi"
      },
      "address": "Kavelbrogränd, Jakobstad, Ostrobothnia, Finland"
    },
    {
      "lat": 63.6712241029038,
      "lon": 22.614122512966023,
      "geoinfo": {
        "display_name": "Nätihamnsvägen, Fäboda, Jakobstad, Jakobstad sub-region, Ostrobothnia, Mainland Finland, Finland",
        "road": "Nätihamnsvägen",
        "house_number": null,
        "neighbourhood": null,
        "suburb": null,
        "city_district": null,
        "city": "Jakobstad",
        "state": "Ostrobothnia",
        "postcode": null,
        "country": "Finland",
        "country_code": "fi"
      },
      "address": "100, Nätihamnsvägen, Fäboda, Jakobstad, Jakobstad sub-region, Ostrobothnia, 56383 Mainland Finland, Finland"
    },
    {
      "lat": 63.678450681858266,
      "lon": 22.618557228833726,
      "geoinfo": {
        "display_name": "Gräsholmsvägen, Jakobstad, Jakobstad sub-region, Ostrobothnia, Mainland Finland, Finland",
        "road": "Gräsholmsvägen",
        "house_number": null,
        "neighbourhood": null,
        "suburb": null,
        "city_district": null,
        "city": "Jakobstad",
        "state": "Ostrobothnia",
        "postcode": null,
        "country": "Finland",
        "country_code": "fi"
      },
      "address": "690, Gräsholmsvägen, Jakobstad, Jakobstad sub-region, Ostrobothnia, 81852 Mainland Finland, Finland"
    },
    {
      "lat": 63.70280317759903,
      "lon": 22.719671329335664,
      "geoinfo": {
        "display_name": "Larsmovägen, Östanpå, Jakobstad, Jakobstad sub-region, Ostrobothnia, Mainland Finland, 68660, Finland",
        "road": "Larsmovägen",
        "house_number": null,
        "neighbourhood": null,
        "suburb": null,
        "city_district": null,
        "city": "Jakobstad",
        "state": "Ostrobothnia",
        "postcode": "68660",
        "country": "Finland",
        "country_code": "fi"
      },
      "address": "272, Larsmovägen, Östanpå, Jakobstad, Jakobstad sub-region, Ostrobothnia, Mainland Finland, 68660, Finland"
    },
    {
      "lat": 63.649944560251214,
      "lon": 22.73472491642008,
      "geoinfo": {
        "display_name": "Storsandsundsvägen, Sandsund, Pedersöre, Jakobstad sub-region, Ostrobothnia, Mainland Finland, 68600, Finland",
        "road": "Storsandsundsvägen",
        "house_number": null,
        "neighbourhood": null,
        "suburb": null,
        "city_district": null,
        "city": "Pedersöre",
        "state": "Ostrobothnia",
        "postcode": "68600",
        "country": "Finland",
        "country_code": "fi"
      },
      "address": "065, Storsandsundsvägen, Sandsund, Pedersöre, Jakobstad sub-region, Ostrobothnia, Mainland Finland, 68600, Finland"
    }
  ],
  "updated_at": "2025-10-19T04:29:16.707456+00:00",
  "_kind": "geo_samples"
}