{
  "country_code": "FI",
  "country": "Finland",
  "city": "Joensuu",
  "geonameid": 655808,
  "target_addresses": 2,
  "samples": [
    {
      "lat": 62.594790418207424,
      "lon": 29.82213637830583,
      "geoinfo": {
        "display_name": "Ilomantsintie, Iiksenvaara, Joensuun kantakaupunki, Joensuu, Joensuu sub-region, North Karelia, Mainland Finland, 80260, Finland",
        "road": "Ilomantsintie",
        "house_number": null,
        "neighbourhood": null,
        "suburb": "Iiksenvaara",
        "city_district": "Joensuun kantakaupunki",
        "city": "Joensuu",
        "state": "North Karelia",
        "postcode": "80260",
        "country": "Finland",
        "country_code": "fi"
      },
      "address": "Ilomantsintie, Joensuu, North Karelia, Finland"
    },
    {
      "lat": 62.619040519884756,
      "lon": 29.70553916930085,
      "geoinfo": {
        "display_name": "4, Nuottaniementie, Etu-Noljakka, Noljakka, Joensuun kantakaupunki, Joensuu, Joensuu sub-region, North Karelia, Mainland Finland, 80140, Finland",
        "road": "Nuottaniementie",
        "house_number": "4",
        "neighbourhood": "Etu-Noljakka",
        "suburb": "Noljakka",
        "city_district": "Joensuun kantakaupunki",
        "city": "Joensuu",
        "state": "North Karelia",
        "postcode": "80140",
        "country": "Finland",
        "country_code": "fi"
      },
      "address": "4 Nuottaniementie, Joensuu, North Karelia, Finland"
    },
    {
      "lat": 62.603145435445484,
      "lon": 29.746853308828264,
      "geoinfo": {
        "display_name": "Aurora, Yliopistokatu, Yliopistokatu, Mehtimäki, Linnunlahti, Joensuun kantakaupunki, Joensuu, Joensuu sub-region, North Karelia, Mainland Finland, 80101, Finland",
        "road": "Yliopistokatu",
        "house_number": null,
        "neighbourhood": null,
        "suburb": "Mehtimäki",
        "city_district": "Joensuun kantakaupunki",
        "city": "Joensuu",
        "state": "North Karelia",
        "postcode": "80101",
        "country": "Finland",
        "country_code": "fi"
      },
      "address": "200, Yliopistokatu, Joensuu, 80101 North Karelia, Finland"
    },
    {
      "lat": 62.57870108032072,
      "lon": 29.83608079946392,
      "geoinfo": {
        "display_name": "Imatrantie, Opotta, Papinkangas, Joensuun kantakaupunki, Joensuu, Joensuu sub-region, North Karelia, Mainland Finland, 80260, Finland",
        "road": "Imatrantie",
        "house_number": null,
        "neighbourhood": null,
        "suburb": "Opotta",
        "city_district": "Joensuun kantakaupunki",
        "city": "Joensuu",
        "state": "North Karelia",
        "postcode": "80260",
        "country": "Finland",
        "country_code": "fi"
      },
      "address": "745, Imatrantie, Opotta, Papinkangas, Joensuun kantakaupunki, Joensuu, Joensuu sub-region, North Karelia, Mainland Finland, 80260, Finland"
    }
  ],
  "updated_at": "2025-10-19T03:56:13.736998+00:00",
  "_kind": "geo_samples"
}