{
  "country_code": "FI",
  "country": "Finland",
  "city": "Järvenpää",
  "geonameid": 655958,
  "target_addresses": 2,
  "samples": [
    {
      "lat": 60.45671359938664,
      "lon": 25.06092653159688,
      "geoinfo": {
        "display_name": "Tuulimyllyntie, Vanhakylä, Järvenpää, Helsinki sub-region, Uusimaa, Mainland Finland, 04400, Finland",
        "road": "Tuulimyllyntie",
        "house_number": null,
        "neighbourhood": null,
        "suburb": "Vanhakylä",
        "city_district": null,
        "city": "Järvenpää",
        "state": "Uusimaa",
        "postcode": "04400",
        "country": "Finland",
        "country_code": "fi"
      },
      "address": "Tuulimyllyntie, Järvenpää, Uusimaa, Finland"
    },
    {
      "lat": 60.482315179376144,
      "lon": 25.120868590718803,
      "geoinfo": {
        "display_name": "Mörttisenpolku, Isokytö, Mylly, Järvenpää, Helsinki sub-region, Uusimaa, Mainland Finland, 04430, Finland",
        "road": "Mörttisenpolku",
        "house_number": null,
        "neighbourhood": null,
        "suburb": "Isokytö",
        "city_district": null,
        "city": "Järvenpää",
        "state": "Uusimaa",
        "postcode": "04430",
        "country": "Finland",
        "country_code": "fi"
      },
      "address": "Mörttisenpolku, Järvenpää, Uusimaa, Finland"
    },
    {
      "lat": 60.46716273410422,
      "lon": 25.13610084316264,
      "geoinfo": {
        "display_name": "10b, Minkkikatu, Mikonpelto, Mikonkorpi, Järvenpää, Helsinki sub-region, Uusimaa, Mainland Finland, 04430, Finland",
        "road": "Minkkikatu",
        "house_number": "10b",
        "neighbourhood": null,
        "suburb": "Mikonkorpi",
        "city_district": null,
        "city": "Järvenpää",
        "state": "Uusimaa",
        "postcode": "04430",
        "country": "Finland",
        "country_code": "fi"
      },
      "address": "10b, Minkkikatu, Mikonpelto, Mikonkorpi, Järvenpää, Helsinki sub-region, Uusimaa, Mainland Finland, 04430, Finland"
    },
    {
      "lat": 60.48893966390235,
      "lon": 25.174781663739058,
      "geoinfo": {
        "display_name": "Laurilantie, Sipoo, Helsinki sub-region, Uusimaa, Mainland Finland, 04480, Finland",
        "road": "Laurilantie",
        "house_number": null,
        "neighbourhood": null,
        "suburb": null,
        "city_district": null,
        "city": "Sipoo",
        "state": "Uusimaa",
        "postcode": "04480",
        "country": "Finland",
        "country_code": "fi"
      },
      "address": "735, Laurilantie, Sipoo, Helsinki sub-region, Uusimaa, Mainland Finland, 04480, Finland"
    }
  ],
  "updated_at": "2025-10-19T03:56:21.522023+00:00",
  "_kind": "geo_samples"
}