{
  "country_code": "FI",
  "country": "Finland",
  "city": "Kaarina",
  "geonameid": 655130,
  "target_addresses": 6,
  "samples": [
    {
      "lat": 60.40357946170717,
      "lon": 22.456670809937464,
      "geoinfo": {
        "display_name": "Linnanrauniontie, Kuusisto, Piikkiö, Kaarina, Turku sub-region, Southwest Finland, Mainland Finland, Finland",
        "road": "Linnanrauniontie",
        "house_number": null,
        "neighbourhood": null,
        "suburb": "Kuusisto",
        "city_district": null,
        "city": "Piikkiö",
        "state": "Southwest Finland",
        "postcode": null,
        "country": "Finland",
        "country_code": "fi"
      },
      "address": "Linnanrauniontie, Kaarina, Southwest Finland, Finland"
    },
    {
      "lat": 60.41148803385125,
      "lon": 22.439509968013315,
      "geoinfo": {
        "display_name": "Tuorlan peltotie, Hulkkio, Voivala, Kaarina, Turku sub-region, Southwest Finland, Mainland Finland, Finland",
        "road": "Tuorlan peltotie",
        "house_number": null,
        "neighbourhood": "Hulkkio",
        "suburb": "Voivala",
        "city_district": null,
        "city": "Kaarina",
        "state": "Southwest Finland",
        "postcode": null,
        "country": "Finland",
        "country_code": "fi"
      },
      "address": "Tuorlan peltotie, Kaarina, Southwest Finland, Finland"
    },
    {
      "lat": 60.42728279818118,
      "lon": 22.370087377893743,
      "geoinfo": {
        "display_name": "Lakimiehenkatu, Vyyryläisenmäki, Littoinen, Kaarina, Turku sub-region, Southwest Finland, Mainland Finland, 20780, Finland",
        "road": "Lakimiehenkatu",
        "house_number": null,
        "neighbourhood": "Vyyryläisenmäki",
        "suburb": "Littoinen",
        "city_district": null,
        "city": "Littoinen",
        "state": "Southwest Finland",
        "postcode": "20780",
        "country": "Finland",
        "country_code": "fi"
      },
      "address": "426, Lakimiehenkatu, Vyyryläisenmäki, Littoinen, Kaarina, Turku sub-region, Southwest Finland, Mainland Finland, 20780, Finland"
    },
    {
      "lat": 60.41812232250535,
      "lon": 22.308826621044616,
      "geoinfo": {
        "display_name": "3, Mäkipellonkuja, Koivula, Skanssi-Uittamo, Turku, Turku sub-region, Southwest Finland, Mainland Finland, 20740, Finland",
        "road": "Mäkipellonkuja",
        "house_number": "3",
        "neighbourhood": null,
        "suburb": "Koivula",
        "city_district": "Skanssi-Uittamo",
        "city": "Turku",
        "state": "Southwest Finland",
        "postcode": "20740",
        "country": "Finland",
        "country_code": "fi"
      },
      "address": "3, Mäkipellonkuja, Koivula, Skanssi-Uittamo, Turku, Turku sub-region, Southwest Finland, Mainland Finland, 20740, Finland"
    },
    {
      "lat": 60.40526078279831,
      "lon": 22.30206526486167,
      "geoinfo": {
        "display_name": "Bioferme Oy, 64, Rauvolantie, Kairiskulma, Piispanristi, Kaarina, Turku sub-region, Southwest Finland, Mainland Finland, 20760, Finland",
        "road": "Rauvolantie",
        "house_number": "64",
        "neighbourhood": "Kairiskulma",
        "suburb": "Piispanristi",
        "city_district": null,
        "city": "Kaarina",
        "state": "Southwest Finland",
        "postcode": "20760",
        "country": "Finland",
        "country_code": "fi"
      },
      "address": "Bioferme Oy, 64, Rauvolantie, Kairiskulma, Piispanristi, Kaarina, Turku sub-region, Southwest Finland, Mainland Finland, 20760, Finland"
    },
    {
      "lat": 60.437753374406356,
      "lon": 22.39715846471904,
      "geoinfo": {
        "display_name": "Kudekatu, Teerimäki, Littoinen, Kaarina, Turku sub-region, Southwest Finland, Mainland Finland, 20660, Finland",
        "road": "Kudekatu",
        "house_number": null,
        "neighbourhood": "Teerimäki",
        "suburb": "Littoinen",
        "city_district": null,
        "city": "Littoinen",
        "state": "Southwest Finland",
        "postcode": "20660",
        "country": "Finland",
        "country_code": "fi"
      },
      "address": "805, Kudekatu, Teerimäki, Littoinen, Kaarina, Turku sub-region, Southwest Finland, Mainland Finland, 20660, Finland"
    }
  ],
  "updated_at": "2025-10-19T04:29:08.702253+00:00",
  "_kind": "geo_samples"
}