{
  "country_code": "FI",
  "country": "Finland",
  "city": "Kaarela",
  "geonameid": 655143,
  "target_addresses": 2,
  "samples": [
    {
      "lat": 60.26078944295125,
      "lon": 24.89235643940444,
      "geoinfo": {
        "display_name": "3, Sinooperikuja, Lammenranta, Kuninkaantammi, Kaarela, Western major district, Helsinki, Helsinki sub-region, Uusimaa, Mainland Finland, 00430, Finland",
        "road": "Sinooperikuja",
        "house_number": "3",
        "neighbourhood": "Lammenranta",
        "suburb": "Kuninkaantammi",
        "city_district": "Western major district",
        "city": "Helsinki",
        "state": "Uusimaa",
        "postcode": "00430",
        "country": "Finland",
        "country_code": "fi"
      },
      "address": "3 Sinooperikuja, Kaarela, Uusimaa, Finland"
    },
    {
      "lat": 60.2324446266076,
      "lon": 24.90867332654787,
      "geoinfo": {
        "display_name": "Pirkkolan liikuntapuisto, Kaarelankuja, Maununneva, Kaarela, Western major district, Helsinki, Helsinki sub-region, Uusimaa, Mainland Finland, 00400, Finland",
        "road": "Kaarelankuja",
        "house_number": null,
        "neighbourhood": null,
        "suburb": "Maununneva",
        "city_district": "Western major district",
        "city": "Helsinki",
        "state": "Uusimaa",
        "postcode": "00400",
        "country": "Finland",
        "country_code": "fi"
      },
      "address": "Kaarelankuja, Kaarela, Uusimaa, Finland"
    },
    {
      "lat": 60.22509528932199,
      "lon": 24.948232541035384,
      "geoinfo": {
        "display_name": "7 A, Välimetsänkuja, Patola, Oulunkylä, Northern major district, Helsinki, Helsinki sub-region, Uusimaa, Mainland Finland, 00620, Finland",
        "road": "Välimetsänkuja",
        "house_number": "7 A",
        "neighbourhood": null,
        "suburb": "Oulunkylä",
        "city_district": "Northern major district",
        "city": "Helsinki",
        "state": "Uusimaa",
        "postcode": "00620",
        "country": "Finland",
        "country_code": "fi"
      },
      "address": "7 A, Välimetsänkuja, Patola, Oulunkylä, Northern major district, Helsinki, Helsinki sub-region, Uusimaa, Mainland Finland, 00620, Finland"
    },
    {
      "lat": 60.283515888039275,
      "lon": 24.9059660023893,
      "geoinfo": {
        "display_name": "1, Männynkävyntie, Ollas, Ylästö, Aviapoliksen suuralue, Vantaa, Helsinki sub-region, Uusimaa, Mainland Finland, 01690, Finland",
        "road": "Männynkävyntie",
        "house_number": "1",
        "neighbourhood": "Ollas",
        "suburb": "Ylästö",
        "city_district": "Aviapoliksen suuralue",
        "city": "Vantaa",
        "state": "Uusimaa",
        "postcode": "01690",
        "country": "Finland",
        "country_code": "fi"
      },
      "address": "1, Männynkävyntie, Ollas, Ylästö, Aviapoliksen suuralue, Vantaa, Helsinki sub-region, Uusimaa, Mainland Finland, 01690, Finland"
    }
  ],
  "updated_at": "2025-10-19T02:15:00.911792+00:00",
  "_kind": "geo_samples"
}