{
  "country_code": "FI",
  "country": "Finland",
  "city": "Kerava",
  "geonameid": 653185,
  "target_addresses": 2,
  "samples": [
    {
      "lat": 60.42046253675997,
      "lon": 25.08665864209151,
      "geoinfo": {
        "display_name": "27, Joukahaisentie, Viro, Kaleva, Kerava, Helsinki sub-region, Uusimaa, Mainland Finland, 04230, Finland",
        "road": "Joukahaisentie",
        "house_number": "27",
        "neighbourhood": null,
        "suburb": "Kaleva",
        "city_district": null,
        "city": "Kerava",
        "state": "Uusimaa",
        "postcode": "04230",
        "country": "Finland",
        "country_code": "fi"
      },
      "address": "27 Joukahaisentie, Kerava, Uusimaa, Finland"
    },
    {
      "lat": 60.37924633146589,
      "lon": 25.070822893958056,
      "geoinfo": {
        "display_name": "27, Pursutie, Uusikylä, Rykmentinpuisto, Tuusula, Helsinki sub-region, Uusimaa, Mainland Finland, 04260, Finland",
        "road": "Pursutie",
        "house_number": "27",
        "neighbourhood": null,
        "suburb": "Rykmentinpuisto",
        "city_district": null,
        "city": "Tuusula",
        "state": "Uusimaa",
        "postcode": "04260",
        "country": "Finland",
        "country_code": "fi"
      },
      "address": "27 Pursutie, Kerava, Uusimaa, Finland"
    },
    {
      "lat": 60.37940104698423,
      "lon": 25.0282328152617,
      "geoinfo": {
        "display_name": "Aromikuja, Amer, Sula, Tuusula, Helsinki sub-region, Uusimaa, Mainland Finland, 04320, Finland",
        "road": "Aromikuja",
        "house_number": null,
        "neighbourhood": "Amer",
        "suburb": "Sula",
        "city_district": null,
        "city": "Tuusula",
        "state": "Uusimaa",
        "postcode": "04320",
        "country": "Finland",
        "country_code": "fi"
      },
      "address": "578, Aromikuja, Amer, Sula, Tuusula, Helsinki sub-region, Uusimaa, Mainland Finland, 04320, Finland"
    },
    {
      "lat": 60.405891809642846,
      "lon": 25.193801419029505,
      "geoinfo": {
        "display_name": "18, Björkdalintie, Talma, Sipoo, Helsinki sub-region, Uusimaa, Mainland Finland, 04240, Finland",
        "road": "Björkdalintie",
        "house_number": "18",
        "neighbourhood": null,
        "suburb": null,
        "city_district": null,
        "city": "Sipoo",
        "state": "Uusimaa",
        "postcode": "04240",
        "country": "Finland",
        "country_code": "fi"
      },
      "address": "18, Björkdalintie, Talma, Sipoo, Helsinki sub-region, Uusimaa, Mainland Finland, 04240, Finland"
    }
  ],
  "updated_at": "2025-10-19T04:07:07.672646+00:00",
  "_kind": "geo_samples"
}