{
  "country_code": "FI",
  "country": "Finland",
  "city": "Kuusamo",
  "geonameid": 649924,
  "target_addresses": 2,
  "samples": [
    {
      "lat": 65.98181340987033,
      "lon": 29.21852597451451,
      "geoinfo": {
        "display_name": "Kyhäläntie, Kuusamo, Koillismaa sub-region, North Ostrobothnia, Mainland Finland, 93600, Finland",
        "road": "Kyhäläntie",
        "house_number": null,
        "neighbourhood": null,
        "suburb": null,
        "city_district": null,
        "city": "Kuusamo",
        "state": "North Ostrobothnia",
        "postcode": "93600",
        "country": "Finland",
        "country_code": "fi"
      },
      "address": "Kyhäläntie, Kuusamo, North Ostrobothnia, Finland"
    },
    {
      "lat": 65.92919767279588,
      "lon": 29.230114517168143,
      "geoinfo": {
        "display_name": "Tolpanniemi, Kuusamo, Koillismaa sub-region, North Ostrobothnia, Mainland Finland, Finland",
        "road": null,
        "house_number": null,
        "neighbourhood": null,
        "suburb": "Tolpanniemi",
        "city_district": null,
        "city": "Kuusamo",
        "state": "North Ostrobothnia",
        "postcode": null,
        "country": "Finland",
        "country_code": "fi"
      },
      "address": "Tolpanniemi, Kuusamo, North Ostrobothnia, Finland"
    },
    {
      "lat": 65.94773944685521,
      "lon": 29.164934735455123,
      "geoinfo": {
        "display_name": "Märvehentie, Toranki, Kuusamo, Koillismaa sub-region, North Ostrobothnia, Mainland Finland, 93600, Finland",
        "road": "Märvehentie",
        "house_number": null,
        "neighbourhood": null,
        "suburb": "Toranki",
        "city_district": null,
        "city": "Kuusamo",
        "state": "North Ostrobothnia",
        "postcode": "93600",
        "country": "Finland",
        "country_code": "fi"
      },
      "address": "903, Märvehentie, Toranki, Kuusamo, Koillismaa sub-region, North Ostrobothnia, Mainland Finland, 93600, Finland"
    },
    {
      "lat": 65.98225927770392,
      "lon": 29.120966036819485,
      "geoinfo": {
        "display_name": "Kuusamo, Koillismaa sub-region, North Ostrobothnia, Mainland Finland, Finland",
        "road": null,
        "house_number": null,
        "neighbourhood": null,
        "suburb": null,
        "city_district": null,
        "city": "Kuusamo",
        "state": "North Ostrobothnia",
        "postcode": null,
        "country": "Finland",
        "country_code": "fi"
      },
      "address": "286, Kuusamo, Koillismaa sub-region, North Ostrobothnia, 72203 Mainland Finland, Finland"
    }
  ],
  "updated_at": "2025-10-19T02:33:23.115058+00:00",
  "_kind": "geo_samples"
}