{
  "country_code": "FI",
  "country": "Finland",
  "city": "Lappeenranta",
  "geonameid": 648900,
  "target_addresses": 6,
  "samples": [
    {
      "lat": 61.07608039710134,
      "lon": 28.186394779379622,
      "geoinfo": {
        "display_name": "Satamatie, Rapasaari, Fortress, Lappeenranta, Lappeenranta sub-region, South Karelia, Mainland Finland, 53900, Finland",
        "road": "Satamatie",
        "house_number": null,
        "neighbourhood": null,
        "suburb": "Rapasaari",
        "city_district": null,
        "city": "Lappeenranta",
        "state": "South Karelia",
        "postcode": "53900",
        "country": "Finland",
        "country_code": "fi"
      },
      "address": "Satamatie, Lappeenranta, South Karelia, Finland"
    },
    {
      "lat": 61.03886485281648,
      "lon": 28.246975405763774,
      "geoinfo": {
        "display_name": "6b, Marjamiehenkatu, Karhuvuori, Lappeenranta, Lappeenranta sub-region, South Karelia, Mainland Finland, 53500, Finland",
        "road": "Marjamiehenkatu",
        "house_number": "6b",
        "neighbourhood": null,
        "suburb": "Karhuvuori",
        "city_district": null,
        "city": "Lappeenranta",
        "state": "South Karelia",
        "postcode": "53500",
        "country": "Finland",
        "country_code": "fi"
      },
      "address": "6b Marjamiehenkatu, Lappeenranta, South Karelia, Finland"
    },
    {
      "lat": 61.034733509625696,
      "lon": 28.11714736787014,
      "geoinfo": {
        "display_name": "Kuutostie, Lavola, Montola, Lappeenranta, Lappeenranta sub-region, South Karelia, Mainland Finland, 53810, Finland",
        "road": "Kuutostie",
        "house_number": null,
        "neighbourhood": null,
        "suburb": "Lavola",
        "city_district": null,
        "city": "Lappeenranta",
        "state": "South Karelia",
        "postcode": "53810",
        "country": "Finland",
        "country_code": "fi"
      },
      "address": "051, Kuutostie, Lavola, Montola, Lappeenranta, Lappeenranta sub-region, South Karelia, Mainland Finland, 53810, Finland"
    },
    {
      "lat": 61.056982271791,
      "lon": 28.110251186843023,
      "geoinfo": {
        "display_name": "Skinnarilankatu, Sammonlahti, Lappeenranta, Lappeenranta sub-region, South Karelia, Mainland Finland, 53810, Finland",
        "road": "Skinnarilankatu",
        "house_number": null,
        "neighbourhood": null,
        "suburb": "Sammonlahti",
        "city_district": null,
        "city": "Lappeenranta",
        "state": "South Karelia",
        "postcode": "53810",
        "country": "Finland",
        "country_code": "fi"
      },
      "address": "930, Skinnarilankatu, Sammonlahti, Lappeenranta, Lappeenranta sub-region, South Karelia, Mainland Finland, 53810, Finland"
    },
    {
      "lat": 61.09242243772063,
      "lon": 28.15274669477622,
      "geoinfo": {
        "display_name": "15, Metsäsaimaankatu, Kivisalmi, Lappeenranta, Lappeenranta sub-region, South Karelia, Mainland Finland, 53950, Finland",
        "road": "Metsäsaimaankatu",
        "house_number": "15",
        "neighbourhood": null,
        "suburb": "Kivisalmi",
        "city_district": null,
        "city": "Lappeenranta",
        "state": "South Karelia",
        "postcode": "53950",
        "country": "Finland",
        "country_code": "fi"
      },
      "address": "15, Metsäsaimaankatu, Kivisalmi, Lappeenranta, Lappeenranta sub-region, South Karelia, Mainland Finland, 53950, Finland"
    },
    {
      "lat": 61.050704905927574,
      "lon": 28.221210925464227,
      "geoinfo": {
        "display_name": "Meijerinkatu, Kimpinen, Myllymäki, Lappeenranta, Lappeenranta sub-region, South Karelia, Mainland Finland, 53200, Finland",
        "road": "Meijerinkatu",
        "house_number": null,
        "neighbourhood": null,
        "suburb": "Kimpinen",
        "city_district": null,
        "city": "Lappeenranta",
        "state": "South Karelia",
        "postcode": "53200",
        "country": "Finland",
        "country_code": "fi"
      },
      "address": "570, Meijerinkatu, Kimpinen, Myllymäki, Lappeenranta, Lappeenranta sub-region, South Karelia, Mainland Finland, 53200, Finland"
    }
  ],
  "updated_at": "2025-10-19T04:28:38.575196+00:00",
  "_kind": "geo_samples"
}