{
  "country_code": "FI",
  "country": "Finland",
  "city": "Lieto",
  "geonameid": 648056,
  "target_addresses": 2,
  "samples": [
    {
      "lat": 60.48890494848959,
      "lon": 22.419779301687385,
      "geoinfo": {
        "display_name": "Hämyrintie, Sillilä, Loukinainen, Lieto, Turku sub-region, Southwest Finland, Mainland Finland, 21410, Finland",
        "road": "Hämyrintie",
        "house_number": null,
        "neighbourhood": "Sillilä",
        "suburb": "Loukinainen",
        "city_district": "Lieto",
        "city": "Lieto",
        "state": "Southwest Finland",
        "postcode": "21410",
        "country": "Finland",
        "country_code": "fi"
      },
      "address": "Hämyrintie, Lieto, Southwest Finland, Finland"
    },
    {
      "lat": 60.528844329158815,
      "lon": 22.387763865478473,
      "geoinfo": {
        "display_name": "Pahkalaukkaantie, Tastonmetsä, Lieto, Turku sub-region, Southwest Finland, Mainland Finland, 21350, Finland",
        "road": "Pahkalaukkaantie",
        "house_number": null,
        "neighbourhood": null,
        "suburb": "Tastonmetsä",
        "city_district": "Lieto",
        "city": "Lieto",
        "state": "Southwest Finland",
        "postcode": "21350",
        "country": "Finland",
        "country_code": "fi"
      },
      "address": "Pahkalaukkaantie, Lieto, Southwest Finland, Finland"
    },
    {
      "lat": 60.485989588440546,
      "lon": 22.475810994966977,
      "geoinfo": {
        "display_name": "Tammenkannonkuja, Taatila, Lieto, Turku sub-region, Southwest Finland, Mainland Finland, 21420, Finland",
        "road": "Tammenkannonkuja",
        "house_number": null,
        "neighbourhood": null,
        "suburb": "Taatila",
        "city_district": "Lieto",
        "city": "Lieto",
        "state": "Southwest Finland",
        "postcode": "21420",
        "country": "Finland",
        "country_code": "fi"
      },
      "address": "108, Tammenkannonkuja, Taatila, Lieto, Turku sub-region, Southwest Finland, Mainland Finland, 21420, Finland"
    },
    {
      "lat": 60.4869548337596,
      "lon": 22.48988451147766,
      "geoinfo": {
        "display_name": "Ukurantie, Ukura, Lieto, Turku sub-region, Southwest Finland, Mainland Finland, Finland",
        "road": "Ukurantie",
        "house_number": null,
        "neighbourhood": null,
        "suburb": null,
        "city_district": "Lieto",
        "city": "Lieto",
        "state": "Southwest Finland",
        "postcode": null,
        "country": "Finland",
        "country_code": "fi"
      },
      "address": "246, Ukurantie, Ukura, Lieto, Turku sub-region, Southwest Finland, 86737 Mainland Finland, Finland"
    }
  ],
  "updated_at": "2025-10-19T04:01:35.225992+00:00",
  "_kind": "geo_samples"
}