{
  "country_code": "FI",
  "country": "Finland",
  "city": "Raahe",
  "geonameid": 640276,
  "target_addresses": 2,
  "samples": [
    {
      "lat": 64.685836765839,
      "lon": 24.476561467084643,
      "geoinfo": {
        "display_name": "42, Kauppakatu, Velkaperä, Katinhäntä, Raahe, Raahe sub-region, North Ostrobothnia, Mainland Finland, 92100, Finland",
        "road": "Kauppakatu",
        "house_number": "42",
        "neighbourhood": null,
        "suburb": "Katinhäntä",
        "city_district": "Raahe",
        "city": "Raahe",
        "state": "North Ostrobothnia",
        "postcode": "92100",
        "country": "Finland",
        "country_code": "fi"
      },
      "address": "42 Kauppakatu, Raahe, North Ostrobothnia, Finland"
    },
    {
      "lat": 64.7238696210303,
      "lon": 24.444596863900166,
      "geoinfo": {
        "display_name": "Ilolinna, Raahe, Raahe sub-region, North Ostrobothnia, Mainland Finland, 92100, Finland",
        "road": null,
        "house_number": null,
        "neighbourhood": null,
        "suburb": "Ilolinna",
        "city_district": "Raahe",
        "city": "Raahe",
        "state": "North Ostrobothnia",
        "postcode": "92100",
        "country": "Finland",
        "country_code": "fi"
      },
      "address": "Ilolinna, Raahe, North Ostrobothnia, Finland"
    },
    {
      "lat": 64.72454192865634,
      "lon": 24.492973816441452,
      "geoinfo": {
        "display_name": "Mikonkari, Raahe, Raahe sub-region, North Ostrobothnia, Mainland Finland, 92130, Finland",
        "road": null,
        "house_number": null,
        "neighbourhood": null,
        "suburb": "Mikonkari",
        "city_district": "Raahe",
        "city": "Raahe",
        "state": "North Ostrobothnia",
        "postcode": "92130",
        "country": "Finland",
        "country_code": "fi"
      },
      "address": "508, Mikonkari, Raahe, Raahe sub-region, North Ostrobothnia, Mainland Finland, 92130, Finland"
    },
    {
      "lat": 64.65854616846129,
      "lon": 24.4653230343902,
      "geoinfo": {
        "display_name": "Saloisten Reippari, Seurantie, Junnilanmäki, Raahe, Raahe sub-region, North Ostrobothnia, Mainland Finland, 92160, Finland",
        "road": "Seurantie",
        "house_number": null,
        "neighbourhood": null,
        "suburb": "Junnilanmäki",
        "city_district": "Raahe",
        "city": "Raahe",
        "state": "North Ostrobothnia",
        "postcode": "92160",
        "country": "Finland",
        "country_code": "fi"
      },
      "address": "062, Seurantie, Raahe, 92160 North Ostrobothnia, Finland"
    }
  ],
  "updated_at": "2025-10-19T04:01:27.900632+00:00",
  "_kind": "geo_samples"
}