{
  "country_code": "FI",
  "country": "Finland",
  "city": "Riihimäki",
  "geonameid": 639406,
  "target_addresses": 2,
  "samples": [
    {
      "lat": 60.703660730518564,
      "lon": 24.758863875118713,
      "geoinfo": {
        "display_name": "Silmäkenevan saari 5 A-B, Parmantie, Riihimäki, Riihimäki sub-region, Kanta-Häme, Mainland Finland, 11710, Finland",
        "road": "Parmantie",
        "house_number": null,
        "neighbourhood": null,
        "suburb": null,
        "city_district": null,
        "city": "Riihimäki",
        "state": "Kanta-Häme",
        "postcode": "11710",
        "country": "Finland",
        "country_code": "fi"
      },
      "address": "Parmantie, Riihimäki, Kanta-Häme, Finland"
    },
    {
      "lat": 60.701783917822105,
      "lon": 24.788383586672015,
      "geoinfo": {
        "display_name": "Metsolantie, Riihimäki, Riihimäki sub-region, Kanta-Häme, Mainland Finland, 11130, Finland",
        "road": "Metsolantie",
        "house_number": null,
        "neighbourhood": null,
        "suburb": null,
        "city_district": null,
        "city": "Riihimäki",
        "state": "Kanta-Häme",
        "postcode": "11130",
        "country": "Finland",
        "country_code": "fi"
      },
      "address": "Metsolantie, Riihimäki, Kanta-Häme, Finland"
    },
    {
      "lat": 60.753432333622605,
      "lon": 24.697447008480278,
      "geoinfo": {
        "display_name": "Punkantie, Punkka, Janakkala, Hämeenlinna sub-region, Kanta-Häme, Mainland Finland, 12520, Finland",
        "road": "Punkantie",
        "house_number": null,
        "neighbourhood": null,
        "suburb": null,
        "city_district": null,
        "city": "Punkka",
        "state": "Kanta-Häme",
        "postcode": "12520",
        "country": "Finland",
        "country_code": "fi"
      },
      "address": "590, Punkantie, Punkka, Janakkala, Hämeenlinna sub-region, Kanta-Häme, Mainland Finland, 12520, Finland"
    },
    {
      "lat": 60.7700189964999,
      "lon": 24.746021435555086,
      "geoinfo": {
        "display_name": "151, Riihiviidantie, Riihimäki, Riihimäki sub-region, Kanta-Häme, Mainland Finland, 11120, Finland",
        "road": "Riihiviidantie",
        "house_number": "151",
        "neighbourhood": null,
        "suburb": null,
        "city_district": null,
        "city": "Riihimäki",
        "state": "Kanta-Häme",
        "postcode": "11120",
        "country": "Finland",
        "country_code": "fi"
      },
      "address": "151, Riihiviidantie, Riihimäki, Riihimäki sub-region, Kanta-Häme, Mainland Finland, 11120, Finland"
    }
  ],
  "updated_at": "2025-10-19T04:01:19.267045+00:00",
  "_kind": "geo_samples"
}