{
  "country_code": "FI",
  "country": "Finland",
  "city": "Salo",
  "geonameid": 637948,
  "target_addresses": 2,
  "samples": [
    {
      "lat": 60.39092864278916,
      "lon": 23.21279997635758,
      "geoinfo": {
        "display_name": "Nikkasensuo, Lakianummi, Salo, Salo sub-region, Southwest Finland, Mainland Finland, 24280, Finland",
        "road": null,
        "house_number": null,
        "neighbourhood": null,
        "suburb": "Lakianummi",
        "city_district": null,
        "city": "Salo",
        "state": "Southwest Finland",
        "postcode": "24280",
        "country": "Finland",
        "country_code": "fi"
      },
      "address": "Lakianummi, Salo, Southwest Finland, Finland"
    },
    {
      "lat": 60.40989709215117,
      "lon": 23.07593764059962,
      "geoinfo": {
        "display_name": "Penttijaakontie, Kuru, Halikko, Salo, Salo sub-region, Southwest Finland, Mainland Finland, 24800, Finland",
        "road": "Penttijaakontie",
        "house_number": null,
        "neighbourhood": null,
        "suburb": "Kuru",
        "city_district": null,
        "city": "Salo",
        "state": "Southwest Finland",
        "postcode": "24800",
        "country": "Finland",
        "country_code": "fi"
      },
      "address": "Penttijaakontie, Salo, Southwest Finland, Finland"
    },
    {
      "lat": 60.38701305526472,
      "lon": 23.087614971316714,
      "geoinfo": {
        "display_name": "Joensuun kartano, Meriniityntie, Pajula, Halikko, Salo, Salo sub-region, Southwest Finland, Mainland Finland, 24800, Finland",
        "road": "Meriniityntie",
        "house_number": null,
        "neighbourhood": null,
        "suburb": "Pajula",
        "city_district": null,
        "city": "Salo",
        "state": "Southwest Finland",
        "postcode": "24800",
        "country": "Finland",
        "country_code": "fi"
      },
      "address": "806, Meriniityntie, Salo, 24800 Southwest Finland, Finland"
    },
    {
      "lat": 60.41895581739027,
      "lon": 23.082797890413804,
      "geoinfo": {
        "display_name": "Turku-Helsinki moottoritie, Kuru, Halikko, Salo, Salo sub-region, Southwest Finland, Mainland Finland, 24240, Finland",
        "road": "Turku-Helsinki moottoritie",
        "house_number": null,
        "neighbourhood": null,
        "suburb": "Kuru",
        "city_district": null,
        "city": "Salo",
        "state": "Southwest Finland",
        "postcode": "24240",
        "country": "Finland",
        "country_code": "fi"
      },
      "address": "961, Turku-Helsinki moottoritie, Kuru, Halikko, Salo, Salo sub-region, Southwest Finland, Mainland Finland, 24240, Finland"
    }
  ],
  "updated_at": "2025-10-19T03:55:51.452039+00:00",
  "_kind": "geo_samples"
}