{
  "country_code": "FI",
  "country": "Finland",
  "city": "Taka-Töölö",
  "geonameid": 635080,
  "target_addresses": 5,
  "samples": [
    {
      "lat": 60.18553430777928,
      "lon": 24.924788006821572,
      "geoinfo": {
        "display_name": "Töölön pallokenttä, Paavo Nurmen tie, Eläintarha, Taka-Töölö, Southern major district, Helsinki, Helsinki sub-region, Uusimaa, Mainland Finland, 00260, Finland",
        "road": "Paavo Nurmen tie",
        "house_number": null,
        "neighbourhood": null,
        "suburb": "Taka-Töölö",
        "city_district": "Southern major district",
        "city": "Helsinki",
        "state": "Uusimaa",
        "postcode": "00260",
        "country": "Finland",
        "country_code": "fi"
      },
      "address": "Paavo Nurmen tie, Taka-Töölö, Uusimaa, Finland"
    },
    {
      "lat": 60.15819702766717,
      "lon": 24.961870020205104,
      "geoinfo": {
        "display_name": "10, Ehrenströmintie, Kaivopuisto, Southern major district, Helsinki, Helsinki sub-region, Uusimaa, Mainland Finland, 00160, Finland",
        "road": "Ehrenströmintie",
        "house_number": "10",
        "neighbourhood": null,
        "suburb": "Kaivopuisto",
        "city_district": "Southern major district",
        "city": "Helsinki",
        "state": "Uusimaa",
        "postcode": "00160",
        "country": "Finland",
        "country_code": "fi"
      },
      "address": "10, Ehrenströmintie, Kaivopuisto, Southern major district, Helsinki, Helsinki sub-region, Uusimaa, Mainland Finland, 00160, Finland"
    },
    {
      "lat": 60.21597076636783,
      "lon": 24.91637738638793,
      "geoinfo": {
        "display_name": "Postintaival, Eteläinen Postipuisto, Pohjois-Pasila, Pasila, Central major district, Helsinki, Helsinki sub-region, Uusimaa, Mainland Finland, 00230, Finland",
        "road": "Postintaival",
        "house_number": null,
        "neighbourhood": "Eteläinen Postipuisto",
        "suburb": "Pasila",
        "city_district": "Central major district",
        "city": "Helsinki",
        "state": "Uusimaa",
        "postcode": "00230",
        "country": "Finland",
        "country_code": "fi"
      },
      "address": "090, Postintaival, Eteläinen Postipuisto, Pohjois-Pasila, Pasila, Central major district, Helsinki, Helsinki sub-region, Uusimaa, Mainland Finland, 00230, Finland"
    },
    {
      "lat": 60.208707932635086,
      "lon": 24.907692300304983,
      "geoinfo": {
        "display_name": "Hakamäentie, Kivihaka, Haaga, Western major district, Helsinki, Helsinki sub-region, Uusimaa, Mainland Finland, 00280, Finland",
        "road": "Hakamäentie",
        "house_number": null,
        "neighbourhood": null,
        "suburb": "Haaga",
        "city_district": "Western major district",
        "city": "Helsinki",
        "state": "Uusimaa",
        "postcode": "00280",
        "country": "Finland",
        "country_code": "fi"
      },
      "address": "419, Hakamäentie, Kivihaka, Haaga, Western major district, Helsinki, Helsinki sub-region, Uusimaa, Mainland Finland, 00280, Finland"
    },
    {
      "lat": 60.19000815154992,
      "lon": 24.961453434454004,
      "geoinfo": {
        "display_name": "1, Vääksyntie, Puu-Vallila, Vallila, Central major district, Helsinki, Helsinki sub-region, Uusimaa, Mainland Finland, 00510, Finland",
        "road": "Vääksyntie",
        "house_number": "1",
        "neighbourhood": "Puu-Vallila",
        "suburb": "Vallila",
        "city_district": "Central major district",
        "city": "Helsinki",
        "state": "Uusimaa",
        "postcode": "00510",
        "country": "Finland",
        "country_code": "fi"
      },
      "address": "1, Vääksyntie, Puu-Vallila, Vallila, Central major district, Helsinki, Helsinki sub-region, Uusimaa, Mainland Finland, 00510, Finland"
    }
  ],
  "updated_at": "2025-10-19T04:28:23.590389+00:00",
  "_kind": "geo_samples"
}