{
  "country_code": "FI",
  "country": "Finland",
  "city": "Tampere",
  "geonameid": 634963,
  "target_addresses": 2,
  "samples": [
    {
      "lat": 61.508608253964574,
      "lon": 23.74236779594434,
      "geoinfo": {
        "display_name": "Särkänniemi, 1, Laiturikatu, Onkiniemi, Särkänniemi, Keskustan suuralue, Tampere, Tampere sub-region, Pirkanmaa, Mainland Finland, 33230, Finland",
        "road": "Laiturikatu",
        "house_number": "1",
        "neighbourhood": "Onkiniemi",
        "suburb": "Särkänniemi",
        "city_district": "Keskustan suuralue",
        "city": "Tampere",
        "state": "Pirkanmaa",
        "postcode": "33230",
        "country": "Finland",
        "country_code": "fi"
      },
      "address": "1 Laiturikatu, Tampere, Pirkanmaa, Finland"
    },
    {
      "lat": 61.527523831972736,
      "lon": 23.762987940206205,
      "geoinfo": {
        "display_name": "Petsamo, Keskustan suuralue, Tampere, Tampere sub-region, Pirkanmaa, Mainland Finland, Finland",
        "road": null,
        "house_number": null,
        "neighbourhood": null,
        "suburb": "Petsamo",
        "city_district": "Keskustan suuralue",
        "city": "Tampere",
        "state": "Pirkanmaa",
        "postcode": null,
        "country": "Finland",
        "country_code": "fi"
      },
      "address": "Petsamo, Tampere, Pirkanmaa, Finland"
    },
    {
      "lat": 61.51214944765215,
      "lon": 23.791594300502663,
      "geoinfo": {
        "display_name": "Kaupinpuistonkatu, Petsamo, Keskustan suuralue, Tampere, Tampere sub-region, Pirkanmaa, Mainland Finland, 33500, Finland",
        "road": "Kaupinpuistonkatu",
        "house_number": null,
        "neighbourhood": null,
        "suburb": "Petsamo",
        "city_district": "Keskustan suuralue",
        "city": "Tampere",
        "state": "Pirkanmaa",
        "postcode": "33500",
        "country": "Finland",
        "country_code": "fi"
      },
      "address": "982, Kaupinpuistonkatu, Petsamo, Keskustan suuralue, Tampere, Tampere sub-region, Pirkanmaa, Mainland Finland, 33500, Finland"
    },
    {
      "lat": 61.527693648581405,
      "lon": 23.735075579541746,
      "geoinfo": {
        "display_name": "Reuharinniemen lapinrauniot, Kölikatu, Reuharinniemi, Lentävänniemi, Luoteinen suuralue, Tampere, Tampere sub-region, Pirkanmaa, Mainland Finland, 33410, Finland",
        "road": "Kölikatu",
        "house_number": null,
        "neighbourhood": null,
        "suburb": "Lentävänniemi",
        "city_district": "Luoteinen suuralue",
        "city": "Tampere",
        "state": "Pirkanmaa",
        "postcode": "33410",
        "country": "Finland",
        "country_code": "fi"
      },
      "address": "642, Kölikatu, Tampere, 33410 Pirkanmaa, Finland"
    }
  ],
  "updated_at": "2025-10-19T02:14:34.693205+00:00",
  "_kind": "geo_samples"
}