{
  "country_code": "FI",
  "country": "Finland",
  "city": "Vuosaari",
  "geonameid": 631077,
  "target_addresses": 2,
  "samples": [
    {
      "lat": 60.20711451628592,
      "lon": 25.220105682849148,
      "geoinfo": {
        "display_name": "Container Road, Vuosaaren satama, Vuosaari, Eastern major district, Helsinki, Helsinki sub-region, Uusimaa, Mainland Finland, 01100, Finland",
        "road": "Container Road",
        "house_number": null,
        "neighbourhood": null,
        "suburb": "Vuosaari",
        "city_district": "Eastern major district",
        "city": "Helsinki",
        "state": "Uusimaa",
        "postcode": "01100",
        "country": "Finland",
        "country_code": "fi"
      },
      "address": "Container Road, Vuosaari, Uusimaa, Finland"
    },
    {
      "lat": 60.174442355868976,
      "lon": 25.149894162996812,
      "geoinfo": {
        "display_name": "56, Santinen, Kallahti, Vuosaari, Eastern major district, Helsinki, Helsinki sub-region, Uusimaa, Mainland Finland, 00990, Finland",
        "road": null,
        "house_number": "56",
        "neighbourhood": null,
        "suburb": "Vuosaari",
        "city_district": "Eastern major district",
        "city": "Helsinki",
        "state": "Uusimaa",
        "postcode": "00990",
        "country": "Finland",
        "country_code": "fi"
      },
      "address": "Vuosaari, Vuosaari, Uusimaa, Finland"
    },
    {
      "lat": 60.23804192710861,
      "lon": 25.20272578804105,
      "geoinfo": {
        "display_name": "Ribbingintie, Talosaari, Östersundom major district, Helsinki, Helsinki sub-region, Uusimaa, Mainland Finland, 01100, Finland",
        "road": "Ribbingintie",
        "house_number": null,
        "neighbourhood": null,
        "suburb": "Talosaari",
        "city_district": "Östersundom major district",
        "city": "Helsinki",
        "state": "Uusimaa",
        "postcode": "01100",
        "country": "Finland",
        "country_code": "fi"
      },
      "address": "923, Ribbingintie, Talosaari, Östersundom major district, Helsinki, Helsinki sub-region, Uusimaa, Mainland Finland, 01100, Finland"
    },
    {
      "lat": 60.19977799184021,
      "lon": 25.161282058709286,
      "geoinfo": {
        "display_name": "Aurinkoranta, Aurinkolahti, Vuosaari, Eastern major district, Helsinki, Helsinki sub-region, Uusimaa, Mainland Finland, 00995, Finland",
        "road": "Aurinkoranta",
        "house_number": null,
        "neighbourhood": null,
        "suburb": "Vuosaari",
        "city_district": "Eastern major district",
        "city": "Helsinki",
        "state": "Uusimaa",
        "postcode": "00995",
        "country": "Finland",
        "country_code": "fi"
      },
      "address": "029, Aurinkoranta, Aurinkolahti, Vuosaari, Eastern major district, Helsinki, Helsinki sub-region, Uusimaa, Mainland Finland, 00995, Finland"
    }
  ],
  "updated_at": "2025-10-19T05:03:40.012526+00:00",
  "_kind": "geo_samples"
}