{
  "country_code": "CI",
  "country": "Ivory Coast",
  "city": "Bangolo Tahouake",
  "geonameid": 2292180,
  "target_addresses": 3,
  "samples": [
    {
      "lat": 7.059023131111243,
      "lon": -7.17822300574821,
      "geoinfo": {
        "display_name": "Guinglo-Tahouaké, Guémon, Montagnes, Côte d'Ivoire",
        "road": null,
        "house_number": null,
        "neighbourhood": null,
        "suburb": null,
        "city_district": null,
        "city": "Guinglo-Tahouaké",
        "state": "Montagnes",
        "postcode": null,
        "country": "Côte d'Ivoire",
        "country_code": "ci"
      },
      "address": "Bangolo Tahouake, Montagnes, Ivory Coast"
    },
    {
      "lat": 7.071034335821727,
      "lon": -7.158696970783775,
      "geoinfo": {
        "display_name": "Dioulabougou, Guémon, Montagnes, Côte d'Ivoire",
        "road": null,
        "house_number": null,
        "neighbourhood": null,
        "suburb": null,
        "city_district": null,
        "city": "Dioulabougou",
        "state": "Montagnes",
        "postcode": null,
        "country": "Côte d'Ivoire",
        "country_code": "ci"
      },
      "address": "459, Bangolo Tahouake, 32584 Montagnes, Ivory Coast"
    },
    {
      "lat": 7.044780061339996,
      "lon": -7.177049102025175,
      "geoinfo": {
        "display_name": "Bangolo-Tahouaké, Guémon, Montagnes, Côte d'Ivoire",
        "road": null,
        "house_number": null,
        "neighbourhood": null,
        "suburb": null,
        "city_district": null,
        "city": "Bangolo-Tahouaké",
        "state": "Montagnes",
        "postcode": null,
        "country": "Côte d'Ivoire",
        "country_code": "ci"
      },
      "address": "451, Bangolo Tahouake, 12596 Montagnes, Ivory Coast"
    }
  ],
  "updated_at": "2025-10-19T03:47:08.659983+00:00",
  "_kind": "geo_samples"
}