{
  "country_code": "CI",
  "country": "Ivory Coast",
  "city": "Nambingué",
  "geonameid": 2284030,
  "target_addresses": 3,
  "samples": [
    {
      "lat": 10.045056549485361,
      "lon": -5.305158276173546,
      "geoinfo": {
        "display_name": "A300, Farakoro, Walourouyavogo, Diawala, Tchologo, Savanes, Côte d'Ivoire",
        "road": "A300",
        "house_number": null,
        "neighbourhood": "Farakoro",
        "suburb": null,
        "city_district": null,
        "city": "Diawala",
        "state": "Savanes",
        "postcode": null,
        "country": "Côte d'Ivoire",
        "country_code": "ci"
      },
      "address": "A300, Nambingué, Savanes, Ivory Coast"
    },
    {
      "lat": 10.021574836159207,
      "lon": -5.330134900925144,
      "geoinfo": {
        "display_name": "Nambingué, Tchologo, Savanes, Côte d'Ivoire",
        "road": null,
        "house_number": null,
        "neighbourhood": null,
        "suburb": null,
        "city_district": null,
        "city": "Nambingué",
        "state": "Savanes",
        "postcode": null,
        "country": "Côte d'Ivoire",
        "country_code": "ci"
      },
      "address": "197, Nambingué, Tchologo, 43130 Savanes, Côte d'Ivoire"
    },
    {
      "lat": 10.059797527868156,
      "lon": -5.308859802050719,
      "geoinfo": {
        "display_name": "Zepeka1, Tchologo, Savanes, Côte d'Ivoire",
        "road": null,
        "house_number": null,
        "neighbourhood": null,
        "suburb": null,
        "city_district": null,
        "city": "Zepeka1",
        "state": "Savanes",
        "postcode": null,
        "country": "Côte d'Ivoire",
        "country_code": "ci"
      },
      "address": "672, Nambingué, 10574 Savanes, Ivory Coast"
    }
  ],
  "updated_at": "2025-10-19T03:46:26.615448+00:00",
  "_kind": "geo_samples"
}