{
  "country_code": "VA",
  "country": "Vatican",
  "city": "Vatican City",
  "geonameid": 6691831,
  "target_addresses": 100,
  "samples": [
    {
      "lat": 41.90270598689716,
      "lon": 12.454259992610627,
      "geoinfo": {
        "display_name": "Apostolic Palace, Foundation Street, Vatican City, 00120, Vatican City",
        "road": "Foundation Street",
        "house_number": null,
        "neighbourhood": null,
        "suburb": "Vatican City",
        "city_district": null,
        "city": null,
        "state": null,
        "postcode": "00120",
        "country": "Vatican City",
        "country_code": "va"
      },
      "address": "754, Foundation Street, 00120 Vatican City, Vatican"
    },
    {
      "lat": 41.903172665504265,
      "lon": 12.45448181930949,
      "geoinfo": {
        "display_name": "Apostolic Palace, Foundation Street, Vatican City, 00120, Vatican City",
        "road": "Foundation Street",
        "house_number": null,
        "neighbourhood": null,
        "suburb": "Vatican City",
        "city_district": null,
        "city": null,
        "state": null,
        "postcode": "00120",
        "country": "Vatican City",
        "country_code": "va"
      },
      "address": "300, Foundation Street, 00120 Vatican City, Vatican"
    },
    {
      "lat": 41.902480877395234,
      "lon": 12.45345431083855,
      "geoinfo": {
        "display_name": "Saint Peter's Basilica, Sakristeistraße, Vatican City, 00120, Vatican City",
        "road": "Sakristeistraße",
        "house_number": null,
        "neighbourhood": null,
        "suburb": "Vatican City",
        "city_district": null,
        "city": null,
        "state": null,
        "postcode": "00120",
        "country": "Vatican City",
        "country_code": "va"
      },
      "address": "383, Sakristeistraße, 00120 Vatican City, Vatican"
    },
    {
      "lat": 41.9026170871772,
      "lon": 12.454303362648567,
      "geoinfo": {
        "display_name": "Patio of Saint Gregory the Illuminator, Vatican City, 00120, Vatican City",
        "road": "Patio of Saint Gregory the Illuminator",
        "house_number": null,
        "neighbourhood": null,
        "suburb": "Vatican City",
        "city_district": null,
        "city": null,
        "state": null,
        "postcode": "00120",
        "country": "Vatican City",
        "country_code": "va"
      },
      "address": "563, Patio of Saint Gregory the Illuminator, 00120 Vatican City, Vatican"
    },
    {
      "lat": 41.90198353816458,
      "lon": 12.453460889940715,
      "geoinfo": {
        "display_name": "Cupola di San Pietro, St. Stephen's Square, Vatican City, 00120, Vatican City",
        "road": "St. Stephen's Square",
        "house_number": null,
        "neighbourhood": null,
        "suburb": "Vatican City",
        "city_district": null,
        "city": null,
        "state": null,
        "postcode": "00120",
        "country": "Vatican City",
        "country_code": "va"
      },
      "address": "215, St. Stephen's Square, 00120 Vatican City, Vatican"
    },
    {
      "lat": 41.90281734403066,
      "lon": 12.454566842216105,
      "geoinfo": {
        "display_name": "Apostolic Palace, Foundation Street, Vatican City, 00120, Vatican City",
        "road": "Foundation Street",
        "house_number": null,
        "neighbourhood": null,
        "suburb": "Vatican City",
        "city_district": null,
        "city": null,
        "state": null,
        "postcode": "00120",
        "country": "Vatican City",
        "country_code": "va"
      },
      "address": "121, Foundation Street, 00120 Vatican City, Vatican"
    },
    {
      "lat": 41.901964603992724,
      "lon": 12.453662006591044,
      "geoinfo": {
        "display_name": "Saint Peter's Basilica, Sakristeistraße, Vatican City, 00120, Vatican City",
        "road": "Sakristeistraße",
        "house_number": null,
        "neighbourhood": null,
        "suburb": "Vatican City",
        "city_district": null,
        "city": null,
        "state": null,
        "postcode": "00120",
        "country": "Vatican City",
        "country_code": "va"
      },
      "address": "050, Sakristeistraße, 00120 Vatican City, Vatican"
    },
    {
      "lat": 41.90296933356139,
      "lon": 12.453828257948288,
      "geoinfo": {
        "display_name": "Foundation Street, Vatican City, 00120, Vatican City",
        "road": "Foundation Street",
        "house_number": null,
        "neighbourhood": null,
        "suburb": "Vatican City",
        "city_district": null,
        "city": null,
        "state": null,
        "postcode": "00120",
        "country": "Vatican City",
        "country_code": "va"
      },
      "address": "661, Foundation Street, 00120 Vatican City, Vatican"
    },
    {
      "lat": 41.90248481011917,
      "lon": 12.45368517162564,
      "geoinfo": {
        "display_name": "Saint Peter's Basilica, Sakristeistraße, Vatican City, 00120, Vatican City",
        "road": "Sakristeistraße",
        "house_number": null,
        "neighbourhood": null,
        "suburb": "Vatican City",
        "city_district": null,
        "city": null,
        "state": null,
        "postcode": "00120",
        "country": "Vatican City",
        "country_code": "va"
      },
      "address": "585, Sakristeistraße, 00120 Vatican City, Vatican"
    },
    {
      "lat": 41.90258438500173,
      "lon": 12.453422384255413,
      "geoinfo": {
        "display_name": "Saint Peter's Basilica, Sakristeistraße, Vatican City, 00120, Vatican City",
        "road": "Sakristeistraße",
        "house_number": null,
        "neighbourhood": null,
        "suburb": "Vatican City",
        "city_district": null,
        "city": null,
        "state": null,
        "postcode": "00120",
        "country": "Vatican City",
        "country_code": "va"
      },
      "address": "910, Sakristeistraße, 00120 Vatican City, Vatican"
    },
    {
      "lat": 41.902272011878196,
      "lon": 12.454872309354785,
      "geoinfo": {
        "display_name": "Saint Peter's Basilica, Sakristeistraße, Vatican City, 00120, Vatican City",
        "road": "Sakristeistraße",
        "house_number": null,
        "neighbourhood": null,
        "suburb": "Vatican City",
        "city_district": null,
        "city": null,
        "state": null,
        "postcode": "00120",
        "country": "Vatican City",
        "country_code": "va"
      },
      "address": "094, Sakristeistraße, 00120 Vatican City, Vatican"
    },
    {
      "lat": 41.9024248933172,
      "lon": 12.453956657060187,
      "geoinfo": {
        "display_name": "Saint Peter's Basilica, Sakristeistraße, Vatican City, 00120, Vatican City",
        "road": "Sakristeistraße",
        "house_number": null,
        "neighbourhood": null,
        "suburb": "Vatican City",
        "city_district": null,
        "city": null,
        "state": null,
        "postcode": "00120",
        "country": "Vatican City",
        "country_code": "va"
      },
      "address": "935, Sakristeistraße, 00120 Vatican City, Vatican"
    },
    {
      "lat": 41.90272561058444,
      "lon": 12.453824307265908,
      "geoinfo": {
        "display_name": "Foundation Street, Vatican City, 00120, Vatican City",
        "road": "Foundation Street",
        "house_number": null,
        "neighbourhood": null,
        "suburb": "Vatican City",
        "city_district": null,
        "city": null,
        "state": null,
        "postcode": "00120",
        "country": "Vatican City",
        "country_code": "va"
      },
      "address": "942, Foundation Street, 00120 Vatican City, Vatican"
    },
    {
      "lat": 41.9021783301146,
      "lon": 12.454476960351972,
      "geoinfo": {
        "display_name": "Saint Peter's Basilica, Sakristeistraße, Vatican City, 00120, Vatican City",
        "road": "Sakristeistraße",
        "house_number": null,
        "neighbourhood": null,
        "suburb": "Vatican City",
        "city_district": null,
        "city": null,
        "state": null,
        "postcode": "00120",
        "country": "Vatican City",
        "country_code": "va"
      },
      "address": "121, Sakristeistraße, 00120 Vatican City, Vatican"
    },
    {
      "lat": 41.90292245168464,
      "lon": 12.453441173814884,
      "geoinfo": {
        "display_name": "Apostolic Palace, Foundation Street, Vatican City, 00120, Vatican City",
        "road": "Foundation Street",
        "house_number": null,
        "neighbourhood": null,
        "suburb": "Vatican City",
        "city_district": null,
        "city": null,
        "state": null,
        "postcode": "00120",
        "country": "Vatican City",
        "country_code": "va"
      },
      "address": "681, Foundation Street, 00120 Vatican City, Vatican"
    },
    {
      "lat": 41.90221465220638,
      "lon": 12.454307366478904,
      "geoinfo": {
        "display_name": "Saint Peter's Basilica, Sakristeistraße, Vatican City, 00120, Vatican City",
        "road": "Sakristeistraße",
        "house_number": null,
        "neighbourhood": null,
        "suburb": "Vatican City",
        "city_district": null,
        "city": null,
        "state": null,
        "postcode": "00120",
        "country": "Vatican City",
        "country_code": "va"
      },
      "address": "538, Sakristeistraße, 00120 Vatican City, Vatican"
    },
    {
      "lat": 41.90251374440783,
      "lon": 12.453546655462937,
      "geoinfo": {
        "display_name": "Saint Peter's Basilica, Sakristeistraße, Vatican City, 00120, Vatican City",
        "road": "Sakristeistraße",
        "house_number": null,
        "neighbourhood": null,
        "suburb": "Vatican City",
        "city_district": null,
        "city": null,
        "state": null,
        "postcode": "00120",
        "country": "Vatican City",
        "country_code": "va"
      },
      "address": "376, Sakristeistraße, 00120 Vatican City, Vatican"
    },
    {
      "lat": 41.90279622829333,
      "lon": 12.453875644052948,
      "geoinfo": {
        "display_name": "Foundation Street, Vatican City, 00120, Vatican City",
        "road": "Foundation Street",
        "house_number": null,
        "neighbourhood": null,
        "suburb": "Vatican City",
        "city_district": null,
        "city": null,
        "state": null,
        "postcode": "00120",
        "country": "Vatican City",
        "country_code": "va"
      },
      "address": "418, Foundation Street, 00120 Vatican City, Vatican"
    },
    {
      "lat": 41.903008820794916,
      "lon": 12.453200006423328,
      "geoinfo": {
        "display_name": "Governorate Street, Vatican City, 00120, Vatican City",
        "road": "Governorate Street",
        "house_number": null,
        "neighbourhood": null,
        "suburb": "Vatican City",
        "city_district": null,
        "city": null,
        "state": null,
        "postcode": "00120",
        "country": "Vatican City",
        "country_code": "va"
      },
      "address": "690, Governorate Street, 00120 Vatican City, Vatican"
    },
    {
      "lat": 41.90317449453069,
      "lon": 12.454362143214423,
      "geoinfo": {
        "display_name": "Apostolic Palace, Foundation Street, Vatican City, 00120, Vatican City",
        "road": "Foundation Street",
        "house_number": null,
        "neighbourhood": null,
        "suburb": "Vatican City",
        "city_district": null,
        "city": null,
        "state": null,
        "postcode": "00120",
        "country": "Vatican City",
        "country_code": "va"
      },
      "address": "664, Foundation Street, 00120 Vatican City, Vatican"
    },
    {
      "lat": 41.90254752609588,
      "lon": 12.454317612968072,
      "geoinfo": {
        "display_name": "Patio of Saint Gregory the Illuminator, Vatican City, 00120, Vatican City",
        "road": "Patio of Saint Gregory the Illuminator",
        "house_number": null,
        "neighbourhood": null,
        "suburb": "Vatican City",
        "city_district": null,
        "city": null,
        "state": null,
        "postcode": "00120",
        "country": "Vatican City",
        "country_code": "va"
      },
      "address": "850, Patio of Saint Gregory the Illuminator, 00120 Vatican City, Vatican"
    },
    {
      "lat": 41.90203120239903,
      "lon": 12.454239045745425,
      "geoinfo": {
        "display_name": "Saint Peter's Basilica, Sakristeistraße, Vatican City, 00120, Vatican City",
        "road": "Sakristeistraße",
        "house_number": null,
        "neighbourhood": null,
        "suburb": "Vatican City",
        "city_district": null,
        "city": null,
        "state": null,
        "postcode": "00120",
        "country": "Vatican City",
        "country_code": "va"
      },
      "address": "010, Sakristeistraße, 00120 Vatican City, Vatican"
    },
    {
      "lat": 41.90285971833979,
      "lon": 12.454539937961089,
      "geoinfo": {
        "display_name": "Sistine Chapel, Cortile Borgia, Vatican City, 00120, Vatican City",
        "road": "Cortile Borgia",
        "house_number": null,
        "neighbourhood": null,
        "suburb": "Vatican City",
        "city_district": null,
        "city": null,
        "state": null,
        "postcode": "00120",
        "country": "Vatican City",
        "country_code": "va"
      },
      "address": "872, Cortile Borgia, 00120 Vatican City, Vatican"
    },
    {
      "lat": 41.90256638161431,
      "lon": 12.454037256054809,
      "geoinfo": {
        "display_name": "Saint Peter's Basilica, Sakristeistraße, Vatican City, 00120, Vatican City",
        "road": "Sakristeistraße",
        "house_number": null,
        "neighbourhood": null,
        "suburb": "Vatican City",
        "city_district": null,
        "city": null,
        "state": null,
        "postcode": "00120",
        "country": "Vatican City",
        "country_code": "va"
      },
      "address": "709, Sakristeistraße, 00120 Vatican City, Vatican"
    },
    {
      "lat": 41.90210590191815,
      "lon": 12.454950505538777,
      "geoinfo": {
        "display_name": "St. John the Baptist, Basilica Forecourt, Vatican City, 00120, Vatican City",
        "road": "Basilica Forecourt",
        "house_number": null,
        "neighbourhood": null,
        "suburb": "Vatican City",
        "city_district": null,
        "city": null,
        "state": null,
        "postcode": "00120",
        "country": "Vatican City",
        "country_code": "va"
      },
      "address": "030, Basilica Forecourt, 00120 Vatican City, Vatican"
    },
    {
      "lat": 41.90326998591207,
      "lon": 12.453542261026808,
      "geoinfo": {
        "display_name": "Rampa dell'Archeologia, Vatican City, 00120, Vatican City",
        "road": "Rampa dell'Archeologia",
        "house_number": null,
        "neighbourhood": null,
        "suburb": "Vatican City",
        "city_district": null,
        "city": null,
        "state": null,
        "postcode": "00120",
        "country": "Vatican City",
        "country_code": "va"
      },
      "address": "531, Rampa dell'Archeologia, 00120 Vatican City, Vatican"
    },
    {
      "lat": 41.90244440728825,
      "lon": 12.453284513091432,
      "geoinfo": {
        "display_name": "Saint Peter's Basilica, Sakristeistraße, Vatican City, 00120, Vatican City",
        "road": "Sakristeistraße",
        "house_number": null,
        "neighbourhood": null,
        "suburb": "Vatican City",
        "city_district": null,
        "city": null,
        "state": null,
        "postcode": "00120",
        "country": "Vatican City",
        "country_code": "va"
      },
      "address": "858, Sakristeistraße, 00120 Vatican City, Vatican"
    },
    {
      "lat": 41.90282747203224,
      "lon": 12.454808672202898,
      "geoinfo": {
        "display_name": "Apostolic Palace, Foundation Street, Vatican City, 00120, Vatican City",
        "road": "Foundation Street",
        "house_number": null,
        "neighbourhood": null,
        "suburb": "Vatican City",
        "city_district": null,
        "city": null,
        "state": null,
        "postcode": "00120",
        "country": "Vatican City",
        "country_code": "va"
      },
      "address": "421, Foundation Street, 00120 Vatican City, Vatican"
    },
    {
      "lat": 41.90274418673935,
      "lon": 12.45414923742889,
      "geoinfo": {
        "display_name": "Apostolic Palace, Foundation Street, Vatican City, 00120, Vatican City",
        "road": "Foundation Street",
        "house_number": null,
        "neighbourhood": null,
        "suburb": "Vatican City",
        "city_district": null,
        "city": null,
        "state": null,
        "postcode": "00120",
        "country": "Vatican City",
        "country_code": "va"
      },
      "address": "958, Foundation Street, 00120 Vatican City, Vatican"
    },
    {
      "lat": 41.90189442658712,
      "lon": 12.453886785219321,
      "geoinfo": {
        "display_name": "Saint Peter's Basilica, Sakristeistraße, Vatican City, 00120, Vatican City",
        "road": "Sakristeistraße",
        "house_number": null,
        "neighbourhood": null,
        "suburb": "Vatican City",
        "city_district": null,
        "city": null,
        "state": null,
        "postcode": "00120",
        "country": "Vatican City",
        "country_code": "va"
      },
      "address": "131, Sakristeistraße, 00120 Vatican City, Vatican"
    },
    {
      "lat": 41.902308494343835,
      "lon": 12.454221012124645,
      "geoinfo": {
        "display_name": "Saint Peter's Basilica, Sakristeistraße, Vatican City, 00120, Vatican City",
        "road": "Sakristeistraße",
        "house_number": null,
        "neighbourhood": null,
        "suburb": "Vatican City",
        "city_district": null,
        "city": null,
        "state": null,
        "postcode": "00120",
        "country": "Vatican City",
        "country_code": "va"
      },
      "address": "757, Sakristeistraße, 00120 Vatican City, Vatican"
    },
    {
      "lat": 41.902044989787434,
      "lon": 12.454001261633662,
      "geoinfo": {
        "display_name": "Saint Peter's Basilica, Sakristeistraße, Vatican City, 00120, Vatican City",
        "road": "Sakristeistraße",
        "house_number": null,
        "neighbourhood": null,
        "suburb": "Vatican City",
        "city_district": null,
        "city": null,
        "state": null,
        "postcode": "00120",
        "country": "Vatican City",
        "country_code": "va"
      },
      "address": "137, Sakristeistraße, 00120 Vatican City, Vatican"
    },
    {
      "lat": 41.90291460963374,
      "lon": 12.453541688024698,
      "geoinfo": {
        "display_name": "Apostolic Palace, Foundation Street, Vatican City, 00120, Vatican City",
        "road": "Foundation Street",
        "house_number": null,
        "neighbourhood": null,
        "suburb": "Vatican City",
        "city_district": null,
        "city": null,
        "state": null,
        "postcode": "00120",
        "country": "Vatican City",
        "country_code": "va"
      },
      "address": "015, Foundation Street, 00120 Vatican City, Vatican"
    },
    {
      "lat": 41.902990560101514,
      "lon": 12.453343986426171,
      "geoinfo": {
        "display_name": "Apostolic Palace, Foundation Street, Vatican City, 00120, Vatican City",
        "road": "Foundation Street",
        "house_number": null,
        "neighbourhood": null,
        "suburb": "Vatican City",
        "city_district": null,
        "city": null,
        "state": null,
        "postcode": "00120",
        "country": "Vatican City",
        "country_code": "va"
      },
      "address": "069, Foundation Street, 00120 Vatican City, Vatican"
    },
    {
      "lat": 41.90290385791117,
      "lon": 12.453424114435917,
      "geoinfo": {
        "display_name": "Saint Peter's Basilica, Sakristeistraße, Vatican City, 00120, Vatican City",
        "road": "Sakristeistraße",
        "house_number": null,
        "neighbourhood": null,
        "suburb": "Vatican City",
        "city_district": null,
        "city": null,
        "state": null,
        "postcode": "00120",
        "country": "Vatican City",
        "country_code": "va"
      },
      "address": "992, Sakristeistraße, 00120 Vatican City, Vatican"
    },
    {
      "lat": 41.90337394591195,
      "lon": 12.453931422053957,
      "geoinfo": {
        "display_name": "Rampa dell'Archeologia, Vatican City, 00120, Vatican City",
        "road": "Rampa dell'Archeologia",
        "house_number": null,
        "neighbourhood": null,
        "suburb": "Vatican City",
        "city_district": null,
        "city": null,
        "state": null,
        "postcode": "00120",
        "country": "Vatican City",
        "country_code": "va"
      },
      "address": "980, Rampa dell'Archeologia, 00120 Vatican City, Vatican"
    },
    {
      "lat": 41.90256345041764,
      "lon": 12.453830932807898,
      "geoinfo": {
        "display_name": "Saint Peter's Basilica, St. Stephen's Square, Vatican City, 00120, Vatican City",
        "road": "St. Stephen's Square",
        "house_number": null,
        "neighbourhood": null,
        "suburb": "Vatican City",
        "city_district": null,
        "city": null,
        "state": null,
        "postcode": "00120",
        "country": "Vatican City",
        "country_code": "va"
      },
      "address": "940, St. Stephen's Square, 00120 Vatican City, Vatican"
    },
    {
      "lat": 41.90299445238275,
      "lon": 12.455028670957308,
      "geoinfo": {
        "display_name": "Apostolic Palace, Courtyard of St. Damasco, Vatican City, 00120, Vatican City",
        "road": "Courtyard of St. Damasco",
        "house_number": null,
        "neighbourhood": null,
        "suburb": "Vatican City",
        "city_district": null,
        "city": null,
        "state": null,
        "postcode": "00120",
        "country": "Vatican City",
        "country_code": "va"
      },
      "address": "520, Courtyard of St. Damasco, 00120 Vatican City, Vatican"
    },
    {
      "lat": 41.903423719159,
      "lon": 12.454444308330398,
      "geoinfo": {
        "display_name": "Vatican Museums, Via Sant'Anna, Vatican City, 00120, Vatican City",
        "road": "Via Sant'Anna",
        "house_number": null,
        "neighbourhood": null,
        "suburb": "Vatican City",
        "city_district": null,
        "city": null,
        "state": null,
        "postcode": "00120",
        "country": "Vatican City",
        "country_code": "va"
      },
      "address": "632, Via Sant'Anna, 00120 Vatican City, Vatican"
    },
    {
      "lat": 41.90183131546071,
      "lon": 12.454392952503715,
      "geoinfo": {
        "display_name": "Arco delle Campane, Vatican City, 00120, Vatican City",
        "road": "Arco delle Campane",
        "house_number": null,
        "neighbourhood": null,
        "suburb": "Vatican City",
        "city_district": null,
        "city": null,
        "state": null,
        "postcode": "00120",
        "country": "Vatican City",
        "country_code": "va"
      },
      "address": "085, Arco delle Campane, 00120 Vatican City, Vatican"
    },
    {
      "lat": 41.90182406901419,
      "lon": 12.454273316420846,
      "geoinfo": {
        "display_name": "Saint Peter's Basilica, St. Stephen's Square, Vatican City, 00120, Vatican City",
        "road": "St. Stephen's Square",
        "house_number": null,
        "neighbourhood": null,
        "suburb": "Vatican City",
        "city_district": null,
        "city": null,
        "state": null,
        "postcode": "00120",
        "country": "Vatican City",
        "country_code": "va"
      },
      "address": "859, St. Stephen's Square, 00120 Vatican City, Vatican"
    },
    {
      "lat": 41.901902281765324,
      "lon": 12.45377210651487,
      "geoinfo": {
        "display_name": "Saint Peter's Basilica, St. Stephen's Square, Vatican City, 00120, Vatican City",
        "road": "St. Stephen's Square",
        "house_number": null,
        "neighbourhood": null,
        "suburb": "Vatican City",
        "city_district": null,
        "city": null,
        "state": null,
        "postcode": "00120",
        "country": "Vatican City",
        "country_code": "va"
      },
      "address": "382, St. Stephen's Square, 00120 Vatican City, Vatican"
    },
    {
      "lat": 41.90297025894098,
      "lon": 12.453356886766509,
      "geoinfo": {
        "display_name": "Foundation Street, Vatican City, 00120, Vatican City",
        "road": "Foundation Street",
        "house_number": null,
        "neighbourhood": null,
        "suburb": "Vatican City",
        "city_district": null,
        "city": null,
        "state": null,
        "postcode": "00120",
        "country": "Vatican City",
        "country_code": "va"
      },
      "address": "285, Foundation Street, 00120 Vatican City, Vatican"
    },
    {
      "lat": 41.90253030676835,
      "lon": 12.453087150958735,
      "geoinfo": {
        "display_name": "Saint Peter's Basilica, St. Stephen's Square, Vatican City, 00120, Vatican City",
        "road": "St. Stephen's Square",
        "house_number": null,
        "neighbourhood": null,
        "suburb": "Vatican City",
        "city_district": null,
        "city": null,
        "state": null,
        "postcode": "00120",
        "country": "Vatican City",
        "country_code": "va"
      },
      "address": "295, St. Stephen's Square, 00120 Vatican City, Vatican"
    },
    {
      "lat": 41.9022487936735,
      "lon": 12.453470131393606,
      "geoinfo": {
        "display_name": "Saint Peter's Basilica, St. Stephen's Square, Vatican City, 00120, Vatican City",
        "road": "St. Stephen's Square",
        "house_number": null,
        "neighbourhood": null,
        "suburb": "Vatican City",
        "city_district": null,
        "city": null,
        "state": null,
        "postcode": "00120",
        "country": "Vatican City",
        "country_code": "va"
      },
      "address": "786, St. Stephen's Square, 00120 Vatican City, Vatican"
    },
    {
      "lat": 41.90207391618339,
      "lon": 12.45369801070639,
      "geoinfo": {
        "display_name": "Cupola di San Pietro, St. Stephen's Square, Vatican City, 00120, Vatican City",
        "road": "St. Stephen's Square",
        "house_number": null,
        "neighbourhood": null,
        "suburb": "Vatican City",
        "city_district": null,
        "city": null,
        "state": null,
        "postcode": "00120",
        "country": "Vatican City",
        "country_code": "va"
      },
      "address": "283, St. Stephen's Square, 00120 Vatican City, Vatican"
    },
    {
      "lat": 41.9028821737632,
      "lon": 12.453338607014896,
      "geoinfo": {
        "display_name": "Saint Peter's Basilica, St. Stephen's Square, Vatican City, 00120, Vatican City",
        "road": "St. Stephen's Square",
        "house_number": null,
        "neighbourhood": null,
        "suburb": "Vatican City",
        "city_district": null,
        "city": null,
        "state": null,
        "postcode": "00120",
        "country": "Vatican City",
        "country_code": "va"
      },
      "address": "511, St. Stephen's Square, 00120 Vatican City, Vatican"
    },
    {
      "lat": 41.90268893040813,
      "lon": 12.454669065521658,
      "geoinfo": {
        "display_name": "Apostolic Palace, Courtyard of St. Damasco, Vatican City, 00120, Vatican City",
        "road": "Courtyard of St. Damasco",
        "house_number": null,
        "neighbourhood": null,
        "suburb": "Vatican City",
        "city_district": null,
        "city": null,
        "state": null,
        "postcode": "00120",
        "country": "Vatican City",
        "country_code": "va"
      },
      "address": "962, Courtyard of St. Damasco, 00120 Vatican City, Vatican"
    },
    {
      "lat": 41.90207256600804,
      "lon": 12.454801697235197,
      "geoinfo": {
        "display_name": "Saint Peter's Basilica, St. Stephen's Square, Vatican City, 00120, Vatican City",
        "road": "St. Stephen's Square",
        "house_number": null,
        "neighbourhood": null,
        "suburb": "Vatican City",
        "city_district": null,
        "city": null,
        "state": null,
        "postcode": "00120",
        "country": "Vatican City",
        "country_code": "va"
      },
      "address": "492, St. Stephen's Square, 00120 Vatican City, Vatican"
    },
    {
      "lat": 41.902694859866905,
      "lon": 12.452960364927383,
      "geoinfo": {
        "display_name": "Saint Peter's Basilica, St. Stephen's Square, Vatican City, 00120, Vatican City",
        "road": "St. Stephen's Square",
        "house_number": null,
        "neighbourhood": null,
        "suburb": "Vatican City",
        "city_district": null,
        "city": null,
        "state": null,
        "postcode": "00120",
        "country": "Vatican City",
        "country_code": "va"
      },
      "address": "655, St. Stephen's Square, 00120 Vatican City, Vatican"
    },
    {
      "lat": 41.902219996461426,
      "lon": 12.453887909059999,
      "geoinfo": {
        "display_name": "Saint Peter's Basilica, St. Stephen's Square, Vatican City, 00120, Vatican City",
        "road": "St. Stephen's Square",
        "house_number": null,
        "neighbourhood": null,
        "suburb": "Vatican City",
        "city_district": null,
        "city": null,
        "state": null,
        "postcode": "00120",
        "country": "Vatican City",
        "country_code": "va"
      },
      "address": "250, St. Stephen's Square, 00120 Vatican City, Vatican"
    },
    {
      "lat": 41.90214007729364,
      "lon": 12.45331580015716,
      "geoinfo": {
        "display_name": "Cupola di San Pietro, St. Stephen's Square, Vatican City, 00120, Vatican City",
        "road": "St. Stephen's Square",
        "house_number": null,
        "neighbourhood": null,
        "suburb": "Vatican City",
        "city_district": null,
        "city": null,
        "state": null,
        "postcode": "00120",
        "country": "Vatican City",
        "country_code": "va"
      },
      "address": "443, St. Stephen's Square, 00120 Vatican City, Vatican"
    },
    {
      "lat": 41.901902350933426,
      "lon": 12.453950765164434,
      "geoinfo": {
        "display_name": "Saint Peter's Basilica, St. Stephen's Square, Vatican City, 00120, Vatican City",
        "road": "St. Stephen's Square",
        "house_number": null,
        "neighbourhood": null,
        "suburb": "Vatican City",
        "city_district": null,
        "city": null,
        "state": null,
        "postcode": "00120",
        "country": "Vatican City",
        "country_code": "va"
      },
      "address": "053, St. Stephen's Square, 00120 Vatican City, Vatican"
    },
    {
      "lat": 41.90220555163795,
      "lon": 12.45364047301404,
      "geoinfo": {
        "display_name": "Vatican Necropolis, Patio of Saint Gregory the Illuminator, Vatican City, 00120, Vatican City",
        "road": "Patio of Saint Gregory the Illuminator",
        "house_number": null,
        "neighbourhood": null,
        "suburb": "Vatican City",
        "city_district": null,
        "city": null,
        "state": null,
        "postcode": "00120",
        "country": "Vatican City",
        "country_code": "va"
      },
      "address": "410, Patio of Saint Gregory the Illuminator, 00120 Vatican City, Vatican"
    },
    {
      "lat": 41.90236958569669,
      "lon": 12.453838326847249,
      "geoinfo": {
        "display_name": "Saint Peter's Basilica, St. Stephen's Square, Vatican City, 00120, Vatican City",
        "road": "St. Stephen's Square",
        "house_number": null,
        "neighbourhood": null,
        "suburb": "Vatican City",
        "city_district": null,
        "city": null,
        "state": null,
        "postcode": "00120",
        "country": "Vatican City",
        "country_code": "va"
      },
      "address": "467, St. Stephen's Square, 00120 Vatican City, Vatican"
    },
    {
      "lat": 41.90287075982007,
      "lon": 12.45500953967315,
      "geoinfo": {
        "display_name": "Apostolic Palace, Courtyard of St. Damasco, Vatican City, 00120, Vatican City",
        "road": "Courtyard of St. Damasco",
        "house_number": null,
        "neighbourhood": null,
        "suburb": "Vatican City",
        "city_district": null,
        "city": null,
        "state": null,
        "postcode": "00120",
        "country": "Vatican City",
        "country_code": "va"
      },
      "address": "651, Courtyard of St. Damasco, 00120 Vatican City, Vatican"
    },
    {
      "lat": 41.90289528430244,
      "lon": 12.45467248427359,
      "geoinfo": {
        "display_name": "Sistine Chapel, Cortile Borgia, Vatican City, 00120, Vatican City",
        "road": "Cortile Borgia",
        "house_number": null,
        "neighbourhood": null,
        "suburb": "Vatican City",
        "city_district": null,
        "city": null,
        "state": null,
        "postcode": "00120",
        "country": "Vatican City",
        "country_code": "va"
      },
      "address": "080, Cortile Borgia, 00120 Vatican City, Vatican"
    },
    {
      "lat": 41.90262380169078,
      "lon": 12.454109856979477,
      "geoinfo": {
        "display_name": "Saint Peter's Basilica, St. Stephen's Square, Vatican City, 00120, Vatican City",
        "road": "St. Stephen's Square",
        "house_number": null,
        "neighbourhood": null,
        "suburb": "Vatican City",
        "city_district": null,
        "city": null,
        "state": null,
        "postcode": "00120",
        "country": "Vatican City",
        "country_code": "va"
      },
      "address": "429, St. Stephen's Square, 00120 Vatican City, Vatican"
    },
    {
      "lat": 41.9028712793602,
      "lon": 12.454832134616247,
      "geoinfo": {
        "display_name": "Apostolic Palace, Courtyard of St. Damasco, Vatican City, 00120, Vatican City",
        "road": "Courtyard of St. Damasco",
        "house_number": null,
        "neighbourhood": null,
        "suburb": "Vatican City",
        "city_district": null,
        "city": null,
        "state": null,
        "postcode": "00120",
        "country": "Vatican City",
        "country_code": "va"
      },
      "address": "209, Courtyard of St. Damasco, 00120 Vatican City, Vatican"
    },
    {
      "lat": 41.90305266318911,
      "lon": 12.454234305217794,
      "geoinfo": {
        "display_name": "Apostolic Palace, Courtyard of St. Damasco, Vatican City, 00120, Vatican City",
        "road": "Courtyard of St. Damasco",
        "house_number": null,
        "neighbourhood": null,
        "suburb": "Vatican City",
        "city_district": null,
        "city": null,
        "state": null,
        "postcode": "00120",
        "country": "Vatican City",
        "country_code": "va"
      },
      "address": "769, Courtyard of St. Damasco, 00120 Vatican City, Vatican"
    },
    {
      "lat": 41.903075355689175,
      "lon": 12.454683277544742,
      "geoinfo": {
        "display_name": "Cortile Borgia, Vatican City, 00120, Vatican City",
        "road": "Cortile Borgia",
        "house_number": null,
        "neighbourhood": null,
        "suburb": "Vatican City",
        "city_district": null,
        "city": null,
        "state": null,
        "postcode": "00120",
        "country": "Vatican City",
        "country_code": "va"
      },
      "address": "517, Cortile Borgia, 00120 Vatican City, Vatican"
    },
    {
      "lat": 41.90218674660242,
      "lon": 12.453632718635003,
      "geoinfo": {
        "display_name": "Cupola di San Pietro, St. Stephen's Square, Vatican City, 00120, Vatican City",
        "road": "St. Stephen's Square",
        "house_number": null,
        "neighbourhood": null,
        "suburb": "Vatican City",
        "city_district": null,
        "city": null,
        "state": null,
        "postcode": "00120",
        "country": "Vatican City",
        "country_code": "va"
      },
      "address": "592, St. Stephen's Square, 00120 Vatican City, Vatican"
    },
    {
      "lat": 41.90299533752614,
      "lon": 12.453723816032026,
      "geoinfo": {
        "display_name": "Foundation Street, Vatican City, 00120, Vatican City",
        "road": "Foundation Street",
        "house_number": null,
        "neighbourhood": null,
        "suburb": "Vatican City",
        "city_district": null,
        "city": null,
        "state": null,
        "postcode": "00120",
        "country": "Vatican City",
        "country_code": "va"
      },
      "address": "694, Foundation Street, 00120 Vatican City, Vatican"
    },
    {
      "lat": 41.90218607894173,
      "lon": 12.45420875808576,
      "geoinfo": {
        "display_name": "Saint Peter's Basilica, St. Stephen's Square, Vatican City, 00120, Vatican City",
        "road": "St. Stephen's Square",
        "house_number": null,
        "neighbourhood": null,
        "suburb": "Vatican City",
        "city_district": null,
        "city": null,
        "state": null,
        "postcode": "00120",
        "country": "Vatican City",
        "country_code": "va"
      },
      "address": "620, St. Stephen's Square, 00120 Vatican City, Vatican"
    },
    {
      "lat": 41.90239611946289,
      "lon": 12.453237502383427,
      "geoinfo": {
        "display_name": "Cupola di San Pietro, St. Stephen's Square, Vatican City, 00120, Vatican City",
        "road": "St. Stephen's Square",
        "house_number": null,
        "neighbourhood": null,
        "suburb": "Vatican City",
        "city_district": null,
        "city": null,
        "state": null,
        "postcode": "00120",
        "country": "Vatican City",
        "country_code": "va"
      },
      "address": "057, St. Stephen's Square, 00120 Vatican City, Vatican"
    },
    {
      "lat": 41.9025916902617,
      "lon": 12.453620444996034,
      "geoinfo": {
        "display_name": "Foundation Street, Vatican City, 00120, Vatican City",
        "road": "Foundation Street",
        "house_number": null,
        "neighbourhood": null,
        "suburb": "Vatican City",
        "city_district": null,
        "city": null,
        "state": null,
        "postcode": "00120",
        "country": "Vatican City",
        "country_code": "va"
      },
      "address": "010, Foundation Street, 00120 Vatican City, Vatican"
    },
    {
      "lat": 41.90292484122226,
      "lon": 12.455010813378248,
      "geoinfo": {
        "display_name": "Apostolic Palace, Courtyard of St. Damasco, Vatican City, 00120, Vatican City",
        "road": "Courtyard of St. Damasco",
        "house_number": null,
        "neighbourhood": null,
        "suburb": "Vatican City",
        "city_district": null,
        "city": null,
        "state": null,
        "postcode": "00120",
        "country": "Vatican City",
        "country_code": "va"
      },
      "address": "933, Courtyard of St. Damasco, 00120 Vatican City, Vatican"
    },
    {
      "lat": 41.902177570932274,
      "lon": 12.454756559219556,
      "geoinfo": {
        "display_name": "Saint Peter's Basilica, St. Stephen's Square, Vatican City, 00120, Vatican City",
        "road": "St. Stephen's Square",
        "house_number": null,
        "neighbourhood": null,
        "suburb": "Vatican City",
        "city_district": null,
        "city": null,
        "state": null,
        "postcode": "00120",
        "country": "Vatican City",
        "country_code": "va"
      },
      "address": "107, St. Stephen's Square, 00120 Vatican City, Vatican"
    },
    {
      "lat": 41.90244061791631,
      "lon": 12.454657445311657,
      "geoinfo": {
        "display_name": "Saint Peter's Basilica, St. Stephen's Square, Vatican City, 00120, Vatican City",
        "road": "St. Stephen's Square",
        "house_number": null,
        "neighbourhood": null,
        "suburb": "Vatican City",
        "city_district": null,
        "city": null,
        "state": null,
        "postcode": "00120",
        "country": "Vatican City",
        "country_code": "va"
      },
      "address": "670, St. Stephen's Square, 00120 Vatican City, Vatican"
    },
    {
      "lat": 41.90285303744527,
      "lon": 12.455320534259998,
      "geoinfo": {
        "display_name": "Apostolic Palace, Courtyard of St. Damasco, Vatican City, 00120, Vatican City",
        "road": "Courtyard of St. Damasco",
        "house_number": null,
        "neighbourhood": null,
        "suburb": "Vatican City",
        "city_district": null,
        "city": null,
        "state": null,
        "postcode": "00120",
        "country": "Vatican City",
        "country_code": "va"
      },
      "address": "857, Courtyard of St. Damasco, 00120 Vatican City, Vatican"
    },
    {
      "lat": 41.90239458196635,
      "lon": 12.453995482410681,
      "geoinfo": {
        "display_name": "Saint Peter's Basilica, St. Stephen's Square, Vatican City, 00120, Vatican City",
        "road": "St. Stephen's Square",
        "house_number": null,
        "neighbourhood": null,
        "suburb": "Vatican City",
        "city_district": null,
        "city": null,
        "state": null,
        "postcode": "00120",
        "country": "Vatican City",
        "country_code": "va"
      },
      "address": "555, St. Stephen's Square, 00120 Vatican City, Vatican"
    },
    {
      "lat": 41.90272150972394,
      "lon": 12.453406535053096,
      "geoinfo": {
        "display_name": "Saint Peter's Basilica, St. Stephen's Square, Vatican City, 00120, Vatican City",
        "road": "St. Stephen's Square",
        "house_number": null,
        "neighbourhood": null,
        "suburb": "Vatican City",
        "city_district": null,
        "city": null,
        "state": null,
        "postcode": "00120",
        "country": "Vatican City",
        "country_code": "va"
      },
      "address": "044, St. Stephen's Square, 00120 Vatican City, Vatican"
    },
    {
      "lat": 41.90185954527857,
      "lon": 12.454010077224115,
      "geoinfo": {
        "display_name": "Saint Peter's Basilica, St. Stephen's Square, Vatican City, 00120, Vatican City",
        "road": "St. Stephen's Square",
        "house_number": null,
        "neighbourhood": null,
        "suburb": "Vatican City",
        "city_district": null,
        "city": null,
        "state": null,
        "postcode": "00120",
        "country": "Vatican City",
        "country_code": "va"
      },
      "address": "159, St. Stephen's Square, 00120 Vatican City, Vatican"
    },
    {
      "lat": 41.902786793176865,
      "lon": 12.454614397728632,
      "geoinfo": {
        "display_name": "Apostolic Palace, Courtyard of St. Damasco, Vatican City, 00120, Vatican City",
        "road": "Courtyard of St. Damasco",
        "house_number": null,
        "neighbourhood": null,
        "suburb": "Vatican City",
        "city_district": null,
        "city": null,
        "state": null,
        "postcode": "00120",
        "country": "Vatican City",
        "country_code": "va"
      },
      "address": "692, Courtyard of St. Damasco, 00120 Vatican City, Vatican"
    },
    {
      "lat": 41.90284184951855,
      "lon": 12.455241911156206,
      "geoinfo": {
        "display_name": "Apostolic Palace, Courtyard of St. Damasco, Vatican City, 00120, Vatican City",
        "road": "Courtyard of St. Damasco",
        "house_number": null,
        "neighbourhood": null,
        "suburb": "Vatican City",
        "city_district": null,
        "city": null,
        "state": null,
        "postcode": "00120",
        "country": "Vatican City",
        "country_code": "va"
      },
      "address": "425, Courtyard of St. Damasco, 00120 Vatican City, Vatican"
    },
    {
      "lat": 41.90307680057939,
      "lon": 12.455031015570702,
      "geoinfo": {
        "display_name": "Cortile del Pappagallo, Vatican City, 00120, Vatican City",
        "road": "Cortile del Pappagallo",
        "house_number": null,
        "neighbourhood": null,
        "suburb": "Vatican City",
        "city_district": null,
        "city": null,
        "state": null,
        "postcode": "00120",
        "country": "Vatican City",
        "country_code": "va"
      },
      "address": "241, Cortile del Pappagallo, 00120 Vatican City, Vatican"
    },
    {
      "lat": 41.90346163582992,
      "lon": 12.454027421235905,
      "geoinfo": {
        "display_name": "Viale Oscar Romero, Vatican City, 00120, Vatican City",
        "road": "Viale Oscar Romero",
        "house_number": null,
        "neighbourhood": null,
        "suburb": "Vatican City",
        "city_district": null,
        "city": null,
        "state": null,
        "postcode": "00120",
        "country": "Vatican City",
        "country_code": "va"
      },
      "address": "014, Viale Oscar Romero, 00120 Vatican City, Vatican"
    },
    {
      "lat": 41.902487025607975,
      "lon": 12.453177910782909,
      "geoinfo": {
        "display_name": "Saint Peter's Basilica, St. Stephen's Square, Vatican City, 00120, Vatican City",
        "road": "St. Stephen's Square",
        "house_number": null,
        "neighbourhood": null,
        "suburb": "Vatican City",
        "city_district": null,
        "city": null,
        "state": null,
        "postcode": "00120",
        "country": "Vatican City",
        "country_code": "va"
      },
      "address": "394, St. Stephen's Square, 00120 Vatican City, Vatican"
    },
    {
      "lat": 41.90249827037072,
      "lon": 12.454640400292327,
      "geoinfo": {
        "display_name": "Saint Peter's Basilica, St. Stephen's Square, Vatican City, 00120, Vatican City",
        "road": "St. Stephen's Square",
        "house_number": null,
        "neighbourhood": null,
        "suburb": "Vatican City",
        "city_district": null,
        "city": null,
        "state": null,
        "postcode": "00120",
        "country": "Vatican City",
        "country_code": "va"
      },
      "address": "378, St. Stephen's Square, 00120 Vatican City, Vatican"
    },
    {
      "lat": 41.902509610123005,
      "lon": 12.453731887100892,
      "geoinfo": {
        "display_name": "Saint Peter's Basilica, St. Stephen's Square, Vatican City, 00120, Vatican City",
        "road": "St. Stephen's Square",
        "house_number": null,
        "neighbourhood": null,
        "suburb": "Vatican City",
        "city_district": null,
        "city": null,
        "state": null,
        "postcode": "00120",
        "country": "Vatican City",
        "country_code": "va"
      },
      "address": "290, St. Stephen's Square, 00120 Vatican City, Vatican"
    },
    {
      "lat": 41.90306819757617,
      "lon": 12.453066296019351,
      "geoinfo": {
        "display_name": "Governorate Street, Vatican City, 00120, Vatican City",
        "road": "Governorate Street",
        "house_number": null,
        "neighbourhood": null,
        "suburb": "Vatican City",
        "city_district": null,
        "city": null,
        "state": null,
        "postcode": "00120",
        "country": "Vatican City",
        "country_code": "va"
      },
      "address": "508, Governorate Street, 00120 Vatican City, Vatican"
    },
    {
      "lat": 41.90317991508941,
      "lon": 12.454440208460072,
      "geoinfo": {
        "display_name": "Apostolic Palace, Courtyard of St. Damasco, Vatican City, 00120, Vatican City",
        "road": "Courtyard of St. Damasco",
        "house_number": null,
        "neighbourhood": null,
        "suburb": "Vatican City",
        "city_district": null,
        "city": null,
        "state": null,
        "postcode": "00120",
        "country": "Vatican City",
        "country_code": "va"
      },
      "address": "288, Courtyard of St. Damasco, 00120 Vatican City, Vatican"
    },
    {
      "lat": 41.90220557868757,
      "lon": 12.45429897935627,
      "geoinfo": {
        "display_name": "Saint Peter's Basilica, St. Stephen's Square, Vatican City, 00120, Vatican City",
        "road": "St. Stephen's Square",
        "house_number": null,
        "neighbourhood": null,
        "suburb": "Vatican City",
        "city_district": null,
        "city": null,
        "state": null,
        "postcode": "00120",
        "country": "Vatican City",
        "country_code": "va"
      },
      "address": "616, St. Stephen's Square, 00120 Vatican City, Vatican"
    },
    {
      "lat": 41.90347228229214,
      "lon": 12.454514447388084,
      "geoinfo": {
        "display_name": "Belvedere Courtyard, Via Sant'Anna, Vatican City, 00120, Vatican City",
        "road": "Via Sant'Anna",
        "house_number": null,
        "neighbourhood": null,
        "suburb": "Vatican City",
        "city_district": null,
        "city": null,
        "state": null,
        "postcode": "00120",
        "country": "Vatican City",
        "country_code": "va"
      },
      "address": "218, Via Sant'Anna, 00120 Vatican City, Vatican"
    },
    {
      "lat": 41.90231547563755,
      "lon": 12.454862668708103,
      "geoinfo": {
        "display_name": "Saint Peter's Basilica, St. Stephen's Square, Vatican City, 00120, Vatican City",
        "road": "St. Stephen's Square",
        "house_number": null,
        "neighbourhood": null,
        "suburb": "Vatican City",
        "city_district": null,
        "city": null,
        "state": null,
        "postcode": "00120",
        "country": "Vatican City",
        "country_code": "va"
      },
      "address": "075, St. Stephen's Square, 00120 Vatican City, Vatican"
    },
    {
      "lat": 41.902682808245736,
      "lon": 12.453240010341593,
      "geoinfo": {
        "display_name": "Saint Peter's Basilica, St. Stephen's Square, Vatican City, 00120, Vatican City",
        "road": "St. Stephen's Square",
        "house_number": null,
        "neighbourhood": null,
        "suburb": "Vatican City",
        "city_district": null,
        "city": null,
        "state": null,
        "postcode": "00120",
        "country": "Vatican City",
        "country_code": "va"
      },
      "address": "332, St. Stephen's Square, 00120 Vatican City, Vatican"
    },
    {
      "lat": 41.90275390241899,
      "lon": 12.454781147662143,
      "geoinfo": {
        "display_name": "Apostolic Palace, Courtyard of St. Damasco, Vatican City, 00120, Vatican City",
        "road": "Courtyard of St. Damasco",
        "house_number": null,
        "neighbourhood": null,
        "suburb": "Vatican City",
        "city_district": null,
        "city": null,
        "state": null,
        "postcode": "00120",
        "country": "Vatican City",
        "country_code": "va"
      },
      "address": "804, Courtyard of St. Damasco, 00120 Vatican City, Vatican"
    },
    {
      "lat": 41.90220993953604,
      "lon": 12.454533922391981,
      "geoinfo": {
        "display_name": "Saint Peter's Basilica, St. Stephen's Square, Vatican City, 00120, Vatican City",
        "road": "St. Stephen's Square",
        "house_number": null,
        "neighbourhood": null,
        "suburb": "Vatican City",
        "city_district": null,
        "city": null,
        "state": null,
        "postcode": "00120",
        "country": "Vatican City",
        "country_code": "va"
      },
      "address": "142, St. Stephen's Square, 00120 Vatican City, Vatican"
    },
    {
      "lat": 41.90305836204147,
      "lon": 12.453359616488877,
      "geoinfo": {
        "display_name": "Governorate Street, Vatican City, 00120, Vatican City",
        "road": "Governorate Street",
        "house_number": null,
        "neighbourhood": null,
        "suburb": "Vatican City",
        "city_district": null,
        "city": null,
        "state": null,
        "postcode": "00120",
        "country": "Vatican City",
        "country_code": "va"
      },
      "address": "341, Governorate Street, 00120 Vatican City, Vatican"
    },
    {
      "lat": 41.9024435067935,
      "lon": 12.45433080934573,
      "geoinfo": {
        "display_name": "Saint Peter's Basilica, St. Stephen's Square, Vatican City, 00120, Vatican City",
        "road": "St. Stephen's Square",
        "house_number": null,
        "neighbourhood": null,
        "suburb": "Vatican City",
        "city_district": null,
        "city": null,
        "state": null,
        "postcode": "00120",
        "country": "Vatican City",
        "country_code": "va"
      },
      "address": "173, St. Stephen's Square, 00120 Vatican City, Vatican"
    },
    {
      "lat": 41.90245729166368,
      "lon": 12.454273271231944,
      "geoinfo": {
        "display_name": "Saint Peter's Basilica, St. Stephen's Square, Vatican City, 00120, Vatican City",
        "road": "St. Stephen's Square",
        "house_number": null,
        "neighbourhood": null,
        "suburb": "Vatican City",
        "city_district": null,
        "city": null,
        "state": null,
        "postcode": "00120",
        "country": "Vatican City",
        "country_code": "va"
      },
      "address": "383, St. Stephen's Square, 00120 Vatican City, Vatican"
    },
    {
      "lat": 41.90209721762181,
      "lon": 12.45394445273907,
      "geoinfo": {
        "display_name": "Saint Peter's Basilica, St. Stephen's Square, Vatican City, 00120, Vatican City",
        "road": "St. Stephen's Square",
        "house_number": null,
        "neighbourhood": null,
        "suburb": "Vatican City",
        "city_district": null,
        "city": null,
        "state": null,
        "postcode": "00120",
        "country": "Vatican City",
        "country_code": "va"
      },
      "address": "585, St. Stephen's Square, 00120 Vatican City, Vatican"
    },
    {
      "lat": 41.902318455118326,
      "lon": 12.454926168683178,
      "geoinfo": {
        "display_name": "St. James the Younger, Basilica Forecourt, Vatican City, 00120, Vatican City",
        "road": "Basilica Forecourt",
        "house_number": null,
        "neighbourhood": null,
        "suburb": "Vatican City",
        "city_district": null,
        "city": null,
        "state": null,
        "postcode": "00120",
        "country": "Vatican City",
        "country_code": "va"
      },
      "address": "388, Basilica Forecourt, 00120 Vatican City, Vatican"
    },
    {
      "lat": 41.90284534578073,
      "lon": 12.453422003413383,
      "geoinfo": {
        "display_name": "Saint Peter's Basilica, St. Stephen's Square, Vatican City, 00120, Vatican City",
        "road": "St. Stephen's Square",
        "house_number": null,
        "neighbourhood": null,
        "suburb": "Vatican City",
        "city_district": null,
        "city": null,
        "state": null,
        "postcode": "00120",
        "country": "Vatican City",
        "country_code": "va"
      },
      "address": "845, St. Stephen's Square, 00120 Vatican City, Vatican"
    },
    {
      "lat": 41.901842968989584,
      "lon": 12.454525899525528,
      "geoinfo": {
        "display_name": "Arco delle Campane, Vatican City, 00120, Vatican City",
        "road": "Arco delle Campane",
        "house_number": null,
        "neighbourhood": null,
        "suburb": "Vatican City",
        "city_district": null,
        "city": null,
        "state": null,
        "postcode": "00120",
        "country": "Vatican City",
        "country_code": "va"
      },
      "address": "380, Arco delle Campane, 00120 Vatican City, Vatican"
    },
    {
      "lat": 41.90213228258014,
      "lon": 12.453452334897793,
      "geoinfo": {
        "display_name": "Cupola di San Pietro, St. Stephen's Square, Vatican City, 00120, Vatican City",
        "road": "St. Stephen's Square",
        "house_number": null,
        "neighbourhood": null,
        "suburb": "Vatican City",
        "city_district": null,
        "city": null,
        "state": null,
        "postcode": "00120",
        "country": "Vatican City",
        "country_code": "va"
      },
      "address": "399, St. Stephen's Square, 00120 Vatican City, Vatican"
    }
  ],
  "updated_at": "2025-10-21T20:57:03.943972+00:00",
  "_kind": "geo_samples"
}