{
  "country_code": "MN",
  "country": "Mongolia",
  "city": "Baruun-Urt",
  "geonameid": 2032614,
  "target_addresses": 5,
  "samples": [
    {
      "lat": 46.69335517599587,
      "lon": 113.25900151724838,
      "geoinfo": {
        "display_name": "Tumentsogt - Baruun Urt, Tumentsogt, Baruun-Urt, Mönkhkhaan, Sükhbaatar, Mongolia",
        "road": "Tumentsogt - Baruun Urt",
        "house_number": null,
        "neighbourhood": null,
        "suburb": null,
        "city_district": null,
        "city": "Baruun-Urt",
        "state": "Sükhbaatar",
        "postcode": null,
        "country": "Mongolia",
        "country_code": "mn"
      },
      "address": "Tumentsogt - Baruun Urt, Baruun-Urt, Sükhbaatar, Mongolia"
    },
    {
      "lat": 46.670883870409725,
      "lon": 113.3077930227938,
      "geoinfo": {
        "display_name": "Baruun-Urt, Sükhbaatar, 22070, Mongolia",
        "road": null,
        "house_number": null,
        "neighbourhood": null,
        "suburb": null,
        "city_district": null,
        "city": "Baruun-Urt",
        "state": "Sükhbaatar",
        "postcode": "22070",
        "country": "Mongolia",
        "country_code": "mn"
      },
      "address": "Baruun-Urt, Sükhbaatar, Mongolia"
    },
    {
      "lat": 46.6774041500826,
      "lon": 113.33447859245958,
      "geoinfo": {
        "display_name": "Baruun Urt - Sukhbaatar, Sukhbaatar, Sükhbaatar, Mongolia",
        "road": "Baruun Urt - Sukhbaatar",
        "house_number": null,
        "neighbourhood": null,
        "suburb": null,
        "city_district": null,
        "city": "Sukhbaatar",
        "state": "Sükhbaatar",
        "postcode": null,
        "country": "Mongolia",
        "country_code": "mn"
      },
      "address": "Baruun Urt - Sukhbaatar, Baruun-Urt, Sükhbaatar, Mongolia"
    },
    {
      "lat": 46.669508011884965,
      "lon": 113.30218202810153,
      "geoinfo": {
        "display_name": "Baruun-Urt-Asgat, Baruun-Urt, Asgat, Sükhbaatar, Mongolia",
        "road": "Baruun-Urt-Asgat",
        "house_number": null,
        "neighbourhood": null,
        "suburb": null,
        "city_district": null,
        "city": "Baruun-Urt",
        "state": "Sükhbaatar",
        "postcode": null,
        "country": "Mongolia",
        "country_code": "mn"
      },
      "address": "Baruun-Urt-Asgat, Baruun-Urt, Sükhbaatar, Mongolia"
    },
    {
      "lat": 46.70457318381179,
      "lon": 113.3102003804028,
      "geoinfo": {
        "display_name": "Наадаан ресорт, Choibalsan - Baruun-Urt - Tsairt Чойбалсан - Баруун-урт - Цайрт, Baruun-Urt, Sukhbaatar, Sükhbaatar, 22070, Mongolia",
        "road": "Choibalsan - Baruun-Urt - Tsairt Чойбалсан - Баруун-урт - Цайрт",
        "house_number": null,
        "neighbourhood": null,
        "suburb": null,
        "city_district": null,
        "city": "Baruun-Urt",
        "state": "Sükhbaatar",
        "postcode": "22070",
        "country": "Mongolia",
        "country_code": "mn"
      },
      "address": "Choibalsan - Baruun-Urt - Tsairt Чойбалсан - Баруун-урт - Цайрт, Baruun-Urt, Sükhbaatar, Mongolia"
    },
    {
      "lat": 46.68187572538006,
      "lon": 113.23368818018183,
      "geoinfo": {
        "display_name": "Enderkhaan - Baruun-Urt, Baruun-Urt, Sukhbaatar, Sükhbaatar, Mongolia",
        "road": "Enderkhaan - Baruun-Urt",
        "house_number": null,
        "neighbourhood": null,
        "suburb": null,
        "city_district": null,
        "city": "Baruun-Urt",
        "state": "Sükhbaatar",
        "postcode": null,
        "country": "Mongolia",
        "country_code": "mn"
      },
      "address": "949, Enderkhaan - Baruun-Urt, Baruun-Urt, Sukhbaatar, 36340 Sükhbaatar, Mongolia"
    },
    {
      "lat": 46.64731771008658,
      "lon": 113.27844519080566,
      "geoinfo": {
        "display_name": "Sukhbaatar, Sükhbaatar, Mongolia",
        "road": null,
        "house_number": null,
        "neighbourhood": null,
        "suburb": null,
        "city_district": null,
        "city": null,
        "state": "Sükhbaatar",
        "postcode": null,
        "country": "Mongolia",
        "country_code": "mn"
      },
      "address": "577, Baruun-Urt, 84969 Sükhbaatar, Mongolia"
    },
    {
      "lat": 46.69002552243194,
      "lon": 113.32481769626966,
      "geoinfo": {
        "display_name": "Baruun-Urt, Sükhbaatar, 22070, Mongolia",
        "road": null,
        "house_number": null,
        "neighbourhood": null,
        "suburb": null,
        "city_district": null,
        "city": "Baruun-Urt",
        "state": "Sükhbaatar",
        "postcode": "22070",
        "country": "Mongolia",
        "country_code": "mn"
      },
      "address": "073, Baruun-Urt, Sükhbaatar, 22070, Mongolia"
    },
    {
      "lat": 46.64931058834131,
      "lon": 113.31700903111486,
      "geoinfo": {
        "display_name": "Sukhbaatar, Sükhbaatar, Mongolia",
        "road": null,
        "house_number": null,
        "neighbourhood": null,
        "suburb": null,
        "city_district": null,
        "city": null,
        "state": "Sükhbaatar",
        "postcode": null,
        "country": "Mongolia",
        "country_code": "mn"
      },
      "address": "291, Baruun-Urt, 88312 Sükhbaatar, Mongolia"
    },
    {
      "lat": 46.67673960324783,
      "lon": 113.2586765861035,
      "geoinfo": {
        "display_name": "Baruun-Urt, Sükhbaatar, 22070, Mongolia",
        "road": null,
        "house_number": null,
        "neighbourhood": null,
        "suburb": null,
        "city_district": null,
        "city": "Baruun-Urt",
        "state": "Sükhbaatar",
        "postcode": "22070",
        "country": "Mongolia",
        "country_code": "mn"
      },
      "address": "154, Baruun-Urt, Sükhbaatar, 22070, Mongolia"
    }
  ],
  "updated_at": "2025-10-19T04:20:35.531608+00:00",
  "_kind": "geo_samples"
}