{
  "country_code": "MN",
  "country": "Mongolia",
  "city": "Bogd",
  "geonameid": 2030474,
  "target_addresses": 5,
  "samples": [
    {
      "lat": 44.65544579458641,
      "lon": 102.16684326075168,
      "geoinfo": {
        "display_name": "Bogd, Övörkhangai, Mongolia",
        "road": null,
        "house_number": null,
        "neighbourhood": null,
        "suburb": null,
        "city_district": null,
        "city": "Bogd",
        "state": "Övörkhangai",
        "postcode": null,
        "country": "Mongolia",
        "country_code": "mn"
      },
      "address": "Bogd, Övörkhangai, Mongolia"
    },
    {
      "lat": 44.69734905579279,
      "lon": 102.16546651278168,
      "geoinfo": {
        "display_name": "Arvaikheer - Bogd, Богд, Bogd, Övörkhangai, Mongolia",
        "road": "Arvaikheer - Bogd",
        "house_number": null,
        "neighbourhood": null,
        "suburb": null,
        "city_district": null,
        "city": "Bogd",
        "state": "Övörkhangai",
        "postcode": null,
        "country": "Mongolia",
        "country_code": "mn"
      },
      "address": "Arvaikheer - Bogd, Bogd, Övörkhangai, Mongolia"
    },
    {
      "lat": 44.66354468646963,
      "lon": 102.15087598820423,
      "geoinfo": {
        "display_name": "Богд - Гурвантэс, Богд, Bogd, Övörkhangai, Mongolia",
        "road": "Богд - Гурвантэс",
        "house_number": null,
        "neighbourhood": null,
        "suburb": null,
        "city_district": null,
        "city": null,
        "state": "Övörkhangai",
        "postcode": null,
        "country": "Mongolia",
        "country_code": "mn"
      },
      "address": "Богд - Гурвантэс, Bogd, Övörkhangai, Mongolia"
    },
    {
      "lat": 44.65665167488798,
      "lon": 102.19691683461485,
      "geoinfo": {
        "display_name": "Bogd - Khongoryn sand, Богд, Bogd, Övörkhangai, Mongolia",
        "road": "Bogd - Khongoryn sand",
        "house_number": null,
        "neighbourhood": null,
        "suburb": null,
        "city_district": null,
        "city": "Bogd",
        "state": "Övörkhangai",
        "postcode": null,
        "country": "Mongolia",
        "country_code": "mn"
      },
      "address": "Bogd - Khongoryn sand, Bogd, Övörkhangai, Mongolia"
    },
    {
      "lat": 44.70820296692794,
      "lon": 102.18499213519966,
      "geoinfo": {
        "display_name": "Богд - Гучин-Ус, Богд, Bogd, Övörkhangai, Mongolia",
        "road": "Богд - Гучин-Ус",
        "house_number": null,
        "neighbourhood": null,
        "suburb": null,
        "city_district": null,
        "city": "Bogd",
        "state": "Övörkhangai",
        "postcode": null,
        "country": "Mongolia",
        "country_code": "mn"
      },
      "address": "Богд - Гучин-Ус, Bogd, Övörkhangai, Mongolia"
    },
    {
      "lat": 44.652196409682624,
      "lon": 102.17991359152747,
      "geoinfo": {
        "display_name": "Bogd, Övörkhangai, Mongolia",
        "road": null,
        "house_number": null,
        "neighbourhood": null,
        "suburb": null,
        "city_district": null,
        "city": "Bogd",
        "state": "Övörkhangai",
        "postcode": null,
        "country": "Mongolia",
        "country_code": "mn"
      },
      "address": "404, Bogd, 10235 Övörkhangai, Mongolia"
    },
    {
      "lat": 44.6471521703242,
      "lon": 102.16070737424147,
      "geoinfo": {
        "display_name": "Bogd, Övörkhangai, Mongolia",
        "road": null,
        "house_number": null,
        "neighbourhood": null,
        "suburb": null,
        "city_district": null,
        "city": "Bogd",
        "state": "Övörkhangai",
        "postcode": null,
        "country": "Mongolia",
        "country_code": "mn"
      },
      "address": "730, Bogd, 51673 Övörkhangai, Mongolia"
    },
    {
      "lat": 44.65740557379173,
      "lon": 102.12134901233986,
      "geoinfo": {
        "display_name": "Богд - Гурвантэс, Богд, Bogd, Övörkhangai, Mongolia",
        "road": "Богд - Гурвантэс",
        "house_number": null,
        "neighbourhood": null,
        "suburb": null,
        "city_district": null,
        "city": null,
        "state": "Övörkhangai",
        "postcode": null,
        "country": "Mongolia",
        "country_code": "mn"
      },
      "address": "637, Богд - Гурвантэс, Богд, Bogd, 12314 Övörkhangai, Mongolia"
    },
    {
      "lat": 44.6678494014938,
      "lon": 102.11685997997556,
      "geoinfo": {
        "display_name": "Bogd, Övörkhangai, Mongolia",
        "road": null,
        "house_number": null,
        "neighbourhood": null,
        "suburb": null,
        "city_district": null,
        "city": "Bogd",
        "state": "Övörkhangai",
        "postcode": null,
        "country": "Mongolia",
        "country_code": "mn"
      },
      "address": "200, Bogd, 10095 Övörkhangai, Mongolia"
    },
    {
      "lat": 44.644603158485616,
      "lon": 102.15955918040687,
      "geoinfo": {
        "display_name": "Bogd, Övörkhangai, Mongolia",
        "road": null,
        "house_number": null,
        "neighbourhood": null,
        "suburb": null,
        "city_district": null,
        "city": "Bogd",
        "state": "Övörkhangai",
        "postcode": null,
        "country": "Mongolia",
        "country_code": "mn"
      },
      "address": "044, Bogd, 75570 Övörkhangai, Mongolia"
    }
  ],
  "updated_at": "2025-10-19T04:19:56.293881+00:00",
  "_kind": "geo_samples"
}