{
  "country_code": "MN",
  "country": "Mongolia",
  "city": "Darhan",
  "geonameid": 2031964,
  "target_addresses": 5,
  "samples": [
    {
      "lat": 49.48463830668711,
      "lon": 105.94631463392747,
      "geoinfo": {
        "display_name": "хорооллын гудам, Darkhan, Darkhan-Uul, 49000, Mongolia",
        "road": "хорооллын гудам",
        "house_number": null,
        "neighbourhood": null,
        "suburb": null,
        "city_district": null,
        "city": "Darkhan",
        "state": "Darkhan-Uul",
        "postcode": "49000",
        "country": "Mongolia",
        "country_code": "mn"
      },
      "address": "хорооллын гудам, Darhan, Darkhan-Uul, Mongolia"
    },
    {
      "lat": 49.480142862128154,
      "lon": 105.86926689675401,
      "geoinfo": {
        "display_name": "Saikhan, Selenge, Mongolia",
        "road": null,
        "house_number": null,
        "neighbourhood": null,
        "suburb": null,
        "city_district": null,
        "city": null,
        "state": "Selenge",
        "postcode": null,
        "country": "Mongolia",
        "country_code": "mn"
      },
      "address": "Darhan, Selenge, Mongolia"
    },
    {
      "lat": 49.52714372521621,
      "lon": 105.91325302215192,
      "geoinfo": {
        "display_name": "Darkhan, Khongor, Darkhan-Uul, 49000, Mongolia",
        "road": null,
        "house_number": null,
        "neighbourhood": null,
        "suburb": null,
        "city_district": null,
        "city": "Darkhan",
        "state": "Darkhan-Uul",
        "postcode": "49000",
        "country": "Mongolia",
        "country_code": "mn"
      },
      "address": "Darhan, Darkhan-Uul, Mongolia"
    },
    {
      "lat": 49.50634700114908,
      "lon": 105.93813461515639,
      "geoinfo": {
        "display_name": "хун тавидаг газар, Access Road WPP, Darkhan, Darkhan-Uul, 49000, Mongolia",
        "road": "Access Road WPP",
        "house_number": null,
        "neighbourhood": null,
        "suburb": null,
        "city_district": null,
        "city": "Darkhan",
        "state": "Darkhan-Uul",
        "postcode": "49000",
        "country": "Mongolia",
        "country_code": "mn"
      },
      "address": "Access Road WPP, Darhan, Darkhan-Uul, Mongolia"
    },
    {
      "lat": 49.45644020445914,
      "lon": 105.93969354696145,
      "geoinfo": {
        "display_name": "томр зам, Darkhan, Darkhan-Uul, 49000, Mongolia",
        "road": "томр зам",
        "house_number": null,
        "neighbourhood": null,
        "suburb": null,
        "city_district": null,
        "city": "Darkhan",
        "state": "Darkhan-Uul",
        "postcode": "49000",
        "country": "Mongolia",
        "country_code": "mn"
      },
      "address": "томр зам, Darhan, Darkhan-Uul, Mongolia"
    },
    {
      "lat": 49.455531036809695,
      "lon": 105.88031161109869,
      "geoinfo": {
        "display_name": "Saikhan, Selenge, Mongolia",
        "road": null,
        "house_number": null,
        "neighbourhood": null,
        "suburb": null,
        "city_district": null,
        "city": null,
        "state": "Selenge",
        "postcode": null,
        "country": "Mongolia",
        "country_code": "mn"
      },
      "address": "239, Darhan, 34227 Selenge, Mongolia"
    },
    {
      "lat": 49.49691739445334,
      "lon": 105.98636102396141,
      "geoinfo": {
        "display_name": "Darkhan, Darkhan-Uul, 34000, Mongolia",
        "road": null,
        "house_number": null,
        "neighbourhood": null,
        "suburb": null,
        "city_district": null,
        "city": "Darkhan",
        "state": "Darkhan-Uul",
        "postcode": "34000",
        "country": "Mongolia",
        "country_code": "mn"
      },
      "address": "125, Darhan, 34000 Darkhan-Uul, Mongolia"
    },
    {
      "lat": 49.47491187594175,
      "lon": 105.96949743207344,
      "geoinfo": {
        "display_name": "Darkhan, Darkhan-Uul, 34000, Mongolia",
        "road": null,
        "house_number": null,
        "neighbourhood": null,
        "suburb": null,
        "city_district": null,
        "city": "Darkhan",
        "state": "Darkhan-Uul",
        "postcode": "34000",
        "country": "Mongolia",
        "country_code": "mn"
      },
      "address": "755, Darhan, 34000 Darkhan-Uul, Mongolia"
    },
    {
      "lat": 49.44756932674575,
      "lon": 105.89681567075326,
      "geoinfo": {
        "display_name": "Saikhan, Selenge, Mongolia",
        "road": null,
        "house_number": null,
        "neighbourhood": null,
        "suburb": null,
        "city_district": null,
        "city": null,
        "state": "Selenge",
        "postcode": null,
        "country": "Mongolia",
        "country_code": "mn"
      },
      "address": "240, Darhan, 65270 Selenge, Mongolia"
    },
    {
      "lat": 49.46918550659657,
      "lon": 105.89776434285724,
      "geoinfo": {
        "display_name": "Darkhan, Darkhan-Uul, Mongolia",
        "road": null,
        "house_number": null,
        "neighbourhood": null,
        "suburb": null,
        "city_district": null,
        "city": "Darkhan",
        "state": "Darkhan-Uul",
        "postcode": null,
        "country": "Mongolia",
        "country_code": "mn"
      },
      "address": "968, Darhan, 87080 Darkhan-Uul, Mongolia"
    }
  ],
  "updated_at": "2025-10-19T04:20:16.198763+00:00",
  "_kind": "geo_samples"
}