{
  "country_code": "MN",
  "country": "Mongolia",
  "city": "Erdenet",
  "geonameid": 2031405,
  "target_addresses": 5,
  "samples": [
    {
      "lat": 49.03934971161222,
      "lon": 104.13153072064708,
      "geoinfo": {
        "display_name": "Эрдэнэт үйлдвэр авто зогсоол 1, A1001, Erdenet, Bayan-Ondor, Orkhon, Mongolia",
        "road": "A1001",
        "house_number": null,
        "neighbourhood": null,
        "suburb": null,
        "city_district": null,
        "city": "Erdenet",
        "state": "Orkhon",
        "postcode": null,
        "country": "Mongolia",
        "country_code": "mn"
      },
      "address": "A1001, Erdenet, Orkhon, Mongolia"
    },
    {
      "lat": 49.00217495363978,
      "lon": 104.06677516362447,
      "geoinfo": {
        "display_name": "Denzh, Erdenet, Bayan-Ondor, Orkhon, 61035, Mongolia",
        "road": null,
        "house_number": null,
        "neighbourhood": null,
        "suburb": "Denzh",
        "city_district": null,
        "city": "Erdenet",
        "state": "Orkhon",
        "postcode": "61035",
        "country": "Mongolia",
        "country_code": "mn"
      },
      "address": "Denzh, Erdenet, Orkhon, Mongolia"
    },
    {
      "lat": 49.062865954169624,
      "lon": 104.05524941100367,
      "geoinfo": {
        "display_name": "Bayan-Öndör, Erdenet, Bayan-Ondor, Orkhon, 61022, Mongolia",
        "road": null,
        "house_number": null,
        "neighbourhood": null,
        "suburb": "Bayan-Öndör",
        "city_district": null,
        "city": "Erdenet",
        "state": "Orkhon",
        "postcode": "61022",
        "country": "Mongolia",
        "country_code": "mn"
      },
      "address": "Bayan-Öndör, Erdenet, Orkhon, Mongolia"
    },
    {
      "lat": 49.05618050358347,
      "lon": 104.10706365700437,
      "geoinfo": {
        "display_name": "Erdenet, Bayan-Ondor, Orkhon, Mongolia",
        "road": null,
        "house_number": null,
        "neighbourhood": null,
        "suburb": null,
        "city_district": null,
        "city": "Erdenet",
        "state": "Orkhon",
        "postcode": null,
        "country": "Mongolia",
        "country_code": "mn"
      },
      "address": "Erdenet, Orkhon, Mongolia"
    },
    {
      "lat": 49.064040388637885,
      "lon": 104.08273827471717,
      "geoinfo": {
        "display_name": "Industrial district, Erdenet, Bayan-Ondor, Orkhon, 61029, Mongolia",
        "road": null,
        "house_number": null,
        "neighbourhood": null,
        "suburb": "Industrial district",
        "city_district": null,
        "city": "Erdenet",
        "state": "Orkhon",
        "postcode": "61029",
        "country": "Mongolia",
        "country_code": "mn"
      },
      "address": "Industrial district, Erdenet, Orkhon, Mongolia"
    },
    {
      "lat": 49.02200939070109,
      "lon": 104.03280538103296,
      "geoinfo": {
        "display_name": "Ажилчидын байр, Булганы зам, 7th microdistrict (in construction), Length-centre, Erdenet, Bayan-Ondor, Orkhon, 61038, Mongolia",
        "road": "Булганы зам",
        "house_number": null,
        "neighbourhood": "7th microdistrict (in construction)",
        "suburb": "Length-centre",
        "city_district": null,
        "city": "Erdenet",
        "state": "Orkhon",
        "postcode": "61038",
        "country": "Mongolia",
        "country_code": "mn"
      },
      "address": "Ажилчидын байр, Булганы зам, 7th microdistrict (in construction), Length-centre, Erdenet, Bayan-Ondor, Orkhon, 61038, Mongolia"
    },
    {
      "lat": 49.0169508816759,
      "lon": 104.07435049109775,
      "geoinfo": {
        "display_name": "Industrial district, Erdenet, Bayan-Ondor, Orkhon, 61029, Mongolia",
        "road": null,
        "house_number": null,
        "neighbourhood": null,
        "suburb": "Industrial district",
        "city_district": null,
        "city": "Erdenet",
        "state": "Orkhon",
        "postcode": "61029",
        "country": "Mongolia",
        "country_code": "mn"
      },
      "address": "976, Industrial district, Erdenet, Bayan-Ondor, Orkhon, 61029, Mongolia"
    },
    {
      "lat": 49.00359126427426,
      "lon": 104.04096853389477,
      "geoinfo": {
        "display_name": "Denzh, Erdenet, Bayan-Ondor, Orkhon, 61038, Mongolia",
        "road": null,
        "house_number": null,
        "neighbourhood": null,
        "suburb": "Denzh",
        "city_district": null,
        "city": "Erdenet",
        "state": "Orkhon",
        "postcode": "61038",
        "country": "Mongolia",
        "country_code": "mn"
      },
      "address": "455, Denzh, Erdenet, Bayan-Ondor, Orkhon, 61038, Mongolia"
    },
    {
      "lat": 49.01172897557821,
      "lon": 104.0447487473799,
      "geoinfo": {
        "display_name": "7th microdistrict (in construction), Denzh, Erdenet, Bayan-Ondor, Orkhon, 61035, Mongolia",
        "road": null,
        "house_number": null,
        "neighbourhood": "7th microdistrict (in construction)",
        "suburb": "Denzh",
        "city_district": null,
        "city": "Erdenet",
        "state": "Orkhon",
        "postcode": "61035",
        "country": "Mongolia",
        "country_code": "mn"
      },
      "address": "7th microdistrict (in construction), Denzh, Erdenet, Bayan-Ondor, Orkhon, 61035, Mongolia"
    },
    {
      "lat": 49.017342830097945,
      "lon": 104.0368013829155,
      "geoinfo": {
        "display_name": "7th microdistrict (in construction), Denzh, Erdenet, Bayan-Ondor, Orkhon, 61035, Mongolia",
        "road": null,
        "house_number": null,
        "neighbourhood": "7th microdistrict (in construction)",
        "suburb": "Denzh",
        "city_district": null,
        "city": "Erdenet",
        "state": "Orkhon",
        "postcode": "61035",
        "country": "Mongolia",
        "country_code": "mn"
      },
      "address": "7th microdistrict (in construction), Erdenet, 61035 Orkhon, Mongolia"
    }
  ],
  "updated_at": "2025-10-19T06:01:03.825384+00:00",
  "_kind": "geo_samples"
}