{
  "country_code": "MN",
  "country": "Mongolia",
  "city": "Saynshand",
  "geonameid": 2032081,
  "target_addresses": 5,
  "samples": [
    {
      "lat": 44.9226013028248,
      "lon": 110.1335568420645,
      "geoinfo": {
        "display_name": "Sainshand, Dornogovi, Mongolia",
        "road": null,
        "house_number": null,
        "neighbourhood": null,
        "suburb": null,
        "city_district": null,
        "city": "Sainshand",
        "state": "Dornogovi",
        "postcode": null,
        "country": "Mongolia",
        "country_code": "mn"
      },
      "address": "Saynshand, Dornogovi, Mongolia"
    },
    {
      "lat": 44.85194056092463,
      "lon": 110.07772824932277,
      "geoinfo": {
        "display_name": "Sainshand-Khamriin khiid, Sainshand, Dornogovi, Mongolia",
        "road": "Sainshand-Khamriin khiid",
        "house_number": null,
        "neighbourhood": null,
        "suburb": null,
        "city_district": null,
        "city": "Sainshand",
        "state": "Dornogovi",
        "postcode": null,
        "country": "Mongolia",
        "country_code": "mn"
      },
      "address": "Sainshand-Khamriin khiid, Saynshand, Dornogovi, Mongolia"
    },
    {
      "lat": 44.89339098489177,
      "lon": 110.14180889360559,
      "geoinfo": {
        "display_name": "машин зам, Sainshand, Dornogovi, Mongolia",
        "road": "машин зам",
        "house_number": null,
        "neighbourhood": null,
        "suburb": null,
        "city_district": null,
        "city": "Sainshand",
        "state": "Dornogovi",
        "postcode": null,
        "country": "Mongolia",
        "country_code": "mn"
      },
      "address": "машин зам, Saynshand, Dornogovi, Mongolia"
    },
    {
      "lat": 44.86649461201262,
      "lon": 110.13864882711248,
      "geoinfo": {
        "display_name": "Сайншанд - Хамрын хийд, Sainshand, Orgon, Dornogovi, Mongolia",
        "road": "Сайншанд - Хамрын хийд",
        "house_number": null,
        "neighbourhood": null,
        "suburb": null,
        "city_district": null,
        "city": "Sainshand",
        "state": "Dornogovi",
        "postcode": null,
        "country": "Mongolia",
        "country_code": "mn"
      },
      "address": "Сайншанд - Хамрын хийд, Saynshand, Dornogovi, Mongolia"
    },
    {
      "lat": 44.90046877154665,
      "lon": 110.0606192114193,
      "geoinfo": {
        "display_name": "Saikhandulaan - Sainshand, Sainshand, Saikhandulaan, Dornogovi, Mongolia",
        "road": "Saikhandulaan - Sainshand",
        "house_number": null,
        "neighbourhood": null,
        "suburb": null,
        "city_district": null,
        "city": "Sainshand",
        "state": "Dornogovi",
        "postcode": null,
        "country": "Mongolia",
        "country_code": "mn"
      },
      "address": "Saikhandulaan - Sainshand, Saynshand, Dornogovi, Mongolia"
    }
  ],
  "updated_at": "2025-10-16T19:38:58.754270+00:00",
  "_kind": "geo_samples"
}