{
  "country_code": "MN",
  "country": "Mongolia",
  "city": "Ulaangom",
  "geonameid": 1515029,
  "target_addresses": 5,
  "samples": [
    {
      "lat": 49.94231910902608,
      "lon": 92.06314895716442,
      "geoinfo": {
        "display_name": "A1701, Ulaangom, Tarialan, Uvs, Mongolia",
        "road": "A1701",
        "house_number": null,
        "neighbourhood": null,
        "suburb": null,
        "city_district": null,
        "city": "Ulaangom",
        "state": "Uvs",
        "postcode": null,
        "country": "Mongolia",
        "country_code": "mn"
      },
      "address": "A1701, Ulaangom, Uvs, Mongolia"
    },
    {
      "lat": 49.98529659420261,
      "lon": 92.02943293008406,
      "geoinfo": {
        "display_name": "Ulaangom, Uvs, Mongolia",
        "road": null,
        "house_number": null,
        "neighbourhood": null,
        "suburb": null,
        "city_district": null,
        "city": "Ulaangom",
        "state": "Uvs",
        "postcode": null,
        "country": "Mongolia",
        "country_code": "mn"
      },
      "address": "Ulaangom, Uvs, Mongolia"
    },
    {
      "lat": 50.003901340453545,
      "lon": 92.02765125321046,
      "geoinfo": {
        "display_name": "Northern Route, Ulaangom, Turgen, Uvs, Mongolia",
        "road": "Northern Route",
        "house_number": null,
        "neighbourhood": null,
        "suburb": null,
        "city_district": null,
        "city": "Ulaangom",
        "state": "Uvs",
        "postcode": null,
        "country": "Mongolia",
        "country_code": "mn"
      },
      "address": "Northern Route, Ulaangom, Uvs, Mongolia"
    },
    {
      "lat": 49.98434334118939,
      "lon": 92.06150427486654,
      "geoinfo": {
        "display_name": "Star Supermarkt, A1702, Ulaangom, Uvs, Mongolia",
        "road": "A1702",
        "house_number": null,
        "neighbourhood": null,
        "suburb": null,
        "city_district": null,
        "city": "Ulaangom",
        "state": "Uvs",
        "postcode": null,
        "country": "Mongolia",
        "country_code": "mn"
      },
      "address": "A1702, Ulaangom, Uvs, Mongolia"
    },
    {
      "lat": 49.98340039609241,
      "lon": 92.0619769219412,
      "geoinfo": {
        "display_name": "A1702, Ulaangom, Uvs, Mongolia",
        "road": "A1702",
        "house_number": null,
        "neighbourhood": null,
        "suburb": null,
        "city_district": null,
        "city": "Ulaangom",
        "state": "Uvs",
        "postcode": null,
        "country": "Mongolia",
        "country_code": "mn"
      },
      "address": "A1702, Ulaangom, 24921 Uvs, Mongolia"
    },
    {
      "lat": 49.997349410262814,
      "lon": 92.10181520594665,
      "geoinfo": {
        "display_name": "гашууны гол гатлах зам, Ulaangom, Uvs, Mongolia",
        "road": "гашууны гол гатлах зам",
        "house_number": null,
        "neighbourhood": null,
        "suburb": null,
        "city_district": null,
        "city": "Ulaangom",
        "state": "Uvs",
        "postcode": null,
        "country": "Mongolia",
        "country_code": "mn"
      },
      "address": "598, гашууны гол гатлах зам, Ulaangom, 17623 Uvs, Mongolia"
    },
    {
      "lat": 50.00803513528385,
      "lon": 92.12159544831964,
      "geoinfo": {
        "display_name": "Хулгайн зам, Ulaangom, Tarialan, Uvs, Mongolia",
        "road": "Хулгайн зам",
        "house_number": null,
        "neighbourhood": null,
        "suburb": null,
        "city_district": null,
        "city": "Ulaangom",
        "state": "Uvs",
        "postcode": null,
        "country": "Mongolia",
        "country_code": "mn"
      },
      "address": "404, Хулгайн зам, Ulaangom, Tarialan, 80634 Uvs, Mongolia"
    },
    {
      "lat": 49.98126245044959,
      "lon": 92.11736357544748,
      "geoinfo": {
        "display_name": "Northern Road, Ulaangom, Tarialan, Uvs, Mongolia",
        "road": "Northern Road",
        "house_number": null,
        "neighbourhood": null,
        "suburb": null,
        "city_district": null,
        "city": "Ulaangom",
        "state": "Uvs",
        "postcode": null,
        "country": "Mongolia",
        "country_code": "mn"
      },
      "address": "502, Northern Road, Ulaangom, Tarialan, 45922 Uvs, Mongolia"
    },
    {
      "lat": 49.9525831895105,
      "lon": 92.07428140595795,
      "geoinfo": {
        "display_name": "A1701, Ulaangom, Uvs, Mongolia",
        "road": "A1701",
        "house_number": null,
        "neighbourhood": null,
        "suburb": null,
        "city_district": null,
        "city": "Ulaangom",
        "state": "Uvs",
        "postcode": null,
        "country": "Mongolia",
        "country_code": "mn"
      },
      "address": "A1701, Ulaangom, 29983 Uvs, Mongolia"
    }
  ],
  "updated_at": "2025-10-19T06:04:59.379636+00:00",
  "_kind": "geo_samples"
}