{
  "country_code": "MN",
  "country": "Mongolia",
  "city": "Undurkhaan",
  "geonameid": 2029656,
  "target_addresses": 5,
  "samples": [
    {
      "lat": 47.29400792504301,
      "lon": 110.61248958999225,
      "geoinfo": {
        "display_name": "Chinggis City, Kherlen, Khentii, 93110, Mongolia",
        "road": null,
        "house_number": null,
        "neighbourhood": null,
        "suburb": null,
        "city_district": null,
        "city": "Chinggis City",
        "state": "Khentii",
        "postcode": "93110",
        "country": "Mongolia",
        "country_code": "mn"
      },
      "address": "Undurkhaan, Khentii, Mongolia"
    },
    {
      "lat": 47.335319733550264,
      "lon": 110.67930188808305,
      "geoinfo": {
        "display_name": "A0502, Enderkhaan, Kherlen, Khentii, 23110, Mongolia",
        "road": "A0502",
        "house_number": null,
        "neighbourhood": null,
        "suburb": null,
        "city_district": null,
        "city": "Enderkhaan",
        "state": "Khentii",
        "postcode": "23110",
        "country": "Mongolia",
        "country_code": "mn"
      },
      "address": "A0502, Undurkhaan, Khentii, Mongolia"
    },
    {
      "lat": 47.3311538926342,
      "lon": 110.61601214327125,
      "geoinfo": {
        "display_name": "Murun - Undurkhaan, Enderkhaan, Kherlen, Khentii, Mongolia",
        "road": "Murun - Undurkhaan",
        "house_number": null,
        "neighbourhood": null,
        "suburb": null,
        "city_district": null,
        "city": "Enderkhaan",
        "state": "Khentii",
        "postcode": null,
        "country": "Mongolia",
        "country_code": "mn"
      },
      "address": "Murun - Undurkhaan, Undurkhaan, Khentii, Mongolia"
    },
    {
      "lat": 47.36187922109899,
      "lon": 110.66819795871739,
      "geoinfo": {
        "display_name": "Gurvanbayan - Undurkhaan, Enderkhaan, Kherlen, Khentii, Mongolia",
        "road": "Gurvanbayan - Undurkhaan",
        "house_number": null,
        "neighbourhood": null,
        "suburb": null,
        "city_district": null,
        "city": "Enderkhaan",
        "state": "Khentii",
        "postcode": null,
        "country": "Mongolia",
        "country_code": "mn"
      },
      "address": "290, Gurvanbayan - Undurkhaan, Enderkhaan, Kherlen, 33758 Khentii, Mongolia"
    },
    {
      "lat": 47.29833661966644,
      "lon": 110.64521554189434,
      "geoinfo": {
        "display_name": "Chinggis City, Kherlen, Khentii, 93110, Mongolia",
        "road": null,
        "house_number": null,
        "neighbourhood": null,
        "suburb": null,
        "city_district": null,
        "city": "Chinggis City",
        "state": "Khentii",
        "postcode": "93110",
        "country": "Mongolia",
        "country_code": "mn"
      },
      "address": "159, Undurkhaan, 93110 Khentii, Mongolia"
    },
    {
      "lat": 47.301840257240784,
      "lon": 110.62853800607562,
      "geoinfo": {
        "display_name": "Chinggis City, Kherlen, Khentii, 93110, Mongolia",
        "road": null,
        "house_number": null,
        "neighbourhood": null,
        "suburb": null,
        "city_district": null,
        "city": "Chinggis City",
        "state": "Khentii",
        "postcode": "93110",
        "country": "Mongolia",
        "country_code": "mn"
      },
      "address": "296, Undurkhaan, 93110 Khentii, Mongolia"
    },
    {
      "lat": 47.28387282242829,
      "lon": 110.67232062882871,
      "geoinfo": {
        "display_name": "Bayankhutag, Khentii, Mongolia",
        "road": null,
        "house_number": null,
        "neighbourhood": null,
        "suburb": null,
        "city_district": null,
        "city": null,
        "state": "Khentii",
        "postcode": null,
        "country": "Mongolia",
        "country_code": "mn"
      },
      "address": "429, Undurkhaan, 90179 Khentii, Mongolia"
    },
    {
      "lat": 47.305933502135055,
      "lon": 110.59782799839698,
      "geoinfo": {
        "display_name": "Delgerkhaan - Undurkhaan, Enderkhaan, Kherlen, Khentii, Mongolia",
        "road": "Delgerkhaan - Undurkhaan",
        "house_number": null,
        "neighbourhood": null,
        "suburb": null,
        "city_district": null,
        "city": "Enderkhaan",
        "state": "Khentii",
        "postcode": null,
        "country": "Mongolia",
        "country_code": "mn"
      },
      "address": "103, Delgerkhaan - Undurkhaan, Enderkhaan, Kherlen, 59612 Khentii, Mongolia"
    }
  ],
  "updated_at": "2025-10-19T05:58:57.695043+00:00",
  "_kind": "geo_samples"
}