{
  "country_code": "MN",
  "country": "Mongolia",
  "city": "Ölgii",
  "geonameid": 1515436,
  "target_addresses": 5,
  "samples": [
    {
      "lat": 48.981940601804844,
      "lon": 89.98230058280741,
      "geoinfo": {
        "display_name": "Ölgii, Bayan-Ölgii, 83120, Mongolia",
        "road": null,
        "house_number": null,
        "neighbourhood": null,
        "suburb": null,
        "city_district": null,
        "city": "Ölgii",
        "state": "Bayan-Ölgii",
        "postcode": "83120",
        "country": "Mongolia",
        "country_code": "mn"
      },
      "address": "Ölgii, Bayan-Ölgii, Mongolia"
    },
    {
      "lat": 48.990941493339506,
      "lon": 89.90898533999352,
      "geoinfo": {
        "display_name": "Ölgii - Ulan-Khus, Ölgii, Bayan-Ölgii, Mongolia",
        "road": "Ölgii - Ulan-Khus",
        "house_number": null,
        "neighbourhood": null,
        "suburb": null,
        "city_district": null,
        "city": null,
        "state": "Bayan-Ölgii",
        "postcode": null,
        "country": "Mongolia",
        "country_code": "mn"
      },
      "address": "Ölgii - Ulan-Khus, Ölgii, Bayan-Ölgii, Mongolia"
    },
    {
      "lat": 49.002755563922975,
      "lon": 89.92683297452159,
      "geoinfo": {
        "display_name": "Ölgii - Tsagaannuur(alt.), Ölgii, Bayan-Ölgii, Mongolia",
        "road": "Ölgii - Tsagaannuur(alt.)",
        "house_number": null,
        "neighbourhood": null,
        "suburb": null,
        "city_district": null,
        "city": "Ölgii",
        "state": "Bayan-Ölgii",
        "postcode": null,
        "country": "Mongolia",
        "country_code": "mn"
      },
      "address": "Ölgii - Tsagaannuur(alt.), Ölgii, Bayan-Ölgii, Mongolia"
    },
    {
      "lat": 48.92936199909738,
      "lon": 89.9726205654542,
      "geoinfo": {
        "display_name": "Ölgii — Khovd, Tolbo, Bugat, Bayan-Ölgii, Mongolia",
        "road": "Ölgii — Khovd",
        "house_number": null,
        "neighbourhood": null,
        "suburb": null,
        "city_district": null,
        "city": "Tolbo",
        "state": "Bayan-Ölgii",
        "postcode": null,
        "country": "Mongolia",
        "country_code": "mn"
      },
      "address": "Ölgii — Khovd, Ölgii, Bayan-Ölgii, Mongolia"
    },
    {
      "lat": 48.972775483073505,
      "lon": 89.98331682191231,
      "geoinfo": {
        "display_name": "PAMUK RESORT, 100, A07, Ölgii, Bayan-Ölgii, 83120, Mongolia",
        "road": "A07",
        "house_number": "100",
        "neighbourhood": null,
        "suburb": null,
        "city_district": null,
        "city": "Ölgii",
        "state": "Bayan-Ölgii",
        "postcode": "83120",
        "country": "Mongolia",
        "country_code": "mn"
      },
      "address": "100 A07, Ölgii, Bayan-Ölgii, Mongolia"
    },
    {
      "lat": 48.964700619355526,
      "lon": 89.95339844809007,
      "geoinfo": {
        "display_name": "Ölgii, Bayan-Ölgii, 83120, Mongolia",
        "road": null,
        "house_number": null,
        "neighbourhood": null,
        "suburb": null,
        "city_district": null,
        "city": "Ölgii",
        "state": "Bayan-Ölgii",
        "postcode": "83120",
        "country": "Mongolia",
        "country_code": "mn"
      },
      "address": "979, Ölgii, Bayan-Ölgii, 83120, Mongolia"
    },
    {
      "lat": 48.9857555452398,
      "lon": 89.9906929379366,
      "geoinfo": {
        "display_name": "A07, Ölgii, Bayan-Ölgii, 83120, Mongolia",
        "road": "A07",
        "house_number": null,
        "neighbourhood": null,
        "suburb": null,
        "city_district": null,
        "city": "Ölgii",
        "state": "Bayan-Ölgii",
        "postcode": "83120",
        "country": "Mongolia",
        "country_code": "mn"
      },
      "address": "A07, Ölgii, Bayan-Ölgii, 83120, Mongolia"
    },
    {
      "lat": 49.009086795480385,
      "lon": 89.93999804816967,
      "geoinfo": {
        "display_name": "Ölgii — Tsagaannuur, Ölgii, Bayan-Ölgii, Mongolia",
        "road": "Ölgii — Tsagaannuur",
        "house_number": null,
        "neighbourhood": null,
        "suburb": null,
        "city_district": null,
        "city": "Ölgii",
        "state": "Bayan-Ölgii",
        "postcode": null,
        "country": "Mongolia",
        "country_code": "mn"
      },
      "address": "285, Ölgii — Tsagaannuur, Ölgii, 32902 Bayan-Ölgii, Mongolia"
    },
    {
      "lat": 48.94915522066803,
      "lon": 89.94777586773401,
      "geoinfo": {
        "display_name": "Ölgii, Bayan-Ölgii, 83120, Mongolia",
        "road": null,
        "house_number": null,
        "neighbourhood": null,
        "suburb": null,
        "city_district": null,
        "city": null,
        "state": "Bayan-Ölgii",
        "postcode": "83120",
        "country": "Mongolia",
        "country_code": "mn"
      },
      "address": "937, Ölgii, Bayan-Ölgii, 83120, Mongolia"
    },
    {
      "lat": 48.935667535783,
      "lon": 90.00037012704709,
      "geoinfo": {
        "display_name": "Bugat, Bayan-Ölgii, Mongolia",
        "road": null,
        "house_number": null,
        "neighbourhood": null,
        "suburb": null,
        "city_district": null,
        "city": "Bugat",
        "state": "Bayan-Ölgii",
        "postcode": null,
        "country": "Mongolia",
        "country_code": "mn"
      },
      "address": "945, Ölgii, 11868 Bayan-Ölgii, Mongolia"
    }
  ],
  "updated_at": "2025-10-19T05:58:10.516468+00:00",
  "_kind": "geo_samples"
}