{
  "country_code": "NA",
  "country": "Namibia",
  "city": "Katima Mulilo",
  "geonameid": 877178,
  "target_addresses": 6,
  "samples": [
    {
      "lat": -17.521312826369893,
      "lon": 24.252102190003566,
      "geoinfo": {
        "display_name": "Katima Mulilo, Zambezi, 20001, Namibia",
        "road": null,
        "house_number": null,
        "neighbourhood": null,
        "suburb": null,
        "city_district": null,
        "city": "Katima Mulilo",
        "state": "Zambezi",
        "postcode": "20001",
        "country": "Namibia",
        "country_code": "na"
      },
      "address": "Katima Mulilo, Zambezi, Namibia"
    },
    {
      "lat": -17.49781065813279,
      "lon": 24.279974543619577,
      "geoinfo": {
        "display_name": "Katima Mulilo State Hospital, Hospital Road, Mahohoma, Katima Mulilo, Zambezi, 20001, Namibia",
        "road": "Hospital Road",
        "house_number": null,
        "neighbourhood": null,
        "suburb": "Mahohoma",
        "city_district": null,
        "city": "Katima Mulilo",
        "state": "Zambezi",
        "postcode": "20001",
        "country": "Namibia",
        "country_code": "na"
      },
      "address": "Hospital Road, Katima Mulilo, Zambezi, Namibia"
    },
    {
      "lat": -17.527131356278908,
      "lon": 24.245134269102127,
      "geoinfo": {
        "display_name": "Liyambai, Katima Mulilo, Zambezi, 20001, Namibia",
        "road": null,
        "house_number": null,
        "neighbourhood": null,
        "suburb": "Liyambai",
        "city_district": null,
        "city": "Katima Mulilo",
        "state": "Zambezi",
        "postcode": "20001",
        "country": "Namibia",
        "country_code": "na"
      },
      "address": "Liyambai, Katima Mulilo, Zambezi, Namibia"
    },
    {
      "lat": -17.50463051218435,
      "lon": 24.30210133879008,
      "geoinfo": {
        "display_name": "Choto, Mavuluma, Katima Mulilo, Zambezi, 20001, Namibia",
        "road": null,
        "house_number": null,
        "neighbourhood": null,
        "suburb": "Mavuluma",
        "city_district": null,
        "city": "Katima Mulilo",
        "state": "Zambezi",
        "postcode": "20001",
        "country": "Namibia",
        "country_code": "na"
      },
      "address": "Mavuluma, Katima Mulilo, Zambezi, Namibia"
    },
    {
      "lat": -17.49162385207932,
      "lon": 24.307086942443636,
      "geoinfo": {
        "display_name": "Saint Kizito College and Hostel, Ngoma Road, Kazauli, Mahohoma, Katima Mulilo, Zambezi, 20001, Namibia",
        "road": "Ngoma Road",
        "house_number": null,
        "neighbourhood": null,
        "suburb": "Mahohoma",
        "city_district": null,
        "city": "Katima Mulilo",
        "state": "Zambezi",
        "postcode": "20001",
        "country": "Namibia",
        "country_code": "na"
      },
      "address": "Ngoma Road, Katima Mulilo, Zambezi, Namibia"
    },
    {
      "lat": -17.47580808421422,
      "lon": 24.245193062526404,
      "geoinfo": {
        "display_name": "B8, Namibian Borderpost, Katima Mulilo, Zambezi, 20001, Namibia",
        "road": "B8",
        "house_number": null,
        "neighbourhood": null,
        "suburb": null,
        "city_district": null,
        "city": "Katima Mulilo",
        "state": "Zambezi",
        "postcode": "20001",
        "country": "Namibia",
        "country_code": "na"
      },
      "address": "B8, Katima Mulilo, Zambezi, Namibia"
    },
    {
      "lat": -17.527355598272035,
      "lon": 24.248478030888116,
      "geoinfo": {
        "display_name": "Liyambai, Katima Mulilo, Zambezi, 20001, Namibia",
        "road": null,
        "house_number": null,
        "neighbourhood": null,
        "suburb": "Liyambai",
        "city_district": null,
        "city": "Katima Mulilo",
        "state": "Zambezi",
        "postcode": "20001",
        "country": "Namibia",
        "country_code": "na"
      },
      "address": "708, Liyambai, Katima Mulilo, Zambezi, 20001, Namibia"
    },
    {
      "lat": -17.48799039859399,
      "lon": 24.288626995919362,
      "geoinfo": {
        "display_name": "Ngoma Road, Kazauli, Mahohoma, Katima Mulilo, Zambezi, 20001, Namibia",
        "road": "Ngoma Road",
        "house_number": null,
        "neighbourhood": null,
        "suburb": "Mahohoma",
        "city_district": null,
        "city": "Katima Mulilo",
        "state": "Zambezi",
        "postcode": "20001",
        "country": "Namibia",
        "country_code": "na"
      },
      "address": "719, Ngoma Road, Kazauli, Mahohoma, Katima Mulilo, Zambezi, 20001, Namibia"
    },
    {
      "lat": -17.519644403279624,
      "lon": 24.256797377513802,
      "geoinfo": {
        "display_name": "Alufeya Sampofu Combined School, B8, Liyambai, Katima Mulilo, Zambezi, 20001, Namibia",
        "road": "B8",
        "house_number": null,
        "neighbourhood": null,
        "suburb": "Liyambai",
        "city_district": null,
        "city": "Katima Mulilo",
        "state": "Zambezi",
        "postcode": "20001",
        "country": "Namibia",
        "country_code": "na"
      },
      "address": "Alufeya Sampofu Combined School, B8, Liyambai, Katima Mulilo, Zambezi, 20001, Namibia"
    },
    {
      "lat": -17.516031963900026,
      "lon": 24.287642131680343,
      "geoinfo": {
        "display_name": "Mavuluma, Katima Mulilo, Zambezi, 20001, Namibia",
        "road": null,
        "house_number": null,
        "neighbourhood": null,
        "suburb": "Mavuluma",
        "city_district": null,
        "city": "Katima Mulilo",
        "state": "Zambezi",
        "postcode": "20001",
        "country": "Namibia",
        "country_code": "na"
      },
      "address": "941, Mavuluma, Katima Mulilo, Zambezi, 20001, Namibia"
    },
    {
      "lat": -17.526687220425664,
      "lon": 24.23575832928964,
      "geoinfo": {
        "display_name": "Liyambai, Katima Mulilo, Zambezi, 20001, Namibia",
        "road": null,
        "house_number": null,
        "neighbourhood": null,
        "suburb": "Liyambai",
        "city_district": null,
        "city": "Katima Mulilo",
        "state": "Zambezi",
        "postcode": "20001",
        "country": "Namibia",
        "country_code": "na"
      },
      "address": "162, Liyambai, Katima Mulilo, Zambezi, 20001, Namibia"
    },
    {
      "lat": -17.51273239559639,
      "lon": 24.248689959486274,
      "geoinfo": {
        "display_name": "Katima Mulilo, Zambezi, 20001, Namibia",
        "road": null,
        "house_number": null,
        "neighbourhood": null,
        "suburb": null,
        "city_district": null,
        "city": "Katima Mulilo",
        "state": "Zambezi",
        "postcode": "20001",
        "country": "Namibia",
        "country_code": "na"
      },
      "address": "525, Katima Mulilo, Zambezi, 20001, Namibia"
    }
  ],
  "updated_at": "2025-10-19T05:55:50.264455+00:00",
  "_kind": "geo_samples"
}