{
  "country_code": "NA",
  "country": "Namibia",
  "city": "Ondangwa",
  "geonameid": 3354247,
  "target_addresses": 6,
  "samples": [
    {
      "lat": -17.939441653100285,
      "lon": 15.948975515083635,
      "geoinfo": {
        "display_name": "Ondangwa, Oshana, 15002, Namibia",
        "road": null,
        "house_number": null,
        "neighbourhood": null,
        "suburb": null,
        "city_district": null,
        "city": "Ondangwa",
        "state": "Oshana",
        "postcode": "15002",
        "country": "Namibia",
        "country_code": "na"
      },
      "address": "Ondangwa, Oshana, Namibia"
    },
    {
      "lat": -17.90122394208891,
      "lon": 15.978556618542651,
      "geoinfo": {
        "display_name": "Sheepo Shanamene Street, Extension 6, Ondangwa, Oshana, 15002, Namibia",
        "road": "Sheepo Shanamene Street",
        "house_number": null,
        "neighbourhood": null,
        "suburb": null,
        "city_district": null,
        "city": "Ondangwa",
        "state": "Oshana",
        "postcode": "15002",
        "country": "Namibia",
        "country_code": "na"
      },
      "address": "Sheepo Shanamene Street, Ondangwa, Oshana, Namibia"
    },
    {
      "lat": -17.874707590601368,
      "lon": 15.995900804346892,
      "geoinfo": {
        "display_name": "ELCIN, B1, Ondangwa, Oshana, 15002, Namibia",
        "road": "B1",
        "house_number": null,
        "neighbourhood": null,
        "suburb": null,
        "city_district": null,
        "city": "Ondangwa",
        "state": "Oshana",
        "postcode": "15002",
        "country": "Namibia",
        "country_code": "na"
      },
      "address": "B1, Ondangwa, Oshana, Namibia"
    },
    {
      "lat": -17.925262066100064,
      "lon": 15.99558943334997,
      "geoinfo": {
        "display_name": "Ananias Mateus Tamatie Street, Okangwena, Ondangwa, Oshana, 15002, Namibia",
        "road": "Ananias Mateus Tamatie Street",
        "house_number": null,
        "neighbourhood": "Okangwena",
        "suburb": null,
        "city_district": null,
        "city": "Ondangwa",
        "state": "Oshana",
        "postcode": "15002",
        "country": "Namibia",
        "country_code": "na"
      },
      "address": "Ananias Mateus Tamatie Street, Ondangwa, Oshana, Namibia"
    },
    {
      "lat": -17.95081215197139,
      "lon": 15.981697976965043,
      "geoinfo": {
        "display_name": "D3605, Uukwiyu, Ondangwa, Oshana, Namibia",
        "road": "D3605",
        "house_number": null,
        "neighbourhood": null,
        "suburb": null,
        "city_district": null,
        "city": "Ondangwa",
        "state": "Oshana",
        "postcode": null,
        "country": "Namibia",
        "country_code": "na"
      },
      "address": "D3605, Ondangwa, Oshana, Namibia"
    },
    {
      "lat": -17.927958318299314,
      "lon": 15.97139830885069,
      "geoinfo": {
        "display_name": "Extension 7, Ondangwa, Oshana, 15002, Namibia",
        "road": null,
        "house_number": null,
        "neighbourhood": "Extension 7",
        "suburb": null,
        "city_district": null,
        "city": "Ondangwa",
        "state": "Oshana",
        "postcode": "15002",
        "country": "Namibia",
        "country_code": "na"
      },
      "address": "Extension 7, Ondangwa, Oshana, Namibia"
    },
    {
      "lat": -17.938998554778543,
      "lon": 15.993025721375572,
      "geoinfo": {
        "display_name": "Ondangwa, Oshana, 15002, Namibia",
        "road": null,
        "house_number": null,
        "neighbourhood": null,
        "suburb": null,
        "city_district": null,
        "city": null,
        "state": "Oshana",
        "postcode": "15002",
        "country": "Namibia",
        "country_code": "na"
      },
      "address": "924, Ondangwa, Oshana, 15002, Namibia"
    },
    {
      "lat": -17.902403747226742,
      "lon": 15.954475301359416,
      "geoinfo": {
        "display_name": "Ompanda Street, Extension 10, Extension 5, Ondangwa, Oshana, 15002, Namibia",
        "road": "Ompanda Street",
        "house_number": null,
        "neighbourhood": null,
        "suburb": null,
        "city_district": null,
        "city": "Ondangwa",
        "state": "Oshana",
        "postcode": "15002",
        "country": "Namibia",
        "country_code": "na"
      },
      "address": "Ompanda Street, Extension 10, Extension 5, Ondangwa, Oshana, 15002, Namibia"
    },
    {
      "lat": -17.921176152384053,
      "lon": 15.989339646476612,
      "geoinfo": {
        "display_name": "Simon Mulunga Street, Malanami, Ondangwa, Oshana, 15002, Namibia",
        "road": "Simon Mulunga Street",
        "house_number": null,
        "neighbourhood": "Malanami",
        "suburb": null,
        "city_district": null,
        "city": "Ondangwa",
        "state": "Oshana",
        "postcode": "15002",
        "country": "Namibia",
        "country_code": "na"
      },
      "address": "321, Simon Mulunga Street, Malanami, Ondangwa, Oshana, 15002, Namibia"
    },
    {
      "lat": -17.92910691145924,
      "lon": 15.938942186609827,
      "geoinfo": {
        "display_name": "Ondangwa, Oshana, 15002, Namibia",
        "road": null,
        "house_number": null,
        "neighbourhood": null,
        "suburb": null,
        "city_district": null,
        "city": "Ondangwa",
        "state": "Oshana",
        "postcode": "15002",
        "country": "Namibia",
        "country_code": "na"
      },
      "address": "606, Ondangwa, Oshana, 15002, Namibia"
    },
    {
      "lat": -17.929961110962328,
      "lon": 15.949435346359973,
      "geoinfo": {
        "display_name": "Ondangwa, Oshana, 15002, Namibia",
        "road": null,
        "house_number": null,
        "neighbourhood": null,
        "suburb": null,
        "city_district": null,
        "city": "Ondangwa",
        "state": "Oshana",
        "postcode": "15002",
        "country": "Namibia",
        "country_code": "na"
      },
      "address": "427, Ondangwa, Oshana, 15002, Namibia"
    },
    {
      "lat": -17.932845234870392,
      "lon": 15.94355772457168,
      "geoinfo": {
        "display_name": "Ondangwa, Oshana, 15002, Namibia",
        "road": null,
        "house_number": null,
        "neighbourhood": null,
        "suburb": null,
        "city_district": null,
        "city": "Ondangwa",
        "state": "Oshana",
        "postcode": "15002",
        "country": "Namibia",
        "country_code": "na"
      },
      "address": "825, Ondangwa, Oshana, 15002, Namibia"
    }
  ],
  "updated_at": "2025-10-19T08:41:18.029859+00:00",
  "_kind": "geo_samples"
}