{
  "country_code": "NA",
  "country": "Namibia",
  "city": "Ongwediva",
  "geonameid": 3354147,
  "target_addresses": 6,
  "samples": [
    {
      "lat": -17.75314111703293,
      "lon": 15.727483028517023,
      "geoinfo": {
        "display_name": "Onawa, Oshakati, Oshana, 15001, Namibia",
        "road": null,
        "house_number": null,
        "neighbourhood": null,
        "suburb": null,
        "city_district": null,
        "city": "Oshakati",
        "state": "Oshana",
        "postcode": "15001",
        "country": "Namibia",
        "country_code": "na"
      },
      "address": "Ongwediva, Oshana, Namibia"
    },
    {
      "lat": -17.77137405601537,
      "lon": 15.7559876220954,
      "geoinfo": {
        "display_name": "Kahumba Kandola Street, Extension 7, Ongwediva, Oshana, 15006, Namibia",
        "road": "Kahumba Kandola Street",
        "house_number": null,
        "neighbourhood": null,
        "suburb": null,
        "city_district": null,
        "city": "Ongwediva",
        "state": "Oshana",
        "postcode": "15006",
        "country": "Namibia",
        "country_code": "na"
      },
      "address": "Kahumba Kandola Street, Ongwediva, Oshana, Namibia"
    },
    {
      "lat": -17.798313933822847,
      "lon": 15.743757057669143,
      "geoinfo": {
        "display_name": "Extension 17, Ongwediva, Oshana, 15006, Namibia",
        "road": null,
        "house_number": null,
        "neighbourhood": "Extension 17",
        "suburb": null,
        "city_district": null,
        "city": "Ongwediva",
        "state": "Oshana",
        "postcode": "15006",
        "country": "Namibia",
        "country_code": "na"
      },
      "address": "Extension 17, Ongwediva, Oshana, Namibia"
    },
    {
      "lat": -17.762145660729136,
      "lon": 15.75348657858133,
      "geoinfo": {
        "display_name": "Omatando Street, Proper, Ongwediva, Oshana, 15006, Namibia",
        "road": "Omatando Street",
        "house_number": null,
        "neighbourhood": null,
        "suburb": null,
        "city_district": null,
        "city": "Ongwediva",
        "state": "Oshana",
        "postcode": "15006",
        "country": "Namibia",
        "country_code": "na"
      },
      "address": "Omatando Street, Ongwediva, Oshana, Namibia"
    },
    {
      "lat": -17.78616932397336,
      "lon": 15.767161069136632,
      "geoinfo": {
        "display_name": "UNAM Hifikepunye Pohamba Campus, Ehenge Street, Extension 2, Ongwediva, Oshana, 15006, Namibia",
        "road": "Ehenge Street",
        "house_number": null,
        "neighbourhood": null,
        "suburb": null,
        "city_district": null,
        "city": "Ongwediva",
        "state": "Oshana",
        "postcode": "15006",
        "country": "Namibia",
        "country_code": "na"
      },
      "address": "Ehenge Street, Ongwediva, Oshana, Namibia"
    },
    {
      "lat": -17.807278737043724,
      "lon": 15.790854519703533,
      "geoinfo": {
        "display_name": "C46, Ongwediva, Oshana, 15006, Namibia",
        "road": "C46",
        "house_number": null,
        "neighbourhood": null,
        "suburb": null,
        "city_district": null,
        "city": "Ongwediva",
        "state": "Oshana",
        "postcode": "15006",
        "country": "Namibia",
        "country_code": "na"
      },
      "address": "C46, Ongwediva, Oshana, Namibia"
    },
    {
      "lat": -17.769570150071257,
      "lon": 15.787252861579969,
      "geoinfo": {
        "display_name": "Oshana, Namibia",
        "road": null,
        "house_number": null,
        "neighbourhood": null,
        "suburb": null,
        "city_district": null,
        "city": null,
        "state": "Oshana",
        "postcode": null,
        "country": "Namibia",
        "country_code": "na"
      },
      "address": "516, Ongwediva, 17650 Oshana, Namibia"
    },
    {
      "lat": -17.7767803537569,
      "lon": 15.718968440355779,
      "geoinfo": {
        "display_name": "Oshakati North, Ehenye, Oshakati, Oshana, 15001, Namibia",
        "road": null,
        "house_number": null,
        "neighbourhood": null,
        "suburb": "Ehenye",
        "city_district": null,
        "city": "Oshakati",
        "state": "Oshana",
        "postcode": "15001",
        "country": "Namibia",
        "country_code": "na"
      },
      "address": "848, Oshakati North, Ehenye, Oshakati, Oshana, 15001, Namibia"
    },
    {
      "lat": -17.791807288972198,
      "lon": 15.73003341177549,
      "geoinfo": {
        "display_name": "Okandjengedi South, Kandjengedi, Oshakati, Oshana, 15001, Namibia",
        "road": null,
        "house_number": null,
        "neighbourhood": null,
        "suburb": "Kandjengedi",
        "city_district": null,
        "city": "Oshakati",
        "state": "Oshana",
        "postcode": "15001",
        "country": "Namibia",
        "country_code": "na"
      },
      "address": "691, Okandjengedi South, Kandjengedi, Oshakati, Oshana, 15001, Namibia"
    },
    {
      "lat": -17.772022930992854,
      "lon": 15.800430984287267,
      "geoinfo": {
        "display_name": "Oshana, Namibia",
        "road": null,
        "house_number": null,
        "neighbourhood": null,
        "suburb": null,
        "city_district": null,
        "city": null,
        "state": "Oshana",
        "postcode": null,
        "country": "Namibia",
        "country_code": "na"
      },
      "address": "944, Ongwediva, 26822 Oshana, Namibia"
    },
    {
      "lat": -17.728674685748764,
      "lon": 15.773156224813423,
      "geoinfo": {
        "display_name": "Oshana, Namibia",
        "road": null,
        "house_number": null,
        "neighbourhood": null,
        "suburb": null,
        "city_district": null,
        "city": null,
        "state": "Oshana",
        "postcode": null,
        "country": "Namibia",
        "country_code": "na"
      },
      "address": "933, Ongwediva, 58354 Oshana, Namibia"
    },
    {
      "lat": -17.762285933490773,
      "lon": 15.785596225126454,
      "geoinfo": {
        "display_name": "Oshana, Namibia",
        "road": null,
        "house_number": null,
        "neighbourhood": null,
        "suburb": null,
        "city_district": null,
        "city": null,
        "state": "Oshana",
        "postcode": null,
        "country": "Namibia",
        "country_code": "na"
      },
      "address": "641, Ongwediva, 95657 Oshana, Namibia"
    }
  ],
  "updated_at": "2025-10-19T08:40:22.021316+00:00",
  "_kind": "geo_samples"
}