{
  "country_code": "NA",
  "country": "Namibia",
  "city": "Otjiwarongo",
  "geonameid": 3353811,
  "target_addresses": 6,
  "samples": [
    {
      "lat": -20.43429432799992,
      "lon": 16.681088571324448,
      "geoinfo": {
        "display_name": "D2430, 12001, Namibia",
        "road": "D2430",
        "house_number": null,
        "neighbourhood": null,
        "suburb": null,
        "city_district": null,
        "city": null,
        "state": null,
        "postcode": "12001",
        "country": "Namibia",
        "country_code": "na"
      },
      "address": "D2430, Otjiwarongo, Namibia"
    },
    {
      "lat": -20.500847072523843,
      "lon": 16.666827221478577,
      "geoinfo": {
        "display_name": "Otjiwarongo Golf Course, B1, Orwetoveni, Otjiwarongo, 12001, Namibia",
        "road": "B1",
        "house_number": null,
        "neighbourhood": null,
        "suburb": "Orwetoveni",
        "city_district": null,
        "city": "Otjiwarongo",
        "state": null,
        "postcode": "12001",
        "country": "Namibia",
        "country_code": "na"
      },
      "address": "B1, Otjiwarongo, Namibia"
    },
    {
      "lat": -20.49685997887735,
      "lon": 16.646800435529727,
      "geoinfo": {
        "display_name": "Orwetoveni, Otjiwarongo, 12001, Namibia",
        "road": null,
        "house_number": null,
        "neighbourhood": null,
        "suburb": "Orwetoveni",
        "city_district": null,
        "city": "Otjiwarongo",
        "state": null,
        "postcode": "12001",
        "country": "Namibia",
        "country_code": "na"
      },
      "address": "Orwetoveni, Otjiwarongo, Namibia"
    },
    {
      "lat": -20.48689170326611,
      "lon": 16.680860079403974,
      "geoinfo": {
        "display_name": "Freedompark, Otjiwarongo, 12001, Namibia",
        "road": null,
        "house_number": null,
        "neighbourhood": "Freedompark",
        "suburb": null,
        "city_district": null,
        "city": "Otjiwarongo",
        "state": null,
        "postcode": "12001",
        "country": "Namibia",
        "country_code": "na"
      },
      "address": "Freedompark, Otjiwarongo, Namibia"
    },
    {
      "lat": -20.47413483183906,
      "lon": 16.688230586850956,
      "geoinfo": {
        "display_name": "Ombili informal settlement, Otjiwarongo, 12001, Namibia",
        "road": null,
        "house_number": null,
        "neighbourhood": "Ombili informal settlement",
        "suburb": null,
        "city_district": null,
        "city": "Otjiwarongo",
        "state": null,
        "postcode": "12001",
        "country": "Namibia",
        "country_code": "na"
      },
      "address": "Ombili informal settlement, Otjiwarongo, Namibia"
    },
    {
      "lat": -20.496149453004094,
      "lon": 16.627533832514555,
      "geoinfo": {
        "display_name": "Otjiwarongo Industrial, Otjiwarongo, 12001, Namibia",
        "road": null,
        "house_number": null,
        "neighbourhood": null,
        "suburb": "Otjiwarongo Industrial",
        "city_district": null,
        "city": "Otjiwarongo",
        "state": null,
        "postcode": "12001",
        "country": "Namibia",
        "country_code": "na"
      },
      "address": "Otjiwarongo Industrial, Otjiwarongo, Namibia"
    }
  ],
  "updated_at": "2025-10-16T20:14:18.231095+00:00",
  "_kind": "geo_samples"
}