{
  "country_code": "NA",
  "country": "Namibia",
  "city": "Rundu",
  "geonameid": 3353383,
  "target_addresses": 6,
  "samples": [
    {
      "lat": -17.88178886392976,
      "lon": 19.798362829874108,
      "geoinfo": {
        "display_name": "Sarusungu, Kavango East, 19001, Namibia",
        "road": null,
        "house_number": null,
        "neighbourhood": null,
        "suburb": null,
        "city_district": null,
        "city": "Sarusungu",
        "state": "Kavango East",
        "postcode": "19001",
        "country": "Namibia",
        "country_code": "na"
      },
      "address": "Rundu, Kavango East, Namibia"
    },
    {
      "lat": -17.917554709798164,
      "lon": 19.778767068014353,
      "geoinfo": {
        "display_name": "Rundu Secondary Hostel, Nkarapamwe Street, Nkarapamwe, Rundu, Kavango East, 19001, Namibia",
        "road": "Nkarapamwe Street",
        "house_number": null,
        "neighbourhood": null,
        "suburb": "Nkarapamwe",
        "city_district": null,
        "city": "Rundu",
        "state": "Kavango East",
        "postcode": "19001",
        "country": "Namibia",
        "country_code": "na"
      },
      "address": "Nkarapamwe Street, Rundu, Kavango East, Namibia"
    },
    {
      "lat": -17.957726526996705,
      "lon": 19.777034525927505,
      "geoinfo": {
        "display_name": "Ndama, Rundu, Kavango East, 19001, Namibia",
        "road": null,
        "house_number": null,
        "neighbourhood": null,
        "suburb": "Ndama",
        "city_district": null,
        "city": "Rundu",
        "state": "Kavango East",
        "postcode": "19001",
        "country": "Namibia",
        "country_code": "na"
      },
      "address": "Ndama, Rundu, Kavango East, Namibia"
    },
    {
      "lat": -17.92692696867987,
      "lon": 19.73915211530238,
      "geoinfo": {
        "display_name": "Sauyemwa, Rundu, Kavango East, Namibia",
        "road": null,
        "house_number": null,
        "neighbourhood": null,
        "suburb": "Sauyemwa",
        "city_district": null,
        "city": "Rundu",
        "state": "Kavango East",
        "postcode": null,
        "country": "Namibia",
        "country_code": "na"
      },
      "address": "Sauyemwa, Rundu, Kavango East, Namibia"
    },
    {
      "lat": -17.89857737520536,
      "lon": 19.77882786884198,
      "geoinfo": {
        "display_name": "Sarusungu Road, Safari, Rundu, Kavango East, 19001, Namibia",
        "road": "Sarusungu Road",
        "house_number": null,
        "neighbourhood": null,
        "suburb": "Safari",
        "city_district": null,
        "city": "Rundu",
        "state": "Kavango East",
        "postcode": "19001",
        "country": "Namibia",
        "country_code": "na"
      },
      "address": "Sarusungu Road, Rundu, Kavango East, Namibia"
    },
    {
      "lat": -17.918431864757718,
      "lon": 19.786067968524748,
      "geoinfo": {
        "display_name": "Millennium Park, Rundu, Kavango East, 19001, Namibia",
        "road": null,
        "house_number": null,
        "neighbourhood": null,
        "suburb": "Millennium Park",
        "city_district": null,
        "city": "Rundu",
        "state": "Kavango East",
        "postcode": "19001",
        "country": "Namibia",
        "country_code": "na"
      },
      "address": "Millennium Park, Rundu, Kavango East, Namibia"
    },
    {
      "lat": -17.92465840117391,
      "lon": 19.77276118563143,
      "geoinfo": {
        "display_name": "Rundu Stadium, Eugene Kakururu Street, Donkerhoek, Rundu, Kavango East, 19001, Namibia",
        "road": "Eugene Kakururu Street",
        "house_number": null,
        "neighbourhood": null,
        "suburb": "Donkerhoek",
        "city_district": null,
        "city": "Rundu",
        "state": "Kavango East",
        "postcode": "19001",
        "country": "Namibia",
        "country_code": "na"
      },
      "address": "294, Eugene Kakururu Street, Rundu, 19001 Kavango East, Namibia"
    },
    {
      "lat": -17.904772741565676,
      "lon": 19.768365352002657,
      "geoinfo": {
        "display_name": "Nkarapamwe, Rundu, Kavango East, 19001, Namibia",
        "road": null,
        "house_number": null,
        "neighbourhood": null,
        "suburb": "Nkarapamwe",
        "city_district": null,
        "city": "Rundu",
        "state": "Kavango East",
        "postcode": "19001",
        "country": "Namibia",
        "country_code": "na"
      },
      "address": "476, Nkarapamwe, Rundu, Kavango East, 19001, Namibia"
    },
    {
      "lat": -17.941457991776836,
      "lon": 19.770114014055345,
      "geoinfo": {
        "display_name": "Ndama, Rundu, Kavango East, Namibia",
        "road": null,
        "house_number": null,
        "neighbourhood": null,
        "suburb": "Ndama",
        "city_district": null,
        "city": "Rundu",
        "state": "Kavango East",
        "postcode": null,
        "country": "Namibia",
        "country_code": "na"
      },
      "address": "255, Ndama, Rundu, 94930 Kavango East, Namibia"
    },
    {
      "lat": -17.91033067009777,
      "lon": 19.768191917764113,
      "geoinfo": {
        "display_name": "Omashare Hotel, Marie Mwengere Street, Tutungeni, Rundu, Kavango East, Namibia",
        "road": "Marie Mwengere Street",
        "house_number": null,
        "neighbourhood": null,
        "suburb": "Tutungeni",
        "city_district": null,
        "city": "Rundu",
        "state": "Kavango East",
        "postcode": null,
        "country": "Namibia",
        "country_code": "na"
      },
      "address": "504, Marie Mwengere Street, Rundu, 33744 Kavango East, Namibia"
    },
    {
      "lat": -17.956402872575648,
      "lon": 19.7835384051757,
      "geoinfo": {
        "display_name": "Ndama, Rundu, Kavango East, 19001, Namibia",
        "road": null,
        "house_number": null,
        "neighbourhood": null,
        "suburb": "Ndama",
        "city_district": null,
        "city": "Rundu",
        "state": "Kavango East",
        "postcode": "19001",
        "country": "Namibia",
        "country_code": "na"
      },
      "address": "261, Ndama, Rundu, Kavango East, 19001, Namibia"
    },
    {
      "lat": -17.946682665728268,
      "lon": 19.7520167800778,
      "geoinfo": {
        "display_name": "Sikanduko, Rundu, Kavango East, Namibia",
        "road": null,
        "house_number": null,
        "neighbourhood": null,
        "suburb": null,
        "city_district": null,
        "city": "Rundu",
        "state": "Kavango East",
        "postcode": null,
        "country": "Namibia",
        "country_code": "na"
      },
      "address": "905, Sikanduko, Rundu, 42330 Kavango East, Namibia"
    }
  ],
  "updated_at": "2025-10-19T04:03:21.601818+00:00",
  "_kind": "geo_samples"
}