{
  "country_code": "MR",
  "country": "Mauritania",
  "city": "Bogué",
  "geonameid": 2380954,
  "target_addresses": 5,
  "samples": [
    {
      "lat": 16.57291823815506,
      "lon": -14.298505829854614,
      "geoinfo": {
        "display_name": "Wold Vision, Bakaw/ Lopel, Bakaw, Brakna, Mauritania",
        "road": "Bakaw/ Lopel",
        "house_number": null,
        "neighbourhood": null,
        "suburb": null,
        "city_district": null,
        "city": "Bakaw",
        "state": "Brakna",
        "postcode": null,
        "country": "Mauritania",
        "country_code": "mr"
      },
      "address": "Bakaw/ Lopel, Bogué, Brakna, Mauritania"
    },
    {
      "lat": 16.552635167332067,
      "lon": -14.27070990385746,
      "geoinfo": {
        "display_name": "Tiénel, Brakna, Mauritania",
        "road": null,
        "house_number": null,
        "neighbourhood": null,
        "suburb": null,
        "city_district": null,
        "city": "Tiénel",
        "state": "Brakna",
        "postcode": null,
        "country": "Mauritania",
        "country_code": "mr"
      },
      "address": "Bogué, Brakna, Mauritania"
    },
    {
      "lat": 16.626819051956186,
      "lon": -14.236814615456977,
      "geoinfo": {
        "display_name": "Route Rosso - Boghé طريق روصو - بوغي, Bondiéri, Bogué, Brakna, Mauritania",
        "road": "Route Rosso - Boghé طريق روصو - بوغي",
        "house_number": null,
        "neighbourhood": null,
        "suburb": null,
        "city_district": null,
        "city": "Bogué",
        "state": "Brakna",
        "postcode": null,
        "country": "Mauritania",
        "country_code": "mr"
      },
      "address": "Route Rosso - Boghé طريق روصو - بوغي, Bogué, Brakna, Mauritania"
    },
    {
      "lat": 16.61592853314749,
      "lon": -14.274310180164976,
      "geoinfo": {
        "display_name": "Sayé, Bogué, Brakna, Mauritania",
        "road": null,
        "house_number": null,
        "neighbourhood": null,
        "suburb": null,
        "city_district": null,
        "city": "Bogué",
        "state": "Brakna",
        "postcode": null,
        "country": "Mauritania",
        "country_code": "mr"
      },
      "address": "443, Sayé, Bogué, 43553 Brakna, Mauritania"
    },
    {
      "lat": 16.573587811056946,
      "lon": -14.296732024096869,
      "geoinfo": {
        "display_name": "Bakaw, Brakna, Mauritania",
        "road": null,
        "house_number": null,
        "neighbourhood": null,
        "suburb": null,
        "city_district": null,
        "city": "Bakaw",
        "state": "Brakna",
        "postcode": null,
        "country": "Mauritania",
        "country_code": "mr"
      },
      "address": "948, Bogué, 77148 Brakna, Mauritania"
    },
    {
      "lat": 16.60955350012316,
      "lon": -14.261905787092932,
      "geoinfo": {
        "display_name": "Tialgou, Bogué, Brakna, Mauritania",
        "road": null,
        "house_number": null,
        "neighbourhood": null,
        "suburb": null,
        "city_district": null,
        "city": "Bogué",
        "state": "Brakna",
        "postcode": null,
        "country": "Mauritania",
        "country_code": "mr"
      },
      "address": "491, Tialgou, Bogué, 99722 Brakna, Mauritania"
    },
    {
      "lat": 16.607549975101502,
      "lon": -14.27016984347438,
      "geoinfo": {
        "display_name": "Bogué, Brakna, Mauritania",
        "road": null,
        "house_number": null,
        "neighbourhood": null,
        "suburb": null,
        "city_district": null,
        "city": "Bogué",
        "state": "Brakna",
        "postcode": null,
        "country": "Mauritania",
        "country_code": "mr"
      },
      "address": "888, Bogué, 81580 Brakna, Mauritania"
    },
    {
      "lat": 16.618660015344208,
      "lon": -14.231538829504283,
      "geoinfo": {
        "display_name": "Bogué, Brakna, Mauritania",
        "road": null,
        "house_number": null,
        "neighbourhood": null,
        "suburb": null,
        "city_district": null,
        "city": "Bogué",
        "state": "Brakna",
        "postcode": null,
        "country": "Mauritania",
        "country_code": "mr"
      },
      "address": "706, Bogué, 35806 Brakna, Mauritania"
    }
  ],
  "updated_at": "2025-10-19T04:23:37.798671+00:00",
  "_kind": "geo_samples"
}