{
  "country_code": "MR",
  "country": "Mauritania",
  "city": "Dar Naim",
  "geonameid": 11496397,
  "target_addresses": 5,
  "samples": [
    {
      "lat": 18.11142986062488,
      "lon": -15.880190810827749,
      "geoinfo": {
        "display_name": "Trarza, Mauritania",
        "road": null,
        "house_number": null,
        "neighbourhood": null,
        "suburb": null,
        "city_district": null,
        "city": null,
        "state": "Trarza",
        "postcode": null,
        "country": "Mauritania",
        "country_code": "mr"
      },
      "address": "Dar Naim, Trarza, Mauritania"
    },
    {
      "lat": 18.107508868112433,
      "lon": -15.908824720284242,
      "geoinfo": {
        "display_name": "Sukuk Road, Nouakchott, Toujounine, Nouakchott-Nord Region, Mauritania",
        "road": "Sukuk Road",
        "house_number": null,
        "neighbourhood": null,
        "suburb": null,
        "city_district": null,
        "city": "Nouakchott",
        "state": "Nouakchott-Nord Region",
        "postcode": null,
        "country": "Mauritania",
        "country_code": "mr"
      },
      "address": "Sukuk Road, Dar Naim, Nouakchott-Nord Region, Mauritania"
    },
    {
      "lat": 18.104902580820955,
      "lon": -15.928768594174564,
      "geoinfo": {
        "display_name": "Nouakchott, Dar Naim, Nouakchott-Nord Region, Mauritania",
        "road": null,
        "house_number": null,
        "neighbourhood": null,
        "suburb": null,
        "city_district": null,
        "city": "Nouakchott",
        "state": "Nouakchott-Nord Region",
        "postcode": null,
        "country": "Mauritania",
        "country_code": "mr"
      },
      "address": "Dar Naim, Nouakchott-Nord Region, Mauritania"
    },
    {
      "lat": 18.089535794885037,
      "lon": -15.934104397741256,
      "geoinfo": {
        "display_name": "Zaatar الزعتر, Nouakchott, Dar Naim, Nouakchott-Nord Region, Mauritania",
        "road": null,
        "house_number": null,
        "neighbourhood": null,
        "suburb": "Zaatar الزعتر",
        "city_district": null,
        "city": "Nouakchott",
        "state": "Nouakchott-Nord Region",
        "postcode": null,
        "country": "Mauritania",
        "country_code": "mr"
      },
      "address": "Zaatar الزعتر, Dar Naim, Nouakchott-Nord Region, Mauritania"
    },
    {
      "lat": 18.104910776579082,
      "lon": -15.946834658776252,
      "geoinfo": {
        "display_name": "Deuxième Route de l'Ancien Aéroport الطريق الثاني للمطار القديم, Zaatar الزعتر, Nouakchott, Dar Naim, Nouakchott-Nord Region, Mauritania",
        "road": "Deuxième Route de l'Ancien Aéroport الطريق الثاني للمطار القديم",
        "house_number": null,
        "neighbourhood": null,
        "suburb": "Zaatar الزعتر",
        "city_district": null,
        "city": "Nouakchott",
        "state": "Nouakchott-Nord Region",
        "postcode": null,
        "country": "Mauritania",
        "country_code": "mr"
      },
      "address": "Deuxième Route de l'Ancien Aéroport الطريق الثاني للمطار القديم, Dar Naim, Nouakchott-Nord Region, Mauritania"
    },
    {
      "lat": 18.086208367402836,
      "lon": -15.965745739708053,
      "geoinfo": {
        "display_name": "Avenue Gamal Abdel Nasser شارع جمال عبد الناصر, Nouakchott, Ksar, Nouakchott-Ouest Region, Mauritania",
        "road": "Avenue Gamal Abdel Nasser شارع جمال عبد الناصر",
        "house_number": null,
        "neighbourhood": null,
        "suburb": null,
        "city_district": null,
        "city": "Nouakchott",
        "state": "Nouakchott-Ouest Region",
        "postcode": null,
        "country": "Mauritania",
        "country_code": "mr"
      },
      "address": "042, Avenue Gamal Abdel Nasser شارع جمال عبد الناصر, Nouakchott, Ksar, 50860 Nouakchott-Ouest Region, Mauritania"
    },
    {
      "lat": 18.132807039529414,
      "lon": -15.944798589804334,
      "geoinfo": {
        "display_name": "Ain Ettalh, Nouakchott, Teyarett, Nouakchott-Nord Region, Mauritania",
        "road": null,
        "house_number": null,
        "neighbourhood": null,
        "suburb": "Ain Ettalh",
        "city_district": null,
        "city": "Nouakchott",
        "state": "Nouakchott-Nord Region",
        "postcode": null,
        "country": "Mauritania",
        "country_code": "mr"
      },
      "address": "625, Ain Ettalh, Nouakchott, Teyarett, 71148 Nouakchott-Nord Region, Mauritania"
    },
    {
      "lat": 18.09015788953427,
      "lon": -15.904945181640993,
      "geoinfo": {
        "display_name": "Toujounine, Nouakchott-Nord Region, Mauritania",
        "road": null,
        "house_number": null,
        "neighbourhood": null,
        "suburb": null,
        "city_district": null,
        "city": null,
        "state": "Nouakchott-Nord Region",
        "postcode": null,
        "country": "Mauritania",
        "country_code": "mr"
      },
      "address": "111, Dar Naim, 41964 Nouakchott-Nord Region, Mauritania"
    },
    {
      "lat": 18.09394527509952,
      "lon": -15.930660875534036,
      "geoinfo": {
        "display_name": "Zaatar الزعتر, Nouakchott, Dar Naim, Nouakchott-Nord Region, Mauritania",
        "road": null,
        "house_number": null,
        "neighbourhood": null,
        "suburb": "Zaatar الزعتر",
        "city_district": null,
        "city": "Nouakchott",
        "state": "Nouakchott-Nord Region",
        "postcode": null,
        "country": "Mauritania",
        "country_code": "mr"
      },
      "address": "720, Zaatar الزعتر, Nouakchott, Dar Naim, 15432 Nouakchott-Nord Region, Mauritania"
    },
    {
      "lat": 18.128678973983323,
      "lon": -15.964862196713803,
      "geoinfo": {
        "display_name": "F-Nord شمال و, Nouakchott, Ksar, Nouakchott-Ouest Region, Mauritania",
        "road": null,
        "house_number": null,
        "neighbourhood": null,
        "suburb": "F-Nord شمال و",
        "city_district": null,
        "city": "Nouakchott",
        "state": "Nouakchott-Ouest Region",
        "postcode": null,
        "country": "Mauritania",
        "country_code": "mr"
      },
      "address": "494, F-Nord شمال و, Nouakchott, Ksar, 86686 Nouakchott-Ouest Region, Mauritania"
    }
  ],
  "updated_at": "2025-10-19T08:19:09.007324+00:00",
  "_kind": "geo_samples"
}