{
  "country_code": "MR",
  "country": "Mauritania",
  "city": "Nouadhibou",
  "geonameid": 2377457,
  "target_addresses": 5,
  "samples": [
    {
      "lat": 20.956604806126688,
      "lon": -17.028209190875334,
      "geoinfo": {
        "display_name": "Nouadhibou, Dakhlet Nouadhibou, Mauritania",
        "road": null,
        "house_number": null,
        "neighbourhood": null,
        "suburb": null,
        "city_district": null,
        "city": "Nouadhibou",
        "state": "Dakhlet Nouadhibou",
        "postcode": null,
        "country": "Mauritania",
        "country_code": "mr"
      },
      "address": "Nouadhibou, Dakhlet Nouadhibou, Mauritania"
    },
    {
      "lat": 20.939612500213702,
      "lon": -17.032247994671728,
      "geoinfo": {
        "display_name": "Moktar Dah منزل مختار داه عليوة, Al Raha Beach, Nouadhibou, Dakhlet Nouadhibou, Mauritania",
        "road": "Al Raha Beach",
        "house_number": null,
        "neighbourhood": null,
        "suburb": null,
        "city_district": null,
        "city": "Nouadhibou",
        "state": "Dakhlet Nouadhibou",
        "postcode": null,
        "country": "Mauritania",
        "country_code": "mr"
      },
      "address": "Al Raha Beach, Nouadhibou, Dakhlet Nouadhibou, Mauritania"
    },
    {
      "lat": 20.957757055882738,
      "lon": -17.03212350420036,
      "geoinfo": {
        "display_name": "4e Rue الشارع الرابع, Nouadhibou, Dakhlet Nouadhibou, Mauritania",
        "road": "4e Rue الشارع الرابع",
        "house_number": null,
        "neighbourhood": null,
        "suburb": null,
        "city_district": null,
        "city": "Nouadhibou",
        "state": "Dakhlet Nouadhibou",
        "postcode": null,
        "country": "Mauritania",
        "country_code": "mr"
      },
      "address": "4e Rue الشارع الرابع, Nouadhibou, Dakhlet Nouadhibou, Mauritania"
    },
    {
      "lat": 20.910751918898633,
      "lon": -17.049798236255363,
      "geoinfo": {
        "display_name": "Rue de la Marine شارع البحرية, Nouadhibou, Dakhlet Nouadhibou, Mauritania",
        "road": "Rue de la Marine شارع البحرية",
        "house_number": null,
        "neighbourhood": null,
        "suburb": null,
        "city_district": null,
        "city": "Nouadhibou",
        "state": "Dakhlet Nouadhibou",
        "postcode": null,
        "country": "Mauritania",
        "country_code": "mr"
      },
      "address": "Rue de la Marine شارع البحرية, Nouadhibou, Dakhlet Nouadhibou, Mauritania"
    },
    {
      "lat": 20.91785705593094,
      "lon": -17.03940273824146,
      "geoinfo": {
        "display_name": "Route de la Zone Industrielle طريق المنطقة الصناعية, Nouadhibou Commercial Zone, Dakhlet Nouadhibou, Mauritania",
        "road": "Route de la Zone Industrielle طريق المنطقة الصناعية",
        "house_number": null,
        "neighbourhood": null,
        "suburb": null,
        "city_district": null,
        "city": null,
        "state": "Dakhlet Nouadhibou",
        "postcode": null,
        "country": "Mauritania",
        "country_code": "mr"
      },
      "address": "Route de la Zone Industrielle طريق المنطقة الصناعية, Nouadhibou, Dakhlet Nouadhibou, Mauritania"
    },
    {
      "lat": 20.973741356858778,
      "lon": -17.036818079786677,
      "geoinfo": {
        "display_name": "Nimraouat, Nouadhibou, Dakhlet Nouadhibou, Mauritania",
        "road": null,
        "house_number": null,
        "neighbourhood": "Nimraouat",
        "suburb": null,
        "city_district": null,
        "city": "Nouadhibou",
        "state": "Dakhlet Nouadhibou",
        "postcode": null,
        "country": "Mauritania",
        "country_code": "mr"
      },
      "address": "208, Nimraouat, Nouadhibou, 88268 Dakhlet Nouadhibou, Mauritania"
    },
    {
      "lat": 20.960014548673154,
      "lon": -17.026336836376878,
      "geoinfo": {
        "display_name": "Nouadhibou, Dakhlet Nouadhibou, Mauritania",
        "road": null,
        "house_number": null,
        "neighbourhood": null,
        "suburb": null,
        "city_district": null,
        "city": "Nouadhibou",
        "state": "Dakhlet Nouadhibou",
        "postcode": null,
        "country": "Mauritania",
        "country_code": "mr"
      },
      "address": "484, Nouadhibou, 51975 Dakhlet Nouadhibou, Mauritania"
    },
    {
      "lat": 20.958942498338782,
      "lon": -17.03058530571492,
      "geoinfo": {
        "display_name": "Nouadhibou, Dakhlet Nouadhibou, Mauritania",
        "road": null,
        "house_number": null,
        "neighbourhood": null,
        "suburb": null,
        "city_district": null,
        "city": "Nouadhibou",
        "state": "Dakhlet Nouadhibou",
        "postcode": null,
        "country": "Mauritania",
        "country_code": "mr"
      },
      "address": "628, Nouadhibou, 33439 Dakhlet Nouadhibou, Mauritania"
    },
    {
      "lat": 20.918994260599945,
      "lon": -17.05753294400982,
      "geoinfo": {
        "display_name": "Route 5623, Dakhlet Nouadhibou, Mauritania",
        "road": "Route 5623",
        "house_number": null,
        "neighbourhood": null,
        "suburb": null,
        "city_district": null,
        "city": null,
        "state": "Dakhlet Nouadhibou",
        "postcode": null,
        "country": "Mauritania",
        "country_code": "mr"
      },
      "address": "Route 5623, 46181 Dakhlet Nouadhibou, Mauritania"
    },
    {
      "lat": 20.967821239139568,
      "lon": -17.01400663976124,
      "geoinfo": {
        "display_name": "Dakhlet Nouadhibou, Mauritania",
        "road": null,
        "house_number": null,
        "neighbourhood": null,
        "suburb": null,
        "city_district": null,
        "city": null,
        "state": "Dakhlet Nouadhibou",
        "postcode": null,
        "country": "Mauritania",
        "country_code": "mr"
      },
      "address": "133, Nouadhibou, 06851 Dakhlet Nouadhibou, Mauritania"
    }
  ],
  "updated_at": "2025-10-19T08:18:35.950883+00:00",
  "_kind": "geo_samples"
}