{
  "country_code": "MR",
  "country": "Mauritania",
  "city": "Nouakchott",
  "geonameid": 2377450,
  "target_addresses": 25,
  "samples": [
    {
      "lat": 18.117256271038507,
      "lon": -15.950797471968146,
      "geoinfo": {
        "display_name": "Ksar, Nouakchott, Ksar, Nouakchott-Ouest Region, Mauritania",
        "road": null,
        "house_number": null,
        "neighbourhood": null,
        "suburb": "Ksar",
        "city_district": null,
        "city": "Nouakchott",
        "state": "Nouakchott-Ouest Region",
        "postcode": null,
        "country": "Mauritania",
        "country_code": "mr"
      },
      "address": "Ksar, Nouakchott, Nouakchott-Ouest Region, Mauritania"
    },
    {
      "lat": 18.07244063191886,
      "lon": -15.949912122592481,
      "geoinfo": {
        "display_name": "Carrefour, Nouakchott, Arafat, Nouakchott-Sud Region, Mauritania",
        "road": null,
        "house_number": null,
        "neighbourhood": null,
        "suburb": "Carrefour",
        "city_district": null,
        "city": "Nouakchott",
        "state": "Nouakchott-Sud Region",
        "postcode": null,
        "country": "Mauritania",
        "country_code": "mr"
      },
      "address": "Carrefour, Nouakchott, Nouakchott-Sud Region, Mauritania"
    },
    {
      "lat": 18.051039364196992,
      "lon": -15.972712235808226,
      "geoinfo": {
        "display_name": "Nouakchott, Arafat, Nouakchott-Sud Region, Mauritania",
        "road": null,
        "house_number": null,
        "neighbourhood": null,
        "suburb": null,
        "city_district": null,
        "city": "Nouakchott",
        "state": "Nouakchott-Sud Region",
        "postcode": null,
        "country": "Mauritania",
        "country_code": "mr"
      },
      "address": "Nouakchott, Nouakchott-Sud Region, Mauritania"
    },
    {
      "lat": 18.063270490747417,
      "lon": -15.983405805192834,
      "geoinfo": {
        "display_name": "El Mina الميناء, Nouakchott, El Mina, Nouakchott-Sud Region, Mauritania",
        "road": null,
        "house_number": null,
        "neighbourhood": null,
        "suburb": "El Mina الميناء",
        "city_district": null,
        "city": "Nouakchott",
        "state": "Nouakchott-Sud Region",
        "postcode": null,
        "country": "Mauritania",
        "country_code": "mr"
      },
      "address": "El Mina الميناء, Nouakchott, Nouakchott-Sud Region, Mauritania"
    },
    {
      "lat": 18.075747627928312,
      "lon": -16.00107220822304,
      "geoinfo": {
        "display_name": "Sebkha, Nouakchott, Sebkha, Nouakchott-Ouest Region, Mauritania",
        "road": null,
        "house_number": null,
        "neighbourhood": null,
        "suburb": "Sebkha",
        "city_district": null,
        "city": "Nouakchott",
        "state": "Nouakchott-Ouest Region",
        "postcode": null,
        "country": "Mauritania",
        "country_code": "mr"
      },
      "address": "Sebkha, Nouakchott, Nouakchott-Ouest Region, Mauritania"
    },
    {
      "lat": 18.079066703575663,
      "lon": -16.01655582960498,
      "geoinfo": {
        "display_name": "Nouakchott, Sebkha, Nouakchott-Ouest Region, Mauritania",
        "road": null,
        "house_number": null,
        "neighbourhood": null,
        "suburb": null,
        "city_district": null,
        "city": "Nouakchott",
        "state": "Nouakchott-Ouest Region",
        "postcode": null,
        "country": "Mauritania",
        "country_code": "mr"
      },
      "address": "Nouakchott, 24730 Nouakchott-Ouest Region, Mauritania"
    },
    {
      "lat": 18.12151810940044,
      "lon": -15.970613097571935,
      "geoinfo": {
        "display_name": "F-Nord شمال و, Nouakchott, Ksar, Nouakchott-Ouest Region, Mauritania",
        "road": null,
        "house_number": null,
        "neighbourhood": null,
        "suburb": "F-Nord شمال و",
        "city_district": null,
        "city": "Nouakchott",
        "state": "Nouakchott-Ouest Region",
        "postcode": null,
        "country": "Mauritania",
        "country_code": "mr"
      },
      "address": "F-Nord شمال و, Nouakchott, Ksar, 24804 Nouakchott-Ouest Region, Mauritania"
    },
    {
      "lat": 18.11481379307084,
      "lon": -16.003128375720504,
      "geoinfo": {
        "display_name": "Rue Mohamed Abdallahi Ould Seddigh شارع محمد عبد الله ولد صديق, Las Palmas لاس بالماس, Nouakchott, Tevragh Zein, Nouakchott-Ouest Region, Mauritania",
        "road": "Rue Mohamed Abdallahi Ould Seddigh شارع محمد عبد الله ولد صديق",
        "house_number": null,
        "neighbourhood": null,
        "suburb": "Las Palmas لاس بالماس",
        "city_district": null,
        "city": "Nouakchott",
        "state": "Nouakchott-Ouest Region",
        "postcode": null,
        "country": "Mauritania",
        "country_code": "mr"
      },
      "address": "830, Rue Mohamed Abdallahi Ould Seddigh شارع محمد عبد الله ولد صديق, Las Palmas لاس بالماس, Nouakchott, Tevragh Zein, 61257 Nouakchott-Ouest Region, Mauritania"
    },
    {
      "lat": 18.076516682209423,
      "lon": -16.02337720611346,
      "geoinfo": {
        "display_name": "Sebkha, Nouakchott-Ouest Region, Mauritania",
        "road": null,
        "house_number": null,
        "neighbourhood": null,
        "suburb": null,
        "city_district": null,
        "city": null,
        "state": "Nouakchott-Ouest Region",
        "postcode": null,
        "country": "Mauritania",
        "country_code": "mr"
      },
      "address": "614, Nouakchott, 26317 Nouakchott-Ouest Region, Mauritania"
    },
    {
      "lat": 18.10847656905537,
      "lon": -15.966768503841111,
      "geoinfo": {
        "display_name": "Rue Mohamed Maouloud شارع محمد مولود, Ksar, Nouakchott, Ksar, Nouakchott-Ouest Region, Mauritania",
        "road": "Rue Mohamed Maouloud شارع محمد مولود",
        "house_number": null,
        "neighbourhood": null,
        "suburb": "Ksar",
        "city_district": null,
        "city": "Nouakchott",
        "state": "Nouakchott-Ouest Region",
        "postcode": null,
        "country": "Mauritania",
        "country_code": "mr"
      },
      "address": "010, Rue Mohamed Maouloud شارع محمد مولود, Ksar, Nouakchott, Ksar, 55207 Nouakchott-Ouest Region, Mauritania"
    },
    {
      "lat": 18.058237112190806,
      "lon": -15.95080326721064,
      "geoinfo": {
        "display_name": "Carrefour, Nouakchott, Arafat, Nouakchott-Sud Region, Mauritania",
        "road": null,
        "house_number": null,
        "neighbourhood": null,
        "suburb": "Carrefour",
        "city_district": null,
        "city": "Nouakchott",
        "state": "Nouakchott-Sud Region",
        "postcode": null,
        "country": "Mauritania",
        "country_code": "mr"
      },
      "address": "648, Carrefour, Nouakchott, Arafat, 23727 Nouakchott-Sud Region, Mauritania"
    },
    {
      "lat": 18.07045276239972,
      "lon": -15.967160228992253,
      "geoinfo": {
        "display_name": "Carrefour, Nouakchott, Arafat, Nouakchott-Sud Region, Mauritania",
        "road": null,
        "house_number": null,
        "neighbourhood": null,
        "suburb": "Carrefour",
        "city_district": null,
        "city": "Nouakchott",
        "state": "Nouakchott-Sud Region",
        "postcode": null,
        "country": "Mauritania",
        "country_code": "mr"
      },
      "address": "579, Carrefour, Nouakchott, Arafat, 58151 Nouakchott-Sud Region, Mauritania"
    },
    {
      "lat": 18.084467259421487,
      "lon": -16.020057053993035,
      "geoinfo": {
        "display_name": "Nouakchott, Sebkha, Nouakchott-Ouest Region, Mauritania",
        "road": null,
        "house_number": null,
        "neighbourhood": null,
        "suburb": null,
        "city_district": null,
        "city": "Nouakchott",
        "state": "Nouakchott-Ouest Region",
        "postcode": null,
        "country": "Mauritania",
        "country_code": "mr"
      },
      "address": "920, Nouakchott, 17685 Nouakchott-Ouest Region, Mauritania"
    },
    {
      "lat": 18.05115166791235,
      "lon": -15.990004195636878,
      "geoinfo": {
        "display_name": "El Mina الميناء, Nouakchott, El Mina, Nouakchott-Sud Region, Mauritania",
        "road": null,
        "house_number": null,
        "neighbourhood": null,
        "suburb": "El Mina الميناء",
        "city_district": null,
        "city": "Nouakchott",
        "state": "Nouakchott-Sud Region",
        "postcode": null,
        "country": "Mauritania",
        "country_code": "mr"
      },
      "address": "727, El Mina الميناء, Nouakchott, El Mina, 79077 Nouakchott-Sud Region, Mauritania"
    },
    {
      "lat": 18.1261941768954,
      "lon": -15.974265248582489,
      "geoinfo": {
        "display_name": "F-Nord شمال و, Nouakchott, Ksar, Nouakchott-Ouest Region, Mauritania",
        "road": null,
        "house_number": null,
        "neighbourhood": null,
        "suburb": "F-Nord شمال و",
        "city_district": null,
        "city": "Nouakchott",
        "state": "Nouakchott-Ouest Region",
        "postcode": null,
        "country": "Mauritania",
        "country_code": "mr"
      },
      "address": "914, F-Nord شمال و, Nouakchott, Ksar, 41497 Nouakchott-Ouest Region, Mauritania"
    },
    {
      "lat": 18.076314510831367,
      "lon": -16.00120514371606,
      "geoinfo": {
        "display_name": "Sebkha, Nouakchott, Sebkha, Nouakchott-Ouest Region, Mauritania",
        "road": null,
        "house_number": null,
        "neighbourhood": null,
        "suburb": "Sebkha",
        "city_district": null,
        "city": "Nouakchott",
        "state": "Nouakchott-Ouest Region",
        "postcode": null,
        "country": "Mauritania",
        "country_code": "mr"
      },
      "address": "325, Sebkha, Nouakchott, Sebkha, 51350 Nouakchott-Ouest Region, Mauritania"
    },
    {
      "lat": 18.124914717977674,
      "lon": -15.985438284289929,
      "geoinfo": {
        "display_name": "Centre Émetteur مركز الإرسال, Nouakchott, Tevragh Zein, Nouakchott-Ouest Region, Mauritania",
        "road": null,
        "house_number": null,
        "neighbourhood": null,
        "suburb": "Centre Émetteur مركز الإرسال",
        "city_district": null,
        "city": "Nouakchott",
        "state": "Nouakchott-Ouest Region",
        "postcode": null,
        "country": "Mauritania",
        "country_code": "mr"
      },
      "address": "880, Centre Émetteur مركز الإرسال, Nouakchott, Tevragh Zein, 14651 Nouakchott-Ouest Region, Mauritania"
    },
    {
      "lat": 18.094693321215328,
      "lon": -15.95960681443715,
      "geoinfo": {
        "display_name": "Banque Islamique de Mauritanie, Avenue du Roi Fayçal شارع الملك فيصل, Ksar, Nouakchott, Ksar, Nouakchott-Ouest Region, Mauritania",
        "road": "Avenue du Roi Fayçal شارع الملك فيصل",
        "house_number": null,
        "neighbourhood": null,
        "suburb": "Ksar",
        "city_district": null,
        "city": "Nouakchott",
        "state": "Nouakchott-Ouest Region",
        "postcode": null,
        "country": "Mauritania",
        "country_code": "mr"
      },
      "address": "564, Avenue du Roi Fayçal شارع الملك فيصل, Nouakchott, 43269 Nouakchott-Ouest Region, Mauritania"
    },
    {
      "lat": 18.064350057507834,
      "lon": -15.967726664867586,
      "geoinfo": {
        "display_name": "Groupement Général de la Sécurité Routière عام المجموعة للسلامة على الطرق, Autoroute Rosso الطريق السريع روصو, Arafatt Secteur 1 Extension عرفات قطاع 1 امتداد, Carrefour, Nouakchott, Arafat, Nouakchott-Sud Region, Mauritania",
        "road": "Autoroute Rosso الطريق السريع روصو",
        "house_number": null,
        "neighbourhood": null,
        "suburb": "Carrefour",
        "city_district": null,
        "city": "Nouakchott",
        "state": "Nouakchott-Sud Region",
        "postcode": null,
        "country": "Mauritania",
        "country_code": "mr"
      },
      "address": "872, Autoroute Rosso الطريق السريع روصو, Nouakchott, 85976 Nouakchott-Sud Region, Mauritania"
    },
    {
      "lat": 18.062565682502388,
      "lon": -16.017268726701136,
      "geoinfo": {
        "display_name": "Sebkha, Nouakchott, Sebkha, Nouakchott-Ouest Region, Mauritania",
        "road": null,
        "house_number": null,
        "neighbourhood": null,
        "suburb": "Sebkha",
        "city_district": null,
        "city": "Nouakchott",
        "state": "Nouakchott-Ouest Region",
        "postcode": null,
        "country": "Mauritania",
        "country_code": "mr"
      },
      "address": "982, Sebkha, Nouakchott, Sebkha, 33564 Nouakchott-Ouest Region, Mauritania"
    },
    {
      "lat": 18.067162358019267,
      "lon": -15.980562829131411,
      "geoinfo": {
        "display_name": "El Mina الميناء, Nouakchott, El Mina, Nouakchott-Sud Region, Mauritania",
        "road": null,
        "house_number": null,
        "neighbourhood": null,
        "suburb": "El Mina الميناء",
        "city_district": null,
        "city": "Nouakchott",
        "state": "Nouakchott-Sud Region",
        "postcode": null,
        "country": "Mauritania",
        "country_code": "mr"
      },
      "address": "924, El Mina الميناء, Nouakchott, El Mina, 88185 Nouakchott-Sud Region, Mauritania"
    },
    {
      "lat": 18.059453687384057,
      "lon": -16.00330765063569,
      "geoinfo": {
        "display_name": "Nouakchott, El Mina, Nouakchott-Sud Region, Mauritania",
        "road": null,
        "house_number": null,
        "neighbourhood": null,
        "suburb": null,
        "city_district": null,
        "city": "Nouakchott",
        "state": "Nouakchott-Sud Region",
        "postcode": null,
        "country": "Mauritania",
        "country_code": "mr"
      },
      "address": "648, Nouakchott, El Mina, 88194 Nouakchott-Sud Region, Mauritania"
    },
    {
      "lat": 18.061220781012643,
      "lon": -16.006469633627848,
      "geoinfo": {
        "display_name": "Sebkha, Nouakchott, Sebkha, Nouakchott-Ouest Region, Mauritania",
        "road": null,
        "house_number": null,
        "neighbourhood": null,
        "suburb": "Sebkha",
        "city_district": null,
        "city": "Nouakchott",
        "state": "Nouakchott-Ouest Region",
        "postcode": null,
        "country": "Mauritania",
        "country_code": "mr"
      },
      "address": "028, Sebkha, Nouakchott, Sebkha, 41160 Nouakchott-Ouest Region, Mauritania"
    },
    {
      "lat": 18.097628223905524,
      "lon": -15.960224120207425,
      "geoinfo": {
        "display_name": "Lycée Commercial التجارية مدرسة ثانوية, Avenue Boubaker Ben Amer نهج أبو بكر بن عامر, Ksar, Nouakchott, Ksar, Nouakchott-Ouest Region, Mauritania",
        "road": "Avenue Boubaker Ben Amer نهج أبو بكر بن عامر",
        "house_number": null,
        "neighbourhood": null,
        "suburb": "Ksar",
        "city_district": null,
        "city": "Nouakchott",
        "state": "Nouakchott-Ouest Region",
        "postcode": null,
        "country": "Mauritania",
        "country_code": "mr"
      },
      "address": "879, Avenue Boubaker Ben Amer نهج أبو بكر بن عامر, Nouakchott, 58382 Nouakchott-Ouest Region, Mauritania"
    },
    {
      "lat": 18.120933603362833,
      "lon": -16.002017740060126,
      "geoinfo": {
        "display_name": "Rue Hasni Ould Didi شارع حسني ولد ديدي, Centre Émetteur مركز الإرسال, Nouakchott, Tevragh Zein, Nouakchott-Ouest Region, Mauritania",
        "road": "Rue Hasni Ould Didi شارع حسني ولد ديدي",
        "house_number": null,
        "neighbourhood": null,
        "suburb": "Centre Émetteur مركز الإرسال",
        "city_district": null,
        "city": "Nouakchott",
        "state": "Nouakchott-Ouest Region",
        "postcode": null,
        "country": "Mauritania",
        "country_code": "mr"
      },
      "address": "207, Rue Hasni Ould Didi شارع حسني ولد ديدي, Centre Émetteur مركز الإرسال, Nouakchott, Tevragh Zein, 14098 Nouakchott-Ouest Region, Mauritania"
    }
  ],
  "updated_at": "2025-10-19T05:45:57.804547+00:00",
  "_kind": "geo_samples"
}