{
  "country_code": "KY",
  "country": "Cayman Islands",
  "city": "George Town",
  "geonameid": 3580661,
  "target_addresses": 50,
  "samples": [
    {
      "lat": 19.29530300390457,
      "lon": -81.34327036475828,
      "geoinfo": {
        "display_name": "Tropical Gardens, George Town, KY1-1207, Cayman Islands",
        "road": null,
        "house_number": null,
        "neighbourhood": null,
        "suburb": "Tropical Gardens",
        "city_district": null,
        "city": "George Town",
        "state": null,
        "postcode": "KY1-1207",
        "country": "Cayman Islands",
        "country_code": "ky"
      },
      "address": "Tropical Gardens, George Town, Cayman Islands"
    },
    {
      "lat": 19.31431413499322,
      "lon": -81.3797982149682,
      "geoinfo": {
        "display_name": "The Swamp, Whitehall Estate, George Town, KY1-1202, Cayman Islands",
        "road": null,
        "house_number": null,
        "neighbourhood": null,
        "suburb": "The Swamp",
        "city_district": null,
        "city": "George Town",
        "state": null,
        "postcode": "KY1-1202",
        "country": "Cayman Islands",
        "country_code": "ky"
      },
      "address": "The Swamp, George Town, Cayman Islands"
    },
    {
      "lat": 19.275331548771582,
      "lon": -81.36856717647053,
      "geoinfo": {
        "display_name": "Anne Bonny Crescent, Halfway Pond, George Town, KY1-1207, Cayman Islands",
        "road": "Anne Bonny Crescent",
        "house_number": null,
        "neighbourhood": null,
        "suburb": "Halfway Pond",
        "city_district": null,
        "city": "George Town",
        "state": null,
        "postcode": "KY1-1207",
        "country": "Cayman Islands",
        "country_code": "ky"
      },
      "address": "Anne Bonny Crescent, George Town, Cayman Islands"
    },
    {
      "lat": 19.292325947631596,
      "lon": -81.40025354158261,
      "geoinfo": {
        "display_name": "Eden Rock, South Church Street, Rock Hole, George Town, KY1-9000, Cayman Islands",
        "road": "South Church Street",
        "house_number": null,
        "neighbourhood": null,
        "suburb": "Rock Hole",
        "city_district": null,
        "city": "George Town",
        "state": null,
        "postcode": "KY1-9000",
        "country": "Cayman Islands",
        "country_code": "ky"
      },
      "address": "South Church Street, George Town, Cayman Islands"
    },
    {
      "lat": 19.2682810413005,
      "lon": -81.38467443579964,
      "geoinfo": {
        "display_name": "South Sound Road, Southern Skies, Tropical Gardens, George Town, KY1-1207, Cayman Islands",
        "road": "South Sound Road",
        "house_number": null,
        "neighbourhood": null,
        "suburb": "Tropical Gardens",
        "city_district": null,
        "city": "George Town",
        "state": null,
        "postcode": "KY1-1207",
        "country": "Cayman Islands",
        "country_code": "ky"
      },
      "address": "South Sound Road, George Town, Cayman Islands"
    },
    {
      "lat": 19.314773471439512,
      "lon": -81.35214066576988,
      "geoinfo": {
        "display_name": "Breezy Castle, George Town, KY1-1005, Cayman Islands",
        "road": null,
        "house_number": null,
        "neighbourhood": null,
        "suburb": "Breezy Castle",
        "city_district": null,
        "city": "George Town",
        "state": null,
        "postcode": "KY1-1005",
        "country": "Cayman Islands",
        "country_code": "ky"
      },
      "address": "Breezy Castle, George Town, Cayman Islands"
    },
    {
      "lat": 19.275293107411574,
      "lon": -81.40690243878794,
      "geoinfo": {
        "display_name": "Rock Hole, George Town, KY1-9000, Cayman Islands",
        "road": null,
        "house_number": null,
        "neighbourhood": null,
        "suburb": "Rock Hole",
        "city_district": null,
        "city": "George Town",
        "state": null,
        "postcode": "KY1-9000",
        "country": "Cayman Islands",
        "country_code": "ky"
      },
      "address": "Rock Hole, George Town, Cayman Islands"
    },
    {
      "lat": 19.297928767068925,
      "lon": -81.36321728401334,
      "geoinfo": {
        "display_name": "Water Authority - Cayman, 13G, Red Gate Road, Breezy Castle, George Town, KY1-1005, Cayman Islands",
        "road": "Red Gate Road",
        "house_number": "13G",
        "neighbourhood": null,
        "suburb": "Breezy Castle",
        "city_district": null,
        "city": "George Town",
        "state": null,
        "postcode": "KY1-1005",
        "country": "Cayman Islands",
        "country_code": "ky"
      },
      "address": "13G Red Gate Road, George Town, Cayman Islands"
    },
    {
      "lat": 19.294756127890047,
      "lon": -81.36435423752415,
      "geoinfo": {
        "display_name": "Owen Robert's Drive, Breezy Castle, George Town, KY1-1005, Cayman Islands",
        "road": "Owen Robert's Drive",
        "house_number": null,
        "neighbourhood": null,
        "suburb": "Breezy Castle",
        "city_district": null,
        "city": "George Town",
        "state": null,
        "postcode": "KY1-1005",
        "country": "Cayman Islands",
        "country_code": "ky"
      },
      "address": "Owen Robert's Drive, George Town, Cayman Islands"
    },
    {
      "lat": 19.24400932684011,
      "lon": -81.3782806550732,
      "geoinfo": {
        "display_name": "Cayman Islands",
        "road": null,
        "house_number": null,
        "neighbourhood": null,
        "suburb": null,
        "city_district": null,
        "city": null,
        "state": null,
        "postcode": null,
        "country": "Cayman Islands",
        "country_code": "ky"
      },
      "address": "George Town, Cayman Islands"
    },
    {
      "lat": 19.280875387931005,
      "lon": -81.39102244391175,
      "geoinfo": {
        "display_name": "Point Four Street, George Town, KY1-9000, Cayman Islands",
        "road": "Point Four Street",
        "house_number": null,
        "neighbourhood": null,
        "suburb": null,
        "city_district": null,
        "city": "George Town",
        "state": null,
        "postcode": "KY1-9000",
        "country": "Cayman Islands",
        "country_code": "ky"
      },
      "address": "Point Four Street, George Town, Cayman Islands"
    },
    {
      "lat": 19.27983448281088,
      "lon": -81.36738734238624,
      "geoinfo": {
        "display_name": "Halfway Pond, George Town, KY1-1005, Cayman Islands",
        "road": null,
        "house_number": null,
        "neighbourhood": null,
        "suburb": "Halfway Pond",
        "city_district": null,
        "city": "George Town",
        "state": null,
        "postcode": "KY1-1005",
        "country": "Cayman Islands",
        "country_code": "ky"
      },
      "address": "Halfway Pond, George Town, Cayman Islands"
    },
    {
      "lat": 19.31594937566043,
      "lon": -81.35713276506091,
      "geoinfo": {
        "display_name": "The Rock, Whitehall Estate, George Town, KY1-1007, Cayman Islands",
        "road": null,
        "house_number": null,
        "neighbourhood": null,
        "suburb": "The Rock",
        "city_district": null,
        "city": "George Town",
        "state": null,
        "postcode": "KY1-1007",
        "country": "Cayman Islands",
        "country_code": "ky"
      },
      "address": "The Rock, George Town, Cayman Islands"
    },
    {
      "lat": 19.26667842630087,
      "lon": -81.34830169738659,
      "geoinfo": {
        "display_name": "Prospect, George Town, KY1-1104, Cayman Islands",
        "road": null,
        "house_number": null,
        "neighbourhood": null,
        "suburb": "Prospect",
        "city_district": null,
        "city": "George Town",
        "state": null,
        "postcode": "KY1-1104",
        "country": "Cayman Islands",
        "country_code": "ky"
      },
      "address": "Prospect, George Town, Cayman Islands"
    },
    {
      "lat": 19.27353342890764,
      "lon": -81.36966858771461,
      "geoinfo": {
        "display_name": "93, Mary Read Crescent, Halfway Pond, George Town, KY1-1207, Cayman Islands",
        "road": "Mary Read Crescent",
        "house_number": "93",
        "neighbourhood": null,
        "suburb": "Halfway Pond",
        "city_district": null,
        "city": "George Town",
        "state": null,
        "postcode": "KY1-1207",
        "country": "Cayman Islands",
        "country_code": "ky"
      },
      "address": "93 Mary Read Crescent, George Town, Cayman Islands"
    },
    {
      "lat": 19.29270912461883,
      "lon": -81.35177899035831,
      "geoinfo": {
        "display_name": "Tropicana Crescent, Tropical Gardens, George Town, KY1-1207, Cayman Islands",
        "road": "Tropicana Crescent",
        "house_number": null,
        "neighbourhood": null,
        "suburb": "Tropical Gardens",
        "city_district": null,
        "city": "George Town",
        "state": null,
        "postcode": "KY1-1207",
        "country": "Cayman Islands",
        "country_code": "ky"
      },
      "address": "Tropicana Crescent, George Town, Cayman Islands"
    },
    {
      "lat": 19.328264654704054,
      "lon": -81.36866032717336,
      "geoinfo": {
        "display_name": "Andrew Drive, George Town, KY1-1004, Cayman Islands",
        "road": "Andrew Drive",
        "house_number": null,
        "neighbourhood": null,
        "suburb": null,
        "city_district": null,
        "city": "George Town",
        "state": null,
        "postcode": "KY1-1004",
        "country": "Cayman Islands",
        "country_code": "ky"
      },
      "address": "Andrew Drive, George Town, Cayman Islands"
    },
    {
      "lat": 19.287088853307843,
      "lon": -81.33550253339386,
      "geoinfo": {
        "display_name": "Consort Quay, Prospect, George Town, KY1-1104, Cayman Islands",
        "road": "Consort Quay",
        "house_number": null,
        "neighbourhood": null,
        "suburb": "Prospect",
        "city_district": null,
        "city": "George Town",
        "state": null,
        "postcode": "KY1-1104",
        "country": "Cayman Islands",
        "country_code": "ky"
      },
      "address": "Consort Quay, George Town, Cayman Islands"
    },
    {
      "lat": 19.27216791150932,
      "lon": -81.34133072943605,
      "geoinfo": {
        "display_name": "Prospect Road, Prospect, George Town, KY1-1104, Cayman Islands",
        "road": "Prospect Road",
        "house_number": null,
        "neighbourhood": null,
        "suburb": "Prospect",
        "city_district": null,
        "city": "George Town",
        "state": null,
        "postcode": "KY1-1104",
        "country": "Cayman Islands",
        "country_code": "ky"
      },
      "address": "Prospect Road, George Town, Cayman Islands"
    },
    {
      "lat": 19.313904983301367,
      "lon": -81.38672446150376,
      "geoinfo": {
        "display_name": "Grandview Condos, 95, Snooze Lane, The Swamp, Whitehall Estate, George Town, KY1-1202, Cayman Islands",
        "road": "Snooze Lane",
        "house_number": "95",
        "neighbourhood": null,
        "suburb": "The Swamp",
        "city_district": null,
        "city": "George Town",
        "state": null,
        "postcode": "KY1-1202",
        "country": "Cayman Islands",
        "country_code": "ky"
      },
      "address": "95 Snooze Lane, George Town, Cayman Islands"
    },
    {
      "lat": 19.29186979911708,
      "lon": -81.36658073924899,
      "geoinfo": {
        "display_name": "Foster's Food Fair Airport Center, 63, Dorcy Drive, Breezy Castle, George Town, KY1-1005, Cayman Islands",
        "road": "Dorcy Drive",
        "house_number": "63",
        "neighbourhood": null,
        "suburb": "Breezy Castle",
        "city_district": null,
        "city": "George Town",
        "state": null,
        "postcode": "KY1-1005",
        "country": "Cayman Islands",
        "country_code": "ky"
      },
      "address": "63 Dorcy Drive, George Town, Cayman Islands"
    },
    {
      "lat": 19.295189949467364,
      "lon": -81.3704935826417,
      "geoinfo": {
        "display_name": "North Sound Road, Rock Hole, George Town, KY1-1005, Cayman Islands",
        "road": "North Sound Road",
        "house_number": null,
        "neighbourhood": null,
        "suburb": "Rock Hole",
        "city_district": null,
        "city": "George Town",
        "state": null,
        "postcode": "KY1-1005",
        "country": "Cayman Islands",
        "country_code": "ky"
      },
      "address": "North Sound Road, George Town, Cayman Islands"
    },
    {
      "lat": 19.31161298005741,
      "lon": -81.36064765212907,
      "geoinfo": {
        "display_name": "Airport Connector Road, Breezy Castle, George Town, KY1-1007, Cayman Islands",
        "road": "Airport Connector Road",
        "house_number": null,
        "neighbourhood": null,
        "suburb": "Breezy Castle",
        "city_district": null,
        "city": "George Town",
        "state": null,
        "postcode": "KY1-1007",
        "country": "Cayman Islands",
        "country_code": "ky"
      },
      "address": "Airport Connector Road, George Town, Cayman Islands"
    },
    {
      "lat": 19.288496444595296,
      "lon": -81.37444182390996,
      "geoinfo": {
        "display_name": "Comprehensive Credit Union, 94, Huldah Avenue, Rock Hole, George Town, KY1-9000, Cayman Islands",
        "road": "Huldah Avenue",
        "house_number": "94",
        "neighbourhood": null,
        "suburb": "Rock Hole",
        "city_district": null,
        "city": "George Town",
        "state": null,
        "postcode": "KY1-9000",
        "country": "Cayman Islands",
        "country_code": "ky"
      },
      "address": "94 Huldah Avenue, George Town, Cayman Islands"
    },
    {
      "lat": 19.30679389023112,
      "lon": -81.39058566195243,
      "geoinfo": {
        "display_name": "West Bay Road, The Swamp, Whitehall Estate, George Town, KY1-1202, Cayman Islands",
        "road": "West Bay Road",
        "house_number": null,
        "neighbourhood": null,
        "suburb": "The Swamp",
        "city_district": null,
        "city": "George Town",
        "state": null,
        "postcode": "KY1-1202",
        "country": "Cayman Islands",
        "country_code": "ky"
      },
      "address": "West Bay Road, George Town, Cayman Islands"
    },
    {
      "lat": 19.296414089455766,
      "lon": -81.3671041490792,
      "geoinfo": {
        "display_name": "261 Rsl office, Dorcy Drive, Breezy Castle, George Town, KY1-1005, Cayman Islands",
        "road": "Dorcy Drive",
        "house_number": "261 Rsl office",
        "neighbourhood": null,
        "suburb": "Breezy Castle",
        "city_district": null,
        "city": "George Town",
        "state": null,
        "postcode": "KY1-1005",
        "country": "Cayman Islands",
        "country_code": "ky"
      },
      "address": "261 Rsl office Dorcy Drive, George Town, Cayman Islands"
    },
    {
      "lat": 19.266813505563917,
      "lon": -81.33510663189251,
      "geoinfo": {
        "display_name": "Coconut Village, Prospect, Spotts, George Town, KY1-1104, Cayman Islands",
        "road": null,
        "house_number": null,
        "neighbourhood": "Coconut Village",
        "suburb": "Prospect",
        "city_district": null,
        "city": "George Town",
        "state": null,
        "postcode": "KY1-1104",
        "country": "Cayman Islands",
        "country_code": "ky"
      },
      "address": "Coconut Village, George Town, Cayman Islands"
    },
    {
      "lat": 19.294734891757432,
      "lon": -81.3336042971445,
      "geoinfo": {
        "display_name": "Spinnakers Drive, Prospect, George Town, KY1-1104, Cayman Islands",
        "road": "Spinnakers Drive",
        "house_number": null,
        "neighbourhood": null,
        "suburb": "Prospect",
        "city_district": null,
        "city": "George Town",
        "state": null,
        "postcode": "KY1-1104",
        "country": "Cayman Islands",
        "country_code": "ky"
      },
      "address": "Spinnakers Drive, George Town, Cayman Islands"
    },
    {
      "lat": 19.299004231732237,
      "lon": -81.35331534764512,
      "geoinfo": {
        "display_name": "Clem's Way, Breezy Castle, George Town, KY1-1007, Cayman Islands",
        "road": "Clem's Way",
        "house_number": null,
        "neighbourhood": null,
        "suburb": "Breezy Castle",
        "city_district": null,
        "city": "George Town",
        "state": null,
        "postcode": "KY1-1007",
        "country": "Cayman Islands",
        "country_code": "ky"
      },
      "address": "Clem's Way, George Town, Cayman Islands"
    },
    {
      "lat": 19.326679049436255,
      "lon": -81.37528110385958,
      "geoinfo": {
        "display_name": "Regent Court, Whitehall Estate, George Town, KY1-1004, Cayman Islands",
        "road": "Regent Court",
        "house_number": null,
        "neighbourhood": null,
        "suburb": null,
        "city_district": null,
        "city": "George Town",
        "state": null,
        "postcode": "KY1-1004",
        "country": "Cayman Islands",
        "country_code": "ky"
      },
      "address": "Regent Court, George Town, Cayman Islands"
    },
    {
      "lat": 19.328299087968073,
      "lon": -81.37639923236739,
      "geoinfo": {
        "display_name": "Palm Heights Drive, George Town, KY1-1004, Cayman Islands",
        "road": "Palm Heights Drive",
        "house_number": null,
        "neighbourhood": null,
        "suburb": null,
        "city_district": null,
        "city": "George Town",
        "state": null,
        "postcode": "KY1-1004",
        "country": "Cayman Islands",
        "country_code": "ky"
      },
      "address": "Palm Heights Drive, George Town, Cayman Islands"
    },
    {
      "lat": 19.294782946723753,
      "lon": -81.39017645234928,
      "geoinfo": {
        "display_name": "Cruise Ship Anchor Point, Seafarers Way, Rock Hole, George Town, KY1-9000, Cayman Islands",
        "road": "Seafarers Way",
        "house_number": null,
        "neighbourhood": null,
        "suburb": "Rock Hole",
        "city_district": null,
        "city": "George Town",
        "state": null,
        "postcode": "KY1-9000",
        "country": "Cayman Islands",
        "country_code": "ky"
      },
      "address": "Seafarers Way, George Town, Cayman Islands"
    },
    {
      "lat": 19.276214041867494,
      "lon": -81.37222695044692,
      "geoinfo": {
        "display_name": "Fairview Road, Halfway Pond, George Town, KY1-9000, Cayman Islands",
        "road": "Fairview Road",
        "house_number": null,
        "neighbourhood": null,
        "suburb": "Halfway Pond",
        "city_district": null,
        "city": "George Town",
        "state": null,
        "postcode": "KY1-9000",
        "country": "Cayman Islands",
        "country_code": "ky"
      },
      "address": "Fairview Road, George Town, Cayman Islands"
    },
    {
      "lat": 19.2891398248705,
      "lon": -81.37684694631989,
      "geoinfo": {
        "display_name": "Pond Road, Rock Hole, Propose Queens Jubilee City Limit (Study Area), KY1-9000, Cayman Islands",
        "road": "Pond Road",
        "house_number": null,
        "neighbourhood": null,
        "suburb": "Rock Hole",
        "city_district": null,
        "city": "Propose Queens Jubilee City Limit (Study Area)",
        "state": null,
        "postcode": "KY1-9000",
        "country": "Cayman Islands",
        "country_code": "ky"
      },
      "address": "Pond Road, George Town, Cayman Islands"
    },
    {
      "lat": 19.281803671839718,
      "lon": -81.33204439296216,
      "geoinfo": {
        "display_name": "Orange Drive, Coconut Village, Prospect, Spotts, George Town, KY1-1104, Cayman Islands",
        "road": "Orange Drive",
        "house_number": null,
        "neighbourhood": "Coconut Village",
        "suburb": "Prospect",
        "city_district": null,
        "city": "George Town",
        "state": null,
        "postcode": "KY1-1104",
        "country": "Cayman Islands",
        "country_code": "ky"
      },
      "address": "Orange Drive, George Town, Cayman Islands"
    },
    {
      "lat": 19.27562295791232,
      "lon": -81.34578291757617,
      "geoinfo": {
        "display_name": "24, Shamrock Road, Prospect, George Town, KY1-1207, Cayman Islands",
        "road": "Shamrock Road",
        "house_number": "24",
        "neighbourhood": null,
        "suburb": "Prospect",
        "city_district": null,
        "city": "George Town",
        "state": null,
        "postcode": "KY1-1207",
        "country": "Cayman Islands",
        "country_code": "ky"
      },
      "address": "24 Shamrock Road, George Town, Cayman Islands"
    },
    {
      "lat": 19.279927285811734,
      "lon": -81.33801131297238,
      "geoinfo": {
        "display_name": "Lighthouse School, Red Bay Road, Prospect, George Town, KY1-1104, Cayman Islands",
        "road": "Red Bay Road",
        "house_number": null,
        "neighbourhood": null,
        "suburb": "Prospect",
        "city_district": null,
        "city": "George Town",
        "state": null,
        "postcode": "KY1-1104",
        "country": "Cayman Islands",
        "country_code": "ky"
      },
      "address": "Red Bay Road, George Town, Cayman Islands"
    },
    {
      "lat": 19.277415898808023,
      "lon": -81.38630762130242,
      "geoinfo": {
        "display_name": "Cayman Preperatory and High School, 599, Walkers Road, Rock Hole, George Town, KY1-9000, Cayman Islands",
        "road": "Walkers Road",
        "house_number": "599",
        "neighbourhood": null,
        "suburb": "Rock Hole",
        "city_district": null,
        "city": "George Town",
        "state": null,
        "postcode": "KY1-9000",
        "country": "Cayman Islands",
        "country_code": "ky"
      },
      "address": "599 Walkers Road, George Town, Cayman Islands"
    },
    {
      "lat": 19.31631922979622,
      "lon": -81.37684118797124,
      "geoinfo": {
        "display_name": "Cayman International School, Minerva Drive, The Rock, Whitehall Estate, George Town, KY1-9006, Cayman Islands",
        "road": "Minerva Drive",
        "house_number": null,
        "neighbourhood": null,
        "suburb": "The Rock",
        "city_district": null,
        "city": "George Town",
        "state": null,
        "postcode": "KY1-9006",
        "country": "Cayman Islands",
        "country_code": "ky"
      },
      "address": "Minerva Drive, George Town, Cayman Islands"
    },
    {
      "lat": 19.283107674273506,
      "lon": -81.36201769936692,
      "geoinfo": {
        "display_name": "Candlenut Close, Satinwood Gate, Halfway Pond, George Town, KY1-1207, Cayman Islands",
        "road": "Candlenut Close",
        "house_number": null,
        "neighbourhood": null,
        "suburb": "Halfway Pond",
        "city_district": null,
        "city": "George Town",
        "state": null,
        "postcode": "KY1-1207",
        "country": "Cayman Islands",
        "country_code": "ky"
      },
      "address": "Candlenut Close, George Town, Cayman Islands"
    },
    {
      "lat": 19.276073675195747,
      "lon": -81.33711677115166,
      "geoinfo": {
        "display_name": "Esso - Carcam, 248, Shamrock Road, Prospect, George Town, KY1-1104, Cayman Islands",
        "road": "Shamrock Road",
        "house_number": "248",
        "neighbourhood": null,
        "suburb": "Prospect",
        "city_district": null,
        "city": "George Town",
        "state": null,
        "postcode": "KY1-1104",
        "country": "Cayman Islands",
        "country_code": "ky"
      },
      "address": "248 Shamrock Road, George Town, Cayman Islands"
    },
    {
      "lat": 19.287759833096967,
      "lon": -81.38927524757902,
      "geoinfo": {
        "display_name": "The SeaView, 272, South Church Street, Rock Hole, George Town, KY1-9000, Cayman Islands",
        "road": "South Church Street",
        "house_number": "272",
        "neighbourhood": null,
        "suburb": "Rock Hole",
        "city_district": null,
        "city": "George Town",
        "state": null,
        "postcode": "KY1-9000",
        "country": "Cayman Islands",
        "country_code": "ky"
      },
      "address": "272 South Church Street, George Town, Cayman Islands"
    },
    {
      "lat": 19.30207206637664,
      "lon": -81.37329672164572,
      "geoinfo": {
        "display_name": "Greenwood Drive, The Swamp, Whitehall Estate, George Town, KY1-1007, Cayman Islands",
        "road": "Greenwood Drive",
        "house_number": null,
        "neighbourhood": null,
        "suburb": "The Swamp",
        "city_district": null,
        "city": "George Town",
        "state": null,
        "postcode": "KY1-1007",
        "country": "Cayman Islands",
        "country_code": "ky"
      },
      "address": "Greenwood Drive, George Town, Cayman Islands"
    },
    {
      "lat": 19.30095708372387,
      "lon": -81.35514541745742,
      "geoinfo": {
        "display_name": "Will Wallace Way, Breezy Castle, George Town, KY1-1007, Cayman Islands",
        "road": "Will Wallace Way",
        "house_number": null,
        "neighbourhood": null,
        "suburb": "Breezy Castle",
        "city_district": null,
        "city": "George Town",
        "state": null,
        "postcode": "KY1-1007",
        "country": "Cayman Islands",
        "country_code": "ky"
      },
      "address": "Will Wallace Way, George Town, Cayman Islands"
    },
    {
      "lat": 19.329471668585303,
      "lon": -81.36368895126314,
      "geoinfo": {
        "display_name": "Canal Point Drive, George Town, KY1-1004, Cayman Islands",
        "road": "Canal Point Drive",
        "house_number": null,
        "neighbourhood": null,
        "suburb": null,
        "city_district": null,
        "city": "George Town",
        "state": null,
        "postcode": "KY1-1004",
        "country": "Cayman Islands",
        "country_code": "ky"
      },
      "address": "Canal Point Drive, George Town, Cayman Islands"
    },
    {
      "lat": 19.28944160994607,
      "lon": -81.3650691579079,
      "geoinfo": {
        "display_name": "Crewe Road, Tropical Gardens, George Town, KY1-1207, Cayman Islands",
        "road": "Crewe Road",
        "house_number": null,
        "neighbourhood": null,
        "suburb": "Tropical Gardens",
        "city_district": null,
        "city": "George Town",
        "state": null,
        "postcode": "KY1-1207",
        "country": "Cayman Islands",
        "country_code": "ky"
      },
      "address": "Crewe Road, George Town, Cayman Islands"
    },
    {
      "lat": 19.282661260699232,
      "lon": -81.34250124373722,
      "geoinfo": {
        "display_name": "Selkirk Drive, Prospect, George Town, KY1-1207, Cayman Islands",
        "road": "Selkirk Drive",
        "house_number": null,
        "neighbourhood": null,
        "suburb": "Prospect",
        "city_district": null,
        "city": "George Town",
        "state": null,
        "postcode": "KY1-1207",
        "country": "Cayman Islands",
        "country_code": "ky"
      },
      "address": "Selkirk Drive, George Town, Cayman Islands"
    },
    {
      "lat": 19.295609669435837,
      "lon": -81.36593821652825,
      "geoinfo": {
        "display_name": "Brand Source, Dorcy Drive, Breezy Castle, George Town, KY1-1005, Cayman Islands",
        "road": "Dorcy Drive",
        "house_number": null,
        "neighbourhood": null,
        "suburb": "Breezy Castle",
        "city_district": null,
        "city": "George Town",
        "state": null,
        "postcode": "KY1-1005",
        "country": "Cayman Islands",
        "country_code": "ky"
      },
      "address": "Dorcy Drive, George Town, Cayman Islands"
    },
    {
      "lat": 19.28001273359754,
      "lon": -81.38917025676984,
      "geoinfo": {
        "display_name": "Moxam Road, George Town, KY1-9000, Cayman Islands",
        "road": "Moxam Road",
        "house_number": null,
        "neighbourhood": null,
        "suburb": null,
        "city_district": null,
        "city": "George Town",
        "state": null,
        "postcode": "KY1-9000",
        "country": "Cayman Islands",
        "country_code": "ky"
      },
      "address": "Moxam Road, George Town, Cayman Islands"
    },
    {
      "lat": 19.281267512557516,
      "lon": -81.32800809758507,
      "geoinfo": {
        "display_name": "Mangrove Avenue, Coconut Village, Prospect, Spotts, George Town, KY1-1104, Cayman Islands",
        "road": "Mangrove Avenue",
        "house_number": null,
        "neighbourhood": "Coconut Village",
        "suburb": "Prospect",
        "city_district": null,
        "city": "George Town",
        "state": null,
        "postcode": "KY1-1104",
        "country": "Cayman Islands",
        "country_code": "ky"
      },
      "address": "Mangrove Avenue, George Town, Cayman Islands"
    }
  ],
  "updated_at": "2025-10-16T18:22:24.964242+00:00",
  "_kind": "geo_samples"
}