{
  "country_code": "UG",
  "country": "Uganda",
  "city": "Apac",
  "geonameid": 235130,
  "target_addresses": 3,
  "samples": [
    {
      "lat": 1.9815135268902857,
      "lon": 32.50794925872934,
      "geoinfo": {
        "display_name": "Akokoro Road, Atopi Trc, Apac, Northern Region, Uganda",
        "road": "Akokoro Road",
        "house_number": null,
        "neighbourhood": null,
        "suburb": null,
        "city_district": null,
        "city": "Atopi Trc",
        "state": "Apac",
        "postcode": null,
        "country": "Uganda",
        "country_code": "ug"
      },
      "address": "Akokoro Road, Apac, Apac, Uganda"
    },
    {
      "lat": 1.96514241170124,
      "lon": 32.5094777355784,
      "geoinfo": {
        "display_name": "Alyec-imalo, Apac, Northern Region, Uganda",
        "road": null,
        "house_number": null,
        "neighbourhood": null,
        "suburb": null,
        "city_district": null,
        "city": "Alyec-imalo",
        "state": "Apac",
        "postcode": null,
        "country": "Uganda",
        "country_code": "ug"
      },
      "address": "513, Alyec-imalo, Apac, 97739 Northern Region, Uganda"
    },
    {
      "lat": 1.9603491676523757,
      "lon": 32.540773369081855,
      "geoinfo": {
        "display_name": "Agulu Road, Poke, Apac, Northern Region, Uganda",
        "road": "Agulu Road",
        "house_number": null,
        "neighbourhood": null,
        "suburb": null,
        "city_district": null,
        "city": "Poke",
        "state": "Apac",
        "postcode": null,
        "country": "Uganda",
        "country_code": "ug"
      },
      "address": "806, Agulu Road, Poke, Apac, 25584 Northern Region, Uganda"
    }
  ],
  "updated_at": "2025-10-19T06:31:51.170526+00:00",
  "_kind": "geo_samples"
}