{
  "country_code": "PF",
  "country": "French Polynesia",
  "city": "Papeete",
  "geonameid": 4033936,
  "target_addresses": 34,
  "samples": [
    {
      "lat": -17.534242348967272,
      "lon": -149.5579209182717,
      "geoinfo": {
        "display_name": "Foyer de personnes âgées, Av. du Commandant Chesse, Faariipiti, Fariipiti, Papeete, Windward Islands, French Polynesia, 98714, France",
        "road": "Av. du Commandant Chesse",
        "house_number": null,
        "neighbourhood": null,
        "suburb": "Fariipiti",
        "city_district": null,
        "city": "Papeete",
        "state": "French Polynesia",
        "postcode": "98714",
        "country": "France",
        "country_code": "fr"
      },
      "address": "Av. du Commandant Chesse, Papeete, French Polynesia, French Polynesia"
    },
    {
      "lat": -17.51123334832788,
      "lon": -149.5571568335018,
      "geoinfo": {
        "display_name": "Pointe Rahere, Patutoa, Taunoa, Papeete, Windward Islands, French Polynesia, 98714, France",
        "road": null,
        "house_number": null,
        "neighbourhood": null,
        "suburb": "Taunoa",
        "city_district": null,
        "city": "Papeete",
        "state": "French Polynesia",
        "postcode": "98714",
        "country": "France",
        "country_code": "fr"
      },
      "address": "Taunoa, Papeete, French Polynesia, French Polynesia"
    },
    {
      "lat": -17.546185532306662,
      "lon": -149.60098222799212,
      "geoinfo": {
        "display_name": "Boyer, Faʻaʻā, Windward Islands, French Polynesia, 98704, France",
        "road": null,
        "house_number": null,
        "neighbourhood": "Boyer",
        "suburb": null,
        "city_district": null,
        "city": "Faʻaʻā",
        "state": "French Polynesia",
        "postcode": "98704",
        "country": "France",
        "country_code": "fr"
      },
      "address": "Boyer, Papeete, French Polynesia, French Polynesia"
    },
    {
      "lat": -17.561368325949516,
      "lon": -149.55878362898358,
      "geoinfo": {
        "display_name": "Papeete, Windward Islands, French Polynesia, 98714, France",
        "road": null,
        "house_number": null,
        "neighbourhood": null,
        "suburb": null,
        "city_district": null,
        "city": "Papeete",
        "state": "French Polynesia",
        "postcode": "98714",
        "country": "France",
        "country_code": "fr"
      },
      "address": "Papeete, French Polynesia, French Polynesia"
    },
    {
      "lat": -17.544673884411488,
      "lon": -149.57725550432883,
      "geoinfo": {
        "display_name": "Paofai, Papeete, Windward Islands, French Polynesia, 98714, France",
        "road": null,
        "house_number": null,
        "neighbourhood": null,
        "suburb": "Paofai",
        "city_district": null,
        "city": "Papeete",
        "state": "French Polynesia",
        "postcode": "98714",
        "country": "France",
        "country_code": "fr"
      },
      "address": "Paofai, Papeete, French Polynesia, French Polynesia"
    },
    {
      "lat": -17.541052463371702,
      "lon": -149.5641202564551,
      "geoinfo": {
        "display_name": "Rue Édouard Ahnne, Orovini, Papeete, Windward Islands, French Polynesia, 98714, France",
        "road": "Rue Édouard Ahnne",
        "house_number": null,
        "neighbourhood": null,
        "suburb": null,
        "city_district": null,
        "city": "Papeete",
        "state": "French Polynesia",
        "postcode": "98714",
        "country": "France",
        "country_code": "fr"
      },
      "address": "Rue Édouard Ahnne, Papeete, French Polynesia, French Polynesia"
    },
    {
      "lat": -17.555185822254284,
      "lon": -149.5676121119473,
      "geoinfo": {
        "display_name": "Pic Rouge, Papeete, Windward Islands, French Polynesia, 98714, France",
        "road": null,
        "house_number": null,
        "neighbourhood": "Pic Rouge",
        "suburb": null,
        "city_district": null,
        "city": "Papeete",
        "state": "French Polynesia",
        "postcode": "98714",
        "country": "France",
        "country_code": "fr"
      },
      "address": "Pic Rouge, Papeete, French Polynesia, French Polynesia"
    },
    {
      "lat": -17.560543715636665,
      "lon": -149.54905523714552,
      "geoinfo": {
        "display_name": "Chemin de croix, Papeete, Windward Islands, French Polynesia, 98714, France",
        "road": "Chemin de croix",
        "house_number": null,
        "neighbourhood": null,
        "suburb": null,
        "city_district": null,
        "city": "Papeete",
        "state": "French Polynesia",
        "postcode": "98714",
        "country": "France",
        "country_code": "fr"
      },
      "address": "Chemin de croix, Papeete, French Polynesia, French Polynesia"
    },
    {
      "lat": -17.5211526345129,
      "lon": -149.5549666588588,
      "geoinfo": {
        "display_name": "Boulevard Hititai, Taunoa, Papeete, Windward Islands, French Polynesia, 98714, France",
        "road": "Boulevard Hititai",
        "house_number": null,
        "neighbourhood": null,
        "suburb": "Taunoa",
        "city_district": null,
        "city": "Papeete",
        "state": "French Polynesia",
        "postcode": "98714",
        "country": "France",
        "country_code": "fr"
      },
      "address": "Boulevard Hititai, Papeete, French Polynesia, French Polynesia"
    },
    {
      "lat": -17.569770127727747,
      "lon": -149.56756468995638,
      "geoinfo": {
        "display_name": "Av. de Tipaerui, Zone industrielle de Tipaerui, Faʻaʻā, Windward Islands, French Polynesia, 98704, France",
        "road": "Av. de Tipaerui",
        "house_number": null,
        "neighbourhood": null,
        "suburb": null,
        "city_district": null,
        "city": "Faʻaʻā",
        "state": "French Polynesia",
        "postcode": "98704",
        "country": "France",
        "country_code": "fr"
      },
      "address": "Av. de Tipaerui, Papeete, French Polynesia, French Polynesia"
    },
    {
      "lat": -17.553149633816126,
      "lon": -149.5723194289287,
      "geoinfo": {
        "display_name": "Mobil, Avenue de Tipaerui, Zone industrielle de Tipaerui, Papeete, Windward Islands, French Polynesia, 98714, France",
        "road": "Avenue de Tipaerui",
        "house_number": null,
        "neighbourhood": null,
        "suburb": null,
        "city_district": null,
        "city": "Papeete",
        "state": "French Polynesia",
        "postcode": "98714",
        "country": "France",
        "country_code": "fr"
      },
      "address": "Avenue de Tipaerui, Papeete, French Polynesia, French Polynesia"
    },
    {
      "lat": -17.566204455116168,
      "lon": -149.54251372524422,
      "geoinfo": {
        "display_name": "Sentier des apôtres, Papeete, Windward Islands, French Polynesia, 98714, France",
        "road": "Sentier des apôtres",
        "house_number": null,
        "neighbourhood": null,
        "suburb": null,
        "city_district": null,
        "city": "Papeete",
        "state": "French Polynesia",
        "postcode": "98714",
        "country": "France",
        "country_code": "fr"
      },
      "address": "Sentier des apôtres, Papeete, French Polynesia, French Polynesia"
    },
    {
      "lat": -17.53133345868896,
      "lon": -149.5716173909117,
      "geoinfo": {
        "display_name": "Voie O, Vaininiore, Papeete, Windward Islands, French Polynesia, 98714, France",
        "road": "Voie O",
        "house_number": null,
        "neighbourhood": null,
        "suburb": null,
        "city_district": null,
        "city": "Papeete",
        "state": "French Polynesia",
        "postcode": "98714",
        "country": "France",
        "country_code": "fr"
      },
      "address": "Voie O, Papeete, French Polynesia, French Polynesia"
    },
    {
      "lat": -17.543949957480905,
      "lon": -149.57765125958102,
      "geoinfo": {
        "display_name": "Grand Théâtre de la Maison de la culture, 646, Boulevard de la Reine Pōmare IV, Paofai, Papeete, Windward Islands, French Polynesia, 98714, France",
        "road": "Boulevard de la Reine Pōmare IV",
        "house_number": "646",
        "neighbourhood": null,
        "suburb": "Paofai",
        "city_district": null,
        "city": "Papeete",
        "state": "French Polynesia",
        "postcode": "98714",
        "country": "France",
        "country_code": "fr"
      },
      "address": "646 Boulevard de la Reine Pōmare IV, Papeete, French Polynesia, French Polynesia"
    },
    {
      "lat": -17.569019184071696,
      "lon": -149.55449141019488,
      "geoinfo": {
        "display_name": "Ch. Dupont, Pic Rouge, Papeete, Windward Islands, French Polynesia, 98714, France",
        "road": "Ch. Dupont",
        "house_number": null,
        "neighbourhood": "Pic Rouge",
        "suburb": null,
        "city_district": null,
        "city": "Papeete",
        "state": "French Polynesia",
        "postcode": "98714",
        "country": "France",
        "country_code": "fr"
      },
      "address": "Ch. Dupont, Papeete, French Polynesia, French Polynesia"
    },
    {
      "lat": -17.54583428260372,
      "lon": -149.5533652311219,
      "geoinfo": {
        "display_name": "Avenue Pierre Loti, Titioro, Fautaua (Titioro), Papeete, Windward Islands, French Polynesia, 98714, France",
        "road": "Avenue Pierre Loti",
        "house_number": null,
        "neighbourhood": null,
        "suburb": "Fautaua (Titioro)",
        "city_district": null,
        "city": "Papeete",
        "state": "French Polynesia",
        "postcode": "98714",
        "country": "France",
        "country_code": "fr"
      },
      "address": "Avenue Pierre Loti, Papeete, French Polynesia, French Polynesia"
    },
    {
      "lat": -17.53469305483194,
      "lon": -149.5723133301454,
      "geoinfo": {
        "display_name": "Voie P, Vaininiore, Papeete, Windward Islands, French Polynesia, 98714, France",
        "road": "Voie P",
        "house_number": null,
        "neighbourhood": null,
        "suburb": null,
        "city_district": null,
        "city": "Papeete",
        "state": "French Polynesia",
        "postcode": "98714",
        "country": "France",
        "country_code": "fr"
      },
      "address": "Voie P, Papeete, French Polynesia, French Polynesia"
    },
    {
      "lat": -17.54023685668674,
      "lon": -149.5713219809859,
      "geoinfo": {
        "display_name": "Marina de Papeete, Boulevard de la Reine Pōmare IV, Tarahoi, Papeete, Windward Islands, French Polynesia, 98714, France",
        "road": "Boulevard de la Reine Pōmare IV",
        "house_number": null,
        "neighbourhood": null,
        "suburb": "Tarahoi",
        "city_district": null,
        "city": "Papeete",
        "state": "French Polynesia",
        "postcode": "98714",
        "country": "France",
        "country_code": "fr"
      },
      "address": "Boulevard de la Reine Pōmare IV, Papeete, French Polynesia, French Polynesia"
    },
    {
      "lat": -17.55370107005054,
      "lon": -149.59438325572182,
      "geoinfo": {
        "display_name": "Route de Dégagement Ouest, Tiiao, Faʻaʻā, Windward Islands, French Polynesia, 98704, France",
        "road": "Route de Dégagement Ouest",
        "house_number": null,
        "neighbourhood": "Tiiao",
        "suburb": null,
        "city_district": null,
        "city": "Faʻaʻā",
        "state": "French Polynesia",
        "postcode": "98704",
        "country": "France",
        "country_code": "fr"
      },
      "address": "Route de Dégagement Ouest, Papeete, French Polynesia, French Polynesia"
    },
    {
      "lat": -17.55092939541106,
      "lon": -149.54830171162382,
      "geoinfo": {
        "display_name": "Titioro, Fautaua (Titioro), Papeete, Windward Islands, French Polynesia, 98714, France",
        "road": null,
        "house_number": null,
        "neighbourhood": null,
        "suburb": "Fautaua (Titioro)",
        "city_district": null,
        "city": "Papeete",
        "state": "French Polynesia",
        "postcode": "98714",
        "country": "France",
        "country_code": "fr"
      },
      "address": "Fautaua (Titioro), Papeete, French Polynesia, French Polynesia"
    },
    {
      "lat": -17.518409402922163,
      "lon": -149.5706590579941,
      "geoinfo": {
        "display_name": "Patutoa, French Polynesia, 98714, France",
        "road": null,
        "house_number": null,
        "neighbourhood": null,
        "suburb": null,
        "city_district": null,
        "city": null,
        "state": "French Polynesia",
        "postcode": "98714",
        "country": "France",
        "country_code": "fr"
      },
      "address": "452, Papeete, 98714 French Polynesia, French Polynesia"
    },
    {
      "lat": -17.50427433421248,
      "lon": -149.56092091276497,
      "geoinfo": {
        "display_name": "Mahina, Māhina, Windward Islands, French Polynesia, 98709, France",
        "road": null,
        "house_number": null,
        "neighbourhood": null,
        "suburb": null,
        "city_district": null,
        "city": "Māhina",
        "state": "French Polynesia",
        "postcode": "98709",
        "country": "France",
        "country_code": "fr"
      },
      "address": "860, Papeete, 98709 French Polynesia, French Polynesia"
    },
    {
      "lat": -17.49071413134855,
      "lon": -149.56495993626723,
      "geoinfo": {
        "display_name": "Mahina, Māhina, Windward Islands, French Polynesia, 98709, France",
        "road": null,
        "house_number": null,
        "neighbourhood": null,
        "suburb": null,
        "city_district": null,
        "city": "Māhina",
        "state": "French Polynesia",
        "postcode": "98709",
        "country": "France",
        "country_code": "fr"
      },
      "address": "068, Papeete, 98709 French Polynesia, French Polynesia"
    },
    {
      "lat": -17.53029558011435,
      "lon": -149.6122147310314,
      "geoinfo": {
        "display_name": "Moana Faao, French Polynesia, 98704, France",
        "road": null,
        "house_number": null,
        "neighbourhood": null,
        "suburb": null,
        "city_district": null,
        "city": null,
        "state": "French Polynesia",
        "postcode": "98704",
        "country": "France",
        "country_code": "fr"
      },
      "address": "500, Papeete, 98704 French Polynesia, French Polynesia"
    },
    {
      "lat": -17.50203467615919,
      "lon": -149.55374407772314,
      "geoinfo": {
        "display_name": "Mahina, Māhina, Windward Islands, French Polynesia, 98709, France",
        "road": null,
        "house_number": null,
        "neighbourhood": null,
        "suburb": null,
        "city_district": null,
        "city": "Māhina",
        "state": "French Polynesia",
        "postcode": "98709",
        "country": "France",
        "country_code": "fr"
      },
      "address": "864, Papeete, 98709 French Polynesia, French Polynesia"
    },
    {
      "lat": -17.540728378321383,
      "lon": -149.5551078697985,
      "geoinfo": {
        "display_name": "Servitude Paura 1, Titioro, Fautaua (Titioro), Papeete, Windward Islands, French Polynesia, 98714, France",
        "road": "Servitude Paura 1",
        "house_number": null,
        "neighbourhood": null,
        "suburb": "Fautaua (Titioro)",
        "city_district": null,
        "city": "Papeete",
        "state": "French Polynesia",
        "postcode": "98714",
        "country": "France",
        "country_code": "fr"
      },
      "address": "Servitude Paura 1, Papeete, 98714 French Polynesia, French Polynesia"
    },
    {
      "lat": -17.51229774550537,
      "lon": -149.53125342180948,
      "geoinfo": {
        "display_name": "Toa roa, French Polynesia, 98701, France",
        "road": null,
        "house_number": null,
        "neighbourhood": null,
        "suburb": null,
        "city_district": null,
        "city": null,
        "state": "French Polynesia",
        "postcode": "98701",
        "country": "France",
        "country_code": "fr"
      },
      "address": "835, Papeete, 98701 French Polynesia, French Polynesia"
    },
    {
      "lat": -17.511863760054705,
      "lon": -149.56721749624234,
      "geoinfo": {
        "display_name": "Chenal de Taunoa, Patutoa, French Polynesia, 98714, France",
        "road": null,
        "house_number": null,
        "neighbourhood": null,
        "suburb": null,
        "city_district": null,
        "city": null,
        "state": "French Polynesia",
        "postcode": "98714",
        "country": "France",
        "country_code": "fr"
      },
      "address": "073, Papeete, 98714 French Polynesia, French Polynesia"
    },
    {
      "lat": -17.550793537808886,
      "lon": -149.5579723898596,
      "geoinfo": {
        "display_name": "Titioro, Papeete, Windward Islands, French Polynesia, 98714, France",
        "road": null,
        "house_number": null,
        "neighbourhood": null,
        "suburb": null,
        "city_district": null,
        "city": "Papeete",
        "state": "French Polynesia",
        "postcode": "98714",
        "country": "France",
        "country_code": "fr"
      },
      "address": "489, Papeete, 98714 French Polynesia, French Polynesia"
    },
    {
      "lat": -17.51619064511551,
      "lon": -149.58930329997287,
      "geoinfo": {
        "display_name": "Quai de cabotage, French Polynesia, 98713, France",
        "road": null,
        "house_number": null,
        "neighbourhood": null,
        "suburb": null,
        "city_district": null,
        "city": null,
        "state": "French Polynesia",
        "postcode": "98713",
        "country": "France",
        "country_code": "fr"
      },
      "address": "975, Papeete, 98713 French Polynesia, French Polynesia"
    },
    {
      "lat": -17.559966008490036,
      "lon": -149.55178789339817,
      "geoinfo": {
        "display_name": "Chemin de croix, Papeete, Windward Islands, French Polynesia, 98714, France",
        "road": "Chemin de croix",
        "house_number": null,
        "neighbourhood": null,
        "suburb": null,
        "city_district": null,
        "city": "Papeete",
        "state": "French Polynesia",
        "postcode": "98714",
        "country": "France",
        "country_code": "fr"
      },
      "address": "547, Chemin de croix, Papeete, 98714 French Polynesia, French Polynesia"
    },
    {
      "lat": -17.51884547387552,
      "lon": -149.61063116060788,
      "geoinfo": {
        "display_name": "French Polynesia, France",
        "road": null,
        "house_number": null,
        "neighbourhood": null,
        "suburb": null,
        "city_district": null,
        "city": null,
        "state": "French Polynesia",
        "postcode": null,
        "country": "France",
        "country_code": "fr"
      },
      "address": "526, Papeete, 06725 French Polynesia, French Polynesia"
    },
    {
      "lat": -17.56743948159998,
      "lon": -149.54917433140633,
      "geoinfo": {
        "display_name": "Chemin du rosaire, Papeete, Windward Islands, French Polynesia, 98714, France",
        "road": "Chemin du rosaire",
        "house_number": null,
        "neighbourhood": null,
        "suburb": null,
        "city_district": null,
        "city": "Papeete",
        "state": "French Polynesia",
        "postcode": "98714",
        "country": "France",
        "country_code": "fr"
      },
      "address": "548, Chemin du rosaire, Papeete, 98714 French Polynesia, French Polynesia"
    },
    {
      "lat": -17.517346425911605,
      "lon": -149.5792849226833,
      "geoinfo": {
        "display_name": "Chenal de Taunoa, Patutoa, French Polynesia, 98714, France",
        "road": null,
        "house_number": null,
        "neighbourhood": null,
        "suburb": null,
        "city_district": null,
        "city": null,
        "state": "French Polynesia",
        "postcode": "98714",
        "country": "France",
        "country_code": "fr"
      },
      "address": "431, Papeete, 98714 French Polynesia, French Polynesia"
    },
    {
      "lat": -17.53892601088455,
      "lon": -149.60980959162632,
      "geoinfo": {
        "display_name": "Moana Faao, French Polynesia, 98704, France",
        "road": null,
        "house_number": null,
        "neighbourhood": null,
        "suburb": null,
        "city_district": null,
        "city": null,
        "state": "French Polynesia",
        "postcode": "98704",
        "country": "France",
        "country_code": "fr"
      },
      "address": "959, Papeete, 98704 French Polynesia, French Polynesia"
    },
    {
      "lat": -17.575695191904067,
      "lon": -149.5698636359692,
      "geoinfo": {
        "display_name": "Av. de Tipaerui, Zone industrielle de Tipaerui, Faʻaʻā, Windward Islands, French Polynesia, 98704, France",
        "road": "Av. de Tipaerui",
        "house_number": null,
        "neighbourhood": null,
        "suburb": null,
        "city_district": null,
        "city": "Faʻaʻā",
        "state": "French Polynesia",
        "postcode": "98704",
        "country": "France",
        "country_code": "fr"
      },
      "address": "502, Av. de Tipaerui, Papeete, 98704 French Polynesia, French Polynesia"
    },
    {
      "lat": -17.505587522986957,
      "lon": -149.5558110768446,
      "geoinfo": {
        "display_name": "Iriti, French Polynesia, 98701, France",
        "road": null,
        "house_number": null,
        "neighbourhood": null,
        "suburb": null,
        "city_district": null,
        "city": null,
        "state": "French Polynesia",
        "postcode": "98701",
        "country": "France",
        "country_code": "fr"
      },
      "address": "280, Papeete, 98701 French Polynesia, French Polynesia"
    },
    {
      "lat": -17.55230752493637,
      "lon": -149.54293806249768,
      "geoinfo": {
        "display_name": "Lot 154, voie A, Lotissement Vetea, Pīraʻe, Windward Islands, French Polynesia, 98716, France",
        "road": "voie A",
        "house_number": "Lot 154",
        "neighbourhood": "Lotissement Vetea",
        "suburb": null,
        "city_district": null,
        "city": "Pīraʻe",
        "state": "French Polynesia",
        "postcode": "98716",
        "country": "France",
        "country_code": "fr"
      },
      "address": "Lot 154, voie A, Papeete, 98716 French Polynesia, French Polynesia"
    },
    {
      "lat": -17.541956056326164,
      "lon": -149.56268149986516,
      "geoinfo": {
        "display_name": "Collège-Lycée La Mennais, Rue Dumont D'urville, Orovini, Papeete, Windward Islands, French Polynesia, 98714, France",
        "road": "Rue Dumont D'urville",
        "house_number": null,
        "neighbourhood": null,
        "suburb": "Orovini",
        "city_district": null,
        "city": "Papeete",
        "state": "French Polynesia",
        "postcode": "98714",
        "country": "France",
        "country_code": "fr"
      },
      "address": "741, Rue Dumont D'urville, Papeete, 98714 French Polynesia, French Polynesia"
    },
    {
      "lat": -17.50708373471505,
      "lon": -149.59076619892457,
      "geoinfo": {
        "display_name": "French Polynesia, France",
        "road": null,
        "house_number": null,
        "neighbourhood": null,
        "suburb": null,
        "city_district": null,
        "city": null,
        "state": "French Polynesia",
        "postcode": null,
        "country": "France",
        "country_code": "fr"
      },
      "address": "210, Papeete, 03192 French Polynesia, French Polynesia"
    }
  ],
  "updated_at": "2025-10-19T06:24:31.779187+00:00",
  "_kind": "geo_samples"
}