{
  "country_code": "GY",
  "country": "Guyana",
  "city": "Linden",
  "geonameid": 3377408,
  "target_addresses": 34,
  "samples": [
    {
      "lat": 6.002764788564263,
      "lon": -58.32006335762109,
      "geoinfo": {
        "display_name": "Silvertown - Green Valley - Half Mile, Linden, Upper Demerara-Berbice, Guyana",
        "road": null,
        "house_number": null,
        "neighbourhood": null,
        "suburb": null,
        "city_district": "Silvertown - Green Valley - Half Mile",
        "city": "Linden",
        "state": "Upper Demerara-Berbice",
        "postcode": null,
        "country": "Guyana",
        "country_code": "gy"
      },
      "address": "Silvertown - Green Valley - Half Mile, Linden, Upper Demerara-Berbice, Guyana"
    },
    {
      "lat": 6.02393574656743,
      "lon": -58.30349517180443,
      "geoinfo": {
        "display_name": "Christianburg - Victory Valley - Wismar Hill, Linden, Upper Demerara-Berbice, Guyana",
        "road": null,
        "house_number": null,
        "neighbourhood": null,
        "suburb": null,
        "city_district": "Christianburg - Victory Valley - Wismar Hill",
        "city": "Linden",
        "state": "Upper Demerara-Berbice",
        "postcode": null,
        "country": "Guyana",
        "country_code": "gy"
      },
      "address": "Christianburg - Victory Valley - Wismar Hill, Linden, Upper Demerara-Berbice, Guyana"
    },
    {
      "lat": 6.020260271110914,
      "lon": -58.33749761988037,
      "geoinfo": {
        "display_name": "Blue Berry Hill - One Mile North - W. Housing Scheme, Linden, Upper Demerara-Berbice, Guyana",
        "road": null,
        "house_number": null,
        "neighbourhood": null,
        "suburb": null,
        "city_district": "Blue Berry Hill - One Mile North - W. Housing Scheme",
        "city": "Linden",
        "state": "Upper Demerara-Berbice",
        "postcode": null,
        "country": "Guyana",
        "country_code": "gy"
      },
      "address": "Blue Berry Hill - One Mile North - W. Housing Scheme, Linden, Upper Demerara-Berbice, Guyana"
    },
    {
      "lat": 5.991183007774966,
      "lon": -58.26625425874762,
      "geoinfo": {
        "display_name": "Noitgedacht, Washer Pond to Siberen, Linden, Upper Demerara-Berbice, Guyana",
        "road": null,
        "house_number": null,
        "neighbourhood": null,
        "suburb": null,
        "city_district": "Washer Pond to Siberen",
        "city": "Linden",
        "state": "Upper Demerara-Berbice",
        "postcode": null,
        "country": "Guyana",
        "country_code": "gy"
      },
      "address": "Washer Pond to Siberen, Linden, Upper Demerara-Berbice, Guyana"
    },
    {
      "lat": 5.975111543366701,
      "lon": -58.317184560314665,
      "geoinfo": {
        "display_name": "Coomaka Lands, Upper Demerara-Berbice, Guyana",
        "road": null,
        "house_number": null,
        "neighbourhood": null,
        "suburb": null,
        "city_district": null,
        "city": null,
        "state": "Upper Demerara-Berbice",
        "postcode": null,
        "country": "Guyana",
        "country_code": "gy"
      },
      "address": "Linden, Upper Demerara-Berbice, Guyana"
    },
    {
      "lat": 6.024663570419994,
      "lon": -58.28824575125139,
      "geoinfo": {
        "display_name": "Lower Kara Kara Amelias Ward, Republic Avenue, Central Mackenzie, Retrieve - Kara Kara, Linden, Upper Demerara-Berbice, Guyana",
        "road": "Republic Avenue",
        "house_number": null,
        "neighbourhood": "Central Mackenzie",
        "suburb": null,
        "city_district": "Retrieve - Kara Kara",
        "city": "Linden",
        "state": "Upper Demerara-Berbice",
        "postcode": null,
        "country": "Guyana",
        "country_code": "gy"
      },
      "address": "Republic Avenue, Linden, Upper Demerara-Berbice, Guyana"
    },
    {
      "lat": 6.030549329576495,
      "lon": -58.29828015126513,
      "geoinfo": {
        "display_name": "Bucktown Road, Christianburg - Victory Valley - Wismar Hill, Linden, Upper Demerara-Berbice, Guyana",
        "road": "Bucktown Road",
        "house_number": null,
        "neighbourhood": null,
        "suburb": null,
        "city_district": "Christianburg - Victory Valley - Wismar Hill",
        "city": "Linden",
        "state": "Upper Demerara-Berbice",
        "postcode": null,
        "country": "Guyana",
        "country_code": "gy"
      },
      "address": "Bucktown Road, Linden, Upper Demerara-Berbice, Guyana"
    },
    {
      "lat": 6.023071665112543,
      "lon": -58.28716574884879,
      "geoinfo": {
        "display_name": "Retrieve - Kara Kara, Linden, Upper Demerara-Berbice, Guyana",
        "road": null,
        "house_number": null,
        "neighbourhood": null,
        "suburb": null,
        "city_district": "Retrieve - Kara Kara",
        "city": "Linden",
        "state": "Upper Demerara-Berbice",
        "postcode": null,
        "country": "Guyana",
        "country_code": "gy"
      },
      "address": "Retrieve - Kara Kara, Linden, Upper Demerara-Berbice, Guyana"
    },
    {
      "lat": 5.9864810902894785,
      "lon": -58.33587152310427,
      "geoinfo": {
        "display_name": "One Mile South, Linden, Upper Demerara-Berbice, Guyana",
        "road": null,
        "house_number": null,
        "neighbourhood": null,
        "suburb": null,
        "city_district": "One Mile South",
        "city": "Linden",
        "state": "Upper Demerara-Berbice",
        "postcode": null,
        "country": "Guyana",
        "country_code": "gy"
      },
      "address": "One Mile South, Linden, Upper Demerara-Berbice, Guyana"
    },
    {
      "lat": 5.9877665307984715,
      "lon": -58.330454821793005,
      "geoinfo": {
        "display_name": "Wisrock water plant, Lewis Street, One Mile South, Linden, Upper Demerara-Berbice, Guyana",
        "road": "Lewis Street",
        "house_number": null,
        "neighbourhood": null,
        "suburb": null,
        "city_district": "One Mile South",
        "city": "Linden",
        "state": "Upper Demerara-Berbice",
        "postcode": null,
        "country": "Guyana",
        "country_code": "gy"
      },
      "address": "Lewis Street, Linden, Upper Demerara-Berbice, Guyana"
    },
    {
      "lat": 6.014915729580468,
      "lon": -58.26460015073135,
      "geoinfo": {
        "display_name": "Well Road, Linden, Upper Demerara-Berbice, Guyana",
        "road": "Well Road",
        "house_number": null,
        "neighbourhood": null,
        "suburb": null,
        "city_district": null,
        "city": "Linden",
        "state": "Upper Demerara-Berbice",
        "postcode": null,
        "country": "Guyana",
        "country_code": "gy"
      },
      "address": "Well Road, Linden, Upper Demerara-Berbice, Guyana"
    },
    {
      "lat": 6.0289918785703644,
      "lon": -58.27795133457841,
      "geoinfo": {
        "display_name": "Main Street, Amelia's Ward, Linden, Upper Demerara-Berbice, Guyana",
        "road": "Main Street",
        "house_number": null,
        "neighbourhood": null,
        "suburb": null,
        "city_district": null,
        "city": "Linden",
        "state": "Upper Demerara-Berbice",
        "postcode": null,
        "country": "Guyana",
        "country_code": "gy"
      },
      "address": "Main Street, Linden, Upper Demerara-Berbice, Guyana"
    },
    {
      "lat": 6.019414343738441,
      "lon": -58.271482630273795,
      "geoinfo": {
        "display_name": "1st Corner, Amelia's Ward, Linden, Upper Demerara-Berbice, Guyana",
        "road": "1st Corner",
        "house_number": null,
        "neighbourhood": null,
        "suburb": null,
        "city_district": null,
        "city": "Linden",
        "state": "Upper Demerara-Berbice",
        "postcode": null,
        "country": "Guyana",
        "country_code": "gy"
      },
      "address": "1st Corner, Linden, Upper Demerara-Berbice, Guyana"
    },
    {
      "lat": 6.005330453575647,
      "lon": -58.30209750649427,
      "geoinfo": {
        "display_name": "Linden Technical Institute, Soesdyke-Linden Highway, Central Mackenzie, Noitgedacht, Washer Pond to Siberen, Linden, Upper Demerara-Berbice, Guyana",
        "road": "Soesdyke-Linden Highway",
        "house_number": null,
        "neighbourhood": "Central Mackenzie",
        "suburb": null,
        "city_district": "Washer Pond to Siberen",
        "city": "Linden",
        "state": "Upper Demerara-Berbice",
        "postcode": null,
        "country": "Guyana",
        "country_code": "gy"
      },
      "address": "Soesdyke-Linden Highway, Linden, Upper Demerara-Berbice, Guyana"
    },
    {
      "lat": 6.003286694446495,
      "lon": -58.30289441149415,
      "geoinfo": {
        "display_name": "Central Mackenzie, Linden, Upper Demerara-Berbice, Guyana",
        "road": null,
        "house_number": null,
        "neighbourhood": "Central Mackenzie",
        "suburb": null,
        "city_district": null,
        "city": "Linden",
        "state": "Upper Demerara-Berbice",
        "postcode": null,
        "country": "Guyana",
        "country_code": "gy"
      },
      "address": "Central Mackenzie, Linden, Upper Demerara-Berbice, Guyana"
    },
    {
      "lat": 6.011670663996502,
      "lon": -58.296807857951144,
      "geoinfo": {
        "display_name": "Purple Heart Street, Central Mackenzie, Retrieve - Kara Kara, Linden, Upper Demerara-Berbice, Guyana",
        "road": "Purple Heart Street",
        "house_number": null,
        "neighbourhood": "Central Mackenzie",
        "suburb": null,
        "city_district": "Retrieve - Kara Kara",
        "city": "Linden",
        "state": "Upper Demerara-Berbice",
        "postcode": null,
        "country": "Guyana",
        "country_code": "gy"
      },
      "address": "Purple Heart Street, Linden, Upper Demerara-Berbice, Guyana"
    },
    {
      "lat": 6.008133459198407,
      "lon": -58.3051762656747,
      "geoinfo": {
        "display_name": "Co-op Crescent, Central Mackenzie, Wismar, Linden, Upper Demerara-Berbice, Guyana",
        "road": "Co-op Crescent",
        "house_number": null,
        "neighbourhood": "Central Mackenzie",
        "suburb": null,
        "city_district": null,
        "city": "Linden",
        "state": "Upper Demerara-Berbice",
        "postcode": null,
        "country": "Guyana",
        "country_code": "gy"
      },
      "address": "Co-op Crescent, Linden, Upper Demerara-Berbice, Guyana"
    },
    {
      "lat": 6.0195983211572415,
      "lon": -58.28212617639965,
      "geoinfo": {
        "display_name": "Amelia's Way, The Village of Dallawalla, Linden, Upper Demerara-Berbice, Guyana",
        "road": "Amelia's Way",
        "house_number": null,
        "neighbourhood": null,
        "suburb": null,
        "city_district": null,
        "city": "Linden",
        "state": "Upper Demerara-Berbice",
        "postcode": null,
        "country": "Guyana",
        "country_code": "gy"
      },
      "address": "Amelia's Way, Linden, Upper Demerara-Berbice, Guyana"
    },
    {
      "lat": 6.003961857236616,
      "lon": -58.34091876986521,
      "geoinfo": {
        "display_name": "Rupununi Road, Blue Berry Hill - One Mile North - W. Housing Scheme, Linden, Upper Demerara-Berbice, Guyana",
        "road": "Rupununi Road",
        "house_number": null,
        "neighbourhood": null,
        "suburb": null,
        "city_district": "Blue Berry Hill - One Mile North - W. Housing Scheme",
        "city": "Linden",
        "state": "Upper Demerara-Berbice",
        "postcode": null,
        "country": "Guyana",
        "country_code": "gy"
      },
      "address": "Rupununi Road, Linden, Upper Demerara-Berbice, Guyana"
    },
    {
      "lat": 6.014136493800891,
      "lon": -58.298435117972616,
      "geoinfo": {
        "display_name": "Halmara Street, Retrieve - Kara Kara, Linden, Upper Demerara-Berbice, Guyana",
        "road": "Halmara Street",
        "house_number": null,
        "neighbourhood": null,
        "suburb": null,
        "city_district": "Retrieve - Kara Kara",
        "city": "Linden",
        "state": "Upper Demerara-Berbice",
        "postcode": null,
        "country": "Guyana",
        "country_code": "gy"
      },
      "address": "Halmara Street, Linden, Upper Demerara-Berbice, Guyana"
    },
    {
      "lat": 6.019935539567004,
      "lon": -58.30179359754288,
      "geoinfo": {
        "display_name": "Burnham Drive, Wismar, Christianburg - Victory Valley - Wismar Hill, Linden, Upper Demerara-Berbice, Guyana",
        "road": "Burnham Drive",
        "house_number": null,
        "neighbourhood": null,
        "suburb": null,
        "city_district": "Christianburg - Victory Valley - Wismar Hill",
        "city": "Linden",
        "state": "Upper Demerara-Berbice",
        "postcode": null,
        "country": "Guyana",
        "country_code": "gy"
      },
      "address": "Burnham Drive, Linden, Upper Demerara-Berbice, Guyana"
    },
    {
      "lat": 5.980344917527572,
      "lon": -58.27309663450235,
      "geoinfo": {
        "display_name": "Riverside Drive, Northinghamshire, Washer Pond to Siberen, Linden, Upper Demerara-Berbice, Guyana",
        "road": "Riverside Drive",
        "house_number": null,
        "neighbourhood": null,
        "suburb": null,
        "city_district": "Washer Pond to Siberen",
        "city": "Linden",
        "state": "Upper Demerara-Berbice",
        "postcode": null,
        "country": "Guyana",
        "country_code": "gy"
      },
      "address": "Riverside Drive, Linden, Upper Demerara-Berbice, Guyana"
    },
    {
      "lat": 6.013970360806024,
      "lon": -58.31354845782027,
      "geoinfo": {
        "display_name": "Blueberry Hill School, Tantalite Avenue, Blue Berry Hill - One Mile North - W. Housing Scheme, Linden, Upper Demerara-Berbice, Guyana",
        "road": "Tantalite Avenue",
        "house_number": null,
        "neighbourhood": null,
        "suburb": null,
        "city_district": "Blue Berry Hill - One Mile North - W. Housing Scheme",
        "city": "Linden",
        "state": "Upper Demerara-Berbice",
        "postcode": null,
        "country": "Guyana",
        "country_code": "gy"
      },
      "address": "Tantalite Avenue, Linden, Upper Demerara-Berbice, Guyana"
    },
    {
      "lat": 5.995080905285622,
      "lon": -58.30337613911382,
      "geoinfo": {
        "display_name": "Wismar/MacKenzie Bridge, Washer Pond to Siberen, Linden, Upper Demerara-Berbice, Guyana",
        "road": "Wismar/MacKenzie Bridge",
        "house_number": null,
        "neighbourhood": null,
        "suburb": null,
        "city_district": "Washer Pond to Siberen",
        "city": "Linden",
        "state": "Upper Demerara-Berbice",
        "postcode": null,
        "country": "Guyana",
        "country_code": "gy"
      },
      "address": "Wismar/MacKenzie Bridge, Linden, Upper Demerara-Berbice, Guyana"
    },
    {
      "lat": 5.980083454878813,
      "lon": -58.317529206074795,
      "geoinfo": {
        "display_name": "One Mile South, Linden, Upper Demerara-Berbice, Guyana",
        "road": null,
        "house_number": null,
        "neighbourhood": null,
        "suburb": null,
        "city_district": "One Mile South",
        "city": "Linden",
        "state": "Upper Demerara-Berbice",
        "postcode": null,
        "country": "Guyana",
        "country_code": "gy"
      },
      "address": "281, One Mile South, Linden, 30036 Upper Demerara-Berbice, Guyana"
    },
    {
      "lat": 6.024247339544119,
      "lon": -58.32938436021243,
      "geoinfo": {
        "display_name": "Blue Berry Hill - One Mile North - W. Housing Scheme, Linden, Upper Demerara-Berbice, Guyana",
        "road": null,
        "house_number": null,
        "neighbourhood": null,
        "suburb": null,
        "city_district": "Blue Berry Hill - One Mile North - W. Housing Scheme",
        "city": "Linden",
        "state": "Upper Demerara-Berbice",
        "postcode": null,
        "country": "Guyana",
        "country_code": "gy"
      },
      "address": "746, Blue Berry Hill - One Mile North - W. Housing Scheme, Linden, 12759 Upper Demerara-Berbice, Guyana"
    },
    {
      "lat": 5.974473675543111,
      "lon": -58.32628263436435,
      "geoinfo": {
        "display_name": "Silvertown - Green Valley - Half Mile, Linden, Coomaka Lands, Upper Demerara-Berbice, Guyana",
        "road": null,
        "house_number": null,
        "neighbourhood": null,
        "suburb": null,
        "city_district": "Silvertown - Green Valley - Half Mile",
        "city": "Linden",
        "state": "Upper Demerara-Berbice",
        "postcode": null,
        "country": "Guyana",
        "country_code": "gy"
      },
      "address": "184, Silvertown - Green Valley - Half Mile, Linden, 44705 Upper Demerara-Berbice, Guyana"
    },
    {
      "lat": 5.997345961067464,
      "lon": -58.31941134217641,
      "geoinfo": {
        "display_name": "Silvertown - Green Valley - Half Mile, Linden, Upper Demerara-Berbice, Guyana",
        "road": null,
        "house_number": null,
        "neighbourhood": null,
        "suburb": null,
        "city_district": "Silvertown - Green Valley - Half Mile",
        "city": "Linden",
        "state": "Upper Demerara-Berbice",
        "postcode": null,
        "country": "Guyana",
        "country_code": "gy"
      },
      "address": "693, Silvertown - Green Valley - Half Mile, Linden, 25039 Upper Demerara-Berbice, Guyana"
    },
    {
      "lat": 6.025480252518635,
      "lon": -58.32038381780574,
      "geoinfo": {
        "display_name": "Blue Berry Hill - One Mile North - W. Housing Scheme, Linden, Upper Demerara-Berbice, Guyana",
        "road": null,
        "house_number": null,
        "neighbourhood": null,
        "suburb": null,
        "city_district": "Blue Berry Hill - One Mile North - W. Housing Scheme",
        "city": "Linden",
        "state": "Upper Demerara-Berbice",
        "postcode": null,
        "country": "Guyana",
        "country_code": "gy"
      },
      "address": "936, Blue Berry Hill - One Mile North - W. Housing Scheme, Linden, 26269 Upper Demerara-Berbice, Guyana"
    },
    {
      "lat": 6.027982602172384,
      "lon": -58.273735580087695,
      "geoinfo": {
        "display_name": "Amelia's Ward, Linden, Upper Demerara-Berbice, Guyana",
        "road": null,
        "house_number": null,
        "neighbourhood": null,
        "suburb": null,
        "city_district": null,
        "city": "Linden",
        "state": "Upper Demerara-Berbice",
        "postcode": null,
        "country": "Guyana",
        "country_code": "gy"
      },
      "address": "779, Amelia's Ward, Linden, 17907 Upper Demerara-Berbice, Guyana"
    },
    {
      "lat": 6.049994410182373,
      "lon": -58.319196366226485,
      "geoinfo": {
        "display_name": "Blue Berry Hill - One Mile North - W. Housing Scheme, Linden, Upper Demerara-Berbice, Guyana",
        "road": null,
        "house_number": null,
        "neighbourhood": null,
        "suburb": null,
        "city_district": "Blue Berry Hill - One Mile North - W. Housing Scheme",
        "city": "Linden",
        "state": "Upper Demerara-Berbice",
        "postcode": null,
        "country": "Guyana",
        "country_code": "gy"
      },
      "address": "070, Blue Berry Hill - One Mile North - W. Housing Scheme, Linden, 69993 Upper Demerara-Berbice, Guyana"
    },
    {
      "lat": 6.041383251297902,
      "lon": -58.31645858561672,
      "geoinfo": {
        "display_name": "Blue Berry Hill - One Mile North - W. Housing Scheme, Linden, Upper Demerara-Berbice, Guyana",
        "road": null,
        "house_number": null,
        "neighbourhood": null,
        "suburb": null,
        "city_district": "Blue Berry Hill - One Mile North - W. Housing Scheme",
        "city": "Linden",
        "state": "Upper Demerara-Berbice",
        "postcode": null,
        "country": "Guyana",
        "country_code": "gy"
      },
      "address": "548, Blue Berry Hill - One Mile North - W. Housing Scheme, Linden, 16433 Upper Demerara-Berbice, Guyana"
    },
    {
      "lat": 5.991449647213783,
      "lon": -58.27997276174224,
      "geoinfo": {
        "display_name": "Washer Pond to Siberen, Linden, Upper Demerara-Berbice, Guyana",
        "road": null,
        "house_number": null,
        "neighbourhood": null,
        "suburb": null,
        "city_district": "Washer Pond to Siberen",
        "city": "Linden",
        "state": "Upper Demerara-Berbice",
        "postcode": null,
        "country": "Guyana",
        "country_code": "gy"
      },
      "address": "770, Washer Pond to Siberen, Linden, 90914 Upper Demerara-Berbice, Guyana"
    },
    {
      "lat": 6.030132592118632,
      "lon": -58.33499239821717,
      "geoinfo": {
        "display_name": "Blue Berry Hill - One Mile North - W. Housing Scheme, Linden, Upper Demerara-Berbice, Guyana",
        "road": null,
        "house_number": null,
        "neighbourhood": null,
        "suburb": null,
        "city_district": "Blue Berry Hill - One Mile North - W. Housing Scheme",
        "city": "Linden",
        "state": "Upper Demerara-Berbice",
        "postcode": null,
        "country": "Guyana",
        "country_code": "gy"
      },
      "address": "416, Blue Berry Hill - One Mile North - W. Housing Scheme, Linden, 41182 Upper Demerara-Berbice, Guyana"
    },
    {
      "lat": 6.042548731510241,
      "lon": -58.29602277761785,
      "geoinfo": {
        "display_name": "The Village of Dallawalla, Linden, Upper Demerara-Berbice, Guyana",
        "road": null,
        "house_number": null,
        "neighbourhood": null,
        "suburb": null,
        "city_district": null,
        "city": "Linden",
        "state": "Upper Demerara-Berbice",
        "postcode": null,
        "country": "Guyana",
        "country_code": "gy"
      },
      "address": "957, The Village of Dallawalla, Linden, 51129 Upper Demerara-Berbice, Guyana"
    },
    {
      "lat": 6.020682813362372,
      "lon": -58.29239664908502,
      "geoinfo": {
        "display_name": "Retrieve - Kara Kara, Linden, Upper Demerara-Berbice, Guyana",
        "road": null,
        "house_number": null,
        "neighbourhood": null,
        "suburb": null,
        "city_district": "Retrieve - Kara Kara",
        "city": "Linden",
        "state": "Upper Demerara-Berbice",
        "postcode": null,
        "country": "Guyana",
        "country_code": "gy"
      },
      "address": "611, Retrieve - Kara Kara, Linden, 03830 Upper Demerara-Berbice, Guyana"
    },
    {
      "lat": 5.98901815401878,
      "lon": -58.29418955928684,
      "geoinfo": {
        "display_name": "Noitgedacht, Washer Pond to Siberen, Linden, Upper Demerara-Berbice, Guyana",
        "road": null,
        "house_number": null,
        "neighbourhood": null,
        "suburb": null,
        "city_district": "Washer Pond to Siberen",
        "city": "Linden",
        "state": "Upper Demerara-Berbice",
        "postcode": null,
        "country": "Guyana",
        "country_code": "gy"
      },
      "address": "464, Noitgedacht, Washer Pond to Siberen, Linden, 26189 Upper Demerara-Berbice, Guyana"
    },
    {
      "lat": 6.01081507366002,
      "lon": -58.31424947951393,
      "geoinfo": {
        "display_name": "Hospital Road, Blue Berry Hill - One Mile North - W. Housing Scheme, Linden, Upper Demerara-Berbice, Guyana",
        "road": "Hospital Road",
        "house_number": null,
        "neighbourhood": null,
        "suburb": null,
        "city_district": "Blue Berry Hill - One Mile North - W. Housing Scheme",
        "city": "Linden",
        "state": "Upper Demerara-Berbice",
        "postcode": null,
        "country": "Guyana",
        "country_code": "gy"
      },
      "address": "264, Hospital Road, Blue Berry Hill - One Mile North - W. Housing Scheme, Linden, 59817 Upper Demerara-Berbice, Guyana"
    },
    {
      "lat": 6.036742506908442,
      "lon": -58.31863765536626,
      "geoinfo": {
        "display_name": "Blue Berry Hill - One Mile North - W. Housing Scheme, Linden, Upper Demerara-Berbice, Guyana",
        "road": null,
        "house_number": null,
        "neighbourhood": null,
        "suburb": null,
        "city_district": "Blue Berry Hill - One Mile North - W. Housing Scheme",
        "city": "Linden",
        "state": "Upper Demerara-Berbice",
        "postcode": null,
        "country": "Guyana",
        "country_code": "gy"
      },
      "address": "320, Blue Berry Hill - One Mile North - W. Housing Scheme, Linden, 58491 Upper Demerara-Berbice, Guyana"
    },
    {
      "lat": 6.003668468864024,
      "lon": -58.270973275233025,
      "geoinfo": {
        "display_name": "Blue Lake, Soesdyke-Linden Highway, Retrieve - Kara Kara, Linden, Upper Demerara-Berbice, Guyana",
        "road": "Soesdyke-Linden Highway",
        "house_number": null,
        "neighbourhood": null,
        "suburb": null,
        "city_district": "Retrieve - Kara Kara",
        "city": "Linden",
        "state": "Upper Demerara-Berbice",
        "postcode": null,
        "country": "Guyana",
        "country_code": "gy"
      },
      "address": "039, Soesdyke-Linden Highway, Linden, 77139 Upper Demerara-Berbice, Guyana"
    },
    {
      "lat": 6.004710095438062,
      "lon": -58.29280446334829,
      "geoinfo": {
        "display_name": "Washer Pond to Siberen, Linden, Upper Demerara-Berbice, Guyana",
        "road": null,
        "house_number": null,
        "neighbourhood": null,
        "suburb": null,
        "city_district": "Washer Pond to Siberen",
        "city": "Linden",
        "state": "Upper Demerara-Berbice",
        "postcode": null,
        "country": "Guyana",
        "country_code": "gy"
      },
      "address": "897, Washer Pond to Siberen, Linden, 33324 Upper Demerara-Berbice, Guyana"
    },
    {
      "lat": 6.014162199111464,
      "lon": -58.31222796818458,
      "geoinfo": {
        "display_name": "Blue Berry Hill - One Mile North - W. Housing Scheme, Linden, Upper Demerara-Berbice, Guyana",
        "road": null,
        "house_number": null,
        "neighbourhood": null,
        "suburb": null,
        "city_district": "Blue Berry Hill - One Mile North - W. Housing Scheme",
        "city": "Linden",
        "state": "Upper Demerara-Berbice",
        "postcode": null,
        "country": "Guyana",
        "country_code": "gy"
      },
      "address": "964, Blue Berry Hill - One Mile North - W. Housing Scheme, Linden, 12559 Upper Demerara-Berbice, Guyana"
    },
    {
      "lat": 6.044629230379578,
      "lon": -58.32892089979496,
      "geoinfo": {
        "display_name": "Blue Berry Hill - One Mile North - W. Housing Scheme, Linden, Upper Demerara-Berbice, Guyana",
        "road": null,
        "house_number": null,
        "neighbourhood": null,
        "suburb": null,
        "city_district": "Blue Berry Hill - One Mile North - W. Housing Scheme",
        "city": "Linden",
        "state": "Upper Demerara-Berbice",
        "postcode": null,
        "country": "Guyana",
        "country_code": "gy"
      },
      "address": "612, Blue Berry Hill - One Mile North - W. Housing Scheme, Linden, 93131 Upper Demerara-Berbice, Guyana"
    },
    {
      "lat": 6.045448491661899,
      "lon": -58.29269383414937,
      "geoinfo": {
        "display_name": "The Village of Dallawalla, Linden, Upper Demerara-Berbice, Guyana",
        "road": null,
        "house_number": null,
        "neighbourhood": null,
        "suburb": null,
        "city_district": null,
        "city": "Linden",
        "state": "Upper Demerara-Berbice",
        "postcode": null,
        "country": "Guyana",
        "country_code": "gy"
      },
      "address": "536, The Village of Dallawalla, Linden, 06003 Upper Demerara-Berbice, Guyana"
    },
    {
      "lat": 5.992997873289264,
      "lon": -58.309296706979886,
      "geoinfo": {
        "display_name": "Silvertown - Green Valley - Half Mile, Linden, Coomaka Lands, Upper Demerara-Berbice, Guyana",
        "road": null,
        "house_number": null,
        "neighbourhood": null,
        "suburb": null,
        "city_district": "Silvertown - Green Valley - Half Mile",
        "city": "Linden",
        "state": "Upper Demerara-Berbice",
        "postcode": null,
        "country": "Guyana",
        "country_code": "gy"
      },
      "address": "330, Silvertown - Green Valley - Half Mile, Linden, 99685 Upper Demerara-Berbice, Guyana"
    },
    {
      "lat": 5.976526899748853,
      "lon": -58.33477336457248,
      "geoinfo": {
        "display_name": "Silvertown - Green Valley - Half Mile, Linden, Coomaka Lands, Upper Demerara-Berbice, Guyana",
        "road": null,
        "house_number": null,
        "neighbourhood": null,
        "suburb": null,
        "city_district": "Silvertown - Green Valley - Half Mile",
        "city": "Linden",
        "state": "Upper Demerara-Berbice",
        "postcode": null,
        "country": "Guyana",
        "country_code": "gy"
      },
      "address": "037, Silvertown - Green Valley - Half Mile, Linden, 10786 Upper Demerara-Berbice, Guyana"
    },
    {
      "lat": 5.99990006278155,
      "lon": -58.27267649459493,
      "geoinfo": {
        "display_name": "Washer Pond to Siberen, Linden, Upper Demerara-Berbice, Guyana",
        "road": null,
        "house_number": null,
        "neighbourhood": null,
        "suburb": null,
        "city_district": "Washer Pond to Siberen",
        "city": "Linden",
        "state": "Upper Demerara-Berbice",
        "postcode": null,
        "country": "Guyana",
        "country_code": "gy"
      },
      "address": "772, Washer Pond to Siberen, Linden, 86702 Upper Demerara-Berbice, Guyana"
    },
    {
      "lat": 5.977765225865792,
      "lon": -58.287995918684594,
      "geoinfo": {
        "display_name": "Silvertown - Green Valley - Half Mile, Linden, Upper Demerara-Berbice, Guyana",
        "road": null,
        "house_number": null,
        "neighbourhood": null,
        "suburb": null,
        "city_district": "Silvertown - Green Valley - Half Mile",
        "city": "Linden",
        "state": "Upper Demerara-Berbice",
        "postcode": null,
        "country": "Guyana",
        "country_code": "gy"
      },
      "address": "006, Silvertown - Green Valley - Half Mile, Linden, 96894 Upper Demerara-Berbice, Guyana"
    },
    {
      "lat": 6.0206564010782575,
      "lon": -58.29675007654125,
      "geoinfo": {
        "display_name": "Retrieve - Kara Kara, Linden, Upper Demerara-Berbice, Guyana",
        "road": null,
        "house_number": null,
        "neighbourhood": null,
        "suburb": null,
        "city_district": "Retrieve - Kara Kara",
        "city": "Linden",
        "state": "Upper Demerara-Berbice",
        "postcode": null,
        "country": "Guyana",
        "country_code": "gy"
      },
      "address": "398, Retrieve - Kara Kara, Linden, 82382 Upper Demerara-Berbice, Guyana"
    },
    {
      "lat": 5.9916811557981,
      "lon": -58.34895875576299,
      "geoinfo": {
        "display_name": "One Mile South, Linden, Upper Demerara-Berbice, Guyana",
        "road": null,
        "house_number": null,
        "neighbourhood": null,
        "suburb": null,
        "city_district": "One Mile South",
        "city": "Linden",
        "state": "Upper Demerara-Berbice",
        "postcode": null,
        "country": "Guyana",
        "country_code": "gy"
      },
      "address": "387, One Mile South, Linden, 96784 Upper Demerara-Berbice, Guyana"
    },
    {
      "lat": 5.988718889205565,
      "lon": -58.341671021336744,
      "geoinfo": {
        "display_name": "One Mile South, Linden, Upper Demerara-Berbice, Guyana",
        "road": null,
        "house_number": null,
        "neighbourhood": null,
        "suburb": null,
        "city_district": "One Mile South",
        "city": "Linden",
        "state": "Upper Demerara-Berbice",
        "postcode": null,
        "country": "Guyana",
        "country_code": "gy"
      },
      "address": "552, One Mile South, Linden, 84764 Upper Demerara-Berbice, Guyana"
    },
    {
      "lat": 5.992820960000684,
      "lon": -58.322067911317674,
      "geoinfo": {
        "display_name": "Silvertown - Green Valley - Half Mile, Linden, Upper Demerara-Berbice, Guyana",
        "road": null,
        "house_number": null,
        "neighbourhood": null,
        "suburb": null,
        "city_district": "Silvertown - Green Valley - Half Mile",
        "city": "Linden",
        "state": "Upper Demerara-Berbice",
        "postcode": null,
        "country": "Guyana",
        "country_code": "gy"
      },
      "address": "993, Silvertown - Green Valley - Half Mile, Linden, 38473 Upper Demerara-Berbice, Guyana"
    },
    {
      "lat": 5.988535955703947,
      "lon": -58.299690007720216,
      "geoinfo": {
        "display_name": "Silvertown - Green Valley - Half Mile, Linden, Upper Demerara-Berbice, Guyana",
        "road": null,
        "house_number": null,
        "neighbourhood": null,
        "suburb": null,
        "city_district": "Silvertown - Green Valley - Half Mile",
        "city": "Linden",
        "state": "Upper Demerara-Berbice",
        "postcode": null,
        "country": "Guyana",
        "country_code": "gy"
      },
      "address": "589, Silvertown - Green Valley - Half Mile, Linden, 82952 Upper Demerara-Berbice, Guyana"
    },
    {
      "lat": 6.006211623953777,
      "lon": -58.33642418151303,
      "geoinfo": {
        "display_name": "Blue Berry Hill - One Mile North - W. Housing Scheme, Linden, Upper Demerara-Berbice, Guyana",
        "road": null,
        "house_number": null,
        "neighbourhood": null,
        "suburb": null,
        "city_district": "Blue Berry Hill - One Mile North - W. Housing Scheme",
        "city": "Linden",
        "state": "Upper Demerara-Berbice",
        "postcode": null,
        "country": "Guyana",
        "country_code": "gy"
      },
      "address": "020, Blue Berry Hill - One Mile North - W. Housing Scheme, Linden, 30760 Upper Demerara-Berbice, Guyana"
    },
    {
      "lat": 5.969437624455623,
      "lon": -58.298064668741425,
      "geoinfo": {
        "display_name": "Silvertown - Green Valley - Half Mile, Linden, Upper Demerara-Berbice, Guyana",
        "road": null,
        "house_number": null,
        "neighbourhood": null,
        "suburb": null,
        "city_district": "Silvertown - Green Valley - Half Mile",
        "city": "Linden",
        "state": "Upper Demerara-Berbice",
        "postcode": null,
        "country": "Guyana",
        "country_code": "gy"
      },
      "address": "734, Silvertown - Green Valley - Half Mile, Linden, 91319 Upper Demerara-Berbice, Guyana"
    },
    {
      "lat": 6.029434234021017,
      "lon": -58.32051520634672,
      "geoinfo": {
        "display_name": "Blue Berry Hill - One Mile North - W. Housing Scheme, Linden, Upper Demerara-Berbice, Guyana",
        "road": null,
        "house_number": null,
        "neighbourhood": null,
        "suburb": null,
        "city_district": "Blue Berry Hill - One Mile North - W. Housing Scheme",
        "city": "Linden",
        "state": "Upper Demerara-Berbice",
        "postcode": null,
        "country": "Guyana",
        "country_code": "gy"
      },
      "address": "146, Blue Berry Hill - One Mile North - W. Housing Scheme, Linden, 07757 Upper Demerara-Berbice, Guyana"
    },
    {
      "lat": 5.97768467104719,
      "lon": -58.32288245158108,
      "geoinfo": {
        "display_name": "Silvertown - Green Valley - Half Mile, Linden, Coomaka Lands, Upper Demerara-Berbice, Guyana",
        "road": null,
        "house_number": null,
        "neighbourhood": null,
        "suburb": null,
        "city_district": "Silvertown - Green Valley - Half Mile",
        "city": "Linden",
        "state": "Upper Demerara-Berbice",
        "postcode": null,
        "country": "Guyana",
        "country_code": "gy"
      },
      "address": "161, Silvertown - Green Valley - Half Mile, Linden, 09175 Upper Demerara-Berbice, Guyana"
    },
    {
      "lat": 6.023432170581601,
      "lon": -58.293145690031324,
      "geoinfo": {
        "display_name": "Republic Avenue, Central Mackenzie, Retrieve - Kara Kara, Linden, Upper Demerara-Berbice, Guyana",
        "road": "Republic Avenue",
        "house_number": null,
        "neighbourhood": "Central Mackenzie",
        "suburb": null,
        "city_district": "Retrieve - Kara Kara",
        "city": "Linden",
        "state": "Upper Demerara-Berbice",
        "postcode": null,
        "country": "Guyana",
        "country_code": "gy"
      },
      "address": "094, Republic Avenue, Central Mackenzie, Retrieve - Kara Kara, Linden, 61238 Upper Demerara-Berbice, Guyana"
    }
  ],
  "updated_at": "2025-10-19T04:15:47.239098+00:00",
  "_kind": "geo_samples"
}