{
  "country_code": "TJ",
  "country": "Tajikistan",
  "city": "Istaravshan",
  "geonameid": 1220253,
  "target_addresses": 4,
  "samples": [
    {
      "lat": 39.93120069088093,
      "lon": 68.95793355070839,
      "geoinfo": {
        "display_name": "Istaravshan, Istaravshan District, Sughd Region, 735610, Tajikistan",
        "road": null,
        "house_number": null,
        "neighbourhood": null,
        "suburb": null,
        "city_district": null,
        "city": "Istaravshan",
        "state": "Sughd Region",
        "postcode": "735610",
        "country": "Tajikistan",
        "country_code": "tj"
      },
      "address": "Istaravshan, Sughd Region, Tajikistan"
    },
    {
      "lat": 39.92028647455629,
      "lon": 69.02710476966453,
      "geoinfo": {
        "display_name": "РБ01, Bakhoristan-2, Istaravshan District, Sughd Region, 735610, Tajikistan",
        "road": "РБ01",
        "house_number": null,
        "neighbourhood": null,
        "suburb": null,
        "city_district": null,
        "city": "Bakhoristan-2",
        "state": "Sughd Region",
        "postcode": "735610",
        "country": "Tajikistan",
        "country_code": "tj"
      },
      "address": "РБ01, Istaravshan, Sughd Region, Tajikistan"
    },
    {
      "lat": 39.88784255029341,
      "lon": 69.00214450345578,
      "geoinfo": {
        "display_name": "РҶ065, Istaravshan, Istaravshan District, Sughd Region, 735610, Tajikistan",
        "road": "РҶ065",
        "house_number": null,
        "neighbourhood": null,
        "suburb": null,
        "city_district": null,
        "city": "Istaravshan",
        "state": "Sughd Region",
        "postcode": "735610",
        "country": "Tajikistan",
        "country_code": "tj"
      },
      "address": "РҶ065, Istaravshan, Sughd Region, Tajikistan"
    },
    {
      "lat": 39.881375724012706,
      "lon": 68.99199288677507,
      "geoinfo": {
        "display_name": "Istaravshan, Istaravshan District, Sughd Region, 735610, Tajikistan",
        "road": null,
        "house_number": null,
        "neighbourhood": null,
        "suburb": null,
        "city_district": null,
        "city": "Istaravshan",
        "state": "Sughd Region",
        "postcode": "735610",
        "country": "Tajikistan",
        "country_code": "tj"
      },
      "address": "310, Istaravshan, Istaravshan District, Sughd Region, 735610, Tajikistan"
    },
    {
      "lat": 39.89508160927029,
      "lon": 69.03652438198307,
      "geoinfo": {
        "display_name": "Қалъачаи Гулизард, Istaravshan District, Sughd Region, 735610, Tajikistan",
        "road": null,
        "house_number": null,
        "neighbourhood": null,
        "suburb": null,
        "city_district": null,
        "city": "Қалъачаи Гулизард",
        "state": "Sughd Region",
        "postcode": "735610",
        "country": "Tajikistan",
        "country_code": "tj"
      },
      "address": "199, Қалъачаи Гулизард, Istaravshan District, Sughd Region, 735610, Tajikistan"
    },
    {
      "lat": 39.87654029726067,
      "lon": 68.97255701296211,
      "geoinfo": {
        "display_name": "Istaravshan District, Sughd Region, 735610, Tajikistan",
        "road": null,
        "house_number": null,
        "neighbourhood": null,
        "suburb": null,
        "city_district": null,
        "city": null,
        "state": "Sughd Region",
        "postcode": "735610",
        "country": "Tajikistan",
        "country_code": "tj"
      },
      "address": "465, Istaravshan District, Sughd Region, 735610, Tajikistan"
    },
    {
      "lat": 39.93150994129984,
      "lon": 69.03307338470383,
      "geoinfo": {
        "display_name": "Bakhoristan-2, Istaravshan District, Sughd Region, 735610, Tajikistan",
        "road": null,
        "house_number": null,
        "neighbourhood": null,
        "suburb": null,
        "city_district": null,
        "city": "Bakhoristan-2",
        "state": "Sughd Region",
        "postcode": "735610",
        "country": "Tajikistan",
        "country_code": "tj"
      },
      "address": "Bakhoristan-2, Istaravshan District, Sughd Region, 735610, Tajikistan"
    }
  ],
  "updated_at": "2025-10-19T05:02:21.698104+00:00",
  "_kind": "geo_samples"
}