{
  "country_code": "TJ",
  "country": "Tajikistan",
  "city": "Proletar",
  "geonameid": 1514839,
  "target_addresses": 4,
  "samples": [
    {
      "lat": 40.15165631804976,
      "lon": 69.52779185848333,
      "geoinfo": {
        "display_name": "Somoniyon, Jabbor Rasulov District, Sughd Region, 735820, Tajikistan",
        "road": null,
        "house_number": null,
        "neighbourhood": null,
        "suburb": null,
        "city_district": null,
        "city": "Somoniyon",
        "state": "Sughd Region",
        "postcode": "735820",
        "country": "Tajikistan",
        "country_code": "tj"
      },
      "address": "Proletar, Sughd Region, Tajikistan"
    },
    {
      "lat": 40.15522937966994,
      "lon": 69.48894536741017,
      "geoinfo": {
        "display_name": "ул. А. Абдуллоев, Navbunyod, Jabbor Rasulov District, Sughd Region, 735820, Tajikistan",
        "road": "ул. А. Абдуллоев",
        "house_number": null,
        "neighbourhood": null,
        "suburb": null,
        "city_district": null,
        "city": "Navbunyod",
        "state": "Sughd Region",
        "postcode": "735820",
        "country": "Tajikistan",
        "country_code": "tj"
      },
      "address": "ул. А. Абдуллоев, Proletar, Sughd Region, Tajikistan"
    },
    {
      "lat": 40.156566003330504,
      "lon": 69.49279347007347,
      "geoinfo": {
        "display_name": "ул.Олимхужаев, Mehrobod, Mekhrabad (Proletarsk), Jabbor Rasulov District, Sughd Region, 735820, Tajikistan",
        "road": "ул.Олимхужаев",
        "house_number": null,
        "neighbourhood": null,
        "suburb": null,
        "city_district": null,
        "city": "Mekhrabad (Proletarsk)",
        "state": "Sughd Region",
        "postcode": "735820",
        "country": "Tajikistan",
        "country_code": "tj"
      },
      "address": "ул.Олимхужаев, Proletar, Sughd Region, Tajikistan"
    },
    {
      "lat": 40.16353882503727,
      "lon": 69.50245962848872,
      "geoinfo": {
        "display_name": "кӯчаи В.И.Ленин, Mehrobod, Mekhrabad (Proletarsk), Jabbor Rasulov District, Sughd Region, 735820, Tajikistan",
        "road": "кӯчаи В.И.Ленин",
        "house_number": null,
        "neighbourhood": null,
        "suburb": null,
        "city_district": null,
        "city": "Mekhrabad (Proletarsk)",
        "state": "Sughd Region",
        "postcode": "735820",
        "country": "Tajikistan",
        "country_code": "tj"
      },
      "address": "кӯчаи В.И.Ленин, Proletar, Sughd Region, Tajikistan"
    },
    {
      "lat": 40.14246037579275,
      "lon": 69.49033568099289,
      "geoinfo": {
        "display_name": "Mehrobod, Navbunyod, Jabbor Rasulov District, Sughd Region, 735820, Tajikistan",
        "road": null,
        "house_number": null,
        "neighbourhood": null,
        "suburb": null,
        "city_district": null,
        "city": "Navbunyod",
        "state": "Sughd Region",
        "postcode": "735820",
        "country": "Tajikistan",
        "country_code": "tj"
      },
      "address": "570, Proletar, 735820 Sughd Region, Tajikistan"
    },
    {
      "lat": 40.204679109354196,
      "lon": 69.50136777089382,
      "geoinfo": {
        "display_name": "дехмой, Zarkor, Jabbor Rasulov District, Sughd Region, 735820, Tajikistan",
        "road": null,
        "house_number": null,
        "neighbourhood": null,
        "suburb": null,
        "city_district": null,
        "city": "Zarkor",
        "state": "Sughd Region",
        "postcode": "735820",
        "country": "Tajikistan",
        "country_code": "tj"
      },
      "address": "655, Proletar, 735820 Sughd Region, Tajikistan"
    },
    {
      "lat": 40.13284661518739,
      "lon": 69.49038142103538,
      "geoinfo": {
        "display_name": "Mehrobod, Navbunyod, Jabbor Rasulov District, Sughd Region, 735820, Tajikistan",
        "road": null,
        "house_number": null,
        "neighbourhood": null,
        "suburb": null,
        "city_district": null,
        "city": "Navbunyod",
        "state": "Sughd Region",
        "postcode": "735820",
        "country": "Tajikistan",
        "country_code": "tj"
      },
      "address": "353, Proletar, 735820 Sughd Region, Tajikistan"
    },
    {
      "lat": 40.16992082964149,
      "lon": 69.54234179729747,
      "geoinfo": {
        "display_name": "Роҳи Деҳмой-Меҳробод, Jabbor Rasulov District, Sughd Region, 735820, Tajikistan",
        "road": "Роҳи Деҳмой-Меҳробод",
        "house_number": null,
        "neighbourhood": null,
        "suburb": null,
        "city_district": null,
        "city": null,
        "state": "Sughd Region",
        "postcode": "735820",
        "country": "Tajikistan",
        "country_code": "tj"
      },
      "address": "204, Роҳи Деҳмой-Меҳробод, Proletar, 735820 Sughd Region, Tajikistan"
    }
  ],
  "updated_at": "2025-10-19T07:13:07.505925+00:00",
  "_kind": "geo_samples"
}