{
  "country_code": "TJ",
  "country": "Tajikistan",
  "city": "Tursunzoda",
  "geonameid": 1282601,
  "target_addresses": 4,
  "samples": [
    {
      "lat": 38.486304282498125,
      "lon": 68.23612573133117,
      "geoinfo": {
        "display_name": "дехаи А. Мирзоев (Пахташиркат), Tursunzoda District, 735000, Tajikistan",
        "road": null,
        "house_number": null,
        "neighbourhood": null,
        "suburb": null,
        "city_district": null,
        "city": null,
        "state": null,
        "postcode": "735000",
        "country": "Tajikistan",
        "country_code": "tj"
      },
      "address": "Tursunzoda, Tajikistan"
    },
    {
      "lat": 38.51680671827969,
      "lon": 68.21832703427619,
      "geoinfo": {
        "display_name": "Парк Победы, кӯчаи. 15-солагии Истиқлолият, Tursunzoda, Tursunzoda District, Districts of Republican Subordination, 735000, Tajikistan",
        "road": "кӯчаи. 15-солагии Истиқлолият",
        "house_number": null,
        "neighbourhood": null,
        "suburb": null,
        "city_district": null,
        "city": "Tursunzoda",
        "state": "Districts of Republican Subordination",
        "postcode": "735000",
        "country": "Tajikistan",
        "country_code": "tj"
      },
      "address": "кӯчаи. 15-солагии Истиқлолият, Tursunzoda, Districts of Republican Subordination, Tajikistan"
    },
    {
      "lat": 38.495385842080836,
      "lon": 68.2241753477118,
      "geoinfo": {
        "display_name": "Tursunzoda, Tursunzoda District, 735000, Tajikistan",
        "road": null,
        "house_number": null,
        "neighbourhood": null,
        "suburb": null,
        "city_district": null,
        "city": "Tursunzoda",
        "state": null,
        "postcode": "735000",
        "country": "Tajikistan",
        "country_code": "tj"
      },
      "address": "Tursunzoda, Districts of Republican Subordination, Tajikistan"
    },
    {
      "lat": 38.52526529658071,
      "lon": 68.19847493325784,
      "geoinfo": {
        "display_name": "РБ02, Tursunzoda, Tursunzoda District, 735000, Tajikistan",
        "road": "РБ02",
        "house_number": null,
        "neighbourhood": null,
        "suburb": null,
        "city_district": null,
        "city": "Tursunzoda",
        "state": null,
        "postcode": "735000",
        "country": "Tajikistan",
        "country_code": "tj"
      },
      "address": "РБ02, Tursunzoda, Districts of Republican Subordination, Tajikistan"
    }
  ],
  "updated_at": "2025-10-16T23:19:59.319348+00:00",
  "_kind": "geo_samples"
}