{
  "country_code": "ME",
  "country": "Montenegro",
  "city": "Herceg Novi",
  "geonameid": 3199394,
  "target_addresses": 13,
  "samples": [
    {
      "lat": 42.46746366479911,
      "lon": 18.593958014545898,
      "geoinfo": {
        "display_name": "Glogovik, Kuti, Herceg Novi Municipality, 85346, Montenegro",
        "road": null,
        "house_number": null,
        "neighbourhood": null,
        "suburb": null,
        "city_district": null,
        "city": "Kuti",
        "state": null,
        "postcode": "85346",
        "country": "Montenegro",
        "country_code": "me"
      },
      "address": "Herceg Novi, Montenegro"
    },
    {
      "lat": 42.44502899769088,
      "lon": 18.481490126605394,
      "geoinfo": {
        "display_name": "D516, Bezboge, Vitaljina, Općina Konavle, Dubrovnik-Neretva County, Croatia",
        "road": "D516",
        "house_number": null,
        "neighbourhood": null,
        "suburb": null,
        "city_district": null,
        "city": "Vitaljina",
        "state": null,
        "postcode": null,
        "country": "Croatia",
        "country_code": "hr"
      },
      "address": "D516, Herceg Novi, Montenegro"
    },
    {
      "lat": 42.44327551931609,
      "lon": 18.511388597481965,
      "geoinfo": {
        "display_name": "FKK, Njivički put, Njivice, Provodina, Herceg Novi Municipality, 83547, Montenegro",
        "road": "Njivički put",
        "house_number": null,
        "neighbourhood": null,
        "suburb": null,
        "city_district": null,
        "city": "Provodina",
        "state": null,
        "postcode": "83547",
        "country": "Montenegro",
        "country_code": "me"
      },
      "address": "Njivički put, Herceg Novi, Montenegro"
    },
    {
      "lat": 42.46895769118685,
      "lon": 18.536707036425966,
      "geoinfo": {
        "display_name": "Mištica, Musići, Brajkovina, Podi, Herceg Novi Municipality, 85340, Montenegro",
        "road": "Mištica",
        "house_number": null,
        "neighbourhood": null,
        "suburb": null,
        "city_district": null,
        "city": "Brajkovina",
        "state": null,
        "postcode": "85340",
        "country": "Montenegro",
        "country_code": "me"
      },
      "address": "Mištica, Herceg Novi, Montenegro"
    },
    {
      "lat": 42.49404921623096,
      "lon": 18.54237819730006,
      "geoinfo": {
        "display_name": "Borici, Stjepčići, Kameno, Herceg Novi Municipality, 85348, Montenegro",
        "road": "Borici",
        "house_number": null,
        "neighbourhood": null,
        "suburb": null,
        "city_district": null,
        "city": "Kameno",
        "state": null,
        "postcode": "85348",
        "country": "Montenegro",
        "country_code": "me"
      },
      "address": "Borici, Herceg Novi, Montenegro"
    },
    {
      "lat": 42.47787334709392,
      "lon": 18.566400392642898,
      "geoinfo": {
        "display_name": "Sveti Nikola, Presječki put, Nakicenovici, Kuti, Herceg Novi Municipality, 85348, Montenegro",
        "road": "Presječki put",
        "house_number": null,
        "neighbourhood": null,
        "suburb": null,
        "city_district": null,
        "city": "Kuti",
        "state": null,
        "postcode": "85348",
        "country": "Montenegro",
        "country_code": "me"
      },
      "address": "Presječki put, Herceg Novi, Montenegro"
    },
    {
      "lat": 42.470152617965496,
      "lon": 18.545020942490893,
      "geoinfo": {
        "display_name": "Pođanski put, Musići, Brajkovina, Podi, Herceg Novi Municipality, 85340, Montenegro",
        "road": "Pođanski put",
        "house_number": null,
        "neighbourhood": null,
        "suburb": null,
        "city_district": null,
        "city": "Brajkovina",
        "state": null,
        "postcode": "85340",
        "country": "Montenegro",
        "country_code": "me"
      },
      "address": "Pođanski put, Herceg Novi, Montenegro"
    },
    {
      "lat": 42.452109554934225,
      "lon": 18.569450779795893,
      "geoinfo": {
        "display_name": "Plava tišina, Dalmatinerbahn, Donji Sasovići, Sasovići, Herceg Novi Municipality, 85348, Montenegro",
        "road": "Dalmatinerbahn",
        "house_number": null,
        "neighbourhood": null,
        "suburb": null,
        "city_district": null,
        "city": "Sasovići",
        "state": null,
        "postcode": "85348",
        "country": "Montenegro",
        "country_code": "me"
      },
      "address": "Dalmatinerbahn, Herceg Novi, Montenegro"
    },
    {
      "lat": 42.462749429969456,
      "lon": 18.572843924173885,
      "geoinfo": {
        "display_name": "Vrutak, Sasovići, Herceg Novi Municipality, 85348, Montenegro",
        "road": "Vrutak",
        "house_number": null,
        "neighbourhood": null,
        "suburb": null,
        "city_district": null,
        "city": "Sasovići",
        "state": null,
        "postcode": "85348",
        "country": "Montenegro",
        "country_code": "me"
      },
      "address": "Vrutak, Herceg Novi, Montenegro"
    },
    {
      "lat": 42.479941142634125,
      "lon": 18.513147814214715,
      "geoinfo": {
        "display_name": "Sveti Kozma i Damjan, Druga Ratiševinska, Ratiševina, Herceg Novi Municipality, 85347, Montenegro",
        "road": "Druga Ratiševinska",
        "house_number": null,
        "neighbourhood": null,
        "suburb": null,
        "city_district": null,
        "city": "Ratiševina",
        "state": null,
        "postcode": "85347",
        "country": "Montenegro",
        "country_code": "me"
      },
      "address": "Druga Ratiševinska, Herceg Novi, Montenegro"
    },
    {
      "lat": 42.43392177997208,
      "lon": 18.581609228498454,
      "geoinfo": {
        "display_name": "Old Submarine bunker, Луштичка, Stojkovići, Mandegaj, Luštica, Herceg Novi Municipality, 85346, Montenegro",
        "road": "Луштичка",
        "house_number": null,
        "neighbourhood": null,
        "suburb": null,
        "city_district": null,
        "city": "Luštica",
        "state": null,
        "postcode": "85346",
        "country": "Montenegro",
        "country_code": "me"
      },
      "address": "Луштичка, Herceg Novi, Montenegro"
    },
    {
      "lat": 42.453685756593565,
      "lon": 18.54464507715055,
      "geoinfo": {
        "display_name": "24, Zemunska, Dubrava, Sušići, Herceg Novi, Herceg Novi Municipality, 85340, Montenegro",
        "road": "Zemunska",
        "house_number": "24",
        "neighbourhood": "Dubrava",
        "suburb": null,
        "city_district": null,
        "city": "Herceg Novi",
        "state": null,
        "postcode": "85340",
        "country": "Montenegro",
        "country_code": "me"
      },
      "address": "24 Zemunska, Herceg Novi, Montenegro"
    },
    {
      "lat": 42.45848214978606,
      "lon": 18.542917034209335,
      "geoinfo": {
        "display_name": "Topovi, Kvekići, Brajkovina, Podi, Herceg Novi Municipality, 85340, Montenegro",
        "road": "Topovi",
        "house_number": null,
        "neighbourhood": null,
        "suburb": null,
        "city_district": null,
        "city": "Brajkovina",
        "state": null,
        "postcode": "85340",
        "country": "Montenegro",
        "country_code": "me"
      },
      "address": "Topovi, Herceg Novi, Montenegro"
    },
    {
      "lat": 42.42774596663948,
      "lon": 18.54599613298712,
      "geoinfo": {
        "display_name": "Луштичка, Klinci, Luštica, Herceg Novi Municipality, 85346, Montenegro",
        "road": "Луштичка",
        "house_number": null,
        "neighbourhood": null,
        "suburb": null,
        "city_district": null,
        "city": "Luštica",
        "state": null,
        "postcode": "85346",
        "country": "Montenegro",
        "country_code": "me"
      },
      "address": "187, Луштичка, Klinci, Luštica, Herceg Novi Municipality, 85346, Montenegro"
    },
    {
      "lat": 42.413016147948376,
      "lon": 18.547432366371165,
      "geoinfo": {
        "display_name": "Luštica, Луштичка, Klinci, Luštica, Herceg Novi Municipality, 85346, Montenegro",
        "road": "Луштичка",
        "house_number": null,
        "neighbourhood": null,
        "suburb": null,
        "city_district": null,
        "city": "Luštica",
        "state": null,
        "postcode": "85346",
        "country": "Montenegro",
        "country_code": "me"
      },
      "address": "934, Луштичка, 85346 Herceg Novi, Montenegro"
    },
    {
      "lat": 42.47481365409396,
      "lon": 18.547835911996675,
      "geoinfo": {
        "display_name": "Obradovići, Kameno, Herceg Novi Municipality, 85340, Montenegro",
        "road": null,
        "house_number": null,
        "neighbourhood": null,
        "suburb": null,
        "city_district": null,
        "city": "Kameno",
        "state": null,
        "postcode": "85340",
        "country": "Montenegro",
        "country_code": "me"
      },
      "address": "110, Obradovići, Kameno, Herceg Novi Municipality, 85340, Montenegro"
    },
    {
      "lat": 42.4763176451473,
      "lon": 18.53526526663032,
      "geoinfo": {
        "display_name": "Tamnica, Kameno, Herceg Novi Municipality, 85340, Montenegro",
        "road": null,
        "house_number": null,
        "neighbourhood": null,
        "suburb": null,
        "city_district": null,
        "city": "Kameno",
        "state": null,
        "postcode": "85340",
        "country": "Montenegro",
        "country_code": "me"
      },
      "address": "493, Tamnica, Kameno, Herceg Novi Municipality, 85340, Montenegro"
    },
    {
      "lat": 42.49476596238766,
      "lon": 18.55981986729575,
      "geoinfo": {
        "display_name": "Kabao, Kameno, Herceg Novi Municipality, Montenegro",
        "road": null,
        "house_number": null,
        "neighbourhood": null,
        "suburb": null,
        "city_district": null,
        "city": "Kameno",
        "state": null,
        "postcode": null,
        "country": "Montenegro",
        "country_code": "me"
      },
      "address": "507, Kabao, Kameno, 86014 Herceg Novi Municipality, Montenegro"
    },
    {
      "lat": 42.42559030383929,
      "lon": 18.56297708425355,
      "geoinfo": {
        "display_name": "Луштичка, Klinci, Luštica, Herceg Novi Municipality, 85346, Montenegro",
        "road": "Луштичка",
        "house_number": null,
        "neighbourhood": null,
        "suburb": null,
        "city_district": null,
        "city": "Luštica",
        "state": null,
        "postcode": "85346",
        "country": "Montenegro",
        "country_code": "me"
      },
      "address": "315, Луштичка, Klinci, Luštica, Herceg Novi Municipality, 85346, Montenegro"
    },
    {
      "lat": 42.452781802090804,
      "lon": 18.527501528561558,
      "geoinfo": {
        "display_name": "Šetalište 5 Danica, Topla, Marići, Herceg Novi, Herceg Novi Municipality, 85340, Montenegro",
        "road": "Šetalište 5 Danica",
        "house_number": null,
        "neighbourhood": null,
        "suburb": null,
        "city_district": null,
        "city": "Herceg Novi",
        "state": null,
        "postcode": "85340",
        "country": "Montenegro",
        "country_code": "me"
      },
      "address": "Šetalište 5 Danica, Topla, Marići, Herceg Novi, Herceg Novi Municipality, 85340, Montenegro"
    },
    {
      "lat": 42.4534397604192,
      "lon": 18.566426131503043,
      "geoinfo": {
        "display_name": "Lalovina, Donji Sasovići, Sasovići, Herceg Novi Municipality, 85348, Montenegro",
        "road": "Lalovina",
        "house_number": null,
        "neighbourhood": null,
        "suburb": null,
        "city_district": null,
        "city": "Sasovići",
        "state": null,
        "postcode": "85348",
        "country": "Montenegro",
        "country_code": "me"
      },
      "address": "991, Lalovina, Donji Sasovići, Sasovići, Herceg Novi Municipality, 85348, Montenegro"
    },
    {
      "lat": 42.48529508638632,
      "lon": 18.57986706708846,
      "geoinfo": {
        "display_name": "Djurovići, Žlijebi, Herceg Novi Municipality, 85348, Montenegro",
        "road": null,
        "house_number": null,
        "neighbourhood": null,
        "suburb": null,
        "city_district": null,
        "city": "Žlijebi",
        "state": null,
        "postcode": "85348",
        "country": "Montenegro",
        "country_code": "me"
      },
      "address": "819, Djurovići, Žlijebi, Herceg Novi Municipality, 85348, Montenegro"
    },
    {
      "lat": 42.41936154867522,
      "lon": 18.570899184261336,
      "geoinfo": {
        "display_name": "Mrkovi, Mandegaj, Luštica, Herceg Novi Municipality, 85346, Montenegro",
        "road": null,
        "house_number": null,
        "neighbourhood": null,
        "suburb": null,
        "city_district": null,
        "city": "Luštica",
        "state": null,
        "postcode": "85346",
        "country": "Montenegro",
        "country_code": "me"
      },
      "address": "334, Mrkovi, Mandegaj, Luštica, Herceg Novi Municipality, 85346, Montenegro"
    },
    {
      "lat": 42.4535149507294,
      "lon": 18.574679722576395,
      "geoinfo": {
        "display_name": "Dragomirska, Sasovići, Herceg Novi Municipality, 85348, Montenegro",
        "road": "Dragomirska",
        "house_number": null,
        "neighbourhood": null,
        "suburb": null,
        "city_district": null,
        "city": "Sasovići",
        "state": null,
        "postcode": "85348",
        "country": "Montenegro",
        "country_code": "me"
      },
      "address": "837, Dragomirska, Sasovići, Herceg Novi Municipality, 85348, Montenegro"
    },
    {
      "lat": 42.46893777573355,
      "lon": 18.496736982463947,
      "geoinfo": {
        "display_name": "Trepetljika, Ratiševina, Herceg Novi Municipality, 85347, Montenegro",
        "road": "Trepetljika",
        "house_number": null,
        "neighbourhood": null,
        "suburb": null,
        "city_district": null,
        "city": "Ratiševina",
        "state": null,
        "postcode": "85347",
        "country": "Montenegro",
        "country_code": "me"
      },
      "address": "433, Trepetljika, Ratiševina, Herceg Novi Municipality, 85347, Montenegro"
    },
    {
      "lat": 42.430542880148,
      "lon": 18.540759964498896,
      "geoinfo": {
        "display_name": "Rose, Luštica, Herceg Novi Municipality, 85340, Montenegro",
        "road": null,
        "house_number": null,
        "neighbourhood": null,
        "suburb": null,
        "city_district": null,
        "city": "Luštica",
        "state": null,
        "postcode": "85340",
        "country": "Montenegro",
        "country_code": "me"
      },
      "address": "744, Rose, Luštica, Herceg Novi Municipality, 85340, Montenegro"
    }
  ],
  "updated_at": "2025-10-19T04:16:33.176015+00:00",
  "_kind": "geo_samples"
}