{
  "country_code": "ME",
  "country": "Montenegro",
  "city": "Nikšić",
  "geonameid": 3194494,
  "target_addresses": 13,
  "samples": [
    {
      "lat": 42.74415347066503,
      "lon": 18.955007050030595,
      "geoinfo": {
        "display_name": "Stubička VII, Nikšić, Nikšić Municipality, 41805, Montenegro",
        "road": "Stubička VII",
        "house_number": null,
        "neighbourhood": null,
        "suburb": null,
        "city_district": null,
        "city": "Nikšić",
        "state": null,
        "postcode": "41805",
        "country": "Montenegro",
        "country_code": "me"
      },
      "address": "Stubička VII, Nikšić, Montenegro"
    },
    {
      "lat": 42.76730196071409,
      "lon": 18.914566547112322,
      "geoinfo": {
        "display_name": "Nikšić Municipality, 81400, Montenegro",
        "road": null,
        "house_number": null,
        "neighbourhood": null,
        "suburb": null,
        "city_district": null,
        "city": null,
        "state": null,
        "postcode": "81400",
        "country": "Montenegro",
        "country_code": "me"
      },
      "address": "Nikšić, Montenegro"
    },
    {
      "lat": 42.78074235783574,
      "lon": 18.9649262275693,
      "geoinfo": {
        "display_name": "Jovana Kovačevića, Nikšić, Nikšić Municipality, 81400, Montenegro",
        "road": "Jovana Kovačevića",
        "house_number": null,
        "neighbourhood": null,
        "suburb": null,
        "city_district": null,
        "city": "Nikšić",
        "state": null,
        "postcode": "81400",
        "country": "Montenegro",
        "country_code": "me"
      },
      "address": "Jovana Kovačevića, Nikšić, Montenegro"
    },
    {
      "lat": 42.80035847538198,
      "lon": 18.919577114574533,
      "geoinfo": {
        "display_name": "M-3, Ribnjak, Nikšić, Nikšić Municipality, 81400, Montenegro",
        "road": "M-3",
        "house_number": null,
        "neighbourhood": null,
        "suburb": null,
        "city_district": null,
        "city": "Nikšić",
        "state": null,
        "postcode": "81400",
        "country": "Montenegro",
        "country_code": "me"
      },
      "address": "M-3, Nikšić, Montenegro"
    },
    {
      "lat": 42.762567631034564,
      "lon": 18.93872610182697,
      "geoinfo": {
        "display_name": "TAHO SERVIS LALE, Podgoročki put, Nikšić, Nikšić Municipality, 81400, Montenegro",
        "road": "Podgoročki put",
        "house_number": null,
        "neighbourhood": null,
        "suburb": null,
        "city_district": null,
        "city": "Nikšić",
        "state": null,
        "postcode": "81400",
        "country": "Montenegro",
        "country_code": "me"
      },
      "address": "Podgoročki put, Nikšić, Montenegro"
    },
    {
      "lat": 42.78179553227918,
      "lon": 18.97179088696196,
      "geoinfo": {
        "display_name": "Bistrička I, Nikšić, Nikšić Municipality, 81400, Montenegro",
        "road": "Bistrička I",
        "house_number": null,
        "neighbourhood": null,
        "suburb": null,
        "city_district": null,
        "city": "Nikšić",
        "state": null,
        "postcode": "81400",
        "country": "Montenegro",
        "country_code": "me"
      },
      "address": "Bistrička I, Nikšić, Montenegro"
    },
    {
      "lat": 42.73492843804755,
      "lon": 18.95254977209743,
      "geoinfo": {
        "display_name": "Stubička VIII, Nikšić, Nikšić Municipality, 41805, Montenegro",
        "road": "Stubička VIII",
        "house_number": null,
        "neighbourhood": null,
        "suburb": null,
        "city_district": null,
        "city": "Nikšić",
        "state": null,
        "postcode": "41805",
        "country": "Montenegro",
        "country_code": "me"
      },
      "address": "Stubička VIII, Nikšić, Montenegro"
    },
    {
      "lat": 42.76404298331168,
      "lon": 18.950445195108056,
      "geoinfo": {
        "display_name": "Miloša Crnjanskog, Nikšić, Nikšić Municipality, 81400, Montenegro",
        "road": "Miloša Crnjanskog",
        "house_number": null,
        "neighbourhood": null,
        "suburb": null,
        "city_district": null,
        "city": "Nikšić",
        "state": null,
        "postcode": "81400",
        "country": "Montenegro",
        "country_code": "me"
      },
      "address": "Miloša Crnjanskog, Nikšić, Montenegro"
    },
    {
      "lat": 42.79982436775697,
      "lon": 18.914524090707413,
      "geoinfo": {
        "display_name": "nekadašnja pruga uskog koloseka Bileća–Nikšić, Kocani, Ribnjak, Nikšić, Nikšić Municipality, 81400, Montenegro",
        "road": "nekadašnja pruga uskog koloseka Bileća–Nikšić",
        "house_number": null,
        "neighbourhood": null,
        "suburb": null,
        "city_district": null,
        "city": "Nikšić",
        "state": null,
        "postcode": "81400",
        "country": "Montenegro",
        "country_code": "me"
      },
      "address": "nekadašnja pruga uskog koloseka Bileća–Nikšić, Nikšić, Montenegro"
    },
    {
      "lat": 42.75123071713277,
      "lon": 18.96564515317794,
      "geoinfo": {
        "display_name": "Gračanička II, Nikšić, Nikšić Municipality, 41805, Montenegro",
        "road": "Gračanička II",
        "house_number": null,
        "neighbourhood": null,
        "suburb": null,
        "city_district": null,
        "city": "Nikšić",
        "state": null,
        "postcode": "41805",
        "country": "Montenegro",
        "country_code": "me"
      },
      "address": "Gračanička II, Nikšić, Montenegro"
    },
    {
      "lat": 42.777981228824956,
      "lon": 18.9772475646744,
      "geoinfo": {
        "display_name": "Naselje Željezare I, Nikšić, Nikšić Municipality, 81400, Montenegro",
        "road": "Naselje Željezare I",
        "house_number": null,
        "neighbourhood": null,
        "suburb": null,
        "city_district": null,
        "city": "Nikšić",
        "state": null,
        "postcode": "81400",
        "country": "Montenegro",
        "country_code": "me"
      },
      "address": "Naselje Željezare I, Nikšić, Montenegro"
    },
    {
      "lat": 42.77084602504272,
      "lon": 18.914446534863597,
      "geoinfo": {
        "display_name": "Aerodrom Kapino polje, M-7, Nikšić, Nikšić Municipality, 81400, Montenegro",
        "road": "M-7",
        "house_number": null,
        "neighbourhood": null,
        "suburb": null,
        "city_district": null,
        "city": "Nikšić",
        "state": null,
        "postcode": "81400",
        "country": "Montenegro",
        "country_code": "me"
      },
      "address": "M-7, Nikšić, Montenegro"
    },
    {
      "lat": 42.78424874831399,
      "lon": 18.919508088436444,
      "geoinfo": {
        "display_name": "Kasarna \"13 Jul\", Hercegovački put, Uzdomir, Grebice, Nikšić, Nikšić Municipality, 81400, Montenegro",
        "road": "Hercegovački put",
        "house_number": null,
        "neighbourhood": null,
        "suburb": null,
        "city_district": null,
        "city": "Nikšić",
        "state": null,
        "postcode": "81400",
        "country": "Montenegro",
        "country_code": "me"
      },
      "address": "Hercegovački put, Nikšić, Montenegro"
    },
    {
      "lat": 42.755731910580934,
      "lon": 18.921028915623825,
      "geoinfo": {
        "display_name": "Studenci, Nikšić, Nikšić Municipality, 81400, Montenegro",
        "road": null,
        "house_number": null,
        "neighbourhood": null,
        "suburb": null,
        "city_district": null,
        "city": "Nikšić",
        "state": null,
        "postcode": "81400",
        "country": "Montenegro",
        "country_code": "me"
      },
      "address": "948, Studenci, Nikšić, Nikšić Municipality, 81400, Montenegro"
    },
    {
      "lat": 42.75609854861056,
      "lon": 18.94347743206712,
      "geoinfo": {
        "display_name": "Budoška V, Nikšić, Nikšić Municipality, 81400, Montenegro",
        "road": "Budoška V",
        "house_number": null,
        "neighbourhood": null,
        "suburb": null,
        "city_district": null,
        "city": "Nikšić",
        "state": null,
        "postcode": "81400",
        "country": "Montenegro",
        "country_code": "me"
      },
      "address": "797, Budoška V, Nikšić, Nikšić Municipality, 81400, Montenegro"
    },
    {
      "lat": 42.78274162009364,
      "lon": 18.963148838425393,
      "geoinfo": {
        "display_name": "Milana Papića, Nikšić, Nikšić Municipality, 81400, Montenegro",
        "road": "Milana Papića",
        "house_number": null,
        "neighbourhood": null,
        "suburb": null,
        "city_district": null,
        "city": "Nikšić",
        "state": null,
        "postcode": "81400",
        "country": "Montenegro",
        "country_code": "me"
      },
      "address": "169, Milana Papića, Nikšić, Nikšić Municipality, 81400, Montenegro"
    },
    {
      "lat": 42.795822831893894,
      "lon": 18.90801190625875,
      "geoinfo": {
        "display_name": "Kocani, Ribnjak, Nikšić, Nikšić Municipality, 81400, Montenegro",
        "road": null,
        "house_number": null,
        "neighbourhood": null,
        "suburb": null,
        "city_district": null,
        "city": "Nikšić",
        "state": null,
        "postcode": "81400",
        "country": "Montenegro",
        "country_code": "me"
      },
      "address": "540, Kocani, Ribnjak, Nikšić, Nikšić Municipality, 81400, Montenegro"
    },
    {
      "lat": 42.73004016364553,
      "lon": 18.955311446457113,
      "geoinfo": {
        "display_name": "Prijespa, Nikšić Municipality, 41805, Montenegro",
        "road": null,
        "house_number": null,
        "neighbourhood": null,
        "suburb": null,
        "city_district": null,
        "city": null,
        "state": null,
        "postcode": "41805",
        "country": "Montenegro",
        "country_code": "me"
      },
      "address": "926, Prijespa, Nikšić Municipality, 41805, Montenegro"
    },
    {
      "lat": 42.76412852103714,
      "lon": 18.89809668994432,
      "geoinfo": {
        "display_name": "Ridjani, Nikšić Municipality, Montenegro",
        "road": null,
        "house_number": null,
        "neighbourhood": null,
        "suburb": null,
        "city_district": null,
        "city": "Ridjani",
        "state": null,
        "postcode": null,
        "country": "Montenegro",
        "country_code": "me"
      },
      "address": "095, Ridjani, 18557 Nikšić Municipality, Montenegro"
    },
    {
      "lat": 42.79502333206059,
      "lon": 18.914394819809782,
      "geoinfo": {
        "display_name": "Sava Stanojevića, Uzdomir, Kocani, Ribnjak, Nikšić, Nikšić Municipality, 81400, Montenegro",
        "road": "Sava Stanojevića",
        "house_number": null,
        "neighbourhood": null,
        "suburb": null,
        "city_district": null,
        "city": "Nikšić",
        "state": null,
        "postcode": "81400",
        "country": "Montenegro",
        "country_code": "me"
      },
      "address": "465, Sava Stanojevića, Uzdomir, Kocani, Ribnjak, Nikšić, Nikšić Municipality, 81400, Montenegro"
    },
    {
      "lat": 42.75969685378571,
      "lon": 18.997904515806894,
      "geoinfo": {
        "display_name": "Ozrinići, Nikšić Municipality, 41805, Montenegro",
        "road": null,
        "house_number": null,
        "neighbourhood": null,
        "suburb": null,
        "city_district": null,
        "city": "Ozrinići",
        "state": null,
        "postcode": "41805",
        "country": "Montenegro",
        "country_code": "me"
      },
      "address": "081, Ozrinići, Nikšić Municipality, 41805, Montenegro"
    },
    {
      "lat": 42.78008342207735,
      "lon": 18.939883657340804,
      "geoinfo": {
        "display_name": "Rastoci, Nikšić, Nikšić Municipality, 81400, Montenegro",
        "road": null,
        "house_number": null,
        "neighbourhood": null,
        "suburb": null,
        "city_district": null,
        "city": "Nikšić",
        "state": null,
        "postcode": "81400",
        "country": "Montenegro",
        "country_code": "me"
      },
      "address": "254, Rastoci, Nikšić, Nikšić Municipality, 81400, Montenegro"
    },
    {
      "lat": 42.79108176477505,
      "lon": 18.915247435468075,
      "geoinfo": {
        "display_name": "Kocani, Ribnjak, Nikšić, Nikšić Municipality, 81400, Montenegro",
        "road": null,
        "house_number": null,
        "neighbourhood": null,
        "suburb": null,
        "city_district": null,
        "city": "Nikšić",
        "state": null,
        "postcode": "81400",
        "country": "Montenegro",
        "country_code": "me"
      },
      "address": "684, Kocani, Ribnjak, Nikšić, Nikšić Municipality, 81400, Montenegro"
    },
    {
      "lat": 42.77977218685852,
      "lon": 18.91667880679736,
      "geoinfo": {
        "display_name": "M-7, Nikšić, Nikšić Municipality, 81400, Montenegro",
        "road": "M-7",
        "house_number": null,
        "neighbourhood": null,
        "suburb": null,
        "city_district": null,
        "city": "Nikšić",
        "state": null,
        "postcode": "81400",
        "country": "Montenegro",
        "country_code": "me"
      },
      "address": "M-7, Nikšić, Nikšić Municipality, 81400, Montenegro"
    },
    {
      "lat": 42.808227708132776,
      "lon": 18.965014783404133,
      "geoinfo": {
        "display_name": "Nikšić, Nikšić Municipality, Montenegro",
        "road": null,
        "house_number": null,
        "neighbourhood": null,
        "suburb": null,
        "city_district": null,
        "city": "Nikšić",
        "state": null,
        "postcode": null,
        "country": "Montenegro",
        "country_code": "me"
      },
      "address": "153, Nikšić, 31623 Nikšić Municipality, Montenegro"
    },
    {
      "lat": 42.774736914006,
      "lon": 18.932843468924204,
      "geoinfo": {
        "display_name": "M-3, Rastoci, Grebice, Nikšić, Nikšić Municipality, 81400, Montenegro",
        "road": "M-3",
        "house_number": null,
        "neighbourhood": null,
        "suburb": null,
        "city_district": null,
        "city": "Nikšić",
        "state": null,
        "postcode": "81400",
        "country": "Montenegro",
        "country_code": "me"
      },
      "address": "M-3, Rastoci, Grebice, Nikšić, Nikšić Municipality, 81400, Montenegro"
    }
  ],
  "updated_at": "2025-10-19T04:15:30.051100+00:00",
  "_kind": "geo_samples"
}