{
  "country_code": "ME",
  "country": "Montenegro",
  "city": "Pljevlja",
  "geonameid": 3193161,
  "target_addresses": 13,
  "samples": [
    {
      "lat": 43.37718422275441,
      "lon": 19.332406798174297,
      "geoinfo": {
        "display_name": "Donja Rudnica, Kotline, Pljevlja Municipality, 84210, Montenegro",
        "road": null,
        "house_number": null,
        "neighbourhood": null,
        "suburb": null,
        "city_district": null,
        "city": "Kotline",
        "state": null,
        "postcode": "84210",
        "country": "Montenegro",
        "country_code": "me"
      },
      "address": "Pljevlja, Montenegro"
    },
    {
      "lat": 43.34229606676398,
      "lon": 19.392304393170367,
      "geoinfo": {
        "display_name": "M-6, Jagnjile, Bukovik, Pljevlja Municipality, 84210, Montenegro",
        "road": "M-6",
        "house_number": null,
        "neighbourhood": null,
        "suburb": null,
        "city_district": null,
        "city": "Bukovik",
        "state": null,
        "postcode": "84210",
        "country": "Montenegro",
        "country_code": "me"
      },
      "address": "M-6, Pljevlja, Montenegro"
    },
    {
      "lat": 43.39158704340324,
      "lon": 19.35682390322644,
      "geoinfo": {
        "display_name": "R-4, Smrdan, Rovčani, Pljevlja Municipality, 84210, Montenegro",
        "road": "R-4",
        "house_number": null,
        "neighbourhood": null,
        "suburb": null,
        "city_district": null,
        "city": "Rovčani",
        "state": null,
        "postcode": "84210",
        "country": "Montenegro",
        "country_code": "me"
      },
      "address": "R-4, Pljevlja, Montenegro"
    },
    {
      "lat": 43.34721587533239,
      "lon": 19.319964023566115,
      "geoinfo": {
        "display_name": "Bokokotorska, Radosavac, Koruge, Pljevlja Municipality, 84210, Montenegro",
        "road": "Bokokotorska",
        "house_number": null,
        "neighbourhood": null,
        "suburb": null,
        "city_district": null,
        "city": "Koruge",
        "state": null,
        "postcode": "84210",
        "country": "Montenegro",
        "country_code": "me"
      },
      "address": "Bokokotorska, Pljevlja, Montenegro"
    },
    {
      "lat": 43.348742444516645,
      "lon": 19.324236332716016,
      "geoinfo": {
        "display_name": "Aleksandra Vukovića-Vuka, Radosavac, Pljevlja, Pljevlja Municipality, 84210, Montenegro",
        "road": "Aleksandra Vukovića-Vuka",
        "house_number": null,
        "neighbourhood": null,
        "suburb": null,
        "city_district": null,
        "city": "Pljevlja",
        "state": null,
        "postcode": "84210",
        "country": "Montenegro",
        "country_code": "me"
      },
      "address": "Aleksandra Vukovića-Vuka, Pljevlja, Montenegro"
    },
    {
      "lat": 43.35565786807659,
      "lon": 19.353288811968252,
      "geoinfo": {
        "display_name": "IV sandzačke, Pljevlja, Pljevlja Municipality, 84210, Montenegro",
        "road": "IV sandzačke",
        "house_number": null,
        "neighbourhood": null,
        "suburb": null,
        "city_district": null,
        "city": "Pljevlja",
        "state": null,
        "postcode": "84210",
        "country": "Montenegro",
        "country_code": "me"
      },
      "address": "IV sandzačke, Pljevlja, Montenegro"
    },
    {
      "lat": 43.3678724269312,
      "lon": 19.35570282412878,
      "geoinfo": {
        "display_name": "Ulica Njegoševa, Pljevlja Municipality, 84210, Montenegro",
        "road": "Ulica Njegoševa",
        "house_number": null,
        "neighbourhood": null,
        "suburb": null,
        "city_district": null,
        "city": null,
        "state": null,
        "postcode": "84210",
        "country": "Montenegro",
        "country_code": "me"
      },
      "address": "Ulica Njegoševa, Pljevlja, Montenegro"
    },
    {
      "lat": 43.363737057067176,
      "lon": 19.30161579736833,
      "geoinfo": {
        "display_name": "R-18, Radosavac, Pljevlja, Pljevlja Municipality, Montenegro",
        "road": "R-18",
        "house_number": null,
        "neighbourhood": null,
        "suburb": null,
        "city_district": null,
        "city": "Pljevlja",
        "state": null,
        "postcode": null,
        "country": "Montenegro",
        "country_code": "me"
      },
      "address": "R-18, Pljevlja, Montenegro"
    },
    {
      "lat": 43.355931650710374,
      "lon": 19.360568119145928,
      "geoinfo": {
        "display_name": "Voja Đenisijevića, Potrlica, Pljevlja, Pljevlja Municipality, 84210, Montenegro",
        "road": "Voja Đenisijevića",
        "house_number": null,
        "neighbourhood": null,
        "suburb": null,
        "city_district": null,
        "city": "Pljevlja",
        "state": null,
        "postcode": "84210",
        "country": "Montenegro",
        "country_code": "me"
      },
      "address": "Voja Đenisijevića, Pljevlja, Montenegro"
    },
    {
      "lat": 43.35333682819077,
      "lon": 19.351264461800216,
      "geoinfo": {
        "display_name": "Podgorička, Pljevlja, Pljevlja Municipality, 84210, Montenegro",
        "road": "Podgorička",
        "house_number": null,
        "neighbourhood": null,
        "suburb": null,
        "city_district": null,
        "city": "Pljevlja",
        "state": null,
        "postcode": "84210",
        "country": "Montenegro",
        "country_code": "me"
      },
      "address": "Podgorička, Pljevlja, Montenegro"
    },
    {
      "lat": 43.3742871380677,
      "lon": 19.32610065444891,
      "geoinfo": {
        "display_name": "R-3, Josovići, Srdanov Grob, Pljevlja Municipality, 84210, Montenegro",
        "road": "R-3",
        "house_number": null,
        "neighbourhood": null,
        "suburb": null,
        "city_district": null,
        "city": "Srdanov Grob",
        "state": null,
        "postcode": "84210",
        "country": "Montenegro",
        "country_code": "me"
      },
      "address": "R-3, Pljevlja, Montenegro"
    },
    {
      "lat": 43.35100594043132,
      "lon": 19.350223235863222,
      "geoinfo": {
        "display_name": "Narodne revolucije, Pljevlja, Pljevlja Municipality, 84210, Montenegro",
        "road": "Narodne revolucije",
        "house_number": null,
        "neighbourhood": null,
        "suburb": null,
        "city_district": null,
        "city": "Pljevlja",
        "state": null,
        "postcode": "84210",
        "country": "Montenegro",
        "country_code": "me"
      },
      "address": "Narodne revolucije, Pljevlja, Montenegro"
    },
    {
      "lat": 43.36074164451518,
      "lon": 19.339229383102683,
      "geoinfo": {
        "display_name": "Bozidara Zugica, Guke, Pljevlja, Pljevlja Municipality, 84210, Montenegro",
        "road": "Bozidara Zugica",
        "house_number": null,
        "neighbourhood": null,
        "suburb": null,
        "city_district": null,
        "city": "Pljevlja",
        "state": null,
        "postcode": "84210",
        "country": "Montenegro",
        "country_code": "me"
      },
      "address": "Bozidara Zugica, Pljevlja, Montenegro"
    }
  ],
  "updated_at": "2025-10-16T19:00:57.941693+00:00",
  "_kind": "geo_samples"
}