{
  "country_code": "XK",
  "country": "Kosovo",
  "city": "Deçan",
  "geonameid": 791580,
  "target_addresses": 26,
  "samples": [
    {
      "lat": 42.513208014772495,
      "lon": 20.256204949329955,
      "geoinfo": {
        "display_name": "Pobërgjë, Municipality of Deçan / Dečane, District of Gjakova, 51000, Kosovo",
        "road": null,
        "house_number": null,
        "neighbourhood": null,
        "suburb": null,
        "city_district": null,
        "city": "Pobërgjë",
        "state": null,
        "postcode": "51000",
        "country": "Kosovo",
        "country_code": "xk"
      },
      "address": "Deçan, Kosovo"
    },
    {
      "lat": 42.51701372745237,
      "lon": 20.26954493218999,
      "geoinfo": {
        "display_name": "Sali Zenun Vokshi, Voksh, Municipality of Deçan / Dečane, District of Gjakova, 51000, Kosovo",
        "road": "Sali Zenun Vokshi",
        "house_number": null,
        "neighbourhood": null,
        "suburb": null,
        "city_district": null,
        "city": "Voksh",
        "state": null,
        "postcode": "51000",
        "country": "Kosovo",
        "country_code": "xk"
      },
      "address": "Sali Zenun Vokshi, Deçan, Kosovo"
    },
    {
      "lat": 42.55364255197918,
      "lon": 20.235829266676916,
      "geoinfo": {
        "display_name": "Demë Ali Pozhari, Deçan, Municipality of Deçan / Dečane, District of Gjakova, 51000, Kosovo",
        "road": "Demë Ali Pozhari",
        "house_number": null,
        "neighbourhood": null,
        "suburb": null,
        "city_district": null,
        "city": "Deçan",
        "state": null,
        "postcode": "51000",
        "country": "Kosovo",
        "country_code": "xk"
      },
      "address": "Demë Ali Pozhari, Deçan, Kosovo"
    },
    {
      "lat": 42.49816684360579,
      "lon": 20.306751736070986,
      "geoinfo": {
        "display_name": "Haxhë Tolaj, Prilep, Municipality of Deçan / Dečane, District of Gjakova, 51000, Kosovo",
        "road": "Haxhë Tolaj",
        "house_number": null,
        "neighbourhood": null,
        "suburb": null,
        "city_district": null,
        "city": "Prilep",
        "state": null,
        "postcode": "51000",
        "country": "Kosovo",
        "country_code": "xk"
      },
      "address": "Haxhë Tolaj, Deçan, Kosovo"
    },
    {
      "lat": 42.54529776876566,
      "lon": 20.245013591491194,
      "geoinfo": {
        "display_name": "Bjeshkët e Deçanit, Hulaj, Municipality of Deçan / Dečane, District of Gjakova, 51000, Kosovo",
        "road": "Bjeshkët e Deçanit",
        "house_number": null,
        "neighbourhood": null,
        "suburb": null,
        "city_district": null,
        "city": "Hulaj",
        "state": null,
        "postcode": "51000",
        "country": "Kosovo",
        "country_code": "xk"
      },
      "address": "Bjeshkët e Deçanit, Deçan, Kosovo"
    },
    {
      "lat": 42.51213046513437,
      "lon": 20.332040136909892,
      "geoinfo": {
        "display_name": "Maxhun Çekaj, Irzniq, Municipality of Deçan / Dečane, District of Gjakova, 51000, Kosovo",
        "road": "Maxhun Çekaj",
        "house_number": null,
        "neighbourhood": null,
        "suburb": null,
        "city_district": null,
        "city": "Irzniq",
        "state": null,
        "postcode": "51000",
        "country": "Kosovo",
        "country_code": "xk"
      },
      "address": "Maxhun Çekaj, Irzniq, Municipality of Deçan / Dečane, District of Gjakova, 51000, Kosovo"
    },
    {
      "lat": 42.50739037902404,
      "lon": 20.314196998567297,
      "geoinfo": {
        "display_name": "13, 27 Prilli, Prilep, Municipality of Deçan / Dečane, District of Gjakova, 51000, Kosovo",
        "road": "27 Prilli",
        "house_number": "13",
        "neighbourhood": null,
        "suburb": null,
        "city_district": null,
        "city": "Prilep",
        "state": null,
        "postcode": "51000",
        "country": "Kosovo",
        "country_code": "xk"
      },
      "address": "13, 27 Prilli, Prilep, Municipality of Deçan / Dečane, District of Gjakova, 51000, Kosovo"
    },
    {
      "lat": 42.52755518597541,
      "lon": 20.302058267835584,
      "geoinfo": {
        "display_name": "14, Te Dardha, Carrabreg i Ulët, Municipality of Deçan / Dečane, District of Gjakova, 51000, Kosovo",
        "road": "Te Dardha",
        "house_number": "14",
        "neighbourhood": null,
        "suburb": null,
        "city_district": null,
        "city": "Carrabreg i Ulët",
        "state": null,
        "postcode": "51000",
        "country": "Kosovo",
        "country_code": "xk"
      },
      "address": "14, Te Dardha, Carrabreg i Ulët, Municipality of Deçan / Dečane, District of Gjakova, 51000, Kosovo"
    },
    {
      "lat": 42.53387032676238,
      "lon": 20.316720660568603,
      "geoinfo": {
        "display_name": "4, Rasim Molliqaj, Beleg, Municipality of Deçan / Dečane, District of Gjakova, 51000, Kosovo",
        "road": "Rasim Molliqaj",
        "house_number": "4",
        "neighbourhood": null,
        "suburb": null,
        "city_district": null,
        "city": "Beleg",
        "state": null,
        "postcode": "51000",
        "country": "Kosovo",
        "country_code": "xk"
      },
      "address": "4, Rasim Molliqaj, Beleg, Municipality of Deçan / Dečane, District of Gjakova, 51000, Kosovo"
    },
    {
      "lat": 42.52964591725869,
      "lon": 20.267535078945922,
      "geoinfo": {
        "display_name": "Gryka e Lloqanit, Hulaj, Municipality of Deçan / Dečane, District of Gjakova, 51000, Kosovo",
        "road": "Gryka e Lloqanit",
        "house_number": null,
        "neighbourhood": null,
        "suburb": null,
        "city_district": null,
        "city": "Hulaj",
        "state": null,
        "postcode": "51000",
        "country": "Kosovo",
        "country_code": "xk"
      },
      "address": "719, Gryka e Lloqanit, Hulaj, Municipality of Deçan / Dečane, District of Gjakova, 51000, Kosovo"
    },
    {
      "lat": 42.55693343737693,
      "lon": 20.292035809044183,
      "geoinfo": {
        "display_name": "16, Isa Balaj, Isniq, Municipality of Deçan / Dečane, District of Gjakova, 51000, Kosovo",
        "road": "Isa Balaj",
        "house_number": "16",
        "neighbourhood": null,
        "suburb": null,
        "city_district": null,
        "city": "Isniq",
        "state": null,
        "postcode": "51000",
        "country": "Kosovo",
        "country_code": "xk"
      },
      "address": "16, Isa Balaj, Isniq, Municipality of Deçan / Dečane, District of Gjakova, 51000, Kosovo"
    },
    {
      "lat": 42.50375900183287,
      "lon": 20.31621741017222,
      "geoinfo": {
        "display_name": "26, Edmond e Jeton Dabiqaj, Prilep, Municipality of Deçan / Dečane, District of Gjakova, 51000, Kosovo",
        "road": "Edmond e Jeton Dabiqaj",
        "house_number": "26",
        "neighbourhood": null,
        "suburb": null,
        "city_district": null,
        "city": "Prilep",
        "state": null,
        "postcode": "51000",
        "country": "Kosovo",
        "country_code": "xk"
      },
      "address": "26, Edmond e Jeton Dabiqaj, Prilep, Municipality of Deçan / Dečane, District of Gjakova, 51000, Kosovo"
    },
    {
      "lat": 42.54206533677182,
      "lon": 20.345147374663178,
      "geoinfo": {
        "display_name": "Artan Lekaj, Pozhar, Municipality of Deçan / Dečane, District of Gjakova, 51000, Kosovo",
        "road": "Artan Lekaj",
        "house_number": null,
        "neighbourhood": null,
        "suburb": null,
        "city_district": null,
        "city": "Pozhar",
        "state": null,
        "postcode": "51000",
        "country": "Kosovo",
        "country_code": "xk"
      },
      "address": "312, Artan Lekaj, Pozhar, Municipality of Deçan / Dečane, District of Gjakova, 51000, Kosovo"
    },
    {
      "lat": 42.50403526844494,
      "lon": 20.29966335053468,
      "geoinfo": {
        "display_name": "Arsen Mazrekaj, Lagjja Mazrekaj, Drenoc, Municipality of Deçan / Dečane, District of Gjakova, 51000, Kosovo",
        "road": "Arsen Mazrekaj",
        "house_number": null,
        "neighbourhood": "Lagjja Mazrekaj",
        "suburb": null,
        "city_district": null,
        "city": "Drenoc",
        "state": null,
        "postcode": "51000",
        "country": "Kosovo",
        "country_code": "xk"
      },
      "address": "474, Arsen Mazrekaj, Lagjja Mazrekaj, Drenoc, Municipality of Deçan / Dečane, District of Gjakova, 51000, Kosovo"
    },
    {
      "lat": 42.53397078620888,
      "lon": 20.267044060222965,
      "geoinfo": {
        "display_name": "Gryka e Lloqanit, Hulaj, Municipality of Deçan / Dečane, District of Gjakova, 51000, Kosovo",
        "road": "Gryka e Lloqanit",
        "house_number": null,
        "neighbourhood": null,
        "suburb": null,
        "city_district": null,
        "city": "Hulaj",
        "state": null,
        "postcode": "51000",
        "country": "Kosovo",
        "country_code": "xk"
      },
      "address": "162, Gryka e Lloqanit, Hulaj, Municipality of Deçan / Dečane, District of Gjakova, 51000, Kosovo"
    },
    {
      "lat": 42.55319215393541,
      "lon": 20.286975705327684,
      "geoinfo": {
        "display_name": "17, Bajram Osdautaj dhe Rexhë Pajazitaj, Deçan, Municipality of Deçan / Dečane, District of Gjakova, 51000, Kosovo",
        "road": "Bajram Osdautaj dhe Rexhë Pajazitaj",
        "house_number": "17",
        "neighbourhood": null,
        "suburb": null,
        "city_district": null,
        "city": "Deçan",
        "state": null,
        "postcode": "51000",
        "country": "Kosovo",
        "country_code": "xk"
      },
      "address": "17, Bajram Osdautaj dhe Rexhë Pajazitaj, Deçan, Municipality of Deçan / Dečane, District of Gjakova, 51000, Kosovo"
    },
    {
      "lat": 42.51700313355907,
      "lon": 20.321190882856563,
      "geoinfo": {
        "display_name": "Haki Balaj, Prekolluk, Municipality of Deçan / Dečane, District of Gjakova, 51000, Kosovo",
        "road": "Haki Balaj",
        "house_number": null,
        "neighbourhood": null,
        "suburb": null,
        "city_district": null,
        "city": "Prekolluk",
        "state": null,
        "postcode": "51000",
        "country": "Kosovo",
        "country_code": "xk"
      },
      "address": "999, Haki Balaj, Prekolluk, Municipality of Deçan / Dečane, District of Gjakova, 51000, Kosovo"
    },
    {
      "lat": 42.52889614375907,
      "lon": 20.28234926714372,
      "geoinfo": {
        "display_name": "Muharrem Lataj, Deçan, Municipality of Deçan / Dečane, District of Gjakova, 51000, Kosovo",
        "road": "Muharrem Lataj",
        "house_number": null,
        "neighbourhood": null,
        "suburb": null,
        "city_district": null,
        "city": "Deçan",
        "state": null,
        "postcode": "51000",
        "country": "Kosovo",
        "country_code": "xk"
      },
      "address": "201, Muharrem Lataj, Deçan, Municipality of Deçan / Dečane, District of Gjakova, 51000, Kosovo"
    },
    {
      "lat": 42.540680319656516,
      "lon": 20.279104582140896,
      "geoinfo": {
        "display_name": "54, UÇK, Decani, Deçan, Municipality of Deçan / Dečane, District of Gjakova, 51000, Kosovo",
        "road": "UÇK",
        "house_number": "54",
        "neighbourhood": null,
        "suburb": null,
        "city_district": null,
        "city": "Deçan",
        "state": null,
        "postcode": "51000",
        "country": "Kosovo",
        "country_code": "xk"
      },
      "address": "54, UÇK, Decani, Deçan, Municipality of Deçan / Dečane, District of Gjakova, 51000, Kosovo"
    },
    {
      "lat": 42.51808337519182,
      "lon": 20.241291365339137,
      "geoinfo": {
        "display_name": "Pobërgjë, Municipality of Deçan / Dečane, District of Gjakova, 51000, Kosovo",
        "road": null,
        "house_number": null,
        "neighbourhood": null,
        "suburb": null,
        "city_district": null,
        "city": "Pobërgjë",
        "state": null,
        "postcode": "51000",
        "country": "Kosovo",
        "country_code": "xk"
      },
      "address": "703, Pobërgjë, Municipality of Deçan / Dečane, District of Gjakova, 51000, Kosovo"
    },
    {
      "lat": 42.516139839404545,
      "lon": 20.325316772857448,
      "geoinfo": {
        "display_name": "211, Haki Balaj, Prilep, Municipality of Deçan / Dečane, District of Gjakova, 51000, Kosovo",
        "road": "Haki Balaj",
        "house_number": "211",
        "neighbourhood": null,
        "suburb": null,
        "city_district": null,
        "city": "Prilep",
        "state": null,
        "postcode": "51000",
        "country": "Kosovo",
        "country_code": "xk"
      },
      "address": "211, Haki Balaj, Prilep, Municipality of Deçan / Dečane, District of Gjakova, 51000, Kosovo"
    },
    {
      "lat": 42.50859286706488,
      "lon": 20.279066419530395,
      "geoinfo": {
        "display_name": "Sllup, Municipality of Deçan / Dečane, District of Gjakova, 51000, Kosovo",
        "road": null,
        "house_number": null,
        "neighbourhood": null,
        "suburb": null,
        "city_district": null,
        "city": "Sllup",
        "state": null,
        "postcode": "51000",
        "country": "Kosovo",
        "country_code": "xk"
      },
      "address": "731, Sllup, Municipality of Deçan / Dečane, District of Gjakova, 51000, Kosovo"
    },
    {
      "lat": 42.56675398497536,
      "lon": 20.277628023970546,
      "geoinfo": {
        "display_name": "Lëbushë, Municipality of Deçan / Dečane, District of Gjakova, 51000, Kosovo",
        "road": null,
        "house_number": null,
        "neighbourhood": null,
        "suburb": null,
        "city_district": null,
        "city": "Lëbushë",
        "state": null,
        "postcode": "51000",
        "country": "Kosovo",
        "country_code": "xk"
      },
      "address": "199, Lëbushë, Municipality of Deçan / Dečane, District of Gjakova, 51000, Kosovo"
    },
    {
      "lat": 42.545757249679184,
      "lon": 20.320150221307035,
      "geoinfo": {
        "display_name": "Sadik H. Tetaj, Llukë e Ulët, Municipality of Deçan / Dečane, District of Gjakova, 51000, Kosovo",
        "road": "Sadik H. Tetaj",
        "house_number": null,
        "neighbourhood": null,
        "suburb": null,
        "city_district": null,
        "city": "Llukë e Ulët",
        "state": null,
        "postcode": "51000",
        "country": "Kosovo",
        "country_code": "xk"
      },
      "address": "701, Sadik H. Tetaj, Llukë e Ulët, Municipality of Deçan / Dečane, District of Gjakova, 51000, Kosovo"
    },
    {
      "lat": 42.55729032867442,
      "lon": 20.308990312603765,
      "geoinfo": {
        "display_name": "67, Skender Rexhahmetaj, Isniq, Municipality of Deçan / Dečane, District of Gjakova, 51000, Kosovo",
        "road": "Skender Rexhahmetaj",
        "house_number": "67",
        "neighbourhood": null,
        "suburb": null,
        "city_district": null,
        "city": "Isniq",
        "state": null,
        "postcode": "51000",
        "country": "Kosovo",
        "country_code": "xk"
      },
      "address": "67, Skender Rexhahmetaj, Isniq, Municipality of Deçan / Dečane, District of Gjakova, 51000, Kosovo"
    },
    {
      "lat": 42.58386959362831,
      "lon": 20.28080125991769,
      "geoinfo": {
        "display_name": "Strellc i Epërm, Municipality of Deçan / Dečane, District of Gjakova, 51000, Kosovo",
        "road": null,
        "house_number": null,
        "neighbourhood": null,
        "suburb": null,
        "city_district": null,
        "city": "Strellc i Epërm",
        "state": null,
        "postcode": "51000",
        "country": "Kosovo",
        "country_code": "xk"
      },
      "address": "775, Strellc i Epërm, Municipality of Deçan / Dečane, District of Gjakova, 51000, Kosovo"
    }
  ],
  "updated_at": "2025-10-19T05:22:24.807348+00:00",
  "_kind": "geo_samples"
}