{
  "country_code": "XK",
  "country": "Kosovo",
  "city": "Ferizaj",
  "geonameid": 784759,
  "target_addresses": 5,
  "samples": [
    {
      "lat": 42.414287817695396,
      "lon": 21.160360295887124,
      "geoinfo": {
        "display_name": "200, Biba, Prelez i Jerlive, Municipality of Ferizaj, District of Ferizaj, 70510, Kosovo",
        "road": "Biba",
        "house_number": "200",
        "neighbourhood": null,
        "suburb": null,
        "city_district": null,
        "city": "Prelez i Jerlive",
        "state": null,
        "postcode": "70510",
        "country": "Kosovo",
        "country_code": "xk"
      },
      "address": "200 Biba, Ferizaj, Kosovo"
    },
    {
      "lat": 42.37089117065973,
      "lon": 21.18645167289797,
      "geoinfo": {
        "display_name": "Sabri Salihu, Ferizaj, Municipality of Ferizaj, District of Ferizaj, 70000, Kosovo",
        "road": "Sabri Salihu",
        "house_number": null,
        "neighbourhood": null,
        "suburb": null,
        "city_district": null,
        "city": "Ferizaj",
        "state": null,
        "postcode": "70000",
        "country": "Kosovo",
        "country_code": "xk"
      },
      "address": "Sabri Salihu, Ferizaj, Kosovo"
    },
    {
      "lat": 42.35991239745393,
      "lon": 21.111112913333105,
      "geoinfo": {
        "display_name": "Manastircë, Municipality of Ferizaj, District of Ferizaj, 27000, Kosovo",
        "road": null,
        "house_number": null,
        "neighbourhood": null,
        "suburb": null,
        "city_district": null,
        "city": "Manastircë",
        "state": null,
        "postcode": "27000",
        "country": "Kosovo",
        "country_code": "xk"
      },
      "address": "Ferizaj, Kosovo"
    },
    {
      "lat": 42.391679793480286,
      "lon": 21.11692971077831,
      "geoinfo": {
        "display_name": "Muharrem Meha, Lloshkobare, Municipality of Ferizaj, District of Ferizaj, 27000, Kosovo",
        "road": "Muharrem Meha",
        "house_number": null,
        "neighbourhood": null,
        "suburb": null,
        "city_district": null,
        "city": "Lloshkobare",
        "state": null,
        "postcode": "27000",
        "country": "Kosovo",
        "country_code": "xk"
      },
      "address": "Muharrem Meha, Ferizaj, Kosovo"
    },
    {
      "lat": 42.356890316797795,
      "lon": 21.120794504195302,
      "geoinfo": {
        "display_name": "138, Lumi Thatë, Varosht, Manastircë, Municipality of Ferizaj, District of Ferizaj, 70520, Kosovo",
        "road": "Lumi Thatë",
        "house_number": "138",
        "neighbourhood": null,
        "suburb": "Varosht",
        "city_district": null,
        "city": "Manastircë",
        "state": null,
        "postcode": "70520",
        "country": "Kosovo",
        "country_code": "xk"
      },
      "address": "138 Lumi Thatë, Ferizaj, Kosovo"
    },
    {
      "lat": 42.37754535109035,
      "lon": 21.202257752382973,
      "geoinfo": {
        "display_name": "Arbën Xhaferi, Bibaj, Municipality of Ferizaj, District of Ferizaj, 70510, Kosovo",
        "road": "Arbën Xhaferi",
        "house_number": null,
        "neighbourhood": null,
        "suburb": null,
        "city_district": null,
        "city": "Bibaj",
        "state": null,
        "postcode": "70510",
        "country": "Kosovo",
        "country_code": "xk"
      },
      "address": "870, Arbën Xhaferi, Bibaj, Municipality of Ferizaj, District of Ferizaj, 70510, Kosovo"
    },
    {
      "lat": 42.39856498673061,
      "lon": 21.120366079176442,
      "geoinfo": {
        "display_name": "15, Pavarësia, Lloshkobare, Municipality of Ferizaj, District of Ferizaj, 27000, Kosovo",
        "road": "Pavarësia",
        "house_number": "15",
        "neighbourhood": null,
        "suburb": null,
        "city_district": null,
        "city": "Lloshkobare",
        "state": null,
        "postcode": "27000",
        "country": "Kosovo",
        "country_code": "xk"
      },
      "address": "15, Pavarësia, Lloshkobare, Municipality of Ferizaj, District of Ferizaj, 27000, Kosovo"
    },
    {
      "lat": 42.37971827528067,
      "lon": 21.11069224966724,
      "geoinfo": {
        "display_name": "104, UÇK, Balaj, Municipality of Ferizaj, District of Ferizaj, 27000, Kosovo",
        "road": "UÇK",
        "house_number": "104",
        "neighbourhood": null,
        "suburb": null,
        "city_district": null,
        "city": "Balaj",
        "state": null,
        "postcode": "27000",
        "country": "Kosovo",
        "country_code": "xk"
      },
      "address": "104, UÇK, Balaj, Municipality of Ferizaj, District of Ferizaj, 27000, Kosovo"
    },
    {
      "lat": 42.334908207491004,
      "lon": 21.173456186230254,
      "geoinfo": {
        "display_name": "119, Kroni i Fshatit, Varosh, Municipality of Ferizaj, District of Ferizaj, 70520, Kosovo",
        "road": "Kroni i Fshatit",
        "house_number": "119",
        "neighbourhood": null,
        "suburb": null,
        "city_district": null,
        "city": "Varosh",
        "state": null,
        "postcode": "70520",
        "country": "Kosovo",
        "country_code": "xk"
      },
      "address": "119, Kroni i Fshatit, Varosh, Municipality of Ferizaj, District of Ferizaj, 70520, Kosovo"
    },
    {
      "lat": 42.37575934358257,
      "lon": 21.14240857779184,
      "geoinfo": {
        "display_name": "20, Brahim Ademi, Varosht, Ferizaj, Municipality of Ferizaj, District of Ferizaj, 27000, Kosovo",
        "road": "Brahim Ademi",
        "house_number": "20",
        "neighbourhood": null,
        "suburb": "Varosht",
        "city_district": null,
        "city": "Ferizaj",
        "state": null,
        "postcode": "27000",
        "country": "Kosovo",
        "country_code": "xk"
      },
      "address": "20, Brahim Ademi, Varosht, Ferizaj, Municipality of Ferizaj, District of Ferizaj, 27000, Kosovo"
    }
  ],
  "updated_at": "2025-10-19T05:44:08.530202+00:00",
  "_kind": "geo_samples"
}