{
  "country_code": "XK",
  "country": "Kosovo",
  "city": "Glogovac",
  "geonameid": 790701,
  "target_addresses": 5,
  "samples": [
    {
      "lat": 42.640710390377194,
      "lon": 20.888762373559956,
      "geoinfo": {
        "display_name": "Bilall Salih Heta, Çikatovë e Re, Municipality of Drenas / Glogovac, District of Prishtina, 13000, Kosovo",
        "road": "Bilall Salih Heta",
        "house_number": null,
        "neighbourhood": null,
        "suburb": null,
        "city_district": null,
        "city": "Municipality of Drenas / Glogovac",
        "state": null,
        "postcode": "13000",
        "country": "Kosovo",
        "country_code": "xk"
      },
      "address": "Bilall Salih Heta, Glogovac, Kosovo"
    },
    {
      "lat": 42.59439355415069,
      "lon": 20.882450178219152,
      "geoinfo": {
        "display_name": "155, Sokol Brahimi, Zabel i Ulët, Municipality of Drenas / Glogovac, District of Prishtina, 13000, Kosovo",
        "road": "Sokol Brahimi",
        "house_number": "155",
        "neighbourhood": null,
        "suburb": null,
        "city_district": null,
        "city": "Municipality of Drenas / Glogovac",
        "state": null,
        "postcode": "13000",
        "country": "Kosovo",
        "country_code": "xk"
      },
      "address": "155 Sokol Brahimi, Glogovac, Kosovo"
    },
    {
      "lat": 42.59418519683944,
      "lon": 20.891429428032534,
      "geoinfo": {
        "display_name": "394, Bejte Rexhepi, Zabel i Ulët, Municipality of Drenas / Glogovac, District of Prishtina, 13000, Kosovo",
        "road": "Bejte Rexhepi",
        "house_number": "394",
        "neighbourhood": null,
        "suburb": null,
        "city_district": null,
        "city": "Municipality of Drenas / Glogovac",
        "state": null,
        "postcode": "13000",
        "country": "Kosovo",
        "country_code": "xk"
      },
      "address": "394 Bejte Rexhepi, Glogovac, Kosovo"
    },
    {
      "lat": 42.617306534029325,
      "lon": 20.917566672840017,
      "geoinfo": {
        "display_name": "Sadri Muqolli, Lagjja e Feronikelit, Poklek, Municipality of Drenas / Glogovac, District of Prishtina, 13000, Kosovo",
        "road": "Sadri Muqolli",
        "house_number": null,
        "neighbourhood": null,
        "suburb": "Lagjja e Feronikelit",
        "city_district": null,
        "city": "Municipality of Drenas / Glogovac",
        "state": null,
        "postcode": "13000",
        "country": "Kosovo",
        "country_code": "xk"
      },
      "address": "Sadri Muqolli, Glogovac, Kosovo"
    },
    {
      "lat": 42.624372514059104,
      "lon": 20.907411350469385,
      "geoinfo": {
        "display_name": "Lagjja e Feronikelit, Poklek, Municipality of Drenas / Glogovac, District of Prishtina, 13000, Kosovo",
        "road": null,
        "house_number": null,
        "neighbourhood": null,
        "suburb": "Lagjja e Feronikelit",
        "city_district": null,
        "city": "Municipality of Drenas / Glogovac",
        "state": null,
        "postcode": "13000",
        "country": "Kosovo",
        "country_code": "xk"
      },
      "address": "Lagjja e Feronikelit, Glogovac, Kosovo"
    }
  ],
  "updated_at": "2025-10-16T18:13:35.741414+00:00",
  "_kind": "geo_samples"
}