{
  "country_code": "XK",
  "country": "Kosovo",
  "city": "Leposaviq",
  "geonameid": 788731,
  "target_addresses": 5,
  "samples": [
    {
      "lat": 43.06207600876711,
      "lon": 20.78904749381789,
      "geoinfo": {
        "display_name": "Ивање, Jošanica, Municipality of Leposavić, District of Mitrovica, 38218, Kosovo",
        "road": null,
        "house_number": null,
        "neighbourhood": null,
        "suburb": null,
        "city_district": null,
        "city": "Jošanica",
        "state": null,
        "postcode": "38218",
        "country": "Kosovo",
        "country_code": "xk"
      },
      "address": "Leposaviq, Kosovo"
    },
    {
      "lat": 43.119558451185014,
      "lon": 20.790912325333743,
      "geoinfo": {
        "display_name": "Mihajlo Pupin, Leposavić, Municipality of Leposavić, District of Mitrovica, 38218, Kosovo",
        "road": "Mihajlo Pupin",
        "house_number": null,
        "neighbourhood": null,
        "suburb": null,
        "city_district": null,
        "city": "Leposavić",
        "state": null,
        "postcode": "38218",
        "country": "Kosovo",
        "country_code": "xk"
      },
      "address": "Mihajlo Pupin, Leposaviq, Kosovo"
    },
    {
      "lat": 43.11164485834066,
      "lon": 20.812887727615294,
      "geoinfo": {
        "display_name": "Sveta Petka, Ulije, Municipality of Leposavić, District of Mitrovica, 43500, Kosovo",
        "road": "Sveta Petka",
        "house_number": null,
        "neighbourhood": null,
        "suburb": null,
        "city_district": null,
        "city": "Ulije",
        "state": null,
        "postcode": "43500",
        "country": "Kosovo",
        "country_code": "xk"
      },
      "address": "Sveta Petka, Leposaviq, Kosovo"
    }
  ],
  "updated_at": "2025-10-16T18:13:15.729829+00:00",
  "_kind": "geo_samples"
}