{
  "country_code": "XK",
  "country": "Kosovo",
  "city": "Orahovac",
  "geonameid": 787456,
  "target_addresses": 5,
  "samples": [
    {
      "lat": 42.42449268413855,
      "lon": 20.613601325817026,
      "geoinfo": {
        "display_name": "Demokracis, Nushpal, Municipality of Orahovac, District of Gjakova, 21000, Kosovo",
        "road": "Demokracis",
        "house_number": null,
        "neighbourhood": null,
        "suburb": null,
        "city_district": null,
        "city": "Nushpal",
        "state": null,
        "postcode": "21000",
        "country": "Kosovo",
        "country_code": "xk"
      },
      "address": "Demokracis, Orahovac, Kosovo"
    },
    {
      "lat": 42.422500537880225,
      "lon": 20.666224248618665,
      "geoinfo": {
        "display_name": "Rahovec, Municipality of Orahovac, District of Gjakova, 21010, Kosovo",
        "road": null,
        "house_number": null,
        "neighbourhood": null,
        "suburb": null,
        "city_district": null,
        "city": "Rahovec",
        "state": null,
        "postcode": "21010",
        "country": "Kosovo",
        "country_code": "xk"
      },
      "address": "Orahovac, Kosovo"
    },
    {
      "lat": 42.355864219708316,
      "lon": 20.654912867920636,
      "geoinfo": {
        "display_name": "30, Baba Ibrahim, Hoçë e Vogël, Municipality of Orahovac, District of Gjakova, 21080, Kosovo",
        "road": "Baba Ibrahim",
        "house_number": "30",
        "neighbourhood": null,
        "suburb": null,
        "city_district": null,
        "city": "Hoçë e Vogël",
        "state": null,
        "postcode": "21080",
        "country": "Kosovo",
        "country_code": "xk"
      },
      "address": "30 Baba Ibrahim, Orahovac, Kosovo"
    },
    {
      "lat": 42.38183119972604,
      "lon": 20.689329681240185,
      "geoinfo": {
        "display_name": "Rezistenca, Brestoc, Municipality of Orahovac, District of Gjakova, Kosovo",
        "road": "Rezistenca",
        "house_number": null,
        "neighbourhood": null,
        "suburb": null,
        "city_district": null,
        "city": "Brestoc",
        "state": null,
        "postcode": null,
        "country": "Kosovo",
        "country_code": "xk"
      },
      "address": "Rezistenca, Orahovac, Kosovo"
    },
    {
      "lat": 42.38474340646348,
      "lon": 20.613507636048773,
      "geoinfo": {
        "display_name": "Bylbyl Shehu, Bërnjak, Municipality of Orahovac, District of Gjakova, 21010, Kosovo",
        "road": "Bylbyl Shehu",
        "house_number": null,
        "neighbourhood": null,
        "suburb": null,
        "city_district": null,
        "city": "Bërnjak",
        "state": null,
        "postcode": "21010",
        "country": "Kosovo",
        "country_code": "xk"
      },
      "address": "Bylbyl Shehu, Orahovac, Kosovo"
    },
    {
      "lat": 42.40124579490509,
      "lon": 20.655421873068708,
      "geoinfo": {
        "display_name": "57, Selajdin Mullabazi, Rahovec, Municipality of Orahovac, District of Gjakova, 21010, Kosovo",
        "road": "Selajdin Mullabazi",
        "house_number": "57",
        "neighbourhood": null,
        "suburb": null,
        "city_district": null,
        "city": "Rahovec",
        "state": null,
        "postcode": "21010",
        "country": "Kosovo",
        "country_code": "xk"
      },
      "address": "57, Selajdin Mullabazi, Rahovec, Municipality of Orahovac, District of Gjakova, 21010, Kosovo"
    },
    {
      "lat": 42.405275819282245,
      "lon": 20.688338794527407,
      "geoinfo": {
        "display_name": "Shkozë, Rahovec, Municipality of Orahovac, District of Gjakova, 21010, Kosovo",
        "road": "Shkozë",
        "house_number": null,
        "neighbourhood": null,
        "suburb": null,
        "city_district": null,
        "city": "Rahovec",
        "state": null,
        "postcode": "21010",
        "country": "Kosovo",
        "country_code": "xk"
      },
      "address": "384, Shkozë, Rahovec, Municipality of Orahovac, District of Gjakova, 21010, Kosovo"
    },
    {
      "lat": 42.40871603801802,
      "lon": 20.672024578513305,
      "geoinfo": {
        "display_name": "RT-2, Rahovec, Municipality of Orahovac, District of Gjakova, 21010, Kosovo",
        "road": "RT-2",
        "house_number": null,
        "neighbourhood": null,
        "suburb": null,
        "city_district": null,
        "city": "Rahovec",
        "state": null,
        "postcode": "21010",
        "country": "Kosovo",
        "country_code": "xk"
      },
      "address": "RT-2, Rahovec, Municipality of Orahovac, District of Gjakova, 21010, Kosovo"
    },
    {
      "lat": 42.364130959931046,
      "lon": 20.66925750109169,
      "geoinfo": {
        "display_name": "Xhemajli Shabani, Brestoc, Municipality of Orahovac, District of Gjakova, 21010, Kosovo",
        "road": "Xhemajli Shabani",
        "house_number": null,
        "neighbourhood": null,
        "suburb": null,
        "city_district": null,
        "city": "Brestoc",
        "state": null,
        "postcode": "21010",
        "country": "Kosovo",
        "country_code": "xk"
      },
      "address": "115, Xhemajli Shabani, Brestoc, Municipality of Orahovac, District of Gjakova, 21010, Kosovo"
    },
    {
      "lat": 42.3749056978943,
      "lon": 20.67820688997464,
      "geoinfo": {
        "display_name": "Dejan Vecevic, Hoçë e Madhe - Velika Hoča, Municipality of Orahovac, District of Gjakova, 21010, Kosovo",
        "road": "Dejan Vecevic",
        "house_number": null,
        "neighbourhood": null,
        "suburb": null,
        "city_district": null,
        "city": "Hoçë e Madhe - Velika Hoča",
        "state": null,
        "postcode": "21010",
        "country": "Kosovo",
        "country_code": "xk"
      },
      "address": "772, Dejan Vecevic, Hoçë e Madhe - Velika Hoča, Municipality of Orahovac, District of Gjakova, 21010, Kosovo"
    }
  ],
  "updated_at": "2025-10-19T05:37:03.451765+00:00",
  "_kind": "geo_samples"
}