{
  "country_code": "XK",
  "country": "Kosovo",
  "city": "Pejë",
  "geonameid": 787157,
  "target_addresses": 5,
  "samples": [
    {
      "lat": 42.696662303143384,
      "lon": 20.266698159566737,
      "geoinfo": {
        "display_name": "Osojë, Dushkajë, Municipality of Peja, District of Peja, 30000, Kosovo",
        "road": null,
        "house_number": null,
        "neighbourhood": null,
        "suburb": null,
        "city_district": null,
        "city": "Dushkajë",
        "state": null,
        "postcode": "30000",
        "country": "Kosovo",
        "country_code": "xk"
      },
      "address": "Pejë, Kosovo"
    },
    {
      "lat": 42.66038120676043,
      "lon": 20.349155126415745,
      "geoinfo": {
        "display_name": "Halim Beshko, Bllagajë, Municipality of Peja, District of Peja, Kosovo",
        "road": "Halim Beshko",
        "house_number": null,
        "neighbourhood": null,
        "suburb": null,
        "city_district": null,
        "city": "Bllagajë",
        "state": null,
        "postcode": null,
        "country": "Kosovo",
        "country_code": "xk"
      },
      "address": "Halim Beshko, Pejë, Kosovo"
    },
    {
      "lat": 42.666739565904955,
      "lon": 20.32496903231951,
      "geoinfo": {
        "display_name": "Vëllezërit Kastrati, Kristal, Peja, Municipality of Peja, District of Peja, 39000, Kosovo",
        "road": "Vëllezërit Kastrati",
        "house_number": null,
        "neighbourhood": null,
        "suburb": "Kristal",
        "city_district": null,
        "city": "Peja",
        "state": null,
        "postcode": "39000",
        "country": "Kosovo",
        "country_code": "xk"
      },
      "address": "Vëllezërit Kastrati, Pejë, Kosovo"
    },
    {
      "lat": 42.68784861046287,
      "lon": 20.278784098434674,
      "geoinfo": {
        "display_name": "Peklena, Breg i Zi, Dushkajë, Municipality of Peja, District of Peja, 30000, Kosovo",
        "road": "Peklena",
        "house_number": null,
        "neighbourhood": null,
        "suburb": null,
        "city_district": null,
        "city": "Dushkajë",
        "state": null,
        "postcode": "30000",
        "country": "Kosovo",
        "country_code": "xk"
      },
      "address": "Peklena, Pejë, Kosovo"
    },
    {
      "lat": 42.69196955297841,
      "lon": 20.286831042816587,
      "geoinfo": {
        "display_name": "Rizë Zymeri, Brestovik, Municipality of Peja, District of Peja, 30000, Kosovo",
        "road": "Rizë Zymeri",
        "house_number": null,
        "neighbourhood": null,
        "suburb": null,
        "city_district": null,
        "city": "Brestovik",
        "state": null,
        "postcode": "30000",
        "country": "Kosovo",
        "country_code": "xk"
      },
      "address": "Rizë Zymeri, Pejë, Kosovo"
    },
    {
      "lat": 42.66503035466606,
      "lon": 20.3159346367329,
      "geoinfo": {
        "display_name": "Jeton Dedushaj, Kristal, Peja, Municipality of Peja, District of Peja, 39000, Kosovo",
        "road": "Jeton Dedushaj",
        "house_number": null,
        "neighbourhood": null,
        "suburb": "Kristal",
        "city_district": null,
        "city": "Peja",
        "state": null,
        "postcode": "39000",
        "country": "Kosovo",
        "country_code": "xk"
      },
      "address": "304, Jeton Dedushaj, 39000 Pejë, Kosovo"
    },
    {
      "lat": 42.656064185481945,
      "lon": 20.26445472580953,
      "geoinfo": {
        "display_name": "Rruga e Kishes, Puhovci, Peja, Municipality of Peja, District of Peja, 30000, Kosovo",
        "road": "Rruga e Kishes",
        "house_number": null,
        "neighbourhood": null,
        "suburb": "Puhovci",
        "city_district": null,
        "city": "Peja",
        "state": null,
        "postcode": "30000",
        "country": "Kosovo",
        "country_code": "xk"
      },
      "address": "073, Rruga e Kishes, Puhovci, Peja, Municipality of Peja, District of Peja, 30000, Kosovo"
    },
    {
      "lat": 42.64094469506298,
      "lon": 20.344042642833017,
      "geoinfo": {
        "display_name": "Hida Halimi, Dardania, Brezhanik, Municipality of Peja, District of Peja, 39000, Kosovo",
        "road": "Hida Halimi",
        "house_number": null,
        "neighbourhood": null,
        "suburb": "Dardania",
        "city_district": null,
        "city": "Brezhanik",
        "state": null,
        "postcode": "39000",
        "country": "Kosovo",
        "country_code": "xk"
      },
      "address": "338, Hida Halimi, 39000 Pejë, Kosovo"
    },
    {
      "lat": 42.65563326176736,
      "lon": 20.3024090023726,
      "geoinfo": {
        "display_name": "Agush Gjoci, Dardania, Peja, Municipality of Peja, District of Peja, 39000, Kosovo",
        "road": "Agush Gjoci",
        "house_number": null,
        "neighbourhood": null,
        "suburb": "Dardania",
        "city_district": null,
        "city": "Peja",
        "state": null,
        "postcode": "39000",
        "country": "Kosovo",
        "country_code": "xk"
      },
      "address": "693, Agush Gjoci, 39000 Pejë, Kosovo"
    },
    {
      "lat": 42.649911634049865,
      "lon": 20.289505418900767,
      "geoinfo": {
        "display_name": "Sali Bajraktari, Karagaç, Peja, Municipality of Peja, District of Peja, 39000, Kosovo",
        "road": "Sali Bajraktari",
        "house_number": null,
        "neighbourhood": null,
        "suburb": "Karagaç",
        "city_district": null,
        "city": "Peja",
        "state": null,
        "postcode": "39000",
        "country": "Kosovo",
        "country_code": "xk"
      },
      "address": "875, Sali Bajraktari, 39000 Pejë, Kosovo"
    }
  ],
  "updated_at": "2025-10-19T07:56:05.515864+00:00",
  "_kind": "geo_samples"
}