{
  "country_code": "XK",
  "country": "Kosovo",
  "city": "Podujeva",
  "geonameid": 786950,
  "target_addresses": 26,
  "samples": [
    {
      "lat": 42.921763052597186,
      "lon": 21.226911010478418,
      "geoinfo": {
        "display_name": "26, Rrustem Hasani, Livadicë, Municipality of Podujeva / Podujevo, District of Prishtina, Kosovo",
        "road": "Rrustem Hasani",
        "house_number": "26",
        "neighbourhood": null,
        "suburb": null,
        "city_district": null,
        "city": "Livadicë",
        "state": null,
        "postcode": null,
        "country": "Kosovo",
        "country_code": "xk"
      },
      "address": "26 Rrustem Hasani, Podujeva, Kosovo"
    },
    {
      "lat": 42.87722168094395,
      "lon": 21.20035255422985,
      "geoinfo": {
        "display_name": "Avdyl Ejupi, Sekiraqë, Podujevë, Municipality of Podujeva / Podujevo, District of Prishtina, 11000, Kosovo",
        "road": "Avdyl Ejupi",
        "house_number": null,
        "neighbourhood": null,
        "suburb": "Sekiraqë",
        "city_district": null,
        "city": "Podujevë",
        "state": null,
        "postcode": "11000",
        "country": "Kosovo",
        "country_code": "xk"
      },
      "address": "Avdyl Ejupi, Podujeva, Kosovo"
    },
    {
      "lat": 42.95307585528077,
      "lon": 21.179399010301584,
      "geoinfo": {
        "display_name": "Xhafer Kosumi, Lagjja Gjata, Podujevë, Municipality of Podujeva / Podujevo, District of Prishtina, 11000, Kosovo",
        "road": "Xhafer Kosumi",
        "house_number": null,
        "neighbourhood": "Lagjja Gjata",
        "suburb": null,
        "city_district": null,
        "city": "Podujevë",
        "state": null,
        "postcode": "11000",
        "country": "Kosovo",
        "country_code": "xk"
      },
      "address": "Xhafer Kosumi, Podujeva, Kosovo"
    },
    {
      "lat": 42.901585964816405,
      "lon": 21.19114644982955,
      "geoinfo": {
        "display_name": "10, Elbasani, Lagjja e Blakçorëve, Qendra I, Podujevë, Municipality of Podujeva / Podujevo, District of Prishtina, 11000, Kosovo",
        "road": "Elbasani",
        "house_number": "10",
        "neighbourhood": "Lagjja e Blakçorëve",
        "suburb": "Qendra I",
        "city_district": null,
        "city": "Podujevë",
        "state": null,
        "postcode": "11000",
        "country": "Kosovo",
        "country_code": "xk"
      },
      "address": "10 Elbasani, Podujeva, Kosovo"
    },
    {
      "lat": 42.92344995413706,
      "lon": 21.209530554444537,
      "geoinfo": {
        "display_name": "41, Troja, Qendra I, Podujevë, Municipality of Podujeva / Podujevo, District of Prishtina, 11000, Kosovo",
        "road": "Troja",
        "house_number": "41",
        "neighbourhood": null,
        "suburb": "Qendra I",
        "city_district": null,
        "city": "Podujevë",
        "state": null,
        "postcode": "11000",
        "country": "Kosovo",
        "country_code": "xk"
      },
      "address": "41 Troja, Podujeva, Kosovo"
    },
    {
      "lat": 42.93399753350017,
      "lon": 21.236769921032856,
      "geoinfo": {
        "display_name": "1186, Gryka e Llapit, Mercezi, Livadicë, Municipality of Podujeva / Podujevo, District of Prishtina, Kosovo",
        "road": "Gryka e Llapit",
        "house_number": "1186",
        "neighbourhood": null,
        "suburb": "Mercezi",
        "city_district": null,
        "city": "Livadicë",
        "state": null,
        "postcode": null,
        "country": "Kosovo",
        "country_code": "xk"
      },
      "address": "1186, Gryka e Llapit, Mercezi, Livadicë, Municipality of Podujeva / Podujevo, District of Prishtina, Kosovo"
    },
    {
      "lat": 42.93928980650428,
      "lon": 21.193761252169274,
      "geoinfo": {
        "display_name": "Lugu i Madhë, Podujevë, Municipality of Podujeva / Podujevo, District of Prishtina, 11000, Kosovo",
        "road": "Lugu i Madhë",
        "house_number": null,
        "neighbourhood": null,
        "suburb": null,
        "city_district": null,
        "city": "Podujevë",
        "state": null,
        "postcode": "11000",
        "country": "Kosovo",
        "country_code": "xk"
      },
      "address": "Lugu i Madhë, Podujevë, Municipality of Podujeva / Podujevo, District of Prishtina, 11000, Kosovo"
    },
    {
      "lat": 42.911144242541944,
      "lon": 21.1693185479002,
      "geoinfo": {
        "display_name": "52, Selim Obrança, Obrançë, Municipality of Podujeva / Podujevo, District of Prishtina, Kosovo",
        "road": "Selim Obrança",
        "house_number": "52",
        "neighbourhood": null,
        "suburb": null,
        "city_district": null,
        "city": "Obrançë",
        "state": null,
        "postcode": null,
        "country": "Kosovo",
        "country_code": "xk"
      },
      "address": "52, Selim Obrança, Obrançë, Municipality of Podujeva / Podujevo, 40560 District of Prishtina, Kosovo"
    },
    {
      "lat": 42.87414242176961,
      "lon": 21.160069252507157,
      "geoinfo": {
        "display_name": "Shotorri, Podujevë, Municipality of Podujeva / Podujevo, District of Prishtina, 11000, Kosovo",
        "road": "Shotorri",
        "house_number": null,
        "neighbourhood": null,
        "suburb": null,
        "city_district": null,
        "city": "Podujevë",
        "state": null,
        "postcode": "11000",
        "country": "Kosovo",
        "country_code": "xk"
      },
      "address": "435, Shotorri, Podujevë, Municipality of Podujeva / Podujevo, District of Prishtina, 11000, Kosovo"
    },
    {
      "lat": 42.933633958797294,
      "lon": 21.23239125267768,
      "geoinfo": {
        "display_name": "28, Bajram A. Behluli, Merdar, Municipality of Podujeva / Podujevo, District of Prishtina, Kosovo",
        "road": "Bajram A. Behluli",
        "house_number": "28",
        "neighbourhood": null,
        "suburb": null,
        "city_district": null,
        "city": "Merdar",
        "state": null,
        "postcode": null,
        "country": "Kosovo",
        "country_code": "xk"
      },
      "address": "28, Bajram A. Behluli, Merdar, Municipality of Podujeva / Podujevo, 19991 District of Prishtina, Kosovo"
    },
    {
      "lat": 42.889259427184044,
      "lon": 21.202154603204526,
      "geoinfo": {
        "display_name": "11, Shefki R. Llugaliu, Breznicë, Surkish, Municipality of Podujeva / Podujevo, District of Prishtina, 11000, Kosovo",
        "road": "Shefki R. Llugaliu",
        "house_number": "11",
        "neighbourhood": null,
        "suburb": "Breznicë",
        "city_district": null,
        "city": "Surkish",
        "state": null,
        "postcode": "11000",
        "country": "Kosovo",
        "country_code": "xk"
      },
      "address": "11, Shefki R. Llugaliu, Breznicë, Surkish, Municipality of Podujeva / Podujevo, District of Prishtina, 11000, Kosovo"
    },
    {
      "lat": 42.92792162606637,
      "lon": 21.214919912492082,
      "geoinfo": {
        "display_name": "6, Ukë Tovërlani, Podujevë, Municipality of Podujeva / Podujevo, District of Prishtina, 11000, Kosovo",
        "road": "Ukë Tovërlani",
        "house_number": "6",
        "neighbourhood": null,
        "suburb": null,
        "city_district": null,
        "city": "Podujevë",
        "state": null,
        "postcode": "11000",
        "country": "Kosovo",
        "country_code": "xk"
      },
      "address": "6, Ukë Tovërlani, Podujevë, Municipality of Podujeva / Podujevo, District of Prishtina, 11000, Kosovo"
    },
    {
      "lat": 42.87089595190027,
      "lon": 21.185224914372697,
      "geoinfo": {
        "display_name": "Hamit Obrazhda, Sekiraqë, Gllamnik, Municipality of Podujeva / Podujevo, District of Prishtina, 11000, Kosovo",
        "road": "Hamit Obrazhda",
        "house_number": null,
        "neighbourhood": null,
        "suburb": "Sekiraqë",
        "city_district": null,
        "city": "Gllamnik",
        "state": null,
        "postcode": "11000",
        "country": "Kosovo",
        "country_code": "xk"
      },
      "address": "770, Hamit Obrazhda, Sekiraqë, Gllamnik, Municipality of Podujeva / Podujevo, District of Prishtina, 11000, Kosovo"
    },
    {
      "lat": 42.94138945707858,
      "lon": 21.217456057649272,
      "geoinfo": {
        "display_name": "Sahit Shabani, Podujevë, Municipality of Podujeva / Podujevo, District of Prishtina, 11000, Kosovo",
        "road": "Sahit Shabani",
        "house_number": null,
        "neighbourhood": null,
        "suburb": null,
        "city_district": null,
        "city": "Podujevë",
        "state": null,
        "postcode": "11000",
        "country": "Kosovo",
        "country_code": "xk"
      },
      "address": "344, Sahit Shabani, Podujevë, Municipality of Podujeva / Podujevo, District of Prishtina, 11000, Kosovo"
    },
    {
      "lat": 42.92416670324462,
      "lon": 21.167681838999812,
      "geoinfo": {
        "display_name": "69, Ismet Beqiri, Peran, Municipality of Podujeva / Podujevo, District of Prishtina, Kosovo",
        "road": "Ismet Beqiri",
        "house_number": "69",
        "neighbourhood": null,
        "suburb": null,
        "city_district": null,
        "city": "Peran",
        "state": null,
        "postcode": null,
        "country": "Kosovo",
        "country_code": "xk"
      },
      "address": "69, Ismet Beqiri, Peran, Municipality of Podujeva / Podujevo, 57827 District of Prishtina, Kosovo"
    },
    {
      "lat": 42.93781591538088,
      "lon": 21.206522689938076,
      "geoinfo": {
        "display_name": "19, Sylejman Dabinovci, Podujevë, Municipality of Podujeva / Podujevo, District of Prishtina, 11000, Kosovo",
        "road": "Sylejman Dabinovci",
        "house_number": "19",
        "neighbourhood": null,
        "suburb": null,
        "city_district": null,
        "city": "Podujevë",
        "state": null,
        "postcode": "11000",
        "country": "Kosovo",
        "country_code": "xk"
      },
      "address": "19, Sylejman Dabinovci, Podujevë, Municipality of Podujeva / Podujevo, District of Prishtina, 11000, Kosovo"
    },
    {
      "lat": 42.91809046700816,
      "lon": 21.19775118328055,
      "geoinfo": {
        "display_name": "47, Eset Maloku, Lagjja e Brecalive, Qendra I, Podujevë, Municipality of Podujeva / Podujevo, District of Prishtina, 11000, Kosovo",
        "road": "Eset Maloku",
        "house_number": "47",
        "neighbourhood": "Lagjja e Brecalive",
        "suburb": "Qendra I",
        "city_district": null,
        "city": "Podujevë",
        "state": null,
        "postcode": "11000",
        "country": "Kosovo",
        "country_code": "xk"
      },
      "address": "47, Eset Maloku, Lagjja e Brecalive, Qendra I, Podujevë, Municipality of Podujeva / Podujevo, District of Prishtina, 11000, Kosovo"
    },
    {
      "lat": 42.93748289475096,
      "lon": 21.172748640937744,
      "geoinfo": {
        "display_name": "Podujevë, Municipality of Podujeva / Podujevo, District of Prishtina, 11000, Kosovo",
        "road": null,
        "house_number": null,
        "neighbourhood": null,
        "suburb": null,
        "city_district": null,
        "city": "Podujevë",
        "state": null,
        "postcode": "11000",
        "country": "Kosovo",
        "country_code": "xk"
      },
      "address": "725, Podujevë, Municipality of Podujeva / Podujevo, District of Prishtina, 11000, Kosovo"
    },
    {
      "lat": 42.89280695202057,
      "lon": 21.18009446037867,
      "geoinfo": {
        "display_name": "Qershiat e Llapashticës, Breznicë, Podujevë, Municipality of Podujeva / Podujevo, District of Prishtina, 11000, Kosovo",
        "road": null,
        "house_number": null,
        "neighbourhood": "Qershiat e Llapashticës",
        "suburb": "Breznicë",
        "city_district": null,
        "city": "Podujevë",
        "state": null,
        "postcode": "11000",
        "country": "Kosovo",
        "country_code": "xk"
      },
      "address": "137, Qershiat e Llapashticës, Breznicë, Podujevë, Municipality of Podujeva / Podujevo, District of Prishtina, 11000, Kosovo"
    },
    {
      "lat": 42.93061942684099,
      "lon": 21.205378477448853,
      "geoinfo": {
        "display_name": "141, Dëshmorët, Podujevë, Municipality of Podujeva / Podujevo, District of Prishtina, 11000, Kosovo",
        "road": "Dëshmorët",
        "house_number": "141",
        "neighbourhood": null,
        "suburb": null,
        "city_district": null,
        "city": "Podujevë",
        "state": null,
        "postcode": "11000",
        "country": "Kosovo",
        "country_code": "xk"
      },
      "address": "141, Dëshmorët, Podujevë, Municipality of Podujeva / Podujevo, District of Prishtina, 11000, Kosovo"
    },
    {
      "lat": 42.9130873045088,
      "lon": 21.171559967737455,
      "geoinfo": {
        "display_name": "23, Selim Obrança, Obrançë, Municipality of Podujeva / Podujevo, District of Prishtina, Kosovo",
        "road": "Selim Obrança",
        "house_number": "23",
        "neighbourhood": null,
        "suburb": null,
        "city_district": null,
        "city": "Obrançë",
        "state": null,
        "postcode": null,
        "country": "Kosovo",
        "country_code": "xk"
      },
      "address": "23, Selim Obrança, Obrançë, Municipality of Podujeva / Podujevo, 48387 District of Prishtina, Kosovo"
    },
    {
      "lat": 42.914190848252794,
      "lon": 21.209934895733905,
      "geoinfo": {
        "display_name": "Dibra e Madhe, Mercezi, Shtedim, Municipality of Podujeva / Podujevo, District of Prishtina, 11000, Kosovo",
        "road": "Dibra e Madhe",
        "house_number": null,
        "neighbourhood": null,
        "suburb": "Mercezi",
        "city_district": null,
        "city": "Shtedim",
        "state": null,
        "postcode": "11000",
        "country": "Kosovo",
        "country_code": "xk"
      },
      "address": "277, Dibra e Madhe, Mercezi, Shtedim, Municipality of Podujeva / Podujevo, District of Prishtina, 11000, Kosovo"
    },
    {
      "lat": 42.880755116219284,
      "lon": 21.23189205705519,
      "geoinfo": {
        "display_name": "Isa Seftolli, Balloc, Municipality of Podujeva / Podujevo, District of Prishtina, Kosovo",
        "road": "Isa Seftolli",
        "house_number": null,
        "neighbourhood": null,
        "suburb": null,
        "city_district": null,
        "city": "Balloc",
        "state": null,
        "postcode": null,
        "country": "Kosovo",
        "country_code": "xk"
      },
      "address": "803, Isa Seftolli, Balloc, Municipality of Podujeva / Podujevo, 57645 District of Prishtina, Kosovo"
    },
    {
      "lat": 42.89366429861985,
      "lon": 21.137535240189305,
      "geoinfo": {
        "display_name": "Komanda Zoll, Llapashticë e Epërme, Municipality of Podujeva / Podujevo, District of Prishtina, Kosovo",
        "road": "Komanda Zoll",
        "house_number": null,
        "neighbourhood": null,
        "suburb": null,
        "city_district": null,
        "city": "Llapashticë e Epërme",
        "state": null,
        "postcode": null,
        "country": "Kosovo",
        "country_code": "xk"
      },
      "address": "264, Komanda Zoll, Llapashticë e Epërme, Municipality of Podujeva / Podujevo, 64643 District of Prishtina, Kosovo"
    },
    {
      "lat": 42.93663385282921,
      "lon": 21.15113920097321,
      "geoinfo": {
        "display_name": "Ragip Hoti, Bradash, Municipality of Podujeva / Podujevo, District of Prishtina, Kosovo",
        "road": "Ragip Hoti",
        "house_number": null,
        "neighbourhood": null,
        "suburb": null,
        "city_district": null,
        "city": "Bradash",
        "state": null,
        "postcode": null,
        "country": "Kosovo",
        "country_code": "xk"
      },
      "address": "754, Ragip Hoti, Bradash, Municipality of Podujeva / Podujevo, 22360 District of Prishtina, Kosovo"
    },
    {
      "lat": 42.90423936575496,
      "lon": 21.22190325722146,
      "geoinfo": {
        "display_name": "Fusha e Shtedimit, Mercezi, Shtedim, Municipality of Podujeva / Podujevo, District of Prishtina, 11000, Kosovo",
        "road": "Fusha e Shtedimit",
        "house_number": null,
        "neighbourhood": null,
        "suburb": "Mercezi",
        "city_district": null,
        "city": "Shtedim",
        "state": null,
        "postcode": "11000",
        "country": "Kosovo",
        "country_code": "xk"
      },
      "address": "940, Fusha e Shtedimit, Mercezi, Shtedim, Municipality of Podujeva / Podujevo, District of Prishtina, 11000, Kosovo"
    }
  ],
  "updated_at": "2025-10-19T05:20:40.397878+00:00",
  "_kind": "geo_samples"
}