{
  "country_code": "XK",
  "country": "Kosovo",
  "city": "Suva Reka",
  "geonameid": 785238,
  "target_addresses": 5,
  "samples": [
    {
      "lat": 42.370164133075164,
      "lon": 20.80193206720787,
      "geoinfo": {
        "display_name": "Safet Rexhepi, Reshtan, Municipality of Suharekë / Suva Reka, District of Prizren, 23000, Kosovo",
        "road": "Safet Rexhepi",
        "house_number": null,
        "neighbourhood": null,
        "suburb": null,
        "city_district": null,
        "city": "Reshtan",
        "state": null,
        "postcode": "23000",
        "country": "Kosovo",
        "country_code": "xk"
      },
      "address": "Safet Rexhepi, Suva Reka, Kosovo"
    },
    {
      "lat": 42.37143803769858,
      "lon": 20.773593399297823,
      "geoinfo": {
        "display_name": "Studençan, Municipality of Suharekë / Suva Reka, District of Prizren, 23060, Kosovo",
        "road": null,
        "house_number": null,
        "neighbourhood": null,
        "suburb": null,
        "city_district": null,
        "city": "Studençan",
        "state": null,
        "postcode": "23060",
        "country": "Kosovo",
        "country_code": "xk"
      },
      "address": "Suva Reka, Kosovo"
    },
    {
      "lat": 42.35169173334581,
      "lon": 20.81821666656469,
      "geoinfo": {
        "display_name": "575, Brigada 123, Shirokë, Municipality of Suharekë / Suva Reka, District of Prizren, 23000, Kosovo",
        "road": "Brigada 123",
        "house_number": "575",
        "neighbourhood": null,
        "suburb": null,
        "city_district": null,
        "city": "Shirokë",
        "state": null,
        "postcode": "23000",
        "country": "Kosovo",
        "country_code": "xk"
      },
      "address": "575 Brigada 123, Suva Reka, Kosovo"
    },
    {
      "lat": 42.38692396062179,
      "lon": 20.849849322074785,
      "geoinfo": {
        "display_name": "Doktor Ibrahim Rugova, Suharekë, Municipality of Suharekë / Suva Reka, District of Prizren, 23000, Kosovo",
        "road": "Doktor Ibrahim Rugova",
        "house_number": null,
        "neighbourhood": null,
        "suburb": null,
        "city_district": null,
        "city": "Suharekë",
        "state": null,
        "postcode": "23000",
        "country": "Kosovo",
        "country_code": "xk"
      },
      "address": "Doktor Ibrahim Rugova, Suva Reka, Kosovo"
    },
    {
      "lat": 42.32760897356466,
      "lon": 20.85503855310989,
      "geoinfo": {
        "display_name": "34, Kadri Ramadani, Dubravë, Municipality of Suharekë / Suva Reka, District of Prizren, 23050, Kosovo",
        "road": "Kadri Ramadani",
        "house_number": "34",
        "neighbourhood": null,
        "suburb": null,
        "city_district": null,
        "city": "Dubravë",
        "state": null,
        "postcode": "23050",
        "country": "Kosovo",
        "country_code": "xk"
      },
      "address": "34 Kadri Ramadani, Suva Reka, Kosovo"
    },
    {
      "lat": 42.34797331499039,
      "lon": 20.820719793934096,
      "geoinfo": {
        "display_name": "Shirokë, Municipality of Suharekë / Suva Reka, District of Prizren, 23000, Kosovo",
        "road": null,
        "house_number": null,
        "neighbourhood": null,
        "suburb": null,
        "city_district": null,
        "city": "Shirokë",
        "state": null,
        "postcode": "23000",
        "country": "Kosovo",
        "country_code": "xk"
      },
      "address": "969, Shirokë, Municipality of Suharekë / Suva Reka, District of Prizren, 23000, Kosovo"
    },
    {
      "lat": 42.35753796517752,
      "lon": 20.876840147039715,
      "geoinfo": {
        "display_name": "Lulzim Veselaj, Reqan, Municipality of Suharekë / Suva Reka, District of Prizren, 23070, Kosovo",
        "road": "Lulzim Veselaj",
        "house_number": null,
        "neighbourhood": null,
        "suburb": null,
        "city_district": null,
        "city": "Reqan",
        "state": null,
        "postcode": "23070",
        "country": "Kosovo",
        "country_code": "xk"
      },
      "address": "887, Lulzim Veselaj, Reqan, Municipality of Suharekë / Suva Reka, District of Prizren, 23070, Kosovo"
    },
    {
      "lat": 42.327835271199845,
      "lon": 20.865613671162208,
      "geoinfo": {
        "display_name": "Dardha Binjake, Savrovë, Municipality of Suharekë / Suva Reka, District of Prizren, 23050, Kosovo",
        "road": "Dardha Binjake",
        "house_number": null,
        "neighbourhood": null,
        "suburb": null,
        "city_district": null,
        "city": "Savrovë",
        "state": null,
        "postcode": "23050",
        "country": "Kosovo",
        "country_code": "xk"
      },
      "address": "404, Dardha Binjake, Savrovë, Municipality of Suharekë / Suva Reka, District of Prizren, 23050, Kosovo"
    },
    {
      "lat": 42.33207715825739,
      "lon": 20.798685431120784,
      "geoinfo": {
        "display_name": "119, Komandant Drini, Topliçan, Municipality of Suharekë / Suva Reka, District of Prizren, 23000, Kosovo",
        "road": "Komandant Drini",
        "house_number": "119",
        "neighbourhood": null,
        "suburb": null,
        "city_district": null,
        "city": "Topliçan",
        "state": null,
        "postcode": "23000",
        "country": "Kosovo",
        "country_code": "xk"
      },
      "address": "119, Komandant Drini, Topliçan, Municipality of Suharekë / Suva Reka, District of Prizren, 23000, Kosovo"
    },
    {
      "lat": 42.38882436426588,
      "lon": 20.830166854580614,
      "geoinfo": {
        "display_name": "Kompania e Dytë, Shllapuzhan, Municipality of Suharekë / Suva Reka, District of Prizren, 23000, Kosovo",
        "road": "Kompania e Dytë",
        "house_number": null,
        "neighbourhood": null,
        "suburb": null,
        "city_district": null,
        "city": "Shllapuzhan",
        "state": null,
        "postcode": "23000",
        "country": "Kosovo",
        "country_code": "xk"
      },
      "address": "102, Kompania e Dytë, Shllapuzhan, Municipality of Suharekë / Suva Reka, District of Prizren, 23000, Kosovo"
    }
  ],
  "updated_at": "2025-10-19T05:16:42.776442+00:00",
  "_kind": "geo_samples"
}