{
  "country_code": "XK",
  "country": "Kosovo",
  "city": "Vitina",
  "geonameid": 784372,
  "target_addresses": 5,
  "samples": [
    {
      "lat": 42.28355013201436,
      "lon": 21.341994057015853,
      "geoinfo": {
        "display_name": "410, Shaban Kabashi, Kabash, Municipality of Vitina, District of Gjilan, 61000, Kosovo",
        "road": "Shaban Kabashi",
        "house_number": "410",
        "neighbourhood": null,
        "suburb": null,
        "city_district": null,
        "city": "Kabash",
        "state": null,
        "postcode": "61000",
        "country": "Kosovo",
        "country_code": "xk"
      },
      "address": "410, Shaban Kabashi, Kabash, Municipality of Vitina, District of Gjilan, 61000, Kosovo"
    },
    {
      "lat": 42.322180979907934,
      "lon": 21.3416958114055,
      "geoinfo": {
        "display_name": "170, Muhamet Muharremi, Viti, Municipality of Vitina, District of Gjilan, 61000, Kosovo",
        "road": "Muhamet Muharremi",
        "house_number": "170",
        "neighbourhood": null,
        "suburb": null,
        "city_district": null,
        "city": "Viti",
        "state": null,
        "postcode": "61000",
        "country": "Kosovo",
        "country_code": "xk"
      },
      "address": "170, Muhamet Muharremi, Viti, Municipality of Vitina, District of Gjilan, 61000, Kosovo"
    },
    {
      "lat": 42.28107366002042,
      "lon": 21.338445744652923,
      "geoinfo": {
        "display_name": "Smirë, Municipality of Vitina, District of Gjilan, 61000, Kosovo",
        "road": null,
        "house_number": null,
        "neighbourhood": null,
        "suburb": null,
        "city_district": null,
        "city": "Smirë",
        "state": null,
        "postcode": "61000",
        "country": "Kosovo",
        "country_code": "xk"
      },
      "address": "682, Smirë, Municipality of Vitina, District of Gjilan, 61000, Kosovo"
    },
    {
      "lat": 42.36050615051961,
      "lon": 21.364242216776358,
      "geoinfo": {
        "display_name": "Petra i Pavla, Klokot - Kllokot, Municipality of Klokot, District of Gjilan, 61050, Kosovo",
        "road": "Petra i Pavla",
        "house_number": null,
        "neighbourhood": null,
        "suburb": null,
        "city_district": null,
        "city": "Klokot - Kllokot",
        "state": null,
        "postcode": "61050",
        "country": "Kosovo",
        "country_code": "xk"
      },
      "address": "496, Petra i Pavla, Klokot - Kllokot, Municipality of Klokot, District of Gjilan, 61050, Kosovo"
    },
    {
      "lat": 42.336593929608945,
      "lon": 21.38992517615827,
      "geoinfo": {
        "display_name": "10, Nazim Trena, Mogillë - Mogila, Municipality of Klokot, District of Gjilan, 61050, Kosovo",
        "road": "Nazim Trena",
        "house_number": "10",
        "neighbourhood": null,
        "suburb": null,
        "city_district": null,
        "city": "Mogillë - Mogila",
        "state": null,
        "postcode": "61050",
        "country": "Kosovo",
        "country_code": "xk"
      },
      "address": "10, Nazim Trena, Mogillë - Mogila, Municipality of Klokot, District of Gjilan, 61050, Kosovo"
    }
  ],
  "updated_at": "2025-10-19T05:03:44.644806+00:00",
  "_kind": "geo_samples"
}