{
  "country_code": "PE",
  "country": "Peru",
  "city": "Carmen De La Legua Reynoso",
  "geonameid": 12157070,
  "target_addresses": 4,
  "samples": [
    {
      "lat": -12.043075705970423,
      "lon": -77.0844916172831,
      "geoinfo": {
        "display_name": "Calle República de México, Villa Señor De Los Milagros, Carmen de la Legua Reynoso, Carmen de La Legua-Reynoso, Callao, Lima Metropolitan Area, Callao, 07006, Peru",
        "road": "Calle República de México",
        "house_number": null,
        "neighbourhood": null,
        "suburb": "Carmen de la Legua Reynoso",
        "city_district": null,
        "city": "Carmen de La Legua-Reynoso",
        "state": "Callao",
        "postcode": "07006",
        "country": "Peru",
        "country_code": "pe"
      },
      "address": "Calle República de México, Carmen De La Legua Reynoso, Callao, Peru"
    },
    {
      "lat": -12.014329906850216,
      "lon": -77.09086047249492,
      "geoinfo": {
        "display_name": "Institución Educativa 5085 Ramiro Priale Priale, 111, Calle Los Zorzales, El Condor, Callao, Lima Metropolitan Area, Callao, 07036, Peru",
        "road": "Calle Los Zorzales",
        "house_number": "111",
        "neighbourhood": "El Condor",
        "suburb": null,
        "city_district": null,
        "city": "Callao",
        "state": "Callao",
        "postcode": "07036",
        "country": "Peru",
        "country_code": "pe"
      },
      "address": "Institución Educativa 5085 Ramiro Priale Priale, 111, Calle Los Zorzales, El Condor, Callao, Lima Metropolitan Area, Callao, 07036, Peru"
    },
    {
      "lat": -12.04717268206874,
      "lon": -77.09366849501393,
      "geoinfo": {
        "display_name": "alicorp, 4793, Argentina Avenue, 22 de Octubre, Carmen de la Legua Reynoso, Carmen de La Legua-Reynoso, Callao, Lima Metropolitan Area, Callao, 07006, Peru",
        "road": "Argentina Avenue",
        "house_number": "4793",
        "neighbourhood": "22 de Octubre",
        "suburb": "Carmen de la Legua Reynoso",
        "city_district": null,
        "city": "Carmen de La Legua-Reynoso",
        "state": "Callao",
        "postcode": "07006",
        "country": "Peru",
        "country_code": "pe"
      },
      "address": "alicorp, 4793, Argentina Avenue, 22 de Octubre, Carmen de la Legua Reynoso, Carmen de La Legua-Reynoso, Callao, Lima Metropolitan Area, Callao, 07006, Peru"
    },
    {
      "lat": -12.079076891111571,
      "lon": -77.10443081794311,
      "geoinfo": {
        "display_name": "2458, Jirón Libertad, Chepén, San Miguel, Lima, Province of Lima, Lima Metropolitan Area, Lima, 15087, Peru",
        "road": "Jirón Libertad",
        "house_number": "2458",
        "neighbourhood": "Chepén",
        "suburb": "San Miguel",
        "city_district": null,
        "city": "Lima",
        "state": "Lima",
        "postcode": "15087",
        "country": "Peru",
        "country_code": "pe"
      },
      "address": "2458, Jirón Libertad, Chepén, San Miguel, Lima, Province of Lima, Lima Metropolitan Area, Lima, 15087, Peru"
    }
  ],
  "updated_at": "2025-10-19T06:05:51.355565+00:00",
  "_kind": "geo_samples"
}