{
  "country_code": "PE",
  "country": "Peru",
  "city": "Chilca",
  "geonameid": 12157030,
  "target_addresses": 4,
  "samples": [
    {
      "lat": -12.083750483567293,
      "lon": -75.22315561375552,
      "geoinfo": {
        "display_name": "Auquimarca, Chilca, Province of Huancayo, Junín, 12004, Peru",
        "road": null,
        "house_number": null,
        "neighbourhood": null,
        "suburb": "Auquimarca",
        "city_district": null,
        "city": "Chilca",
        "state": "Junín",
        "postcode": "12004",
        "country": "Peru",
        "country_code": "pe"
      },
      "address": "Auquimarca, Chilca, Junín, Peru"
    },
    {
      "lat": -12.055684047567327,
      "lon": -75.18896369239175,
      "geoinfo": {
        "display_name": "Jirón Alpha, Soto Valle, Pultuquia Alta, Huancayo, Province of Huancayo, Junín, 12001, Peru",
        "road": "Jirón Alpha",
        "house_number": null,
        "neighbourhood": "Soto Valle",
        "suburb": "Pultuquia Alta",
        "city_district": null,
        "city": "Huancayo",
        "state": "Junín",
        "postcode": "12001",
        "country": "Peru",
        "country_code": "pe"
      },
      "address": "166, Jirón Alpha, Soto Valle, Pultuquia Alta, Huancayo, Province of Huancayo, Junín, 12001, Peru"
    },
    {
      "lat": -12.102187354766333,
      "lon": -75.20280227932913,
      "geoinfo": {
        "display_name": "Amazonas, Azapampa Oeste, Huancán, Province of Huancayo, Junín, 12001, Peru",
        "road": "Amazonas",
        "house_number": null,
        "neighbourhood": null,
        "suburb": "Azapampa Oeste",
        "city_district": null,
        "city": "Huancán",
        "state": "Junín",
        "postcode": "12001",
        "country": "Peru",
        "country_code": "pe"
      },
      "address": "499, Amazonas, Azapampa Oeste, Huancán, Province of Huancayo, Junín, 12001, Peru"
    },
    {
      "lat": -12.072488721053494,
      "lon": -75.16677444578318,
      "geoinfo": {
        "display_name": "La Esperanza, Chilca, Province of Huancayo, Junín, 12001, Peru",
        "road": null,
        "house_number": null,
        "neighbourhood": null,
        "suburb": "La Esperanza",
        "city_district": null,
        "city": "Chilca",
        "state": "Junín",
        "postcode": "12001",
        "country": "Peru",
        "country_code": "pe"
      },
      "address": "100, La Esperanza, Chilca, Province of Huancayo, Junín, 12001, Peru"
    }
  ],
  "updated_at": "2025-10-19T06:05:43.066536+00:00",
  "_kind": "geo_samples"
}