{
  "country_code": "PE",
  "country": "Peru",
  "city": "San Pedro de Lloc",
  "geonameid": 3692310,
  "target_addresses": 4,
  "samples": [
    {
      "lat": -7.4427936577449785,
      "lon": -79.54330934450415,
      "geoinfo": {
        "display_name": "El Hornito, San Pedro de Lloc, Province of Pacasmayo, La Libertad, Peru",
        "road": null,
        "house_number": null,
        "neighbourhood": null,
        "suburb": null,
        "city_district": null,
        "city": "San Pedro de Lloc",
        "state": "La Libertad",
        "postcode": null,
        "country": "Peru",
        "country_code": "pe"
      },
      "address": "San Pedro de Lloc, La Libertad, Peru"
    },
    {
      "lat": -7.438090318906014,
      "lon": -79.48834937538379,
      "geoinfo": {
        "display_name": "Cacique de Lloc, San Pedro de Lloc, Province of Pacasmayo, La Libertad, Peru",
        "road": null,
        "house_number": null,
        "neighbourhood": null,
        "suburb": null,
        "city_district": null,
        "city": "San Pedro de Lloc",
        "state": "La Libertad",
        "postcode": null,
        "country": "Peru",
        "country_code": "pe"
      },
      "address": "153, Cacique de Lloc, San Pedro de Lloc, Province of Pacasmayo, 88787 La Libertad, Peru"
    },
    {
      "lat": -7.418359134619312,
      "lon": -79.52730263641283,
      "geoinfo": {
        "display_name": "Pan-American Highway, El Hornito, San Pedro de Lloc, Province of Pacasmayo, La Libertad, Peru",
        "road": "Pan-American Highway",
        "house_number": null,
        "neighbourhood": null,
        "suburb": null,
        "city_district": null,
        "city": "San Pedro de Lloc",
        "state": "La Libertad",
        "postcode": null,
        "country": "Peru",
        "country_code": "pe"
      },
      "address": "353, Pan-American Highway, El Hornito, San Pedro de Lloc, Province of Pacasmayo, 78789 La Libertad, Peru"
    },
    {
      "lat": -7.386434738091492,
      "lon": -79.50675467002263,
      "geoinfo": {
        "display_name": "San Pedro de Lloc, Province of Pacasmayo, La Libertad, Peru",
        "road": null,
        "house_number": null,
        "neighbourhood": null,
        "suburb": null,
        "city_district": null,
        "city": "San Pedro de Lloc",
        "state": "La Libertad",
        "postcode": null,
        "country": "Peru",
        "country_code": "pe"
      },
      "address": "886, San Pedro de Lloc, Province of Pacasmayo, 55404 La Libertad, Peru"
    }
  ],
  "updated_at": "2025-10-19T06:04:53.695340+00:00",
  "_kind": "geo_samples"
}