{
  "country_code": "PE",
  "country": "Peru",
  "city": "Tambo Grande",
  "geonameid": 3691530,
  "target_addresses": 4,
  "samples": [
    {
      "lat": -4.893617425565194,
      "lon": -80.31979520090964,
      "geoinfo": {
        "display_name": "PI-763, La Fortaleza Cp9, El Porvenir, Tambo Grande, Province of Piura, Piura, Peru",
        "road": "PI-763",
        "house_number": null,
        "neighbourhood": null,
        "suburb": null,
        "city_district": null,
        "city": "Tambo Grande",
        "state": "Piura",
        "postcode": null,
        "country": "Peru",
        "country_code": "pe"
      },
      "address": "PI-763, Tambo Grande, Piura, Peru"
    },
    {
      "lat": -4.9614429761394545,
      "lon": -80.319953391072,
      "geoinfo": {
        "display_name": "Huenapira, Tambogrande, Tambo Grande, Province of Piura, Piura, Peru",
        "road": null,
        "house_number": null,
        "neighbourhood": null,
        "suburb": null,
        "city_district": null,
        "city": "Tambo Grande",
        "state": "Piura",
        "postcode": null,
        "country": "Peru",
        "country_code": "pe"
      },
      "address": "841, Huenapira, Tambogrande, Tambo Grande, Province of Piura, 45900 Piura, Peru"
    },
    {
      "lat": -4.885365843713357,
      "lon": -80.35384644262497,
      "geoinfo": {
        "display_name": "Peñarol, Alfredo Vilca Aguilar, Tambo Grande, Province of Piura, Piura, Peru",
        "road": null,
        "house_number": null,
        "neighbourhood": null,
        "suburb": null,
        "city_district": null,
        "city": "Tambo Grande",
        "state": "Piura",
        "postcode": null,
        "country": "Peru",
        "country_code": "pe"
      },
      "address": "086, Peñarol, Alfredo Vilca Aguilar, Tambo Grande, Province of Piura, 80374 Piura, Peru"
    },
    {
      "lat": -4.930749306179898,
      "lon": -80.35732720122907,
      "geoinfo": {
        "display_name": "Jesús de Nazareth, Tambogrande, Tambo Grande, Province of Piura, Piura, Peru",
        "road": null,
        "house_number": null,
        "neighbourhood": "Jesús de Nazareth",
        "suburb": null,
        "city_district": null,
        "city": "Tambo Grande",
        "state": "Piura",
        "postcode": null,
        "country": "Peru",
        "country_code": "pe"
      },
      "address": "417, Jesús de Nazareth, Tambogrande, Tambo Grande, Province of Piura, 36713 Piura, Peru"
    }
  ],
  "updated_at": "2025-10-19T06:04:49.321118+00:00",
  "_kind": "geo_samples"
}