{
  "country_code": "PE",
  "country": "Peru",
  "city": "Yauri",
  "geonameid": 3925590,
  "target_addresses": 4,
  "samples": [
    {
      "lat": -14.831960572571502,
      "lon": -71.42632119678575,
      "geoinfo": {
        "display_name": "CU-1867, Atalaya Huarca, Yauri, Espinar, Province of Espinar, Cusco, Peru",
        "road": "CU-1867",
        "house_number": null,
        "neighbourhood": "Atalaya Huarca",
        "suburb": null,
        "city_district": null,
        "city": "Espinar",
        "state": "Cusco",
        "postcode": null,
        "country": "Peru",
        "country_code": "pe"
      },
      "address": "CU-1867, Yauri, Cusco, Peru"
    },
    {
      "lat": -14.766924546740862,
      "lon": -71.38424237173538,
      "geoinfo": {
        "display_name": "Pichigua, Province of Espinar, Cusco, 08300, Peru",
        "road": null,
        "house_number": null,
        "neighbourhood": null,
        "suburb": null,
        "city_district": null,
        "city": "Pichigua",
        "state": "Cusco",
        "postcode": "08300",
        "country": "Peru",
        "country_code": "pe"
      },
      "address": "774, Pichigua, Province of Espinar, Cusco, 08300, Peru"
    },
    {
      "lat": -14.759677187761916,
      "lon": -71.412242614498,
      "geoinfo": {
        "display_name": "CU-130, Residentes Pichiguanos, Yauri, Espinar, Province of Espinar, Cusco, 08300, Peru",
        "road": "CU-130",
        "house_number": null,
        "neighbourhood": null,
        "suburb": "Residentes Pichiguanos",
        "city_district": null,
        "city": "Espinar",
        "state": "Cusco",
        "postcode": "08300",
        "country": "Peru",
        "country_code": "pe"
      },
      "address": "CU-130, Residentes Pichiguanos, Yauri, Espinar, Province of Espinar, Cusco, 08300, Peru"
    },
    {
      "lat": -14.778759596847406,
      "lon": -71.3949001628208,
      "geoinfo": {
        "display_name": "PE-3SG, Cruz Cunca, Yauri, Espinar, Province of Espinar, Cusco, 08300, Peru",
        "road": "PE-3SG",
        "house_number": null,
        "neighbourhood": null,
        "suburb": "Cruz Cunca",
        "city_district": null,
        "city": "Espinar",
        "state": "Cusco",
        "postcode": "08300",
        "country": "Peru",
        "country_code": "pe"
      },
      "address": "PE-3SG, Cruz Cunca, Yauri, Espinar, Province of Espinar, Cusco, 08300, Peru"
    }
  ],
  "updated_at": "2025-10-19T06:05:20.813532+00:00",
  "_kind": "geo_samples"
}