{
  "country_code": "MM",
  "country": "Myanmar",
  "city": "Kyaiklat",
  "geonameid": 1317397,
  "target_addresses": 2,
  "samples": [
    {
      "lat": 16.43226775578794,
      "lon": 95.72686787956614,
      "geoinfo": {
        "display_name": "No (1) Ward, ကျိုက်လတ်, Kyaiklat Township, Pyapon, Ayeyarwady, Myanmar",
        "road": null,
        "house_number": null,
        "neighbourhood": null,
        "suburb": null,
        "city_district": null,
        "city": "ကျိုက်လတ်",
        "state": "Ayeyarwady",
        "postcode": null,
        "country": "Myanmar",
        "country_code": "mm"
      },
      "address": "Kyaiklat, Ayeyarwady, Myanmar"
    },
    {
      "lat": 16.4446009284467,
      "lon": 95.72579576066849,
      "geoinfo": {
        "display_name": "5th street, No (1) Ward, ကျိုက်လတ်, Kyaiklat Township, Pyapon, Ayeyarwady, Myanmar",
        "road": "5th street",
        "house_number": null,
        "neighbourhood": null,
        "suburb": null,
        "city_district": null,
        "city": "ကျိုက်လတ်",
        "state": "Ayeyarwady",
        "postcode": null,
        "country": "Myanmar",
        "country_code": "mm"
      },
      "address": "5th street, Kyaiklat, Ayeyarwady, Myanmar"
    },
    {
      "lat": 16.407812119462882,
      "lon": 95.70115302142295,
      "geoinfo": {
        "display_name": "Ah Nauk Su, Kyaiklat Township, Pyapon, Ayeyarwady, Myanmar",
        "road": null,
        "house_number": null,
        "neighbourhood": null,
        "suburb": null,
        "city_district": null,
        "city": "Ah Nauk Su",
        "state": "Ayeyarwady",
        "postcode": null,
        "country": "Myanmar",
        "country_code": "mm"
      },
      "address": "875, Ah Nauk Su, Kyaiklat Township, Pyapon, 11648 Ayeyarwady, Myanmar"
    },
    {
      "lat": 16.430139372343387,
      "lon": 95.69434094201509,
      "geoinfo": {
        "display_name": "Htu Par Yon (Ohn Pin Chaung), Kyaiklat Township, Pyapon, Ayeyarwady, Myanmar",
        "road": null,
        "house_number": null,
        "neighbourhood": null,
        "suburb": null,
        "city_district": null,
        "city": "Htu Par Yon (Ohn Pin Chaung)",
        "state": "Ayeyarwady",
        "postcode": null,
        "country": "Myanmar",
        "country_code": "mm"
      },
      "address": "082, Htu Par Yon (Ohn Pin Chaung), Kyaiklat Township, Pyapon, 30751 Ayeyarwady, Myanmar"
    }
  ],
  "updated_at": "2025-10-19T08:14:13.174112+00:00",
  "_kind": "geo_samples"
}