{
  "country_code": "MM",
  "country": "Myanmar",
  "city": "Lashio",
  "geonameid": 1314759,
  "target_addresses": 2,
  "samples": [
    {
      "lat": 22.898387548295073,
      "lon": 97.75388346126213,
      "geoinfo": {
        "display_name": "Man Aing, Union Township, Hsenwi District, Shan State, Special Region 1, 06301, Myanmar",
        "road": null,
        "house_number": null,
        "neighbourhood": null,
        "suburb": null,
        "city_district": null,
        "city": "Man Aing",
        "state": "Shan State",
        "postcode": "06301",
        "country": "Myanmar",
        "country_code": "mm"
      },
      "address": "Lashio, Shan State, Myanmar"
    },
    {
      "lat": 22.97991367782813,
      "lon": 97.74652266472013,
      "geoinfo": {
        "display_name": "Airport Road, No.9 Ward, Lashio Town, Shan State, 06301, Myanmar",
        "road": "Airport Road",
        "house_number": null,
        "neighbourhood": null,
        "suburb": null,
        "city_district": null,
        "city": "Lashio Town",
        "state": "Shan State",
        "postcode": "06301",
        "country": "Myanmar",
        "country_code": "mm"
      },
      "address": "Airport Road, Lashio, Shan State, Myanmar"
    },
    {
      "lat": 22.952243316106653,
      "lon": 97.74699101469005,
      "geoinfo": {
        "display_name": "No.1 Ward, Lashio Town, Shan State, 06301, Myanmar",
        "road": null,
        "house_number": null,
        "neighbourhood": null,
        "suburb": null,
        "city_district": null,
        "city": "Lashio Town",
        "state": "Shan State",
        "postcode": "06301",
        "country": "Myanmar",
        "country_code": "mm"
      },
      "address": "No.1 Ward, Lashio Town, Shan State, 06301, Myanmar"
    },
    {
      "lat": 22.962345433708702,
      "lon": 97.72268598028855,
      "geoinfo": {
        "display_name": "Lashio Golf Course, Nant Ma Tu Street, No.11 Ward, Lashio Town, Union Township, Hsenwi District, Shan State, Special Region 1, 06301, Myanmar",
        "road": "Nant Ma Tu Street",
        "house_number": null,
        "neighbourhood": null,
        "suburb": null,
        "city_district": null,
        "city": "Lashio Town",
        "state": "Shan State",
        "postcode": "06301",
        "country": "Myanmar",
        "country_code": "mm"
      },
      "address": "Lashio Golf Course, Nant Ma Tu Street, No.11 Ward, Lashio Town, Union Township, Hsenwi District, Shan State, Special Region 1, 06301, Myanmar"
    }
  ],
  "updated_at": "2025-10-19T06:04:11.955772+00:00",
  "_kind": "geo_samples"
}