{
  "country_code": "MM",
  "country": "Myanmar",
  "city": "Loikaw",
  "geonameid": 1313479,
  "target_addresses": 2,
  "samples": [
    {
      "lat": 19.660508381938918,
      "lon": 97.2425072019564,
      "geoinfo": {
        "display_name": "Loikaw, Loikaw Township, Loikaw District, Kayah State, 09011, Myanmar",
        "road": null,
        "house_number": null,
        "neighbourhood": null,
        "suburb": null,
        "city_district": null,
        "city": "Loikaw",
        "state": "Kayah State",
        "postcode": "09011",
        "country": "Myanmar",
        "country_code": "mm"
      },
      "address": "Loikaw, Kayah State, Myanmar"
    },
    {
      "lat": 19.693016285530188,
      "lon": 97.2487269777559,
      "geoinfo": {
        "display_name": "NH17, Daw No Ku Ward, Daw Ta Yoe, Loikaw Township, Loikaw District, Kayah State, Myanmar",
        "road": "NH17",
        "house_number": null,
        "neighbourhood": null,
        "suburb": null,
        "city_district": null,
        "city": "Daw Ta Yoe",
        "state": "Kayah State",
        "postcode": null,
        "country": "Myanmar",
        "country_code": "mm"
      },
      "address": "NH17, Loikaw, Kayah State, Myanmar"
    },
    {
      "lat": 19.700897804436856,
      "lon": 97.21053535294402,
      "geoinfo": {
        "display_name": "Daw No Ku Ward, Loikaw, Loikaw Township, Loikaw District, Kayah State, 09011, Myanmar",
        "road": null,
        "house_number": null,
        "neighbourhood": null,
        "suburb": null,
        "city_district": null,
        "city": "Loikaw",
        "state": "Kayah State",
        "postcode": "09011",
        "country": "Myanmar",
        "country_code": "mm"
      },
      "address": "191, Daw No Ku Ward, Loikaw, Loikaw Township, Loikaw District, Kayah State, 09011, Myanmar"
    },
    {
      "lat": 19.715248660322622,
      "lon": 97.18793457071988,
      "geoinfo": {
        "display_name": "Daw No Ku Ward, Yae Yo, Loikaw Township, Loikaw District, Kayah State, 09011, Myanmar",
        "road": null,
        "house_number": null,
        "neighbourhood": null,
        "suburb": null,
        "city_district": null,
        "city": "Yae Yo",
        "state": "Kayah State",
        "postcode": "09011",
        "country": "Myanmar",
        "country_code": "mm"
      },
      "address": "234, Loikaw, 09011 Kayah State, Myanmar"
    }
  ],
  "updated_at": "2025-10-19T06:04:03.408102+00:00",
  "_kind": "geo_samples"
}