{
  "country_code": "MM",
  "country": "Myanmar",
  "city": "Mandalay",
  "geonameid": 1311874,
  "target_addresses": 2,
  "samples": [
    {
      "lat": 21.967557782032845,
      "lon": 96.04695728222457,
      "geoinfo": {
        "display_name": "Than To, Mandalay City, Mandalay, 05023, Myanmar",
        "road": null,
        "house_number": null,
        "neighbourhood": null,
        "suburb": null,
        "city_district": null,
        "city": "Than To",
        "state": "Mandalay",
        "postcode": "05023",
        "country": "Myanmar",
        "country_code": "mm"
      },
      "address": "Mandalay, Mandalay, Myanmar"
    },
    {
      "lat": 21.94888596794023,
      "lon": 96.09149539165188,
      "geoinfo": {
        "display_name": "Blue Diamond Ave Street, Myo Thit No (1) Ward, Chanmyathazi Township, Mahaaungmyay District, Mandalay, Mandalay City, Mandalay, 05041, Myanmar",
        "road": "Blue Diamond Ave Street",
        "house_number": null,
        "neighbourhood": null,
        "suburb": "Chanmyathazi Township",
        "city_district": null,
        "city": "Mandalay",
        "state": "Mandalay",
        "postcode": "05041",
        "country": "Myanmar",
        "country_code": "mm"
      },
      "address": "Blue Diamond Ave Street, Mandalay, Mandalay, Myanmar"
    },
    {
      "lat": 21.940165817751968,
      "lon": 96.08405816343586,
      "geoinfo": {
        "display_name": "Chan Mya Thar Zi (South) Ward, Chanmyathazi Township, Mahaaungmyay District, Mandalay, Mandalay City, Mandalay, 05041, Myanmar",
        "road": null,
        "house_number": null,
        "neighbourhood": null,
        "suburb": "Chanmyathazi Township",
        "city_district": null,
        "city": "Mandalay",
        "state": "Mandalay",
        "postcode": "05041",
        "country": "Myanmar",
        "country_code": "mm"
      },
      "address": "679, Chan Mya Thar Zi (South) Ward, Chanmyathazi Township, Mahaaungmyay District, Mandalay, Mandalay City, Mandalay, 05041, Myanmar"
    },
    {
      "lat": 22.000336754990702,
      "lon": 96.07074337587903,
      "geoinfo": {
        "display_name": "Min Tei Ei Kin Ward, Aungmyethazan Township, Aungmyaythazan District, Set Yeik (North), Mandalay City, Mandalay, 05015, Myanmar",
        "road": null,
        "house_number": null,
        "neighbourhood": "Aungmyethazan Township",
        "suburb": "Aungmyaythazan District",
        "city_district": null,
        "city": "Set Yeik (North)",
        "state": "Mandalay",
        "postcode": "05015",
        "country": "Myanmar",
        "country_code": "mm"
      },
      "address": "488, Min Tei Ei Kin Ward, Aungmyethazan Township, Aungmyaythazan District, Set Yeik (North), Mandalay City, Mandalay, 05015, Myanmar"
    }
  ],
  "updated_at": "2025-10-19T04:19:03.840986+00:00",
  "_kind": "geo_samples"
}