{
  "country_code": "MM",
  "country": "Myanmar",
  "city": "Martaban",
  "geonameid": 1310460,
  "target_addresses": 7,
  "samples": [
    {
      "lat": 16.525795074439248,
      "lon": 97.5890129387252,
      "geoinfo": {
        "display_name": "Shwe Din Gar Kyun, Paung Township, Thaton District, Mon State, Myanmar",
        "road": null,
        "house_number": null,
        "neighbourhood": null,
        "suburb": null,
        "city_district": null,
        "city": "Shwe Din Gar Kyun",
        "state": "Mon State",
        "postcode": null,
        "country": "Myanmar",
        "country_code": "mm"
      },
      "address": "Martaban, Mon State, Myanmar"
    },
    {
      "lat": 16.53838148954786,
      "lon": 97.59494614933956,
      "geoinfo": {
        "display_name": "NH1, ကျုံက, Kawt Saing, Paung Township, Thaton District, Mon State, Myanmar",
        "road": "NH1",
        "house_number": null,
        "neighbourhood": null,
        "suburb": null,
        "city_district": null,
        "city": "Kawt Saing",
        "state": "Mon State",
        "postcode": null,
        "country": "Myanmar",
        "country_code": "mm"
      },
      "address": "NH1, Martaban, Mon State, Myanmar"
    },
    {
      "lat": 16.559398370717002,
      "lon": 97.61655662744091,
      "geoinfo": {
        "display_name": "Ma Yan Kwin, Mawlamyine, Mawlamyine District, Mon State, Myanmar",
        "road": null,
        "house_number": null,
        "neighbourhood": null,
        "suburb": null,
        "city_district": null,
        "city": "Mawlamyine",
        "state": "Mon State",
        "postcode": null,
        "country": "Myanmar",
        "country_code": "mm"
      },
      "address": "711, Ma Yan Kwin, Mawlamyine, Mawlamyine District, 46016 Mon State, Myanmar"
    },
    {
      "lat": 16.563653765050915,
      "lon": 97.58895617845437,
      "geoinfo": {
        "display_name": "Ye Pyar Kone, Paung Township, Thaton District, Mon State, Myanmar",
        "road": null,
        "house_number": null,
        "neighbourhood": null,
        "suburb": null,
        "city_district": null,
        "city": "Ye Pyar Kone",
        "state": "Mon State",
        "postcode": null,
        "country": "Myanmar",
        "country_code": "mm"
      },
      "address": "702, Ye Pyar Kone, Paung Township, Thaton District, 94185 Mon State, Myanmar"
    },
    {
      "lat": 16.554548775669062,
      "lon": 97.61995208336383,
      "geoinfo": {
        "display_name": "Ma Yan Kwin, Mawlamyine, Mawlamyine District, Mon State, Myanmar",
        "road": null,
        "house_number": null,
        "neighbourhood": null,
        "suburb": null,
        "city_district": null,
        "city": "Mawlamyine",
        "state": "Mon State",
        "postcode": null,
        "country": "Myanmar",
        "country_code": "mm"
      },
      "address": "260, Ma Yan Kwin, Mawlamyine, Mawlamyine District, 58745 Mon State, Myanmar"
    },
    {
      "lat": 16.569686125746948,
      "lon": 97.63381823101226,
      "geoinfo": {
        "display_name": "Kawt Sein Ywar Ma, Mawlamyine, Mawlamyine District, Mon State, Myanmar",
        "road": null,
        "house_number": null,
        "neighbourhood": null,
        "suburb": null,
        "city_district": null,
        "city": "Mawlamyine",
        "state": "Mon State",
        "postcode": null,
        "country": "Myanmar",
        "country_code": "mm"
      },
      "address": "174, Kawt Sein Ywar Ma, Mawlamyine, Mawlamyine District, 17768 Mon State, Myanmar"
    },
    {
      "lat": 16.498615507759514,
      "lon": 97.59687992439504,
      "geoinfo": {
        "display_name": "Kawt Mu Pun, Chaungzon Township, Mawlamyine District, Mon State, 12032, Myanmar",
        "road": null,
        "house_number": null,
        "neighbourhood": null,
        "suburb": null,
        "city_district": null,
        "city": "Kawt Mu Pun",
        "state": "Mon State",
        "postcode": "12032",
        "country": "Myanmar",
        "country_code": "mm"
      },
      "address": "590, Kawt Mu Pun, Chaungzon Township, Mawlamyine District, Mon State, 12032, Myanmar"
    }
  ],
  "updated_at": "2025-10-19T05:45:29.721028+00:00",
  "_kind": "geo_samples"
}