{
  "country_code": "MM",
  "country": "Myanmar",
  "city": "Mawlamyine",
  "geonameid": 1308465,
  "target_addresses": 2,
  "samples": [
    {
      "lat": 16.495928939805626,
      "lon": 97.64699231229014,
      "geoinfo": {
        "display_name": "Thu Kha Wadi (2) Road, Shwe Myaing Thi Ri Ward, Mawlamyine, Mawlamyine District, Mon State, 12032, Myanmar",
        "road": "Thu Kha Wadi (2) Road",
        "house_number": null,
        "neighbourhood": null,
        "suburb": null,
        "city_district": null,
        "city": "Mawlamyine",
        "state": "Mon State",
        "postcode": "12032",
        "country": "Myanmar",
        "country_code": "mm"
      },
      "address": "Thu Kha Wadi (2) Road, Mawlamyine, Mon State, Myanmar"
    },
    {
      "lat": 16.51891284330126,
      "lon": 97.62475371623887,
      "geoinfo": {
        "display_name": "Zaw Ya Kyun, Mawlamyine, Mawlamyine District, Mon State, Myanmar",
        "road": null,
        "house_number": null,
        "neighbourhood": null,
        "suburb": null,
        "city_district": null,
        "city": "Mawlamyine",
        "state": "Mon State",
        "postcode": null,
        "country": "Myanmar",
        "country_code": "mm"
      },
      "address": "Mawlamyine, Mon State, Myanmar"
    },
    {
      "lat": 16.519708562869067,
      "lon": 97.64538525235,
      "geoinfo": {
        "display_name": "Mawlamyine, Mawlamyine District, Mon State, 12032, Myanmar",
        "road": null,
        "house_number": null,
        "neighbourhood": null,
        "suburb": null,
        "city_district": null,
        "city": "Mawlamyine",
        "state": "Mon State",
        "postcode": "12032",
        "country": "Myanmar",
        "country_code": "mm"
      },
      "address": "607, Mawlamyine, Mawlamyine District, Mon State, 12032, Myanmar"
    },
    {
      "lat": 16.5077736620138,
      "lon": 97.60737476892653,
      "geoinfo": {
        "display_name": "Yae Su, Paung Township, Thaton District, Mon State, Myanmar",
        "road": null,
        "house_number": null,
        "neighbourhood": null,
        "suburb": null,
        "city_district": null,
        "city": "Yae Su",
        "state": "Mon State",
        "postcode": null,
        "country": "Myanmar",
        "country_code": "mm"
      },
      "address": "893, Yae Su, Paung Township, Thaton District, 67766 Mon State, Myanmar"
    }
  ],
  "updated_at": "2025-10-19T06:00:02.258973+00:00",
  "_kind": "geo_samples"
}