{
  "country_code": "MM",
  "country": "Myanmar",
  "city": "Meiktila",
  "geonameid": 1309793,
  "target_addresses": 2,
  "samples": [
    {
      "lat": 20.839107796488452,
      "lon": 95.84645284827778,
      "geoinfo": {
        "display_name": "Nwar San (South), Meiktila Township, Meiktila District, Mandalay, Myanmar",
        "road": null,
        "house_number": null,
        "neighbourhood": null,
        "suburb": null,
        "city_district": null,
        "city": "Nwar San (South)",
        "state": "Mandalay",
        "postcode": null,
        "country": "Myanmar",
        "country_code": "mm"
      },
      "address": "Meiktila, Mandalay, Myanmar"
    },
    {
      "lat": 20.86271802825228,
      "lon": 95.8255956677056,
      "geoinfo": {
        "display_name": "မြို့သစ်ရပ်, Kyar inn, Meiktila Township, Meiktila District, Mandalay, Myanmar",
        "road": null,
        "house_number": null,
        "neighbourhood": null,
        "suburb": "မြို့သစ်ရပ်",
        "city_district": null,
        "city": "Kyar inn",
        "state": "Mandalay",
        "postcode": null,
        "country": "Myanmar",
        "country_code": "mm"
      },
      "address": "မြို့သစ်ရပ်, Meiktila, Mandalay, Myanmar"
    },
    {
      "lat": 20.90127971671928,
      "lon": 95.86614899198115,
      "geoinfo": {
        "display_name": "Yan Myo Aung Quarter, Ma Gyi Chauk, Meiktila Township, Meiktila District, Mandalay, Myanmar",
        "road": null,
        "house_number": null,
        "neighbourhood": "Yan Myo Aung Quarter",
        "suburb": null,
        "city_district": null,
        "city": "Ma Gyi Chauk",
        "state": "Mandalay",
        "postcode": null,
        "country": "Myanmar",
        "country_code": "mm"
      },
      "address": "184, Yan Myo Aung Quarter, Ma Gyi Chauk, Meiktila Township, Meiktila District, 50568 Mandalay, Myanmar"
    },
    {
      "lat": 20.85483705832678,
      "lon": 95.88490570829683,
      "geoinfo": {
        "display_name": "NH12, Kan Thar, Meiktila Township, Meiktila District, Mandalay, Myanmar",
        "road": "NH12",
        "house_number": null,
        "neighbourhood": null,
        "suburb": null,
        "city_district": null,
        "city": "Kan Thar",
        "state": "Mandalay",
        "postcode": null,
        "country": "Myanmar",
        "country_code": "mm"
      },
      "address": "NH12, Kan Thar, Meiktila Township, Meiktila District, 57166 Mandalay, Myanmar"
    }
  ],
  "updated_at": "2025-10-19T03:51:57.120627+00:00",
  "_kind": "geo_samples"
}