{
  "country_code": "MM",
  "country": "Myanmar",
  "city": "Mudon",
  "geonameid": 1308415,
  "target_addresses": 2,
  "samples": [
    {
      "lat": 16.26572690501817,
      "lon": 97.67997006854667,
      "geoinfo": {
        "display_name": "Kun Tar (Ywar Haung), Mudon Township, Mawlamyine District, Mon State, Myanmar",
        "road": null,
        "house_number": null,
        "neighbourhood": null,
        "suburb": null,
        "city_district": null,
        "city": "Kun Tar (Ywar Haung)",
        "state": "Mon State",
        "postcode": null,
        "country": "Myanmar",
        "country_code": "mm"
      },
      "address": "Mudon, Mon State, Myanmar"
    },
    {
      "lat": 16.293421519124742,
      "lon": 97.71771240853468,
      "geoinfo": {
        "display_name": "NH1, Myoma (1) Ward, Kaw Chae Nie, Myaing Kone, Mudon Township, Mawlamyine District, Mon State, Myanmar",
        "road": "NH1",
        "house_number": null,
        "neighbourhood": null,
        "suburb": "Kaw Chae Nie",
        "city_district": null,
        "city": "Myaing Kone",
        "state": "Mon State",
        "postcode": null,
        "country": "Myanmar",
        "country_code": "mm"
      },
      "address": "NH1, Mudon, Mon State, Myanmar"
    },
    {
      "lat": 16.27713870669117,
      "lon": 97.75624154560214,
      "geoinfo": {
        "display_name": "Be Yan, Mudon Township, Mawlamyine District, Mon State, Myanmar",
        "road": null,
        "house_number": null,
        "neighbourhood": null,
        "suburb": null,
        "city_district": null,
        "city": "Be Yan",
        "state": "Mon State",
        "postcode": null,
        "country": "Myanmar",
        "country_code": "mm"
      },
      "address": "425, Be Yan, Mudon Township, Mawlamyine District, 29553 Mon State, Myanmar"
    },
    {
      "lat": 16.29031046901756,
      "lon": 97.71657909800811,
      "geoinfo": {
        "display_name": "NH1, Myoma (1) Ward, Kaw Chae Nie, Myaing Kone, Mudon Township, Mawlamyine District, Mon State, Myanmar",
        "road": "NH1",
        "house_number": null,
        "neighbourhood": null,
        "suburb": "Kaw Chae Nie",
        "city_district": null,
        "city": "Myaing Kone",
        "state": "Mon State",
        "postcode": null,
        "country": "Myanmar",
        "country_code": "mm"
      },
      "address": "NH1, Myoma (1) Ward, Kaw Chae Nie, Myaing Kone, Mudon Township, Mawlamyine District, Mon State, Myanmar"
    }
  ],
  "updated_at": "2025-10-19T05:59:54.851852+00:00",
  "_kind": "geo_samples"
}