{
  "country_code": "MM",
  "country": "Myanmar",
  "city": "Myaydo",
  "geonameid": 1329239,
  "target_addresses": 2,
  "samples": [
    {
      "lat": 19.376288412417846,
      "lon": 95.17009353780382,
      "geoinfo": {
        "display_name": "Ywar Taung, Thayet Township, Thayet District, Magway, 04151, Myanmar",
        "road": null,
        "house_number": null,
        "neighbourhood": null,
        "suburb": null,
        "city_district": null,
        "city": "Ywar Taung",
        "state": "Magway",
        "postcode": "04151",
        "country": "Myanmar",
        "country_code": "mm"
      },
      "address": "Myaydo, Magway, Myanmar"
    },
    {
      "lat": 19.401378334819558,
      "lon": 95.23457034088243,
      "geoinfo": {
        "display_name": "NH11, Zay Kone Ward, Shwe Nyaung Pin, Aunglan Township, Thayet District, Magway, 04151, Myanmar",
        "road": "NH11",
        "house_number": null,
        "neighbourhood": null,
        "suburb": null,
        "city_district": null,
        "city": "Shwe Nyaung Pin",
        "state": "Magway",
        "postcode": "04151",
        "country": "Myanmar",
        "country_code": "mm"
      },
      "address": "NH11, Myaydo, Magway, Myanmar"
    },
    {
      "lat": 19.37064086922895,
      "lon": 95.20189804265682,
      "geoinfo": {
        "display_name": "Shwe Hin Thar Kyun, Thayet Township, Thayet District, Magway, 04151, Myanmar",
        "road": null,
        "house_number": null,
        "neighbourhood": null,
        "suburb": null,
        "city_district": null,
        "city": "Shwe Hin Thar Kyun",
        "state": "Magway",
        "postcode": "04151",
        "country": "Myanmar",
        "country_code": "mm"
      },
      "address": "772, Shwe Hin Thar Kyun, Thayet Township, Thayet District, Magway, 04151, Myanmar"
    },
    {
      "lat": 19.382058677320636,
      "lon": 95.25051282252925,
      "geoinfo": {
        "display_name": "Gon Taw, Aunglan Township, Thayet District, Magway, 04151, Myanmar",
        "road": null,
        "house_number": null,
        "neighbourhood": null,
        "suburb": null,
        "city_district": null,
        "city": "Gon Taw",
        "state": "Magway",
        "postcode": "04151",
        "country": "Myanmar",
        "country_code": "mm"
      },
      "address": "243, Gon Taw, Aunglan Township, Thayet District, Magway, 04151, Myanmar"
    }
  ],
  "updated_at": "2025-10-19T06:04:35.312036+00:00",
  "_kind": "geo_samples"
}