{
  "country_code": "MM",
  "country": "Myanmar",
  "city": "Nyaunglebin",
  "geonameid": 1303406,
  "target_addresses": 2,
  "samples": [
    {
      "lat": 17.9803759744076,
      "lon": 96.68618857633477,
      "geoinfo": {
        "display_name": "Gyoe Gyar Kwin, Nyaunglebin Township, Bago District, Bago Region, 08031, Myanmar",
        "road": null,
        "house_number": null,
        "neighbourhood": null,
        "suburb": null,
        "city_district": null,
        "city": "Gyoe Gyar Kwin",
        "state": "Bago Region",
        "postcode": "08031",
        "country": "Myanmar",
        "country_code": "mm"
      },
      "address": "Nyaunglebin, Bago Region, Myanmar"
    },
    {
      "lat": 17.910311925949284,
      "lon": 96.71078825660302,
      "geoinfo": {
        "display_name": "Ah Lel, Nyaunglebin Township, Bago District, Bago Region, 08031, Myanmar",
        "road": null,
        "house_number": null,
        "neighbourhood": null,
        "suburb": null,
        "city_district": null,
        "city": "Ah Lel",
        "state": "Bago Region",
        "postcode": "08031",
        "country": "Myanmar",
        "country_code": "mm"
      },
      "address": "606, Ah Lel, Nyaunglebin Township, Bago District, Bago Region, 08031, Myanmar"
    },
    {
      "lat": 17.984142251255943,
      "lon": 96.70576253875264,
      "geoinfo": {
        "display_name": "NH12, Tha Yet Kone, Nyaunglebin Township, Bago District, Bago Region, Myanmar",
        "road": "NH12",
        "house_number": null,
        "neighbourhood": null,
        "suburb": null,
        "city_district": null,
        "city": "Tha Yet Kone",
        "state": "Bago Region",
        "postcode": null,
        "country": "Myanmar",
        "country_code": "mm"
      },
      "address": "NH12, Tha Yet Kone, Nyaunglebin Township, Bago District, 38375 Bago Region, Myanmar"
    }
  ],
  "updated_at": "2025-10-19T05:57:35.151988+00:00",
  "_kind": "geo_samples"
}