{
  "country_code": "MM",
  "country": "Myanmar",
  "city": "Pakokku",
  "geonameid": 1302439,
  "target_addresses": 2,
  "samples": [
    {
      "lat": 21.300302651111046,
      "lon": 95.05978927862357,
      "geoinfo": {
        "display_name": "Thin Baw Kone, Pakokku Township, Pakokku District, Magway, 04201, Myanmar",
        "road": null,
        "house_number": null,
        "neighbourhood": null,
        "suburb": null,
        "city_district": null,
        "city": "Thin Baw Kone",
        "state": "Magway",
        "postcode": "04201",
        "country": "Myanmar",
        "country_code": "mm"
      },
      "address": "Pakokku, Magway, Myanmar"
    },
    {
      "lat": 21.33253419610735,
      "lon": 95.08559597912608,
      "geoinfo": {
        "display_name": "Panswar Street, Pakokku, Pakokku Township, Pakokku District, Magway, 04201, Myanmar",
        "road": "Panswar Street",
        "house_number": null,
        "neighbourhood": null,
        "suburb": null,
        "city_district": null,
        "city": "Pakokku",
        "state": "Magway",
        "postcode": "04201",
        "country": "Myanmar",
        "country_code": "mm"
      },
      "address": "Panswar Street, Pakokku, Magway, Myanmar"
    },
    {
      "lat": 21.316319311227065,
      "lon": 95.07023486056535,
      "geoinfo": {
        "display_name": "Mei Za Li Tan, Pakokku Township, Pakokku District, Magway, 04201, Myanmar",
        "road": null,
        "house_number": null,
        "neighbourhood": null,
        "suburb": null,
        "city_district": null,
        "city": "Mei Za Li Tan",
        "state": "Magway",
        "postcode": "04201",
        "country": "Myanmar",
        "country_code": "mm"
      },
      "address": "588, Mei Za Li Tan, Pakokku Township, Pakokku District, Magway, 04201, Myanmar"
    },
    {
      "lat": 21.318463469937978,
      "lon": 95.12689206039444,
      "geoinfo": {
        "display_name": "Kyun Gyi, Taungtha Township, Myingyan District, Mandalay, Myanmar",
        "road": null,
        "house_number": null,
        "neighbourhood": null,
        "suburb": null,
        "city_district": null,
        "city": "Kyun Gyi",
        "state": "Mandalay",
        "postcode": null,
        "country": "Myanmar",
        "country_code": "mm"
      },
      "address": "771, Kyun Gyi, Taungtha Township, Myingyan District, 96406 Mandalay, Myanmar"
    }
  ],
  "updated_at": "2025-10-19T06:03:23.570489+00:00",
  "_kind": "geo_samples"
}