{
  "country_code": "MM",
  "country": "Myanmar",
  "city": "Yamethin",
  "geonameid": 1285899,
  "target_addresses": 2,
  "samples": [
    {
      "lat": 20.436483868278987,
      "lon": 96.16655541279344,
      "geoinfo": {
        "display_name": "Se Gyi, Yamethin Township, Yamethin District, Mandalay, Myanmar",
        "road": null,
        "house_number": null,
        "neighbourhood": null,
        "suburb": null,
        "city_district": null,
        "city": "Se Gyi",
        "state": "Mandalay",
        "postcode": null,
        "country": "Myanmar",
        "country_code": "mm"
      },
      "address": "Yamethin, Mandalay, Myanmar"
    },
    {
      "lat": 20.437977974484006,
      "lon": 96.13300801442792,
      "geoinfo": {
        "display_name": "No. (1) Police Training Depot, NH12, Yamethin Township, Yamethin, Yamethin Township, Yamethin District, Mandalay, Myanmar",
        "road": "NH12",
        "house_number": null,
        "neighbourhood": null,
        "suburb": null,
        "city_district": null,
        "city": "Yamethin",
        "state": "Mandalay",
        "postcode": null,
        "country": "Myanmar",
        "country_code": "mm"
      },
      "address": "NH12, Yamethin, Mandalay, Myanmar"
    },
    {
      "lat": 20.427741105255656,
      "lon": 96.16796003306682,
      "geoinfo": {
        "display_name": "Mar Li Kone, Yamethin Township, Yamethin District, Mandalay, Myanmar",
        "road": null,
        "house_number": null,
        "neighbourhood": null,
        "suburb": null,
        "city_district": null,
        "city": "Mar Li Kone",
        "state": "Mandalay",
        "postcode": null,
        "country": "Myanmar",
        "country_code": "mm"
      },
      "address": "191, Mar Li Kone, Yamethin Township, Yamethin District, 65554 Mandalay, Myanmar"
    },
    {
      "lat": 20.432678904419202,
      "lon": 96.13444725099261,
      "geoinfo": {
        "display_name": "Yamethin, Yamethin Township, Yamethin District, Mandalay, Myanmar",
        "road": null,
        "house_number": null,
        "neighbourhood": null,
        "suburb": null,
        "city_district": null,
        "city": "Yamethin",
        "state": "Mandalay",
        "postcode": null,
        "country": "Myanmar",
        "country_code": "mm"
      },
      "address": "964, Yamethin, Yamethin Township, Yamethin District, 42163 Mandalay, Myanmar"
    }
  ],
  "updated_at": "2025-10-19T06:03:02.966891+00:00",
  "_kind": "geo_samples"
}