{
  "country_code": "MM",
  "country": "Myanmar",
  "city": "Yangon",
  "geonameid": 1298824,
  "target_addresses": 2,
  "samples": [
    {
      "lat": 16.818539198353232,
      "lon": 96.19280096727854,
      "geoinfo": {
        "display_name": "Tint Yar Pin 3 Street, Su Paung Ein Yar Ward, Thingangyun, Thingangyun District, Yangon City, Yangon, 11071, Myanmar",
        "road": "Tint Yar Pin 3 Street",
        "house_number": null,
        "neighbourhood": null,
        "suburb": "Thingangyun",
        "city_district": null,
        "city": "Yangon City",
        "state": "Yangon",
        "postcode": "11071",
        "country": "Myanmar",
        "country_code": "mm"
      },
      "address": "Tint Yar Pin 3 Street, Yangon, Yangon, Myanmar"
    },
    {
      "lat": 16.818758260556336,
      "lon": 96.18390329198817,
      "geoinfo": {
        "display_name": "Soccer House Cafe, Waizayanta Road, Thut Waing Gyi Ward, Thingangyun, Thingangyun District, Yangon City, Yangon, 11212, Myanmar",
        "road": "Waizayanta Road",
        "house_number": null,
        "neighbourhood": null,
        "suburb": "Thingangyun",
        "city_district": null,
        "city": "Yangon City",
        "state": "Yangon",
        "postcode": "11212",
        "country": "Myanmar",
        "country_code": "mm"
      },
      "address": "Waizayanta Road, Yangon, Yangon, Myanmar"
    },
    {
      "lat": 16.841755317288452,
      "lon": 96.16929730455449,
      "geoinfo": {
        "display_name": "Shae Toeh Street, No (12) Ward, Yankin, Thingangyun District, Yangon City, Yangon, 11062, Myanmar",
        "road": "Shae Toeh Street",
        "house_number": null,
        "neighbourhood": null,
        "suburb": "Yankin",
        "city_district": null,
        "city": "Yangon City",
        "state": "Yangon",
        "postcode": "11062",
        "country": "Myanmar",
        "country_code": "mm"
      },
      "address": "Shae Toeh Street, No (12) Ward, Yankin, Thingangyun District, Yangon City, Yangon, 11062, Myanmar"
    },
    {
      "lat": 16.791190948045013,
      "lon": 96.13155288863118,
      "geoinfo": {
        "display_name": "Kayin Chan Ward, Ahlone, Ahlon District, Yangon City, Yangon, 11191, Myanmar",
        "road": null,
        "house_number": null,
        "neighbourhood": null,
        "suburb": "Ahlone",
        "city_district": null,
        "city": "Yangon City",
        "state": "Yangon",
        "postcode": "11191",
        "country": "Myanmar",
        "country_code": "mm"
      },
      "address": "665, Kayin Chan Ward, Ahlone, Ahlon District, Yangon City, Yangon, 11191, Myanmar"
    }
  ],
  "updated_at": "2025-10-19T04:18:27.460277+00:00",
  "_kind": "geo_samples"
}