{
  "country_code": "MM",
  "country": "Myanmar",
  "city": "Yawnghwe",
  "geonameid": 1285693,
  "target_addresses": 2,
  "samples": [
    {
      "lat": 20.657487180882406,
      "lon": 96.91192150286139,
      "geoinfo": {
        "display_name": "Kab Hla Ywa village, Nyaungshwe Township, Kalaw District, Shan State, 06081, Myanmar",
        "road": null,
        "house_number": null,
        "neighbourhood": null,
        "suburb": null,
        "city_district": null,
        "city": "Kab Hla Ywa village",
        "state": "Shan State",
        "postcode": "06081",
        "country": "Myanmar",
        "country_code": "mm"
      },
      "address": "Yawnghwe, Shan State, Myanmar"
    },
    {
      "lat": 20.618057440419204,
      "lon": 96.92809922353261,
      "geoinfo": {
        "display_name": "monastery, Red Mountain Winery Entry Road, Nyaung Shwe, Nyaungshwe Township, Kalaw District, Shan State, 06081, Myanmar",
        "road": "Red Mountain Winery Entry Road",
        "house_number": null,
        "neighbourhood": null,
        "suburb": null,
        "city_district": null,
        "city": "Nyaung Shwe",
        "state": "Shan State",
        "postcode": "06081",
        "country": "Myanmar",
        "country_code": "mm"
      },
      "address": "Red Mountain Winery Entry Road, Yawnghwe, Shan State, Myanmar"
    },
    {
      "lat": 20.617450323745867,
      "lon": 96.92426229230819,
      "geoinfo": {
        "display_name": "Ywa Thit Village, Nyaungshwe Township, Kalaw District, Shan State, 06081, Myanmar",
        "road": null,
        "house_number": null,
        "neighbourhood": null,
        "suburb": null,
        "city_district": null,
        "city": "Ywa Thit Village",
        "state": "Shan State",
        "postcode": "06081",
        "country": "Myanmar",
        "country_code": "mm"
      },
      "address": "547, Ywa Thit Village, Nyaungshwe Township, Kalaw District, Shan State, 06081, Myanmar"
    },
    {
      "lat": 20.627461292052214,
      "lon": 96.90818530379713,
      "geoinfo": {
        "display_name": "Nyaung Wunn Kyaung, Nyaungshwe Township, Kalaw District, Shan State, Myanmar",
        "road": null,
        "house_number": null,
        "neighbourhood": null,
        "suburb": null,
        "city_district": null,
        "city": "Nyaung Wunn Kyaung",
        "state": "Shan State",
        "postcode": null,
        "country": "Myanmar",
        "country_code": "mm"
      },
      "address": "026, Nyaung Wunn Kyaung, Nyaungshwe Township, Kalaw District, 00885 Shan State, Myanmar"
    }
  ],
  "updated_at": "2025-10-19T03:51:36.787969+00:00",
  "_kind": "geo_samples"
}