{
  "country_code": "HU",
  "country": "Hungary",
  "city": "Dombóvár",
  "geonameid": 3053590,
  "target_addresses": 4,
  "samples": [
    {
      "lat": 46.38785212602252,
      "lon": 18.155646775687213,
      "geoinfo": {
        "display_name": "Csiky Gergely utca, Újtelep, Dombóvár, Dombóvári járás, Tolna, Southern Transdanubia, Transdanubia, 7200, Hungary",
        "road": "Csiky Gergely utca",
        "house_number": null,
        "neighbourhood": null,
        "suburb": "Újtelep",
        "city_district": null,
        "city": "Dombóvár",
        "state": null,
        "postcode": "7200",
        "country": "Hungary",
        "country_code": "hu"
      },
      "address": "Csiky Gergely utca, Dombóvár, Hungary"
    },
    {
      "lat": 46.40240391968062,
      "lon": 18.137993829014288,
      "geoinfo": {
        "display_name": "Öreg tölgy-forrás, Horgásztanya, Tüske, Dombóvár, Dombóvári járás, Tolna, Southern Transdanubia, 7200, Hungary",
        "road": "Horgásztanya",
        "house_number": null,
        "neighbourhood": null,
        "suburb": "Tüske",
        "city_district": null,
        "city": "Dombóvár",
        "state": null,
        "postcode": "7200",
        "country": "Hungary",
        "country_code": "hu"
      },
      "address": "046, Horgásztanya, 7200 Dombóvár, Hungary"
    },
    {
      "lat": 46.38519745064285,
      "lon": 18.080241770099313,
      "geoinfo": {
        "display_name": "Attala Hal Kft., Attala, Dombóvári járás, Tolna, Southern Transdanubia, 7252, Hungary",
        "road": null,
        "house_number": null,
        "neighbourhood": null,
        "suburb": null,
        "city_district": null,
        "city": "Attala",
        "state": null,
        "postcode": "7252",
        "country": "Hungary",
        "country_code": "hu"
      },
      "address": "074, Attala Hal Kft., Attala, Dombóvári járás, Tolna, Southern Transdanubia, 7252, Hungary"
    },
    {
      "lat": 46.36953328048306,
      "lon": 18.13249172691347,
      "geoinfo": {
        "display_name": "Dózsa György utca, Kakasdomb, Dombóvár, Dombóvári járás, Tolna, Southern Transdanubia, 7200, Hungary",
        "road": "Dózsa György utca",
        "house_number": null,
        "neighbourhood": null,
        "suburb": "Kakasdomb",
        "city_district": null,
        "city": "Dombóvár",
        "state": null,
        "postcode": "7200",
        "country": "Hungary",
        "country_code": "hu"
      },
      "address": "324, Dózsa György utca, Kakasdomb, Dombóvár, Dombóvári járás, Tolna, Southern Transdanubia, 7200, Hungary"
    }
  ],
  "updated_at": "2025-10-19T04:47:07.154839+00:00",
  "_kind": "geo_samples"
}