{
  "country_code": "HU",
  "country": "Hungary",
  "city": "Gyöngyös",
  "geonameid": 3052040,
  "target_addresses": 3,
  "samples": [
    {
      "lat": 47.801055945030505,
      "lon": 19.898826299864727,
      "geoinfo": {
        "display_name": "Gyöngyössolymos, Gyöngyösi járás, Heves, North Hungary, Great Plain and North, 3231, Hungary",
        "road": null,
        "house_number": null,
        "neighbourhood": null,
        "suburb": null,
        "city_district": null,
        "city": "Gyöngyössolymos",
        "state": null,
        "postcode": "3231",
        "country": "Hungary",
        "country_code": "hu"
      },
      "address": "Gyöngyös, Hungary"
    },
    {
      "lat": 47.806640861031575,
      "lon": 19.87557556869036,
      "geoinfo": {
        "display_name": "Klapka György utca, Al-szög, Gyöngyöstarján, Gyöngyösi járás, Heves, North Hungary, 3036, Hungary",
        "road": "Klapka György utca",
        "house_number": null,
        "neighbourhood": "Al-szög",
        "suburb": null,
        "city_district": null,
        "city": "Gyöngyöstarján",
        "state": null,
        "postcode": "3036",
        "country": "Hungary",
        "country_code": "hu"
      },
      "address": "556, Klapka György utca, 3036 Gyöngyös, Hungary"
    },
    {
      "lat": 47.798412927460035,
      "lon": 19.944845646007554,
      "geoinfo": {
        "display_name": "24, Kakastánc, Gyöngyös, Gyöngyösi járás, Heves, North Hungary, Great Plain and North, 3200, Hungary",
        "road": "24",
        "house_number": null,
        "neighbourhood": null,
        "suburb": "Kakastánc",
        "city_district": null,
        "city": "Gyöngyös",
        "state": null,
        "postcode": "3200",
        "country": "Hungary",
        "country_code": "hu"
      },
      "address": "24, Kakastánc, Gyöngyös, Gyöngyösi járás, Heves, North Hungary, Great Plain and North, 3200, Hungary"
    },
    {
      "lat": 47.76594204899769,
      "lon": 19.929039604240156,
      "geoinfo": {
        "display_name": "Kenyérgyár utca, Nyolcvanas lakótelep, Gyöngyös, Gyöngyösi járás, Heves, North Hungary, 3200, Hungary",
        "road": "Kenyérgyár utca",
        "house_number": null,
        "neighbourhood": null,
        "suburb": "Nyolcvanas lakótelep",
        "city_district": null,
        "city": "Gyöngyös",
        "state": null,
        "postcode": "3200",
        "country": "Hungary",
        "country_code": "hu"
      },
      "address": "758, Kenyérgyár utca, Nyolcvanas lakótelep, Gyöngyös, Gyöngyösi járás, Heves, North Hungary, 3200, Hungary"
    }
  ],
  "updated_at": "2025-10-19T04:46:59.078758+00:00",
  "_kind": "geo_samples"
}