{
  "country_code": "HU",
  "country": "Hungary",
  "city": "Zugló",
  "geonameid": 3042430,
  "target_addresses": 4,
  "samples": [
    {
      "lat": 47.53084143063373,
      "lon": 19.07717446185273,
      "geoinfo": {
        "display_name": "Szegedi út, Országbíró utcai lakótelep, Angyalföld, 13th district, Budapest, Central Hungary, 1139, Hungary",
        "road": "Szegedi út",
        "house_number": null,
        "neighbourhood": "Országbíró utcai lakótelep",
        "suburb": "Angyalföld",
        "city_district": null,
        "city": "Budapest",
        "state": null,
        "postcode": "1139",
        "country": "Hungary",
        "country_code": "hu"
      },
      "address": "Szegedi út, Zugló, Hungary"
    },
    {
      "lat": 47.53922994022859,
      "lon": 19.047725025506566,
      "geoinfo": {
        "display_name": "Árpád Bridge, Róbert Károly körút, Vizafogó lakótelep, Vizafogó, 13th district, Budapest, Central Hungary, 1138, Hungary",
        "road": "Róbert Károly körút",
        "house_number": null,
        "neighbourhood": null,
        "suburb": "Vizafogó",
        "city_district": null,
        "city": "Budapest",
        "state": null,
        "postcode": "1138",
        "country": "Hungary",
        "country_code": "hu"
      },
      "address": "Árpád Bridge, Róbert Károly körút, Vizafogó lakótelep, Vizafogó, 13th district, Budapest, Central Hungary, 1138, Hungary"
    },
    {
      "lat": 47.489711462569275,
      "lon": 19.094721816539398,
      "geoinfo": {
        "display_name": "Kőbányai út, Ganz negyed, 8th district, Budapest, Central Hungary, 1087, Hungary",
        "road": "Kőbányai út",
        "house_number": null,
        "neighbourhood": null,
        "suburb": "Ganz negyed",
        "city_district": null,
        "city": "Budapest",
        "state": null,
        "postcode": "1087",
        "country": "Hungary",
        "country_code": "hu"
      },
      "address": "Kőbányai út, Ganz negyed, 8th district, Budapest, Central Hungary, 1087, Hungary"
    },
    {
      "lat": 47.55488764327382,
      "lon": 19.123772750307634,
      "geoinfo": {
        "display_name": "53, Tompa Mihály utca, Benkőtelep, Rákospalota, 15th district, Budapest, Central Hungary, 1154, Hungary",
        "road": "Tompa Mihály utca",
        "house_number": "53",
        "neighbourhood": null,
        "suburb": "Rákospalota",
        "city_district": null,
        "city": "Budapest",
        "state": null,
        "postcode": "1154",
        "country": "Hungary",
        "country_code": "hu"
      },
      "address": "53, Tompa Mihály utca, Benkőtelep, Rákospalota, 15th district, Budapest, Central Hungary, 1154, Hungary"
    }
  ],
  "updated_at": "2025-10-19T04:46:15.827469+00:00",
  "_kind": "geo_samples"
}