{
  "country_code": "AS",
  "country": "American Samoa",
  "city": "Pago Pago",
  "geonameid": 5881576,
  "target_addresses": 100,
  "samples": [
    {
      "lat": -14.248265890807273,
      "lon": -170.7262004532018,
      "geoinfo": {
        "display_name": "Pago Pago, Maʻopūtasi County, Eastern District, American Samoa, United States",
        "road": null,
        "house_number": null,
        "neighbourhood": null,
        "suburb": null,
        "city_district": null,
        "city": "Pago Pago",
        "state": "American Samoa",
        "postcode": null,
        "country": "United States",
        "country_code": "us"
      },
      "address": "Pago Pago, American Samoa, American Samoa"
    },
    {
      "lat": -14.281115685362984,
      "lon": -170.67969655171458,
      "geoinfo": {
        "display_name": "U.S. Naval Station Tutuila Historic District, Route 001, Fagaʻalu, Utulei, Maʻopūtasi County, Eastern District, American Samoa, 96799, United States",
        "road": "Route 001",
        "house_number": null,
        "neighbourhood": null,
        "suburb": null,
        "city_district": null,
        "city": "Fagaʻalu",
        "state": "American Samoa",
        "postcode": "96799",
        "country": "United States",
        "country_code": "us"
      },
      "address": "Route 001, Pago Pago, American Samoa, American Samoa"
    },
    {
      "lat": -14.271229765629062,
      "lon": -170.71694294967511,
      "geoinfo": {
        "display_name": "Mt. Alava Summit Access Road/NPS Trail Segment A, Pago Pago, Maʻopūtasi County, Eastern District, American Samoa, 96799, United States",
        "road": "Mt. Alava Summit Access Road/NPS Trail Segment A",
        "house_number": null,
        "neighbourhood": null,
        "suburb": null,
        "city_district": null,
        "city": "Pago Pago",
        "state": "American Samoa",
        "postcode": "96799",
        "country": "United States",
        "country_code": "us"
      },
      "address": "Mt. Alava Summit Access Road/NPS Trail Segment A, Pago Pago, American Samoa, American Samoa"
    },
    {
      "lat": -14.27446322955815,
      "lon": -170.70482650830866,
      "geoinfo": {
        "display_name": "Route 005, Pago Pago, Maʻopūtasi County, Eastern District, American Samoa, 96799, United States",
        "road": "Route 005",
        "house_number": null,
        "neighbourhood": null,
        "suburb": null,
        "city_district": null,
        "city": "Pago Pago",
        "state": "American Samoa",
        "postcode": "96799",
        "country": "United States",
        "country_code": "us"
      },
      "address": "Route 005, Pago Pago, American Samoa, American Samoa"
    },
    {
      "lat": -14.264536815095369,
      "lon": -170.68549216901997,
      "geoinfo": {
        "display_name": "Mount 'Alava Adventure Trail, Vatia, Vaifanua County, Eastern District, American Samoa, 96799, United States",
        "road": "Mount 'Alava Adventure Trail",
        "house_number": null,
        "neighbourhood": null,
        "suburb": null,
        "city_district": null,
        "city": "Vatia",
        "state": "American Samoa",
        "postcode": "96799",
        "country": "United States",
        "country_code": "us"
      },
      "address": "Mount 'Alava Adventure Trail, Pago Pago, American Samoa, American Samoa"
    },
    {
      "lat": -14.298083454974948,
      "lon": -170.70549805624438,
      "geoinfo": {
        "display_name": "Matafao Trail, Pago Pago, Maʻopūtasi County, Eastern District, American Samoa, 96799, United States",
        "road": "Matafao Trail",
        "house_number": null,
        "neighbourhood": null,
        "suburb": null,
        "city_district": null,
        "city": "Pago Pago",
        "state": "American Samoa",
        "postcode": "96799",
        "country": "United States",
        "country_code": "us"
      },
      "address": "Matafao Trail, Pago Pago, American Samoa, American Samoa"
    },
    {
      "lat": -14.270573121933548,
      "lon": -170.66076820066246,
      "geoinfo": {
        "display_name": "Route 006, ʻAūa, Maʻopūtasi County, Eastern District, American Samoa, 96799, United States",
        "road": "Route 006",
        "house_number": null,
        "neighbourhood": null,
        "suburb": null,
        "city_district": null,
        "city": "ʻAūa",
        "state": "American Samoa",
        "postcode": "96799",
        "country": "United States",
        "country_code": "us"
      },
      "address": "Route 006, Pago Pago, American Samoa, American Samoa"
    },
    {
      "lat": -14.287183033954038,
      "lon": -170.69534068781962,
      "geoinfo": {
        "display_name": "AS104, Fagaʻalu, Maʻopūtasi County, Eastern District, American Samoa, 96799, United States",
        "road": "AS104",
        "house_number": null,
        "neighbourhood": null,
        "suburb": null,
        "city_district": null,
        "city": "Fagaʻalu",
        "state": "American Samoa",
        "postcode": "96799",
        "country": "United States",
        "country_code": "us"
      },
      "address": "AS104, Pago Pago, American Samoa, American Samoa"
    },
    {
      "lat": -14.29811158993452,
      "lon": -170.73610605258776,
      "geoinfo": {
        "display_name": "Aʻasu, Leasina County, Western District, American Samoa, United States",
        "road": null,
        "house_number": null,
        "neighbourhood": null,
        "suburb": null,
        "city_district": null,
        "city": "Aʻasu",
        "state": "American Samoa",
        "postcode": null,
        "country": "United States",
        "country_code": "us"
      },
      "address": "602, Aʻasu, Leasina County, Western District, 73257 American Samoa, United States"
    },
    {
      "lat": -14.238834194551131,
      "lon": -170.68903272691557,
      "geoinfo": {
        "display_name": "Vatia, Vaifanua County, Eastern District, American Samoa, United States",
        "road": null,
        "house_number": null,
        "neighbourhood": null,
        "suburb": null,
        "city_district": null,
        "city": "Vatia",
        "state": "American Samoa",
        "postcode": null,
        "country": "United States",
        "country_code": "us"
      },
      "address": "714, Vatia, Vaifanua County, Eastern District, 03331 American Samoa, United States"
    },
    {
      "lat": -14.29735934749445,
      "lon": -170.68863348878583,
      "geoinfo": {
        "display_name": "Matu'u, Ituʻau County, Eastern District, American Samoa, 96799, United States",
        "road": null,
        "house_number": null,
        "neighbourhood": null,
        "suburb": null,
        "city_district": null,
        "city": "Matu'u",
        "state": "American Samoa",
        "postcode": "96799",
        "country": "United States",
        "country_code": "us"
      },
      "address": "396, Matu'u, Ituʻau County, Eastern District, American Samoa, 96799, United States"
    },
    {
      "lat": -14.286169321537987,
      "lon": -170.69027981851596,
      "geoinfo": {
        "display_name": "WWII Heritage Trail, Utulei, Maʻopūtasi County, Eastern District, American Samoa, 96799, United States",
        "road": "WWII Heritage Trail",
        "house_number": null,
        "neighbourhood": null,
        "suburb": null,
        "city_district": null,
        "city": "Utulei",
        "state": "American Samoa",
        "postcode": "96799",
        "country": "United States",
        "country_code": "us"
      },
      "address": "206, WWII Heritage Trail, Utulei, Maʻopūtasi County, Eastern District, American Samoa, 96799, United States"
    },
    {
      "lat": -14.286529611501509,
      "lon": -170.7416791617798,
      "geoinfo": {
        "display_name": "Fagasa, Ituʻau County, Eastern District, American Samoa, United States",
        "road": null,
        "house_number": null,
        "neighbourhood": null,
        "suburb": null,
        "city_district": null,
        "city": "Fagasa",
        "state": "American Samoa",
        "postcode": null,
        "country": "United States",
        "country_code": "us"
      },
      "address": "281, Fagasa, Ituʻau County, Eastern District, 99722 American Samoa, United States"
    },
    {
      "lat": -14.263491903838663,
      "lon": -170.69136242602576,
      "geoinfo": {
        "display_name": "Mt. Alava Summit Access Road/NPS Trail Segment A, Pago Pago, Maʻopūtasi County, Eastern District, American Samoa, 96799, United States",
        "road": "Mt. Alava Summit Access Road/NPS Trail Segment A",
        "house_number": null,
        "neighbourhood": null,
        "suburb": null,
        "city_district": null,
        "city": "Pago Pago",
        "state": "American Samoa",
        "postcode": "96799",
        "country": "United States",
        "country_code": "us"
      },
      "address": "493, Mt. Alava Summit Access Road/NPS Trail Segment A, Pago Pago, Maʻopūtasi County, Eastern District, American Samoa, 96799, United States"
    },
    {
      "lat": -14.235295050276317,
      "lon": -170.6950816391461,
      "geoinfo": {
        "display_name": "Vatia, Vaifanua County, Eastern District, American Samoa, United States",
        "road": null,
        "house_number": null,
        "neighbourhood": null,
        "suburb": null,
        "city_district": null,
        "city": "Vatia",
        "state": "American Samoa",
        "postcode": null,
        "country": "United States",
        "country_code": "us"
      },
      "address": "669, Vatia, Vaifanua County, Eastern District, 84500 American Samoa, United States"
    },
    {
      "lat": -14.318720263072322,
      "lon": -170.70477632871427,
      "geoinfo": {
        "display_name": "Nuʻuuli, Ituʻau County, Eastern District, American Samoa, 96799, United States",
        "road": null,
        "house_number": null,
        "neighbourhood": null,
        "suburb": null,
        "city_district": null,
        "city": "Nuʻuuli",
        "state": "American Samoa",
        "postcode": "96799",
        "country": "United States",
        "country_code": "us"
      },
      "address": "664, Nuʻuuli, Ituʻau County, Eastern District, American Samoa, 96799, United States"
    },
    {
      "lat": -14.295449293334293,
      "lon": -170.69253902099894,
      "geoinfo": {
        "display_name": "Fagaʻalu, Maʻopūtasi County, Eastern District, American Samoa, 96799, United States",
        "road": null,
        "house_number": null,
        "neighbourhood": null,
        "suburb": null,
        "city_district": null,
        "city": "Fagaʻalu",
        "state": "American Samoa",
        "postcode": "96799",
        "country": "United States",
        "country_code": "us"
      },
      "address": "602, Fagaʻalu, Maʻopūtasi County, Eastern District, American Samoa, 96799, United States"
    },
    {
      "lat": -14.285840262403918,
      "lon": -170.665763209717,
      "geoinfo": {
        "display_name": "Route 001, Starkist Tuna, ʻAūa, Maʻopūtasi County, Eastern District, American Samoa, 96799, United States",
        "road": "Route 001",
        "house_number": null,
        "neighbourhood": null,
        "suburb": null,
        "city_district": null,
        "city": "ʻAūa",
        "state": "American Samoa",
        "postcode": "96799",
        "country": "United States",
        "country_code": "us"
      },
      "address": "Route 001, Starkist Tuna, ʻAūa, Maʻopūtasi County, Eastern District, American Samoa, 96799, United States"
    },
    {
      "lat": -14.28212031035528,
      "lon": -170.747358390765,
      "geoinfo": {
        "display_name": "Fagasa, Ituʻau County, Eastern District, American Samoa, United States",
        "road": null,
        "house_number": null,
        "neighbourhood": null,
        "suburb": null,
        "city_district": null,
        "city": "Fagasa",
        "state": "American Samoa",
        "postcode": null,
        "country": "United States",
        "country_code": "us"
      },
      "address": "247, Fagasa, Ituʻau County, Eastern District, 69703 American Samoa, United States"
    },
    {
      "lat": -14.270234946123868,
      "lon": -170.67233033753092,
      "geoinfo": {
        "display_name": "Route 001, Starkist Tuna, ʻAūa, Leloaloa, Maʻopūtasi County, Eastern District, American Samoa, 96799, United States",
        "road": "Route 001",
        "house_number": null,
        "neighbourhood": null,
        "suburb": null,
        "city_district": null,
        "city": "ʻAūa",
        "state": "American Samoa",
        "postcode": "96799",
        "country": "United States",
        "country_code": "us"
      },
      "address": "Route 001, Starkist Tuna, ʻAūa, Leloaloa, Maʻopūtasi County, Eastern District, American Samoa, 96799, United States"
    },
    {
      "lat": -14.29318324903728,
      "lon": -170.69281302010515,
      "geoinfo": {
        "display_name": "Fagaʻalu, Maʻopūtasi County, Eastern District, American Samoa, 96799, United States",
        "road": null,
        "house_number": null,
        "neighbourhood": null,
        "suburb": null,
        "city_district": null,
        "city": "Fagaʻalu",
        "state": "American Samoa",
        "postcode": "96799",
        "country": "United States",
        "country_code": "us"
      },
      "address": "368, Fagaʻalu, Maʻopūtasi County, Eastern District, American Samoa, 96799, United States"
    },
    {
      "lat": -14.281806140252113,
      "lon": -170.72461164153904,
      "geoinfo": {
        "display_name": "Route 005, Fagasa, Ituʻau County, Eastern District, American Samoa, 96799, United States",
        "road": "Route 005",
        "house_number": null,
        "neighbourhood": null,
        "suburb": null,
        "city_district": null,
        "city": "Fagasa",
        "state": "American Samoa",
        "postcode": "96799",
        "country": "United States",
        "country_code": "us"
      },
      "address": "Route 005, Fagasa, Ituʻau County, Eastern District, American Samoa, 96799, United States"
    },
    {
      "lat": -14.283612118521233,
      "lon": -170.72058120610578,
      "geoinfo": {
        "display_name": "Route 005, Fagasa, Ituʻau County, Eastern District, American Samoa, 96799, United States",
        "road": "Route 005",
        "house_number": null,
        "neighbourhood": null,
        "suburb": null,
        "city_district": null,
        "city": "Fagasa",
        "state": "American Samoa",
        "postcode": "96799",
        "country": "United States",
        "country_code": "us"
      },
      "address": "Route 005, Pago Pago, 96799 American Samoa, American Samoa"
    },
    {
      "lat": -14.276632249968344,
      "lon": -170.69606490386258,
      "geoinfo": {
        "display_name": "Fagatogo, Maʻopūtasi County, Eastern District, American Samoa, 96799, United States",
        "road": null,
        "house_number": null,
        "neighbourhood": null,
        "suburb": null,
        "city_district": null,
        "city": "Fagatogo",
        "state": "American Samoa",
        "postcode": "96799",
        "country": "United States",
        "country_code": "us"
      },
      "address": "772, Fagatogo, Maʻopūtasi County, Eastern District, American Samoa, 96799, United States"
    },
    {
      "lat": -14.319240521154603,
      "lon": -170.68439250974856,
      "geoinfo": {
        "display_name": "Nuʻuuli, Ituʻau County, Eastern District, American Samoa, 96799, United States",
        "road": null,
        "house_number": null,
        "neighbourhood": null,
        "suburb": null,
        "city_district": null,
        "city": "Nuʻuuli",
        "state": "American Samoa",
        "postcode": "96799",
        "country": "United States",
        "country_code": "us"
      },
      "address": "826, Nuʻuuli, Ituʻau County, Eastern District, American Samoa, 96799, United States"
    },
    {
      "lat": -14.305494968871566,
      "lon": -170.70886706395825,
      "geoinfo": {
        "display_name": "Nuʻuuli, Ituʻau County, Eastern District, American Samoa, 96799, United States",
        "road": null,
        "house_number": null,
        "neighbourhood": null,
        "suburb": null,
        "city_district": null,
        "city": "Nuʻuuli",
        "state": "American Samoa",
        "postcode": "96799",
        "country": "United States",
        "country_code": "us"
      },
      "address": "081, Nuʻuuli, Ituʻau County, Eastern District, American Samoa, 96799, United States"
    },
    {
      "lat": -14.24910708896648,
      "lon": -170.73257296041186,
      "geoinfo": {
        "display_name": "Pago Pago, Maʻopūtasi County, Eastern District, American Samoa, United States",
        "road": null,
        "house_number": null,
        "neighbourhood": null,
        "suburb": null,
        "city_district": null,
        "city": "Pago Pago",
        "state": "American Samoa",
        "postcode": null,
        "country": "United States",
        "country_code": "us"
      },
      "address": "212, Pago Pago, Maʻopūtasi County, Eastern District, 87082 American Samoa, United States"
    },
    {
      "lat": -14.318298241853538,
      "lon": -170.70972698192548,
      "geoinfo": {
        "display_name": "Nuʻuuli, Ituʻau County, Eastern District, American Samoa, 96799, United States",
        "road": null,
        "house_number": null,
        "neighbourhood": null,
        "suburb": null,
        "city_district": null,
        "city": "Nuʻuuli",
        "state": "American Samoa",
        "postcode": "96799",
        "country": "United States",
        "country_code": "us"
      },
      "address": "127, Nuʻuuli, Ituʻau County, Eastern District, American Samoa, 96799, United States"
    },
    {
      "lat": -14.297101117894389,
      "lon": -170.7240450647397,
      "geoinfo": {
        "display_name": "Fagasa, Ituʻau County, Eastern District, American Samoa, 96799, United States",
        "road": null,
        "house_number": null,
        "neighbourhood": null,
        "suburb": null,
        "city_district": null,
        "city": "Fagasa",
        "state": "American Samoa",
        "postcode": "96799",
        "country": "United States",
        "country_code": "us"
      },
      "address": "210, Fagasa, Ituʻau County, Eastern District, American Samoa, 96799, United States"
    },
    {
      "lat": -14.252573525757686,
      "lon": -170.67325900477246,
      "geoinfo": {
        "display_name": "AS006, Vatia, Vaifanua County, Eastern District, American Samoa, United States",
        "road": "AS006",
        "house_number": null,
        "neighbourhood": null,
        "suburb": null,
        "city_district": null,
        "city": "Vatia",
        "state": "American Samoa",
        "postcode": null,
        "country": "United States",
        "country_code": "us"
      },
      "address": "AS006, Vatia, Vaifanua County, Eastern District, 04223 American Samoa, United States"
    },
    {
      "lat": -14.287042453149203,
      "lon": -170.69306580721857,
      "geoinfo": {
        "display_name": "AS104, Fagaʻalu, Maʻopūtasi County, Eastern District, American Samoa, 96799, United States",
        "road": "AS104",
        "house_number": null,
        "neighbourhood": null,
        "suburb": null,
        "city_district": null,
        "city": "Fagaʻalu",
        "state": "American Samoa",
        "postcode": "96799",
        "country": "United States",
        "country_code": "us"
      },
      "address": "AS104, Fagaʻalu, Maʻopūtasi County, Eastern District, American Samoa, 96799, United States"
    },
    {
      "lat": -14.240731476314025,
      "lon": -170.7053853716334,
      "geoinfo": {
        "display_name": "Pago Pago, Maʻopūtasi County, Eastern District, American Samoa, United States",
        "road": null,
        "house_number": null,
        "neighbourhood": null,
        "suburb": null,
        "city_district": null,
        "city": "Pago Pago",
        "state": "American Samoa",
        "postcode": null,
        "country": "United States",
        "country_code": "us"
      },
      "address": "179, Pago Pago, Maʻopūtasi County, Eastern District, 42949 American Samoa, United States"
    },
    {
      "lat": -14.31241989885456,
      "lon": -170.70283584798815,
      "geoinfo": {
        "display_name": "Nuʻuuli, Ituʻau County, Eastern District, American Samoa, 96799, United States",
        "road": null,
        "house_number": null,
        "neighbourhood": null,
        "suburb": null,
        "city_district": null,
        "city": "Nuʻuuli",
        "state": "American Samoa",
        "postcode": "96799",
        "country": "United States",
        "country_code": "us"
      },
      "address": "016, Nuʻuuli, Ituʻau County, Eastern District, American Samoa, 96799, United States"
    },
    {
      "lat": -14.278957699944014,
      "lon": -170.7463610910475,
      "geoinfo": {
        "display_name": "Fagasa, Ituʻau County, Eastern District, American Samoa, United States",
        "road": null,
        "house_number": null,
        "neighbourhood": null,
        "suburb": null,
        "city_district": null,
        "city": "Fagasa",
        "state": "American Samoa",
        "postcode": null,
        "country": "United States",
        "country_code": "us"
      },
      "address": "121, Fagasa, Ituʻau County, Eastern District, 92994 American Samoa, United States"
    },
    {
      "lat": -14.268224778562976,
      "lon": -170.7314972494589,
      "geoinfo": {
        "display_name": "Fagasa, Ituʻau County, Eastern District, American Samoa, United States",
        "road": null,
        "house_number": null,
        "neighbourhood": null,
        "suburb": null,
        "city_district": null,
        "city": "Fagasa",
        "state": "American Samoa",
        "postcode": null,
        "country": "United States",
        "country_code": "us"
      },
      "address": "878, Fagasa, Ituʻau County, Eastern District, 20445 American Samoa, United States"
    },
    {
      "lat": -14.312885379762276,
      "lon": -170.68334517773255,
      "geoinfo": {
        "display_name": "Nuʻuuli, Ituʻau County, Eastern District, American Samoa, 96799, United States",
        "road": null,
        "house_number": null,
        "neighbourhood": null,
        "suburb": null,
        "city_district": null,
        "city": "Nuʻuuli",
        "state": "American Samoa",
        "postcode": "96799",
        "country": "United States",
        "country_code": "us"
      },
      "address": "226, Nuʻuuli, Ituʻau County, Eastern District, American Samoa, 96799, United States"
    },
    {
      "lat": -14.282817847044692,
      "lon": -170.67895076745504,
      "geoinfo": {
        "display_name": "Route 001, Fagaʻalu, Utulei, Maʻopūtasi County, Eastern District, American Samoa, 96799, United States",
        "road": "Route 001",
        "house_number": null,
        "neighbourhood": null,
        "suburb": null,
        "city_district": null,
        "city": "Fagaʻalu",
        "state": "American Samoa",
        "postcode": "96799",
        "country": "United States",
        "country_code": "us"
      },
      "address": "Route 001, Fagaʻalu, Utulei, Maʻopūtasi County, Eastern District, American Samoa, 96799, United States"
    },
    {
      "lat": -14.236955739175205,
      "lon": -170.71150464142625,
      "geoinfo": {
        "display_name": "Pago Pago, Maʻopūtasi County, Eastern District, American Samoa, United States",
        "road": null,
        "house_number": null,
        "neighbourhood": null,
        "suburb": null,
        "city_district": null,
        "city": "Pago Pago",
        "state": "American Samoa",
        "postcode": null,
        "country": "United States",
        "country_code": "us"
      },
      "address": "192, Pago Pago, Maʻopūtasi County, Eastern District, 70298 American Samoa, United States"
    },
    {
      "lat": -14.237286938805724,
      "lon": -170.68970755949434,
      "geoinfo": {
        "display_name": "Vatia, Vaifanua County, Eastern District, American Samoa, United States",
        "road": null,
        "house_number": null,
        "neighbourhood": null,
        "suburb": null,
        "city_district": null,
        "city": "Vatia",
        "state": "American Samoa",
        "postcode": null,
        "country": "United States",
        "country_code": "us"
      },
      "address": "476, Vatia, Vaifanua County, Eastern District, 43952 American Samoa, United States"
    },
    {
      "lat": -14.278266704589086,
      "lon": -170.70255066225013,
      "geoinfo": {
        "display_name": "Pago Pago, Maʻopūtasi County, Eastern District, American Samoa, 96799, United States",
        "road": null,
        "house_number": null,
        "neighbourhood": null,
        "suburb": null,
        "city_district": null,
        "city": "Pago Pago",
        "state": "American Samoa",
        "postcode": "96799",
        "country": "United States",
        "country_code": "us"
      },
      "address": "796, Pago Pago, Maʻopūtasi County, Eastern District, American Samoa, 96799, United States"
    },
    {
      "lat": -14.278015732025695,
      "lon": -170.720797730725,
      "geoinfo": {
        "display_name": "Mt. Alava Summit Access Road/NPS Trail Segment A, Fagasa, Ituʻau County, Eastern District, American Samoa, 96799, United States",
        "road": "Mt. Alava Summit Access Road/NPS Trail Segment A",
        "house_number": null,
        "neighbourhood": null,
        "suburb": null,
        "city_district": null,
        "city": "Fagasa",
        "state": "American Samoa",
        "postcode": "96799",
        "country": "United States",
        "country_code": "us"
      },
      "address": "984, Mt. Alava Summit Access Road/NPS Trail Segment A, Fagasa, Ituʻau County, Eastern District, American Samoa, 96799, United States"
    },
    {
      "lat": -14.281843216611705,
      "lon": -170.70834952560045,
      "geoinfo": {
        "display_name": "Pago Pago, Maʻopūtasi County, Eastern District, American Samoa, 96799, United States",
        "road": null,
        "house_number": null,
        "neighbourhood": null,
        "suburb": null,
        "city_district": null,
        "city": "Pago Pago",
        "state": "American Samoa",
        "postcode": "96799",
        "country": "United States",
        "country_code": "us"
      },
      "address": "314, Pago Pago, Maʻopūtasi County, Eastern District, American Samoa, 96799, United States"
    },
    {
      "lat": -14.27670455353455,
      "lon": -170.7021934619994,
      "geoinfo": {
        "display_name": "Pago Pago, Maʻopūtasi County, Eastern District, American Samoa, 96799, United States",
        "road": null,
        "house_number": null,
        "neighbourhood": null,
        "suburb": null,
        "city_district": null,
        "city": "Pago Pago",
        "state": "American Samoa",
        "postcode": "96799",
        "country": "United States",
        "country_code": "us"
      },
      "address": "477, Pago Pago, Maʻopūtasi County, Eastern District, American Samoa, 96799, United States"
    },
    {
      "lat": -14.277199376527877,
      "lon": -170.66671729627805,
      "geoinfo": {
        "display_name": "Route 001, Starkist Tuna, ʻAūa, Maʻopūtasi County, Eastern District, American Samoa, 96799, United States",
        "road": "Route 001",
        "house_number": null,
        "neighbourhood": null,
        "suburb": null,
        "city_district": null,
        "city": "ʻAūa",
        "state": "American Samoa",
        "postcode": "96799",
        "country": "United States",
        "country_code": "us"
      },
      "address": "Route 001, Pago Pago, 96799 American Samoa, American Samoa"
    },
    {
      "lat": -14.28546045459035,
      "lon": -170.73232079192672,
      "geoinfo": {
        "display_name": "Fagasa, Ituʻau County, Eastern District, American Samoa, United States",
        "road": null,
        "house_number": null,
        "neighbourhood": null,
        "suburb": null,
        "city_district": null,
        "city": "Fagasa",
        "state": "American Samoa",
        "postcode": null,
        "country": "United States",
        "country_code": "us"
      },
      "address": "323, Fagasa, Ituʻau County, Eastern District, 99534 American Samoa, United States"
    },
    {
      "lat": -14.31007524171727,
      "lon": -170.70748346846713,
      "geoinfo": {
        "display_name": "Route 001, Nuʻuuli, Ituʻau County, Eastern District, American Samoa, 96799, United States",
        "road": "Route 001",
        "house_number": null,
        "neighbourhood": null,
        "suburb": null,
        "city_district": null,
        "city": "Nuʻuuli",
        "state": "American Samoa",
        "postcode": "96799",
        "country": "United States",
        "country_code": "us"
      },
      "address": "Route 001, Nuʻuuli, Ituʻau County, Eastern District, American Samoa, 96799, United States"
    },
    {
      "lat": -14.242144471811951,
      "lon": -170.72588995628297,
      "geoinfo": {
        "display_name": "Pago Pago, Maʻopūtasi County, Eastern District, American Samoa, United States",
        "road": null,
        "house_number": null,
        "neighbourhood": null,
        "suburb": null,
        "city_district": null,
        "city": "Pago Pago",
        "state": "American Samoa",
        "postcode": null,
        "country": "United States",
        "country_code": "us"
      },
      "address": "011, Pago Pago, Maʻopūtasi County, Eastern District, 62420 American Samoa, United States"
    },
    {
      "lat": -14.295667471836664,
      "lon": -170.74076545569437,
      "geoinfo": {
        "display_name": "Aasu, Leasina County, Western District, American Samoa, United States",
        "road": null,
        "house_number": null,
        "neighbourhood": null,
        "suburb": null,
        "city_district": null,
        "city": "Aasu",
        "state": "American Samoa",
        "postcode": null,
        "country": "United States",
        "country_code": "us"
      },
      "address": "374, Aasu, Leasina County, Western District, 34287 American Samoa, United States"
    },
    {
      "lat": -14.247028447046294,
      "lon": -170.7060776183219,
      "geoinfo": {
        "display_name": "Pago Pago, Maʻopūtasi County, Eastern District, American Samoa, United States",
        "road": null,
        "house_number": null,
        "neighbourhood": null,
        "suburb": null,
        "city_district": null,
        "city": "Pago Pago",
        "state": "American Samoa",
        "postcode": null,
        "country": "United States",
        "country_code": "us"
      },
      "address": "122, Pago Pago, Maʻopūtasi County, Eastern District, 16569 American Samoa, United States"
    },
    {
      "lat": -14.304199993827071,
      "lon": -170.71262486660447,
      "geoinfo": {
        "display_name": "Nuʻuuli, Ituʻau County, Eastern District, American Samoa, 96799, United States",
        "road": null,
        "house_number": null,
        "neighbourhood": null,
        "suburb": null,
        "city_district": null,
        "city": "Nuʻuuli",
        "state": "American Samoa",
        "postcode": "96799",
        "country": "United States",
        "country_code": "us"
      },
      "address": "373, Nuʻuuli, Ituʻau County, Eastern District, American Samoa, 96799, United States"
    },
    {
      "lat": -14.317260359262082,
      "lon": -170.698083739979,
      "geoinfo": {
        "display_name": "Nuʻuuli Village Road, Nuʻuuli, Ituʻau County, Eastern District, American Samoa, 96799, United States",
        "road": "Nuʻuuli Village Road",
        "house_number": null,
        "neighbourhood": null,
        "suburb": null,
        "city_district": null,
        "city": "Nuʻuuli",
        "state": "American Samoa",
        "postcode": "96799",
        "country": "United States",
        "country_code": "us"
      },
      "address": "086, Nuʻuuli Village Road, Nuʻuuli, Ituʻau County, Eastern District, American Samoa, 96799, United States"
    },
    {
      "lat": -14.282588932337474,
      "lon": -170.7369251137497,
      "geoinfo": {
        "display_name": "Fagasa, Ituʻau County, Eastern District, American Samoa, United States",
        "road": null,
        "house_number": null,
        "neighbourhood": null,
        "suburb": null,
        "city_district": null,
        "city": "Fagasa",
        "state": "American Samoa",
        "postcode": null,
        "country": "United States",
        "country_code": "us"
      },
      "address": "016, Fagasa, Ituʻau County, Eastern District, 09167 American Samoa, United States"
    },
    {
      "lat": -14.247110019930279,
      "lon": -170.72371416026095,
      "geoinfo": {
        "display_name": "Pago Pago, Maʻopūtasi County, Eastern District, American Samoa, United States",
        "road": null,
        "house_number": null,
        "neighbourhood": null,
        "suburb": null,
        "city_district": null,
        "city": "Pago Pago",
        "state": "American Samoa",
        "postcode": null,
        "country": "United States",
        "country_code": "us"
      },
      "address": "785, Pago Pago, Maʻopūtasi County, Eastern District, 50678 American Samoa, United States"
    },
    {
      "lat": -14.29677485233866,
      "lon": -170.67767174958342,
      "geoinfo": {
        "display_name": "Route 001, Fagaʻalu, Fatumafuti, Maʻopūtasi County, Eastern District, American Samoa, 96799, United States",
        "road": "Route 001",
        "house_number": null,
        "neighbourhood": null,
        "suburb": null,
        "city_district": null,
        "city": "Fagaʻalu",
        "state": "American Samoa",
        "postcode": "96799",
        "country": "United States",
        "country_code": "us"
      },
      "address": "Route 001, Fagaʻalu, Fatumafuti, Maʻopūtasi County, Eastern District, American Samoa, 96799, United States"
    },
    {
      "lat": -14.280219381763677,
      "lon": -170.71966067870036,
      "geoinfo": {
        "display_name": "Mt. Alava Summit Access Road/NPS Trail Segment A, Fagasa, Ituʻau County, Eastern District, American Samoa, 96799, United States",
        "road": "Mt. Alava Summit Access Road/NPS Trail Segment A",
        "house_number": null,
        "neighbourhood": null,
        "suburb": null,
        "city_district": null,
        "city": "Fagasa",
        "state": "American Samoa",
        "postcode": "96799",
        "country": "United States",
        "country_code": "us"
      },
      "address": "700, Mt. Alava Summit Access Road/NPS Trail Segment A, Fagasa, Ituʻau County, Eastern District, American Samoa, 96799, United States"
    },
    {
      "lat": -14.249493197620529,
      "lon": -170.72743445668797,
      "geoinfo": {
        "display_name": "Pago Pago, Maʻopūtasi County, Eastern District, American Samoa, United States",
        "road": null,
        "house_number": null,
        "neighbourhood": null,
        "suburb": null,
        "city_district": null,
        "city": "Pago Pago",
        "state": "American Samoa",
        "postcode": null,
        "country": "United States",
        "country_code": "us"
      },
      "address": "497, Pago Pago, Maʻopūtasi County, Eastern District, 47802 American Samoa, United States"
    },
    {
      "lat": -14.243763331649435,
      "lon": -170.68094775206686,
      "geoinfo": {
        "display_name": "Tuafanua Trail, Vatia, Vaifanua County, Eastern District, American Samoa, 96799, United States",
        "road": "Tuafanua Trail",
        "house_number": null,
        "neighbourhood": null,
        "suburb": null,
        "city_district": null,
        "city": "Vatia",
        "state": "American Samoa",
        "postcode": "96799",
        "country": "United States",
        "country_code": "us"
      },
      "address": "494, Tuafanua Trail, Vatia, Vaifanua County, Eastern District, American Samoa, 96799, United States"
    },
    {
      "lat": -14.259536465643993,
      "lon": -170.70416480841362,
      "geoinfo": {
        "display_name": "Mt. Alava Summit Access Road/NPS Trail Segment A, Pago Pago, Maʻopūtasi County, Eastern District, American Samoa, 96799, United States",
        "road": "Mt. Alava Summit Access Road/NPS Trail Segment A",
        "house_number": null,
        "neighbourhood": null,
        "suburb": null,
        "city_district": null,
        "city": "Pago Pago",
        "state": "American Samoa",
        "postcode": "96799",
        "country": "United States",
        "country_code": "us"
      },
      "address": "734, Mt. Alava Summit Access Road/NPS Trail Segment A, Pago Pago, Maʻopūtasi County, Eastern District, American Samoa, 96799, United States"
    },
    {
      "lat": -14.251995629276053,
      "lon": -170.66575619482353,
      "geoinfo": {
        "display_name": "Upper Sauma Ridge Trail, Vatia, Vaifanua County, Eastern District, American Samoa, 96799, United States",
        "road": "Upper Sauma Ridge Trail",
        "house_number": null,
        "neighbourhood": null,
        "suburb": null,
        "city_district": null,
        "city": "Vatia",
        "state": "American Samoa",
        "postcode": "96799",
        "country": "United States",
        "country_code": "us"
      },
      "address": "167, Upper Sauma Ridge Trail, Vatia, Vaifanua County, Eastern District, American Samoa, 96799, United States"
    },
    {
      "lat": -14.246658471470836,
      "lon": -170.68698056090875,
      "geoinfo": {
        "display_name": "Vatia, Vaifanua County, Eastern District, American Samoa, United States",
        "road": null,
        "house_number": null,
        "neighbourhood": null,
        "suburb": null,
        "city_district": null,
        "city": "Vatia",
        "state": "American Samoa",
        "postcode": null,
        "country": "United States",
        "country_code": "us"
      },
      "address": "336, Vatia, Vaifanua County, Eastern District, 00047 American Samoa, United States"
    },
    {
      "lat": -14.290955178659146,
      "lon": -170.74026027520938,
      "geoinfo": {
        "display_name": "Fagasa, Ituʻau County, Eastern District, American Samoa, United States",
        "road": null,
        "house_number": null,
        "neighbourhood": null,
        "suburb": null,
        "city_district": null,
        "city": "Fagasa",
        "state": "American Samoa",
        "postcode": null,
        "country": "United States",
        "country_code": "us"
      },
      "address": "645, Fagasa, Ituʻau County, Eastern District, 63350 American Samoa, United States"
    },
    {
      "lat": -14.266420046630111,
      "lon": -170.73690267432346,
      "geoinfo": {
        "display_name": "Fagasa, Ituʻau County, Eastern District, American Samoa, United States",
        "road": null,
        "house_number": null,
        "neighbourhood": null,
        "suburb": null,
        "city_district": null,
        "city": "Fagasa",
        "state": "American Samoa",
        "postcode": null,
        "country": "United States",
        "country_code": "us"
      },
      "address": "044, Fagasa, Ituʻau County, Eastern District, 40067 American Samoa, United States"
    },
    {
      "lat": -14.260760175809377,
      "lon": -170.68552877844587,
      "geoinfo": {
        "display_name": "Mount 'Alava Adventure Trail, Vatia, Vaifanua County, Eastern District, American Samoa, 96799, United States",
        "road": "Mount 'Alava Adventure Trail",
        "house_number": null,
        "neighbourhood": null,
        "suburb": null,
        "city_district": null,
        "city": "Vatia",
        "state": "American Samoa",
        "postcode": "96799",
        "country": "United States",
        "country_code": "us"
      },
      "address": "127, Mount 'Alava Adventure Trail, Vatia, Vaifanua County, Eastern District, American Samoa, 96799, United States"
    },
    {
      "lat": -14.31086544212801,
      "lon": -170.67830646793317,
      "geoinfo": {
        "display_name": "Matu'u, Ituʻau County, Eastern District, American Samoa, 96799, United States",
        "road": null,
        "house_number": null,
        "neighbourhood": null,
        "suburb": null,
        "city_district": null,
        "city": "Matu'u",
        "state": "American Samoa",
        "postcode": "96799",
        "country": "United States",
        "country_code": "us"
      },
      "address": "921, Matu'u, Ituʻau County, Eastern District, American Samoa, 96799, United States"
    },
    {
      "lat": -14.261066943592153,
      "lon": -170.70369549493518,
      "geoinfo": {
        "display_name": "Mt. Alava Summit Access Road/NPS Trail Segment A, Pago Pago, Maʻopūtasi County, Eastern District, American Samoa, 96799, United States",
        "road": "Mt. Alava Summit Access Road/NPS Trail Segment A",
        "house_number": null,
        "neighbourhood": null,
        "suburb": null,
        "city_district": null,
        "city": "Pago Pago",
        "state": "American Samoa",
        "postcode": "96799",
        "country": "United States",
        "country_code": "us"
      },
      "address": "224, Mt. Alava Summit Access Road/NPS Trail Segment A, Pago Pago, Maʻopūtasi County, Eastern District, American Samoa, 96799, United States"
    },
    {
      "lat": -14.314372016498947,
      "lon": -170.68032079300946,
      "geoinfo": {
        "display_name": "Nuʻuuli, Ituʻau County, Eastern District, American Samoa, 96799, United States",
        "road": null,
        "house_number": null,
        "neighbourhood": null,
        "suburb": null,
        "city_district": null,
        "city": "Nuʻuuli",
        "state": "American Samoa",
        "postcode": "96799",
        "country": "United States",
        "country_code": "us"
      },
      "address": "773, Nuʻuuli, Ituʻau County, Eastern District, American Samoa, 96799, United States"
    },
    {
      "lat": -14.264379346154966,
      "lon": -170.72264946029566,
      "geoinfo": {
        "display_name": "Pago Pago, Maʻopūtasi County, Eastern District, American Samoa, United States",
        "road": null,
        "house_number": null,
        "neighbourhood": null,
        "suburb": null,
        "city_district": null,
        "city": "Pago Pago",
        "state": "American Samoa",
        "postcode": null,
        "country": "United States",
        "country_code": "us"
      },
      "address": "072, Pago Pago, Maʻopūtasi County, Eastern District, 03817 American Samoa, United States"
    },
    {
      "lat": -14.303286803133695,
      "lon": -170.6666071364984,
      "geoinfo": {
        "display_name": "Lauli'i, Lauliʻi, Suʻa County, Eastern District, American Samoa, 96799, United States",
        "road": null,
        "house_number": null,
        "neighbourhood": null,
        "suburb": null,
        "city_district": null,
        "city": "Lauli'i",
        "state": "American Samoa",
        "postcode": "96799",
        "country": "United States",
        "country_code": "us"
      },
      "address": "732, Lauli'i, Lauliʻi, Suʻa County, Eastern District, American Samoa, 96799, United States"
    },
    {
      "lat": -14.257249619861616,
      "lon": -170.74071829025422,
      "geoinfo": {
        "display_name": "Fagasa, Ituʻau County, Eastern District, American Samoa, United States",
        "road": null,
        "house_number": null,
        "neighbourhood": null,
        "suburb": null,
        "city_district": null,
        "city": "Fagasa",
        "state": "American Samoa",
        "postcode": null,
        "country": "United States",
        "country_code": "us"
      },
      "address": "024, Fagasa, Ituʻau County, Eastern District, 87319 American Samoa, United States"
    },
    {
      "lat": -14.267024969153503,
      "lon": -170.66873153010843,
      "geoinfo": {
        "display_name": "ʻAūa, Maʻopūtasi County, Eastern District, American Samoa, 96799, United States",
        "road": null,
        "house_number": null,
        "neighbourhood": null,
        "suburb": null,
        "city_district": null,
        "city": "ʻAūa",
        "state": "American Samoa",
        "postcode": "96799",
        "country": "United States",
        "country_code": "us"
      },
      "address": "703, ʻAūa, Maʻopūtasi County, Eastern District, American Samoa, 96799, United States"
    },
    {
      "lat": -14.292172968148128,
      "lon": -170.65919850787725,
      "geoinfo": {
        "display_name": "Route 001, Starkist Tuna, ʻAūa, Lauliʻi, Suʻa County, Eastern District, American Samoa, 96799, United States",
        "road": "Route 001",
        "house_number": null,
        "neighbourhood": null,
        "suburb": null,
        "city_district": null,
        "city": "ʻAūa",
        "state": "American Samoa",
        "postcode": "96799",
        "country": "United States",
        "country_code": "us"
      },
      "address": "Route 001, Starkist Tuna, ʻAūa, Lauliʻi, Suʻa County, Eastern District, American Samoa, 96799, United States"
    },
    {
      "lat": -14.322479459011918,
      "lon": -170.69582961880582,
      "geoinfo": {
        "display_name": "Nuʻuuli, Ituʻau County, Eastern District, American Samoa, 96799, United States",
        "road": null,
        "house_number": null,
        "neighbourhood": null,
        "suburb": null,
        "city_district": null,
        "city": "Nuʻuuli",
        "state": "American Samoa",
        "postcode": "96799",
        "country": "United States",
        "country_code": "us"
      },
      "address": "299, Nuʻuuli, Ituʻau County, Eastern District, American Samoa, 96799, United States"
    },
    {
      "lat": -14.257016949114318,
      "lon": -170.73017220108048,
      "geoinfo": {
        "display_name": "Pago Pago, Maʻopūtasi County, Eastern District, American Samoa, United States",
        "road": null,
        "house_number": null,
        "neighbourhood": null,
        "suburb": null,
        "city_district": null,
        "city": "Pago Pago",
        "state": "American Samoa",
        "postcode": null,
        "country": "United States",
        "country_code": "us"
      },
      "address": "776, Pago Pago, Maʻopūtasi County, Eastern District, 26943 American Samoa, United States"
    },
    {
      "lat": -14.270991005325781,
      "lon": -170.69533718255113,
      "geoinfo": {
        "display_name": "Route 001, Starkist Tuna, Pago Pago, Maʻopūtasi County, Eastern District, American Samoa, 96799, United States",
        "road": "Route 001",
        "house_number": null,
        "neighbourhood": null,
        "suburb": null,
        "city_district": null,
        "city": "Pago Pago",
        "state": "American Samoa",
        "postcode": "96799",
        "country": "United States",
        "country_code": "us"
      },
      "address": "Route 001, Starkist Tuna, Pago Pago, Maʻopūtasi County, Eastern District, American Samoa, 96799, United States"
    },
    {
      "lat": -14.24171274005681,
      "lon": -170.72329971793928,
      "geoinfo": {
        "display_name": "Pago Pago, Maʻopūtasi County, Eastern District, American Samoa, United States",
        "road": null,
        "house_number": null,
        "neighbourhood": null,
        "suburb": null,
        "city_district": null,
        "city": "Pago Pago",
        "state": "American Samoa",
        "postcode": null,
        "country": "United States",
        "country_code": "us"
      },
      "address": "539, Pago Pago, Maʻopūtasi County, Eastern District, 00830 American Samoa, United States"
    },
    {
      "lat": -14.260697209607546,
      "lon": -170.72577736028208,
      "geoinfo": {
        "display_name": "Pago Pago, Maʻopūtasi County, Eastern District, American Samoa, United States",
        "road": null,
        "house_number": null,
        "neighbourhood": null,
        "suburb": null,
        "city_district": null,
        "city": "Pago Pago",
        "state": "American Samoa",
        "postcode": null,
        "country": "United States",
        "country_code": "us"
      },
      "address": "780, Pago Pago, Maʻopūtasi County, Eastern District, 83388 American Samoa, United States"
    },
    {
      "lat": -14.295232316628866,
      "lon": -170.74162380397232,
      "geoinfo": {
        "display_name": "A'asu, Aasu, Leasina County, Western District, American Samoa, United States",
        "road": null,
        "house_number": null,
        "neighbourhood": null,
        "suburb": null,
        "city_district": null,
        "city": "Aasu",
        "state": "American Samoa",
        "postcode": null,
        "country": "United States",
        "country_code": "us"
      },
      "address": "339, A'asu, Aasu, Leasina County, Western District, 03546 American Samoa, United States"
    },
    {
      "lat": -14.274464535368082,
      "lon": -170.73138712392,
      "geoinfo": {
        "display_name": "Fagasa, Ituʻau County, Eastern District, American Samoa, United States",
        "road": null,
        "house_number": null,
        "neighbourhood": null,
        "suburb": null,
        "city_district": null,
        "city": "Fagasa",
        "state": "American Samoa",
        "postcode": null,
        "country": "United States",
        "country_code": "us"
      },
      "address": "994, Fagasa, Ituʻau County, Eastern District, 45262 American Samoa, United States"
    },
    {
      "lat": -14.274143325698507,
      "lon": -170.711860748206,
      "geoinfo": {
        "display_name": "Mt. Alava Summit Access Road/NPS Trail Segment A, Pago Pago, Maʻopūtasi County, Eastern District, American Samoa, 96799, United States",
        "road": "Mt. Alava Summit Access Road/NPS Trail Segment A",
        "house_number": null,
        "neighbourhood": null,
        "suburb": null,
        "city_district": null,
        "city": "Pago Pago",
        "state": "American Samoa",
        "postcode": "96799",
        "country": "United States",
        "country_code": "us"
      },
      "address": "756, Mt. Alava Summit Access Road/NPS Trail Segment A, Pago Pago, Maʻopūtasi County, Eastern District, American Samoa, 96799, United States"
    },
    {
      "lat": -14.275215356119464,
      "lon": -170.70823076349362,
      "geoinfo": {
        "display_name": "Pago Pago, Maʻopūtasi County, Eastern District, American Samoa, 96799, United States",
        "road": null,
        "house_number": null,
        "neighbourhood": null,
        "suburb": null,
        "city_district": null,
        "city": "Pago Pago",
        "state": "American Samoa",
        "postcode": "96799",
        "country": "United States",
        "country_code": "us"
      },
      "address": "100, Pago Pago, Maʻopūtasi County, Eastern District, American Samoa, 96799, United States"
    },
    {
      "lat": -14.29977729883678,
      "lon": -170.71068712929315,
      "geoinfo": {
        "display_name": "Nuʻuuli, Ituʻau County, Eastern District, American Samoa, 96799, United States",
        "road": null,
        "house_number": null,
        "neighbourhood": null,
        "suburb": null,
        "city_district": null,
        "city": "Nuʻuuli",
        "state": "American Samoa",
        "postcode": "96799",
        "country": "United States",
        "country_code": "us"
      },
      "address": "693, Nuʻuuli, Ituʻau County, Eastern District, American Samoa, 96799, United States"
    },
    {
      "lat": -14.252298716055517,
      "lon": -170.69799984244952,
      "geoinfo": {
        "display_name": "Pago Pago, Maʻopūtasi County, Eastern District, American Samoa, United States",
        "road": null,
        "house_number": null,
        "neighbourhood": null,
        "suburb": null,
        "city_district": null,
        "city": "Pago Pago",
        "state": "American Samoa",
        "postcode": null,
        "country": "United States",
        "country_code": "us"
      },
      "address": "742, Pago Pago, Maʻopūtasi County, Eastern District, 29114 American Samoa, United States"
    },
    {
      "lat": -14.25069698331105,
      "lon": -170.70161337076445,
      "geoinfo": {
        "display_name": "Pago Pago, Maʻopūtasi County, Eastern District, American Samoa, United States",
        "road": null,
        "house_number": null,
        "neighbourhood": null,
        "suburb": null,
        "city_district": null,
        "city": "Pago Pago",
        "state": "American Samoa",
        "postcode": null,
        "country": "United States",
        "country_code": "us"
      },
      "address": "567, Pago Pago, Maʻopūtasi County, Eastern District, 82660 American Samoa, United States"
    },
    {
      "lat": -14.318909781457677,
      "lon": -170.7052485429141,
      "geoinfo": {
        "display_name": "AS114, Nuʻuuli, Ituʻau County, Eastern District, American Samoa, 96799, United States",
        "road": "AS114",
        "house_number": null,
        "neighbourhood": null,
        "suburb": null,
        "city_district": null,
        "city": "Nuʻuuli",
        "state": "American Samoa",
        "postcode": "96799",
        "country": "United States",
        "country_code": "us"
      },
      "address": "AS114, Nuʻuuli, Ituʻau County, Eastern District, American Samoa, 96799, United States"
    },
    {
      "lat": -14.2694058868745,
      "lon": -170.69273580434245,
      "geoinfo": {
        "display_name": "Satala, Maʻopūtasi County, Eastern District, American Samoa, 96799, United States",
        "road": null,
        "house_number": null,
        "neighbourhood": null,
        "suburb": null,
        "city_district": null,
        "city": "Satala",
        "state": "American Samoa",
        "postcode": "96799",
        "country": "United States",
        "country_code": "us"
      },
      "address": "842, Satala, Maʻopūtasi County, Eastern District, American Samoa, 96799, United States"
    },
    {
      "lat": -14.238356897044719,
      "lon": -170.71767836544436,
      "geoinfo": {
        "display_name": "Pago Pago, Maʻopūtasi County, Eastern District, American Samoa, United States",
        "road": null,
        "house_number": null,
        "neighbourhood": null,
        "suburb": null,
        "city_district": null,
        "city": "Pago Pago",
        "state": "American Samoa",
        "postcode": null,
        "country": "United States",
        "country_code": "us"
      },
      "address": "993, Pago Pago, Maʻopūtasi County, Eastern District, 04925 American Samoa, United States"
    },
    {
      "lat": -14.308151882949188,
      "lon": -170.71751932186194,
      "geoinfo": {
        "display_name": "Nuʻuuli, Ituʻau County, Eastern District, American Samoa, 96799, United States",
        "road": null,
        "house_number": null,
        "neighbourhood": null,
        "suburb": null,
        "city_district": null,
        "city": "Nuʻuuli",
        "state": "American Samoa",
        "postcode": "96799",
        "country": "United States",
        "country_code": "us"
      },
      "address": "209, Nuʻuuli, Ituʻau County, Eastern District, American Samoa, 96799, United States"
    },
    {
      "lat": -14.321041426182594,
      "lon": -170.7090975720741,
      "geoinfo": {
        "display_name": "AS114, Nuʻuuli, Ituʻau County, Eastern District, American Samoa, 96799, United States",
        "road": "AS114",
        "house_number": null,
        "neighbourhood": null,
        "suburb": null,
        "city_district": null,
        "city": "Nuʻuuli",
        "state": "American Samoa",
        "postcode": "96799",
        "country": "United States",
        "country_code": "us"
      },
      "address": "AS114, Pago Pago, 96799 American Samoa, American Samoa"
    },
    {
      "lat": -14.240044456070207,
      "lon": -170.69129824948232,
      "geoinfo": {
        "display_name": "Vatia, Vaifanua County, Eastern District, American Samoa, United States",
        "road": null,
        "house_number": null,
        "neighbourhood": null,
        "suburb": null,
        "city_district": null,
        "city": "Vatia",
        "state": "American Samoa",
        "postcode": null,
        "country": "United States",
        "country_code": "us"
      },
      "address": "402, Vatia, Vaifanua County, Eastern District, 64583 American Samoa, United States"
    },
    {
      "lat": -14.288655386972842,
      "lon": -170.73227708945666,
      "geoinfo": {
        "display_name": "Fagasa, Ituʻau County, Eastern District, American Samoa, United States",
        "road": null,
        "house_number": null,
        "neighbourhood": null,
        "suburb": null,
        "city_district": null,
        "city": "Fagasa",
        "state": "American Samoa",
        "postcode": null,
        "country": "United States",
        "country_code": "us"
      },
      "address": "829, Fagasa, Ituʻau County, Eastern District, 38101 American Samoa, United States"
    },
    {
      "lat": -14.315971167609844,
      "lon": -170.6872931238643,
      "geoinfo": {
        "display_name": "Nuʻuuli, Ituʻau County, Eastern District, American Samoa, 96799, United States",
        "road": null,
        "house_number": null,
        "neighbourhood": null,
        "suburb": null,
        "city_district": null,
        "city": "Nuʻuuli",
        "state": "American Samoa",
        "postcode": "96799",
        "country": "United States",
        "country_code": "us"
      },
      "address": "744, Nuʻuuli, Ituʻau County, Eastern District, American Samoa, 96799, United States"
    },
    {
      "lat": -14.283845499599172,
      "lon": -170.73868815222838,
      "geoinfo": {
        "display_name": "Fagasa, Ituʻau County, Eastern District, American Samoa, United States",
        "road": null,
        "house_number": null,
        "neighbourhood": null,
        "suburb": null,
        "city_district": null,
        "city": "Fagasa",
        "state": "American Samoa",
        "postcode": null,
        "country": "United States",
        "country_code": "us"
      },
      "address": "351, Fagasa, Ituʻau County, Eastern District, 42490 American Samoa, United States"
    },
    {
      "lat": -14.241456146303168,
      "lon": -170.72470426281976,
      "geoinfo": {
        "display_name": "Pago Pago, Maʻopūtasi County, Eastern District, American Samoa, United States",
        "road": null,
        "house_number": null,
        "neighbourhood": null,
        "suburb": null,
        "city_district": null,
        "city": "Pago Pago",
        "state": "American Samoa",
        "postcode": null,
        "country": "United States",
        "country_code": "us"
      },
      "address": "624, Pago Pago, Maʻopūtasi County, Eastern District, 74119 American Samoa, United States"
    },
    {
      "lat": -14.273110793544598,
      "lon": -170.7448831312096,
      "geoinfo": {
        "display_name": "Fagasa, Ituʻau County, Eastern District, American Samoa, United States",
        "road": null,
        "house_number": null,
        "neighbourhood": null,
        "suburb": null,
        "city_district": null,
        "city": "Fagasa",
        "state": "American Samoa",
        "postcode": null,
        "country": "United States",
        "country_code": "us"
      },
      "address": "557, Fagasa, Ituʻau County, Eastern District, 22632 American Samoa, United States"
    },
    {
      "lat": -14.295346774226537,
      "lon": -170.70818914660254,
      "geoinfo": {
        "display_name": "Matafao Trail, Pago Pago, Maʻopūtasi County, Eastern District, American Samoa, 96799, United States",
        "road": "Matafao Trail",
        "house_number": null,
        "neighbourhood": null,
        "suburb": null,
        "city_district": null,
        "city": "Pago Pago",
        "state": "American Samoa",
        "postcode": "96799",
        "country": "United States",
        "country_code": "us"
      },
      "address": "451, Matafao Trail, Pago Pago, Maʻopūtasi County, Eastern District, American Samoa, 96799, United States"
    },
    {
      "lat": -14.277221487559215,
      "lon": -170.73439024029324,
      "geoinfo": {
        "display_name": "Fagasa, Ituʻau County, Eastern District, American Samoa, United States",
        "road": null,
        "house_number": null,
        "neighbourhood": null,
        "suburb": null,
        "city_district": null,
        "city": "Fagasa",
        "state": "American Samoa",
        "postcode": null,
        "country": "United States",
        "country_code": "us"
      },
      "address": "205, Fagasa, Ituʻau County, Eastern District, 44442 American Samoa, United States"
    },
    {
      "lat": -14.30108093943596,
      "lon": -170.7044100039714,
      "geoinfo": {
        "display_name": "Nuʻuuli, Ituʻau County, Eastern District, American Samoa, 96799, United States",
        "road": null,
        "house_number": null,
        "neighbourhood": null,
        "suburb": null,
        "city_district": null,
        "city": "Nuʻuuli",
        "state": "American Samoa",
        "postcode": "96799",
        "country": "United States",
        "country_code": "us"
      },
      "address": "169, Nuʻuuli, Ituʻau County, Eastern District, American Samoa, 96799, United States"
    },
    {
      "lat": -14.312591743377967,
      "lon": -170.72394346853272,
      "geoinfo": {
        "display_name": "Nuʻuuli, Tualauta County, Western District, American Samoa, 96799, United States",
        "road": null,
        "house_number": null,
        "neighbourhood": null,
        "suburb": null,
        "city_district": null,
        "city": "Nuʻuuli",
        "state": "American Samoa",
        "postcode": "96799",
        "country": "United States",
        "country_code": "us"
      },
      "address": "250, Pago Pago, 96799 American Samoa, American Samoa"
    },
    {
      "lat": -14.239409897812566,
      "lon": -170.68262988994078,
      "geoinfo": {
        "display_name": "Vatia, Vaifanua County, Eastern District, American Samoa, United States",
        "road": null,
        "house_number": null,
        "neighbourhood": null,
        "suburb": null,
        "city_district": null,
        "city": "Vatia",
        "state": "American Samoa",
        "postcode": null,
        "country": "United States",
        "country_code": "us"
      },
      "address": "518, Vatia, Vaifanua County, Eastern District, 89454 American Samoa, United States"
    },
    {
      "lat": -14.2964621600465,
      "lon": -170.73908100346745,
      "geoinfo": {
        "display_name": "Aasu, Leasina County, Western District, American Samoa, United States",
        "road": null,
        "house_number": null,
        "neighbourhood": null,
        "suburb": null,
        "city_district": null,
        "city": "Aasu",
        "state": "American Samoa",
        "postcode": null,
        "country": "United States",
        "country_code": "us"
      },
      "address": "930, Aasu, Leasina County, Western District, 46716 American Samoa, United States"
    }
  ],
  "updated_at": "2025-10-19T02:32:44.221738+00:00",
  "_kind": "geo_samples"
}