{
  "country_code": "BD",
  "country": "Bangladesh",
  "city": "Dohār",
  "geonameid": 1185100,
  "target_addresses": 4,
  "samples": [
    {
      "lat": 23.582540893701754,
      "lon": 90.15089007227017,
      "geoinfo": {
        "display_name": "South Shimulia, Dohar Subdistrict, Dhaka District, Dhaka Division, Bangladesh",
        "road": null,
        "house_number": null,
        "neighbourhood": null,
        "suburb": null,
        "city_district": null,
        "city": "South Shimulia",
        "state": "Dhaka Division",
        "postcode": null,
        "country": "Bangladesh",
        "country_code": "bd"
      },
      "address": "Dohār, Dhaka Division, Bangladesh"
    },
    {
      "lat": 23.630277231884932,
      "lon": 90.14090361303745,
      "geoinfo": {
        "display_name": "Dohar, Dohar Subdistrict, Dhaka District, Dhaka Division, 1330, Bangladesh",
        "road": null,
        "house_number": null,
        "neighbourhood": null,
        "suburb": null,
        "city_district": null,
        "city": "Dohar",
        "state": "Dhaka Division",
        "postcode": "1330",
        "country": "Bangladesh",
        "country_code": "bd"
      },
      "address": "875, Dohar, Dohar Subdistrict, Dhaka District, Dhaka Division, 1330, Bangladesh"
    },
    {
      "lat": 23.572525251160997,
      "lon": 90.10941210408492,
      "geoinfo": {
        "display_name": "Sadarpur Upazila, Faridpur District, Dhaka Division, Bangladesh",
        "road": null,
        "house_number": null,
        "neighbourhood": null,
        "suburb": null,
        "city_district": null,
        "city": null,
        "state": "Dhaka Division",
        "postcode": null,
        "country": "Bangladesh",
        "country_code": "bd"
      },
      "address": "903, Dohār, 88473 Dhaka Division, Bangladesh"
    },
    {
      "lat": 23.620261637260036,
      "lon": 90.10805561092967,
      "geoinfo": {
        "display_name": "R820, Bash Tala, Dohar Subdistrict, Dhaka District, Dhaka Division, 1330, Bangladesh",
        "road": "R820",
        "house_number": null,
        "neighbourhood": null,
        "suburb": null,
        "city_district": null,
        "city": "Bash Tala",
        "state": "Dhaka Division",
        "postcode": "1330",
        "country": "Bangladesh",
        "country_code": "bd"
      },
      "address": "R820, Bash Tala, Dohar Subdistrict, Dhaka District, Dhaka Division, 1330, Bangladesh"
    }
  ],
  "updated_at": "2025-10-19T03:19:13.240197+00:00",
  "_kind": "geo_samples"
}