{
  "country_code": "BD",
  "country": "Bangladesh",
  "city": "Ramna Maidan",
  "geonameid": 1185240,
  "target_addresses": 4,
  "samples": [
    {
      "lat": 23.712918553817264,
      "lon": 90.41495158388018,
      "geoinfo": {
        "display_name": "Lal Mohan Saha Street, Koltabazar, Narinda, Dhaka, Dhaka Metropolitan, Dhaka District, Dhaka Division, 1100, Bangladesh",
        "road": "Lal Mohan Saha Street",
        "house_number": null,
        "neighbourhood": null,
        "suburb": "Narinda",
        "city_district": null,
        "city": "Dhaka",
        "state": "Dhaka Division",
        "postcode": "1100",
        "country": "Bangladesh",
        "country_code": "bd"
      },
      "address": "Lal Mohan Saha Street, Koltabazar, Narinda, Dhaka, Dhaka Metropolitan, Dhaka District, Dhaka Division, 1100, Bangladesh"
    },
    {
      "lat": 23.743662374151185,
      "lon": 90.39917810956428,
      "geoinfo": {
        "display_name": "Old Elephant Road, Sobji Bagan, Poribag, Ramna, Dhaka, Dhaka Metropolitan, Dhaka District, Dhaka Division, 1234, Bangladesh",
        "road": "Old Elephant Road",
        "house_number": null,
        "neighbourhood": "Sobji Bagan",
        "suburb": "Ramna",
        "city_district": null,
        "city": "Dhaka",
        "state": "Dhaka Division",
        "postcode": "1234",
        "country": "Bangladesh",
        "country_code": "bd"
      },
      "address": "432, Old Elephant Road, Sobji Bagan, Poribag, Ramna, Dhaka, Dhaka Metropolitan, Dhaka District, Dhaka Division, 1234, Bangladesh"
    },
    {
      "lat": 23.75309340118753,
      "lon": 90.42164795436011,
      "geoinfo": {
        "display_name": "Riazbag, Taltola, Khilgaon, Dhaka, Dhaka Metropolitan, Dhaka District, Dhaka Division, 1219, Bangladesh",
        "road": null,
        "house_number": null,
        "neighbourhood": "Riazbag",
        "suburb": "Khilgaon",
        "city_district": null,
        "city": "Dhaka",
        "state": "Dhaka Division",
        "postcode": "1219",
        "country": "Bangladesh",
        "country_code": "bd"
      },
      "address": "939, Riazbag, Taltola, Khilgaon, Dhaka, Dhaka Metropolitan, Dhaka District, Dhaka Division, 1219, Bangladesh"
    },
    {
      "lat": 23.73638208029661,
      "lon": 90.43124240466439,
      "geoinfo": {
        "display_name": "Ahmadbag, South Bashabo, Bashabo, Dhaka, Dhaka Metropolitan, Dhaka District, Dhaka Division, 1214, Bangladesh",
        "road": null,
        "house_number": null,
        "neighbourhood": "Ahmadbag",
        "suburb": "Bashabo",
        "city_district": null,
        "city": "Dhaka",
        "state": "Dhaka Division",
        "postcode": "1214",
        "country": "Bangladesh",
        "country_code": "bd"
      },
      "address": "721, Ahmadbag, South Bashabo, Bashabo, Dhaka, Dhaka Metropolitan, Dhaka District, Dhaka Division, 1214, Bangladesh"
    }
  ],
  "updated_at": "2025-10-19T03:19:46.375600+00:00",
  "_kind": "geo_samples"
}