{
  "country_code": "SJ",
  "country": "Svalbard and Jan Mayen",
  "city": "Longyearbyen",
  "geonameid": 2729907,
  "target_addresses": 100,
  "samples": [
    {
      "lat": 78.2632070908043,
      "lon": 15.603149296403386,
      "geoinfo": {
        "display_name": "Advent City, Longyearbyen, Svalbard, Norway",
        "road": null,
        "house_number": null,
        "neighbourhood": null,
        "suburb": null,
        "city_district": null,
        "city": "Longyearbyen",
        "state": null,
        "postcode": null,
        "country": "Norway",
        "country_code": "no"
      },
      "address": "Longyearbyen, Svalbard and Jan Mayen"
    },
    {
      "lat": 78.21676526630013,
      "lon": 15.659941116249529,
      "geoinfo": {
        "display_name": "Vei 232, Longyearbyen, Sjøskrenten, Gruvedalen, Longyearbyen, Svalbard, 9170, Norway",
        "road": "Vei 232",
        "house_number": null,
        "neighbourhood": null,
        "suburb": "Gruvedalen",
        "city_district": null,
        "city": "Longyearbyen",
        "state": null,
        "postcode": "9170",
        "country": "Norway",
        "country_code": "no"
      },
      "address": "Vei 232, Longyearbyen, Svalbard and Jan Mayen"
    },
    {
      "lat": 78.24935800657981,
      "lon": 15.522387228271537,
      "geoinfo": {
        "display_name": "Vei 620, Adventpynten, Longyearbyen, Svalbard, Norway",
        "road": "Vei 620",
        "house_number": null,
        "neighbourhood": null,
        "suburb": "Adventpynten",
        "city_district": null,
        "city": "Longyearbyen",
        "state": null,
        "postcode": null,
        "country": "Norway",
        "country_code": "no"
      },
      "address": "Vei 620, Longyearbyen, Svalbard and Jan Mayen"
    },
    {
      "lat": 78.2165116564401,
      "lon": 15.616593461431375,
      "geoinfo": {
        "display_name": "Vei 501, Longyearbyen, Old Longyear City, Haugen, Longyearbyen, Svalbard, Norway",
        "road": "Vei 501",
        "house_number": null,
        "neighbourhood": null,
        "suburb": "Haugen",
        "city_district": null,
        "city": "Longyearbyen",
        "state": null,
        "postcode": null,
        "country": "Norway",
        "country_code": "no"
      },
      "address": "Vei 501, Longyearbyen, Svalbard and Jan Mayen"
    },
    {
      "lat": 78.24850023057566,
      "lon": 15.703341263775185,
      "geoinfo": {
        "display_name": "1, Vei 400, Sjøskrenten, Gruvedalen, Longyearbyen, Svalbard, 9170, Norway",
        "road": "Vei 400",
        "house_number": "1",
        "neighbourhood": null,
        "suburb": "Gruvedalen",
        "city_district": null,
        "city": "Longyearbyen",
        "state": null,
        "postcode": "9170",
        "country": "Norway",
        "country_code": "no"
      },
      "address": "1 Vei 400, Longyearbyen, Svalbard and Jan Mayen"
    },
    {
      "lat": 78.20609936524944,
      "lon": 15.650555025186138,
      "geoinfo": {
        "display_name": "Elvsletta Nord, Lia, Longyearbyen, Svalbard, 9170, Norway",
        "road": null,
        "house_number": null,
        "neighbourhood": null,
        "suburb": "Lia",
        "city_district": null,
        "city": "Longyearbyen",
        "state": null,
        "postcode": "9170",
        "country": "Norway",
        "country_code": "no"
      },
      "address": "Lia, Longyearbyen, Svalbard and Jan Mayen"
    },
    {
      "lat": 78.2491706476951,
      "lon": 15.65533316726333,
      "geoinfo": {
        "display_name": "Gruvedalen, Longyearbyen, Svalbard, 9170, Norway",
        "road": null,
        "house_number": null,
        "neighbourhood": null,
        "suburb": "Gruvedalen",
        "city_district": null,
        "city": "Longyearbyen",
        "state": null,
        "postcode": "9170",
        "country": "Norway",
        "country_code": "no"
      },
      "address": "Gruvedalen, Longyearbyen, Svalbard and Jan Mayen"
    },
    {
      "lat": 78.2336163442948,
      "lon": 15.60237462462487,
      "geoinfo": {
        "display_name": "Cruise Ship Pier, Vei 600, Sjømrådet, Lia, Longyearbyen, Svalbard, Norway",
        "road": "Vei 600",
        "house_number": null,
        "neighbourhood": null,
        "suburb": "Lia",
        "city_district": null,
        "city": "Longyearbyen",
        "state": null,
        "postcode": null,
        "country": "Norway",
        "country_code": "no"
      },
      "address": "Vei 600, Longyearbyen, Svalbard and Jan Mayen"
    },
    {
      "lat": 78.21358774219911,
      "lon": 15.644081035394413,
      "geoinfo": {
        "display_name": "Skredvollen, Longyearbyen, Elvsletta Nord, Lia, Longyearbyen, Svalbard, 9170, Norway",
        "road": "Skredvollen",
        "house_number": null,
        "neighbourhood": null,
        "suburb": "Lia",
        "city_district": null,
        "city": "Longyearbyen",
        "state": null,
        "postcode": "9170",
        "country": "Norway",
        "country_code": "no"
      },
      "address": "Skredvollen, Longyearbyen, Svalbard and Jan Mayen"
    },
    {
      "lat": 78.2448882340077,
      "lon": 15.527224879092172,
      "geoinfo": {
        "display_name": "1, Vei 600, Sjømrådet, Lia, Longyearbyen, Svalbard, 9170, Norway",
        "road": "Vei 600",
        "house_number": "1",
        "neighbourhood": null,
        "suburb": "Lia",
        "city_district": null,
        "city": "Longyearbyen",
        "state": null,
        "postcode": "9170",
        "country": "Norway",
        "country_code": "no"
      },
      "address": "1 Vei 600, Longyearbyen, Svalbard and Jan Mayen"
    },
    {
      "lat": 78.21582358022786,
      "lon": 15.730249873410623,
      "geoinfo": {
        "display_name": "400, Gruvedalen, Longyearbyen, Svalbard, Norway",
        "road": "400",
        "house_number": null,
        "neighbourhood": null,
        "suburb": "Gruvedalen",
        "city_district": null,
        "city": "Longyearbyen",
        "state": null,
        "postcode": null,
        "country": "Norway",
        "country_code": "no"
      },
      "address": "400, Longyearbyen, Svalbard and Jan Mayen"
    },
    {
      "lat": 78.2331692940899,
      "lon": 15.812385224925688,
      "geoinfo": {
        "display_name": "1, 400, Braathenssletta, Longyearbyen, Svalbard, 9170, Norway",
        "road": "400",
        "house_number": "1",
        "neighbourhood": null,
        "suburb": null,
        "city_district": null,
        "city": "Longyearbyen",
        "state": null,
        "postcode": "9170",
        "country": "Norway",
        "country_code": "no"
      },
      "address": "1 400, Longyearbyen, Svalbard and Jan Mayen"
    },
    {
      "lat": 78.22313803311768,
      "lon": 15.646486868987497,
      "geoinfo": {
        "display_name": "Vei 500, Longyearbyen, Elvesletta Sør, Lia, Longyearbyen, Svalbard, 9170, Norway",
        "road": "Vei 500",
        "house_number": null,
        "neighbourhood": null,
        "suburb": "Lia",
        "city_district": null,
        "city": "Longyearbyen",
        "state": null,
        "postcode": "9170",
        "country": "Norway",
        "country_code": "no"
      },
      "address": "Vei 500, Longyearbyen, Svalbard and Jan Mayen"
    },
    {
      "lat": 78.23598327986072,
      "lon": 15.619213052649684,
      "geoinfo": {
        "display_name": "Skjeringa, Haugen, Longyearbyen, Svalbard, Norway",
        "road": null,
        "house_number": null,
        "neighbourhood": null,
        "suburb": "Haugen",
        "city_district": null,
        "city": "Longyearbyen",
        "state": null,
        "postcode": null,
        "country": "Norway",
        "country_code": "no"
      },
      "address": "Haugen, Longyearbyen, Svalbard and Jan Mayen"
    },
    {
      "lat": 78.18807186353115,
      "lon": 15.514297978676346,
      "geoinfo": {
        "display_name": "Snowmobile route, Nybyen, Longyearbyen, Svalbard, Norway",
        "road": "Snowmobile route",
        "house_number": null,
        "neighbourhood": null,
        "suburb": "Nybyen",
        "city_district": null,
        "city": "Longyearbyen",
        "state": null,
        "postcode": null,
        "country": "Norway",
        "country_code": "no"
      },
      "address": "Snowmobile route, Longyearbyen, Svalbard and Jan Mayen"
    },
    {
      "lat": 78.23936667186484,
      "lon": 15.450652224724271,
      "geoinfo": {
        "display_name": "Vei 700, Adventpynten, Longyearbyen, Svalbard, Norway",
        "road": "Vei 700",
        "house_number": null,
        "neighbourhood": null,
        "suburb": "Adventpynten",
        "city_district": null,
        "city": "Longyearbyen",
        "state": null,
        "postcode": null,
        "country": "Norway",
        "country_code": "no"
      },
      "address": "Vei 700, Longyearbyen, Svalbard and Jan Mayen"
    },
    {
      "lat": 78.21862395644389,
      "lon": 15.686513051452751,
      "geoinfo": {
        "display_name": "Vei 400, Sjøskrenten, Gruvedalen, Longyearbyen, Svalbard, 9170, Norway",
        "road": "Vei 400",
        "house_number": null,
        "neighbourhood": null,
        "suburb": "Gruvedalen",
        "city_district": null,
        "city": "Longyearbyen",
        "state": null,
        "postcode": "9170",
        "country": "Norway",
        "country_code": "no"
      },
      "address": "Vei 400, Longyearbyen, Svalbard and Jan Mayen"
    },
    {
      "lat": 78.25038560976846,
      "lon": 15.683545401506331,
      "geoinfo": {
        "display_name": "20, Vei 400, Sjøskrenten, Gruvedalen, Longyearbyen, Svalbard, 9170, Norway",
        "road": "Vei 400",
        "house_number": "20",
        "neighbourhood": null,
        "suburb": "Gruvedalen",
        "city_district": null,
        "city": "Longyearbyen",
        "state": null,
        "postcode": "9170",
        "country": "Norway",
        "country_code": "no"
      },
      "address": "20 Vei 400, Longyearbyen, Svalbard and Jan Mayen"
    },
    {
      "lat": 78.20614459530604,
      "lon": 15.504430812010606,
      "geoinfo": {
        "display_name": "Vei 300, Sverdrupbyen, Nybyen, Longyearbyen, Svalbard, Norway",
        "road": "Vei 300",
        "house_number": null,
        "neighbourhood": "Sverdrupbyen",
        "suburb": "Nybyen",
        "city_district": null,
        "city": "Longyearbyen",
        "state": null,
        "postcode": null,
        "country": "Norway",
        "country_code": "no"
      },
      "address": "Vei 300, Longyearbyen, Svalbard and Jan Mayen"
    },
    {
      "lat": 78.18583181476816,
      "lon": 15.610688077605772,
      "geoinfo": {
        "display_name": "Nybyen, Longyearbyen, Svalbard, Norway",
        "road": null,
        "house_number": null,
        "neighbourhood": null,
        "suburb": "Nybyen",
        "city_district": null,
        "city": "Longyearbyen",
        "state": null,
        "postcode": null,
        "country": "Norway",
        "country_code": "no"
      },
      "address": "Nybyen, Longyearbyen, Svalbard and Jan Mayen"
    },
    {
      "lat": 78.20628499010326,
      "lon": 15.62249678433238,
      "geoinfo": {
        "display_name": "Funken Lodge (formerly Spitsbergen Hotel), Vei 210, Longyearbyen, Old Longyear City, Haugen, Longyearbyen, Svalbard, Norway",
        "road": "Vei 210",
        "house_number": null,
        "neighbourhood": null,
        "suburb": "Haugen",
        "city_district": null,
        "city": "Longyearbyen",
        "state": null,
        "postcode": null,
        "country": "Norway",
        "country_code": "no"
      },
      "address": "Vei 210, Longyearbyen, Svalbard and Jan Mayen"
    },
    {
      "lat": 78.187896381863,
      "lon": 15.580731560923354,
      "geoinfo": {
        "display_name": "Sverdrupbyen, Nybyen, Longyearbyen, Svalbard, Norway",
        "road": null,
        "house_number": null,
        "neighbourhood": "Sverdrupbyen",
        "suburb": "Nybyen",
        "city_district": null,
        "city": "Longyearbyen",
        "state": null,
        "postcode": null,
        "country": "Norway",
        "country_code": "no"
      },
      "address": "Sverdrupbyen, Longyearbyen, Svalbard and Jan Mayen"
    },
    {
      "lat": 78.212794235322,
      "lon": 15.55632298116029,
      "geoinfo": {
        "display_name": "Adventpynten, Longyearbyen, Svalbard, Norway",
        "road": null,
        "house_number": null,
        "neighbourhood": null,
        "suburb": "Adventpynten",
        "city_district": null,
        "city": "Longyearbyen",
        "state": null,
        "postcode": null,
        "country": "Norway",
        "country_code": "no"
      },
      "address": "Adventpynten, Longyearbyen, Svalbard and Jan Mayen"
    },
    {
      "lat": 78.2270928062063,
      "lon": 15.56355762545151,
      "geoinfo": {
        "display_name": "Vei 305, Sjømrådet, Adventpynten, Longyearbyen, Svalbard, Norway",
        "road": "Vei 305",
        "house_number": null,
        "neighbourhood": null,
        "suburb": "Adventpynten",
        "city_district": null,
        "city": "Longyearbyen",
        "state": null,
        "postcode": null,
        "country": "Norway",
        "country_code": "no"
      },
      "address": "Vei 305, Longyearbyen, Svalbard and Jan Mayen"
    },
    {
      "lat": 78.25439709462167,
      "lon": 15.669033250723212,
      "geoinfo": {
        "display_name": "41, Vei 400, Sjøskrenten, Gruvedalen, Longyearbyen, Svalbard, 9170, Norway",
        "road": "Vei 400",
        "house_number": "41",
        "neighbourhood": null,
        "suburb": "Gruvedalen",
        "city_district": null,
        "city": "Longyearbyen",
        "state": null,
        "postcode": "9170",
        "country": "Norway",
        "country_code": "no"
      },
      "address": "41 Vei 400, Longyearbyen, Svalbard and Jan Mayen"
    },
    {
      "lat": 78.20324388110734,
      "lon": 15.607357211153978,
      "geoinfo": {
        "display_name": "Julenissegruva, Vei 100, Longyearbyen, Old Longyear City, Haugen, Longyearbyen, Svalbard, Norway",
        "road": "Vei 100",
        "house_number": null,
        "neighbourhood": null,
        "suburb": "Haugen",
        "city_district": null,
        "city": "Longyearbyen",
        "state": null,
        "postcode": null,
        "country": "Norway",
        "country_code": "no"
      },
      "address": "Vei 100, Longyearbyen, Svalbard and Jan Mayen"
    },
    {
      "lat": 78.23515457797068,
      "lon": 15.785192932407629,
      "geoinfo": {
        "display_name": "4, 400, Braathenssletta, Longyearbyen, Svalbard, 9170, Norway",
        "road": "400",
        "house_number": "4",
        "neighbourhood": null,
        "suburb": null,
        "city_district": null,
        "city": "Longyearbyen",
        "state": null,
        "postcode": "9170",
        "country": "Norway",
        "country_code": "no"
      },
      "address": "4 400, Longyearbyen, Svalbard and Jan Mayen"
    },
    {
      "lat": 78.2428297746262,
      "lon": 15.456907398661157,
      "geoinfo": {
        "display_name": "270, Vei 600, Sjømrådet, Lia, Longyearbyen, Svalbard, 9170, Norway",
        "road": "Vei 600",
        "house_number": "270",
        "neighbourhood": null,
        "suburb": "Lia",
        "city_district": null,
        "city": "Longyearbyen",
        "state": null,
        "postcode": "9170",
        "country": "Norway",
        "country_code": "no"
      },
      "address": "270 Vei 600, Longyearbyen, Svalbard and Jan Mayen"
    },
    {
      "lat": 78.24022546161206,
      "lon": 15.834518112951844,
      "geoinfo": {
        "display_name": "3, 400, Braathenssletta, Longyearbyen, Svalbard, 9170, Norway",
        "road": "400",
        "house_number": "3",
        "neighbourhood": null,
        "suburb": null,
        "city_district": null,
        "city": "Longyearbyen",
        "state": null,
        "postcode": "9170",
        "country": "Norway",
        "country_code": "no"
      },
      "address": "3 400, Longyearbyen, Svalbard and Jan Mayen"
    },
    {
      "lat": 78.25820991978341,
      "lon": 15.65696938601475,
      "geoinfo": {
        "display_name": "47, Vei 400, Sjøskrenten, Gruvedalen, Longyearbyen, Svalbard, 9170, Norway",
        "road": "Vei 400",
        "house_number": "47",
        "neighbourhood": null,
        "suburb": "Gruvedalen",
        "city_district": null,
        "city": "Longyearbyen",
        "state": null,
        "postcode": "9170",
        "country": "Norway",
        "country_code": "no"
      },
      "address": "47 Vei 400, Longyearbyen, Svalbard and Jan Mayen"
    },
    {
      "lat": 78.26130986329348,
      "lon": 15.65565969278641,
      "geoinfo": {
        "display_name": "49, Vei 400, Sjøskrenten, Gruvedalen, Longyearbyen, Svalbard, 9170, Norway",
        "road": "Vei 400",
        "house_number": "49",
        "neighbourhood": null,
        "suburb": "Gruvedalen",
        "city_district": null,
        "city": "Longyearbyen",
        "state": null,
        "postcode": "9170",
        "country": "Norway",
        "country_code": "no"
      },
      "address": "49 Vei 400, Longyearbyen, Svalbard and Jan Mayen"
    },
    {
      "lat": 78.23662841841114,
      "lon": 15.798719047810215,
      "geoinfo": {
        "display_name": "2, 400, Braathenssletta, Longyearbyen, Svalbard, 9170, Norway",
        "road": "400",
        "house_number": "2",
        "neighbourhood": null,
        "suburb": null,
        "city_district": null,
        "city": "Longyearbyen",
        "state": null,
        "postcode": "9170",
        "country": "Norway",
        "country_code": "no"
      },
      "address": "2 400, Longyearbyen, Svalbard and Jan Mayen"
    },
    {
      "lat": 78.19948328629019,
      "lon": 15.58665492815393,
      "geoinfo": {
        "display_name": "13, Vei 100, Nybyen, Longyearbyen, Svalbard, 9170, Norway",
        "road": "Vei 100",
        "house_number": "13",
        "neighbourhood": null,
        "suburb": "Nybyen",
        "city_district": null,
        "city": "Longyearbyen",
        "state": null,
        "postcode": "9170",
        "country": "Norway",
        "country_code": "no"
      },
      "address": "13 Vei 100, Longyearbyen, Svalbard and Jan Mayen"
    },
    {
      "lat": 78.21556491783504,
      "lon": 15.619965421325196,
      "geoinfo": {
        "display_name": "Elveleiet, Longyearbyen, Elvesletta Sør, Haugen, Longyearbyen, Svalbard, Norway",
        "road": "Elveleiet",
        "house_number": null,
        "neighbourhood": null,
        "suburb": "Haugen",
        "city_district": null,
        "city": "Longyearbyen",
        "state": null,
        "postcode": null,
        "country": "Norway",
        "country_code": "no"
      },
      "address": "Elveleiet, Longyearbyen, Svalbard and Jan Mayen"
    },
    {
      "lat": 78.26733663546734,
      "lon": 15.629484503144292,
      "geoinfo": {
        "display_name": "5, Vei 600, Sjømrådet, Lia, Longyearbyen, Svalbard, 9170, Norway",
        "road": "Vei 600",
        "house_number": "5",
        "neighbourhood": null,
        "suburb": "Lia",
        "city_district": null,
        "city": "Longyearbyen",
        "state": null,
        "postcode": "9170",
        "country": "Norway",
        "country_code": "no"
      },
      "address": "5 Vei 600, Longyearbyen, Svalbard and Jan Mayen"
    },
    {
      "lat": 78.22831770120808,
      "lon": 15.635840528080896,
      "geoinfo": {
        "display_name": "20, Vei 600, Sjømrådet, Lia, Longyearbyen, Svalbard, 9170, Norway",
        "road": "Vei 600",
        "house_number": "20",
        "neighbourhood": null,
        "suburb": "Lia",
        "city_district": null,
        "city": "Longyearbyen",
        "state": null,
        "postcode": "9170",
        "country": "Norway",
        "country_code": "no"
      },
      "address": "20 Vei 600, Longyearbyen, Svalbard and Jan Mayen"
    },
    {
      "lat": 78.20452502585078,
      "lon": 15.816144448951208,
      "geoinfo": {
        "display_name": "464, 400, Braathenssletta, Longyearbyen, Svalbard, 9170, Norway",
        "road": "400",
        "house_number": "464",
        "neighbourhood": null,
        "suburb": null,
        "city_district": null,
        "city": "Longyearbyen",
        "state": null,
        "postcode": "9170",
        "country": "Norway",
        "country_code": "no"
      },
      "address": "464 400, Longyearbyen, Svalbard and Jan Mayen"
    },
    {
      "lat": 78.21604817252198,
      "lon": 15.651628611879621,
      "geoinfo": {
        "display_name": "Vei 230, Longyearbyen, Elvsletta Nord, Lia, Longyearbyen, Svalbard, 9170, Norway",
        "road": "Vei 230",
        "house_number": null,
        "neighbourhood": null,
        "suburb": "Lia",
        "city_district": null,
        "city": "Longyearbyen",
        "state": null,
        "postcode": "9170",
        "country": "Norway",
        "country_code": "no"
      },
      "address": "Vei 230, Longyearbyen, Svalbard and Jan Mayen"
    },
    {
      "lat": 78.21387000710641,
      "lon": 15.63655031666338,
      "geoinfo": {
        "display_name": "222, Longyearbyen, Elvesletta Sør, Haugen, Longyearbyen, Svalbard, 9170, Norway",
        "road": "222",
        "house_number": null,
        "neighbourhood": null,
        "suburb": "Haugen",
        "city_district": null,
        "city": "Longyearbyen",
        "state": null,
        "postcode": "9170",
        "country": "Norway",
        "country_code": "no"
      },
      "address": "222, Longyearbyen, Svalbard and Jan Mayen"
    },
    {
      "lat": 78.24086588504282,
      "lon": 15.539621054080218,
      "geoinfo": {
        "display_name": "Vei 618, Adventpynten, Longyearbyen, Svalbard, Norway",
        "road": "Vei 618",
        "house_number": null,
        "neighbourhood": null,
        "suburb": "Adventpynten",
        "city_district": null,
        "city": "Longyearbyen",
        "state": null,
        "postcode": null,
        "country": "Norway",
        "country_code": "no"
      },
      "address": "Vei 618, Longyearbyen, Svalbard and Jan Mayen"
    },
    {
      "lat": 78.20172772965456,
      "lon": 15.596667001643675,
      "geoinfo": {
        "display_name": "1B, Vei 100, Nybyen, Longyearbyen, Svalbard, 9170, Norway",
        "road": "Vei 100",
        "house_number": "1B",
        "neighbourhood": null,
        "suburb": "Nybyen",
        "city_district": null,
        "city": "Longyearbyen",
        "state": null,
        "postcode": "9170",
        "country": "Norway",
        "country_code": "no"
      },
      "address": "1B Vei 100, Longyearbyen, Svalbard and Jan Mayen"
    },
    {
      "lat": 78.22049410957386,
      "lon": 15.648829474590702,
      "geoinfo": {
        "display_name": "1, Vei 229, Longyearbyen, Elvsletta Nord, Lia, Longyearbyen, Svalbard, 9170, Norway",
        "road": "Vei 229",
        "house_number": "1",
        "neighbourhood": null,
        "suburb": "Lia",
        "city_district": null,
        "city": "Longyearbyen",
        "state": null,
        "postcode": "9170",
        "country": "Norway",
        "country_code": "no"
      },
      "address": "1 Vei 229, Longyearbyen, Svalbard and Jan Mayen"
    },
    {
      "lat": 78.21664310469143,
      "lon": 15.623126872154742,
      "geoinfo": {
        "display_name": "Vei 505, Longyearbyen, Elvesletta Sør, Haugen, Longyearbyen, Svalbard, Norway",
        "road": "Vei 505",
        "house_number": null,
        "neighbourhood": null,
        "suburb": "Haugen",
        "city_district": null,
        "city": "Longyearbyen",
        "state": null,
        "postcode": null,
        "country": "Norway",
        "country_code": "no"
      },
      "address": "Vei 505, Longyearbyen, Svalbard and Jan Mayen"
    },
    {
      "lat": 78.22910186409906,
      "lon": 15.609634582682528,
      "geoinfo": {
        "display_name": "7, Vei 600, Sjømrådet, Lia, Longyearbyen, Svalbard, 9170, Norway",
        "road": "Vei 600",
        "house_number": "7",
        "neighbourhood": null,
        "suburb": "Lia",
        "city_district": null,
        "city": "Longyearbyen",
        "state": null,
        "postcode": "9170",
        "country": "Norway",
        "country_code": "no"
      },
      "address": "7 Vei 600, Longyearbyen, Svalbard and Jan Mayen"
    },
    {
      "lat": 78.19590629386103,
      "lon": 15.585576164855068,
      "geoinfo": {
        "display_name": "102, Nybyen, Longyearbyen, Svalbard, Norway",
        "road": "102",
        "house_number": null,
        "neighbourhood": null,
        "suburb": "Nybyen",
        "city_district": null,
        "city": "Longyearbyen",
        "state": null,
        "postcode": null,
        "country": "Norway",
        "country_code": "no"
      },
      "address": "102, Longyearbyen, Svalbard and Jan Mayen"
    },
    {
      "lat": 78.24572345345267,
      "lon": 15.552566546928738,
      "geoinfo": {
        "display_name": "50, Vei 600, Sjømrådet, Lia, Longyearbyen, Svalbard, 9170, Norway",
        "road": "Vei 600",
        "house_number": "50",
        "neighbourhood": null,
        "suburb": "Lia",
        "city_district": null,
        "city": "Longyearbyen",
        "state": null,
        "postcode": "9170",
        "country": "Norway",
        "country_code": "no"
      },
      "address": "50 Vei 600, Longyearbyen, Svalbard and Jan Mayen"
    },
    {
      "lat": 78.25653013325422,
      "lon": 15.695295330152799,
      "geoinfo": {
        "display_name": "25, Vei 400, Sjøskrenten, Gruvedalen, Longyearbyen, Svalbard, 9170, Norway",
        "road": "Vei 400",
        "house_number": "25",
        "neighbourhood": null,
        "suburb": "Gruvedalen",
        "city_district": null,
        "city": "Longyearbyen",
        "state": null,
        "postcode": "9170",
        "country": "Norway",
        "country_code": "no"
      },
      "address": "25 Vei 400, Longyearbyen, Svalbard and Jan Mayen"
    },
    {
      "lat": 78.23059361201777,
      "lon": 15.639249875118393,
      "geoinfo": {
        "display_name": "2A, Vei 600, Sjømrådet, Lia, Longyearbyen, Svalbard, 9170, Norway",
        "road": "Vei 600",
        "house_number": "2A",
        "neighbourhood": null,
        "suburb": "Lia",
        "city_district": null,
        "city": "Longyearbyen",
        "state": null,
        "postcode": "9170",
        "country": "Norway",
        "country_code": "no"
      },
      "address": "2A Vei 600, Longyearbyen, Svalbard and Jan Mayen"
    },
    {
      "lat": 78.25195454080738,
      "lon": 15.691769174125456,
      "geoinfo": {
        "display_name": "29, Vei 400, Sjøskrenten, Gruvedalen, Longyearbyen, Svalbard, 9170, Norway",
        "road": "Vei 400",
        "house_number": "29",
        "neighbourhood": null,
        "suburb": "Gruvedalen",
        "city_district": null,
        "city": "Longyearbyen",
        "state": null,
        "postcode": "9170",
        "country": "Norway",
        "country_code": "no"
      },
      "address": "29 Vei 400, Longyearbyen, Svalbard and Jan Mayen"
    },
    {
      "lat": 78.22827496395362,
      "lon": 15.642693624129715,
      "geoinfo": {
        "display_name": "19, Vei 600, Elvsletta Nord, Lia, Longyearbyen, Svalbard, 9170, Norway",
        "road": "Vei 600",
        "house_number": "19",
        "neighbourhood": null,
        "suburb": "Lia",
        "city_district": null,
        "city": "Longyearbyen",
        "state": null,
        "postcode": "9170",
        "country": "Norway",
        "country_code": "no"
      },
      "address": "19 Vei 600, Longyearbyen, Svalbard and Jan Mayen"
    },
    {
      "lat": 78.22660894920112,
      "lon": 15.643949639477245,
      "geoinfo": {
        "display_name": "23, Vei 600, Elvsletta Nord, Lia, Longyearbyen, Svalbard, 9170, Norway",
        "road": "Vei 600",
        "house_number": "23",
        "neighbourhood": null,
        "suburb": "Lia",
        "city_district": null,
        "city": "Longyearbyen",
        "state": null,
        "postcode": "9170",
        "country": "Norway",
        "country_code": "no"
      },
      "address": "23 Vei 600, Longyearbyen, Svalbard and Jan Mayen"
    },
    {
      "lat": 78.22575339296425,
      "lon": 15.635561379200126,
      "geoinfo": {
        "display_name": "22, Vei 600, Sjømrådet, Lia, Longyearbyen, Svalbard, 9170, Norway",
        "road": "Vei 600",
        "house_number": "22",
        "neighbourhood": null,
        "suburb": "Lia",
        "city_district": null,
        "city": "Longyearbyen",
        "state": null,
        "postcode": "9170",
        "country": "Norway",
        "country_code": "no"
      },
      "address": "22 Vei 600, Longyearbyen, Svalbard and Jan Mayen"
    },
    {
      "lat": 78.21313777015736,
      "lon": 15.650646281100354,
      "geoinfo": {
        "display_name": "33, Vei 230, Longyearbyen, Elvsletta Nord, Lia, Longyearbyen, Svalbard, 9170, Norway",
        "road": "Vei 230",
        "house_number": "33",
        "neighbourhood": null,
        "suburb": "Lia",
        "city_district": null,
        "city": "Longyearbyen",
        "state": null,
        "postcode": "9170",
        "country": "Norway",
        "country_code": "no"
      },
      "address": "33 Vei 230, Longyearbyen, Svalbard and Jan Mayen"
    },
    {
      "lat": 78.18471895576556,
      "lon": 15.732202206772396,
      "geoinfo": {
        "display_name": "237, 400, Gruvedalen, Longyearbyen, Svalbard, 9170, Norway",
        "road": "400",
        "house_number": "237",
        "neighbourhood": null,
        "suburb": "Gruvedalen",
        "city_district": null,
        "city": "Longyearbyen",
        "state": null,
        "postcode": "9170",
        "country": "Norway",
        "country_code": "no"
      },
      "address": "237 400, Longyearbyen, Svalbard and Jan Mayen"
    },
    {
      "lat": 78.22128662980863,
      "lon": 15.659367170312608,
      "geoinfo": {
        "display_name": "238, Longyearbyen, Sjøskrenten, Gruvedalen, Longyearbyen, Svalbard, 9170, Norway",
        "road": "238",
        "house_number": null,
        "neighbourhood": null,
        "suburb": "Gruvedalen",
        "city_district": null,
        "city": "Longyearbyen",
        "state": null,
        "postcode": "9170",
        "country": "Norway",
        "country_code": "no"
      },
      "address": "238, Longyearbyen, Svalbard and Jan Mayen"
    },
    {
      "lat": 78.21181721932375,
      "lon": 15.612101121950042,
      "geoinfo": {
        "display_name": "Vei 102, Longyearbyen, Elvesletta Sør, Haugen, Longyearbyen, Svalbard, Norway",
        "road": "Vei 102",
        "house_number": null,
        "neighbourhood": null,
        "suburb": "Haugen",
        "city_district": null,
        "city": "Longyearbyen",
        "state": null,
        "postcode": null,
        "country": "Norway",
        "country_code": "no"
      },
      "address": "Vei 102, Longyearbyen, Svalbard and Jan Mayen"
    },
    {
      "lat": 78.24679544091491,
      "lon": 15.603509526166448,
      "geoinfo": {
        "display_name": "Bykaia, Lia, Longyearbyen, Svalbard, Norway",
        "road": null,
        "house_number": null,
        "neighbourhood": null,
        "suburb": "Lia",
        "city_district": null,
        "city": "Longyearbyen",
        "state": null,
        "postcode": null,
        "country": "Norway",
        "country_code": "no"
      },
      "address": "843, Lia, 13248 Longyearbyen, Svalbard and Jan Mayen"
    },
    {
      "lat": 78.24045790101034,
      "lon": 15.502955610055283,
      "geoinfo": {
        "display_name": "Vei 700, Adventpynten, Longyearbyen, Svalbard, Norway",
        "road": "Vei 700",
        "house_number": null,
        "neighbourhood": null,
        "suburb": "Adventpynten",
        "city_district": null,
        "city": "Longyearbyen",
        "state": null,
        "postcode": null,
        "country": "Norway",
        "country_code": "no"
      },
      "address": "Vei 700, 77762 Longyearbyen, Svalbard and Jan Mayen"
    },
    {
      "lat": 78.23209039198392,
      "lon": 15.678290073635342,
      "geoinfo": {
        "display_name": "Gruvedalen, Longyearbyen, Svalbard, 9170, Norway",
        "road": null,
        "house_number": null,
        "neighbourhood": null,
        "suburb": "Gruvedalen",
        "city_district": null,
        "city": "Longyearbyen",
        "state": null,
        "postcode": "9170",
        "country": "Norway",
        "country_code": "no"
      },
      "address": "318, Gruvedalen, 9170 Longyearbyen, Svalbard and Jan Mayen"
    },
    {
      "lat": 78.23659699431886,
      "lon": 15.678461446268782,
      "geoinfo": {
        "display_name": "Gruvedalen, Longyearbyen, Svalbard, 9170, Norway",
        "road": null,
        "house_number": null,
        "neighbourhood": null,
        "suburb": "Gruvedalen",
        "city_district": null,
        "city": "Longyearbyen",
        "state": null,
        "postcode": "9170",
        "country": "Norway",
        "country_code": "no"
      },
      "address": "998, Gruvedalen, 9170 Longyearbyen, Svalbard and Jan Mayen"
    },
    {
      "lat": 78.24215428796674,
      "lon": 15.671166221608713,
      "geoinfo": {
        "display_name": "Gruvedalen, Longyearbyen, Svalbard, 9170, Norway",
        "road": null,
        "house_number": null,
        "neighbourhood": null,
        "suburb": "Gruvedalen",
        "city_district": null,
        "city": "Longyearbyen",
        "state": null,
        "postcode": "9170",
        "country": "Norway",
        "country_code": "no"
      },
      "address": "388, Gruvedalen, 9170 Longyearbyen, Svalbard and Jan Mayen"
    },
    {
      "lat": 78.25607472755269,
      "lon": 15.523418483714819,
      "geoinfo": {
        "display_name": "Adventpynten, Longyearbyen, Svalbard, Norway",
        "road": null,
        "house_number": null,
        "neighbourhood": null,
        "suburb": "Adventpynten",
        "city_district": null,
        "city": "Longyearbyen",
        "state": null,
        "postcode": null,
        "country": "Norway",
        "country_code": "no"
      },
      "address": "390, Adventpynten, 44209 Longyearbyen, Svalbard and Jan Mayen"
    },
    {
      "lat": 78.22251354764906,
      "lon": 15.568163516275963,
      "geoinfo": {
        "display_name": "Nybyen, Longyearbyen, Svalbard, Norway",
        "road": null,
        "house_number": null,
        "neighbourhood": null,
        "suburb": "Nybyen",
        "city_district": null,
        "city": "Longyearbyen",
        "state": null,
        "postcode": null,
        "country": "Norway",
        "country_code": "no"
      },
      "address": "036, Nybyen, 47260 Longyearbyen, Svalbard and Jan Mayen"
    },
    {
      "lat": 78.18898532244917,
      "lon": 15.651219251712785,
      "geoinfo": {
        "display_name": "Lia, Longyearbyen, Svalbard, 9170, Norway",
        "road": null,
        "house_number": null,
        "neighbourhood": null,
        "suburb": "Lia",
        "city_district": null,
        "city": "Longyearbyen",
        "state": null,
        "postcode": "9170",
        "country": "Norway",
        "country_code": "no"
      },
      "address": "269, Lia, 9170 Longyearbyen, Svalbard and Jan Mayen"
    },
    {
      "lat": 78.24041214688822,
      "lon": 15.478987357836424,
      "geoinfo": {
        "display_name": "Vei 700, Adventpynten, Longyearbyen, Svalbard, Norway",
        "road": "Vei 700",
        "house_number": null,
        "neighbourhood": null,
        "suburb": "Adventpynten",
        "city_district": null,
        "city": "Longyearbyen",
        "state": null,
        "postcode": null,
        "country": "Norway",
        "country_code": "no"
      },
      "address": "Vei 700, 21754 Longyearbyen, Svalbard and Jan Mayen"
    },
    {
      "lat": 78.21014267380843,
      "lon": 15.732840604339842,
      "geoinfo": {
        "display_name": "400, Gruvedalen, Longyearbyen, Svalbard, Norway",
        "road": "400",
        "house_number": null,
        "neighbourhood": null,
        "suburb": "Gruvedalen",
        "city_district": null,
        "city": "Longyearbyen",
        "state": null,
        "postcode": null,
        "country": "Norway",
        "country_code": "no"
      },
      "address": "400, 39715 Longyearbyen, Svalbard and Jan Mayen"
    },
    {
      "lat": 78.26089563150809,
      "lon": 15.566269822840043,
      "geoinfo": {
        "display_name": "Adventpynten, Longyearbyen, Svalbard, Norway",
        "road": null,
        "house_number": null,
        "neighbourhood": null,
        "suburb": "Adventpynten",
        "city_district": null,
        "city": "Longyearbyen",
        "state": null,
        "postcode": null,
        "country": "Norway",
        "country_code": "no"
      },
      "address": "648, Adventpynten, 49287 Longyearbyen, Svalbard and Jan Mayen"
    },
    {
      "lat": 78.25150128302886,
      "lon": 15.624665494885127,
      "geoinfo": {
        "display_name": "Lia, Longyearbyen, Svalbard, 9170, Norway",
        "road": null,
        "house_number": null,
        "neighbourhood": null,
        "suburb": "Lia",
        "city_district": null,
        "city": "Longyearbyen",
        "state": null,
        "postcode": "9170",
        "country": "Norway",
        "country_code": "no"
      },
      "address": "917, Lia, 9170 Longyearbyen, Svalbard and Jan Mayen"
    },
    {
      "lat": 78.21177980701363,
      "lon": 15.760799756085223,
      "geoinfo": {
        "display_name": "400, Braathenssletta, Longyearbyen, Svalbard, Norway",
        "road": "400",
        "house_number": null,
        "neighbourhood": null,
        "suburb": null,
        "city_district": null,
        "city": "Longyearbyen",
        "state": null,
        "postcode": null,
        "country": "Norway",
        "country_code": "no"
      },
      "address": "400, 95080 Longyearbyen, Svalbard and Jan Mayen"
    },
    {
      "lat": 78.19912188955355,
      "lon": 15.631783789161664,
      "geoinfo": {
        "display_name": "Elvesletta Sør, Haugen, Longyearbyen, Svalbard, Norway",
        "road": null,
        "house_number": null,
        "neighbourhood": null,
        "suburb": "Haugen",
        "city_district": null,
        "city": "Longyearbyen",
        "state": null,
        "postcode": null,
        "country": "Norway",
        "country_code": "no"
      },
      "address": "922, Haugen, 56446 Longyearbyen, Svalbard and Jan Mayen"
    },
    {
      "lat": 78.19139914731566,
      "lon": 15.760735712530858,
      "geoinfo": {
        "display_name": "Longyearbyen, Svalbard, 9170, Norway",
        "road": null,
        "house_number": null,
        "neighbourhood": null,
        "suburb": null,
        "city_district": null,
        "city": "Longyearbyen",
        "state": null,
        "postcode": "9170",
        "country": "Norway",
        "country_code": "no"
      },
      "address": "232, 9170 Longyearbyen, Svalbard and Jan Mayen"
    },
    {
      "lat": 78.22088141521006,
      "lon": 15.545823371944646,
      "geoinfo": {
        "display_name": "Adventpynten, Longyearbyen, Svalbard, Norway",
        "road": null,
        "house_number": null,
        "neighbourhood": null,
        "suburb": "Adventpynten",
        "city_district": null,
        "city": "Longyearbyen",
        "state": null,
        "postcode": null,
        "country": "Norway",
        "country_code": "no"
      },
      "address": "848, Adventpynten, 84223 Longyearbyen, Svalbard and Jan Mayen"
    },
    {
      "lat": 78.21579482610836,
      "lon": 15.701101986833827,
      "geoinfo": {
        "display_name": "Gruvedalen, Longyearbyen, Svalbard, 9170, Norway",
        "road": null,
        "house_number": null,
        "neighbourhood": null,
        "suburb": "Gruvedalen",
        "city_district": null,
        "city": "Longyearbyen",
        "state": null,
        "postcode": "9170",
        "country": "Norway",
        "country_code": "no"
      },
      "address": "161, Gruvedalen, 9170 Longyearbyen, Svalbard and Jan Mayen"
    },
    {
      "lat": 78.20293030343655,
      "lon": 15.780894723286435,
      "geoinfo": {
        "display_name": "400, Braathenssletta, Longyearbyen, Svalbard, Norway",
        "road": "400",
        "house_number": null,
        "neighbourhood": null,
        "suburb": null,
        "city_district": null,
        "city": "Longyearbyen",
        "state": null,
        "postcode": null,
        "country": "Norway",
        "country_code": "no"
      },
      "address": "400, 78712 Longyearbyen, Svalbard and Jan Mayen"
    },
    {
      "lat": 78.20898990909491,
      "lon": 15.562122130549247,
      "geoinfo": {
        "display_name": "Sverdrupbyen, Nybyen, Longyearbyen, Svalbard, Norway",
        "road": null,
        "house_number": null,
        "neighbourhood": "Sverdrupbyen",
        "suburb": "Nybyen",
        "city_district": null,
        "city": "Longyearbyen",
        "state": null,
        "postcode": null,
        "country": "Norway",
        "country_code": "no"
      },
      "address": "755, Sverdrupbyen, 24392 Longyearbyen, Svalbard and Jan Mayen"
    },
    {
      "lat": 78.21023255329183,
      "lon": 15.55906158481451,
      "geoinfo": {
        "display_name": "Sverdrupbyen, Nybyen, Longyearbyen, Svalbard, Norway",
        "road": null,
        "house_number": null,
        "neighbourhood": "Sverdrupbyen",
        "suburb": "Nybyen",
        "city_district": null,
        "city": "Longyearbyen",
        "state": null,
        "postcode": null,
        "country": "Norway",
        "country_code": "no"
      },
      "address": "212, Sverdrupbyen, 22057 Longyearbyen, Svalbard and Jan Mayen"
    },
    {
      "lat": 78.1885505444392,
      "lon": 15.540241143393596,
      "geoinfo": {
        "display_name": "Snowmobile route, Nybyen, Longyearbyen, Svalbard, Norway",
        "road": "Snowmobile route",
        "house_number": null,
        "neighbourhood": null,
        "suburb": "Nybyen",
        "city_district": null,
        "city": "Longyearbyen",
        "state": null,
        "postcode": null,
        "country": "Norway",
        "country_code": "no"
      },
      "address": "006, Snowmobile route, 09929 Longyearbyen, Svalbard and Jan Mayen"
    },
    {
      "lat": 78.20938946273158,
      "lon": 15.696198257259953,
      "geoinfo": {
        "display_name": "Gruvedalen, Longyearbyen, Svalbard, 9170, Norway",
        "road": null,
        "house_number": null,
        "neighbourhood": null,
        "suburb": "Gruvedalen",
        "city_district": null,
        "city": "Longyearbyen",
        "state": null,
        "postcode": "9170",
        "country": "Norway",
        "country_code": "no"
      },
      "address": "139, Gruvedalen, 9170 Longyearbyen, Svalbard and Jan Mayen"
    },
    {
      "lat": 78.20476694035524,
      "lon": 15.563863720319803,
      "geoinfo": {
        "display_name": "Vei 300, Sverdrupbyen, Nybyen, Longyearbyen, Svalbard, Norway",
        "road": "Vei 300",
        "house_number": null,
        "neighbourhood": "Sverdrupbyen",
        "suburb": "Nybyen",
        "city_district": null,
        "city": "Longyearbyen",
        "state": null,
        "postcode": null,
        "country": "Norway",
        "country_code": "no"
      },
      "address": "Vei 300, 24898 Longyearbyen, Svalbard and Jan Mayen"
    },
    {
      "lat": 78.22236090613038,
      "lon": 15.70447255895161,
      "geoinfo": {
        "display_name": "Vei 400, Sjøskrenten, Gruvedalen, Longyearbyen, Svalbard, 9170, Norway",
        "road": "Vei 400",
        "house_number": null,
        "neighbourhood": null,
        "suburb": "Gruvedalen",
        "city_district": null,
        "city": "Longyearbyen",
        "state": null,
        "postcode": "9170",
        "country": "Norway",
        "country_code": "no"
      },
      "address": "Vei 400, 9170 Longyearbyen, Svalbard and Jan Mayen"
    },
    {
      "lat": 78.23896493455713,
      "lon": 15.732142610790758,
      "geoinfo": {
        "display_name": "1, 400, Gruvedalen, Longyearbyen, Svalbard, 9170, Norway",
        "road": "400",
        "house_number": "1",
        "neighbourhood": null,
        "suburb": "Gruvedalen",
        "city_district": null,
        "city": "Longyearbyen",
        "state": null,
        "postcode": "9170",
        "country": "Norway",
        "country_code": "no"
      },
      "address": "400, 9170 Longyearbyen, Svalbard and Jan Mayen"
    },
    {
      "lat": 78.23183853524921,
      "lon": 15.62682839299326,
      "geoinfo": {
        "display_name": "Gammelkaia, Vei 600, Sjømrådet, Lia, Longyearbyen, Svalbard, Norway",
        "road": "Vei 600",
        "house_number": null,
        "neighbourhood": null,
        "suburb": "Lia",
        "city_district": null,
        "city": "Longyearbyen",
        "state": null,
        "postcode": null,
        "country": "Norway",
        "country_code": "no"
      },
      "address": "Vei 600, 85515 Longyearbyen, Svalbard and Jan Mayen"
    },
    {
      "lat": 78.2153487734284,
      "lon": 15.768581994400545,
      "geoinfo": {
        "display_name": "400, Braathenssletta, Longyearbyen, Svalbard, Norway",
        "road": "400",
        "house_number": null,
        "neighbourhood": null,
        "suburb": null,
        "city_district": null,
        "city": "Longyearbyen",
        "state": null,
        "postcode": null,
        "country": "Norway",
        "country_code": "no"
      },
      "address": "400, 72384 Longyearbyen, Svalbard and Jan Mayen"
    },
    {
      "lat": 78.20685173615044,
      "lon": 15.664560957464282,
      "geoinfo": {
        "display_name": "Sjøskrenten, Gruvedalen, Longyearbyen, Svalbard, 9170, Norway",
        "road": null,
        "house_number": null,
        "neighbourhood": null,
        "suburb": "Gruvedalen",
        "city_district": null,
        "city": "Longyearbyen",
        "state": null,
        "postcode": "9170",
        "country": "Norway",
        "country_code": "no"
      },
      "address": "451, Gruvedalen, 9170 Longyearbyen, Svalbard and Jan Mayen"
    },
    {
      "lat": 78.22770637632283,
      "lon": 15.58770645261448,
      "geoinfo": {
        "display_name": "Vei 305, Sjømrådet, Adventpynten, Longyearbyen, Svalbard, Norway",
        "road": "Vei 305",
        "house_number": null,
        "neighbourhood": null,
        "suburb": "Adventpynten",
        "city_district": null,
        "city": "Longyearbyen",
        "state": null,
        "postcode": null,
        "country": "Norway",
        "country_code": "no"
      },
      "address": "Vei 305, 72329 Longyearbyen, Svalbard and Jan Mayen"
    },
    {
      "lat": 78.18843538570351,
      "lon": 15.590755657452085,
      "geoinfo": {
        "display_name": "Sverdrupbyen, Nybyen, Longyearbyen, Svalbard, Norway",
        "road": null,
        "house_number": null,
        "neighbourhood": "Sverdrupbyen",
        "suburb": "Nybyen",
        "city_district": null,
        "city": "Longyearbyen",
        "state": null,
        "postcode": null,
        "country": "Norway",
        "country_code": "no"
      },
      "address": "771, Sverdrupbyen, 32552 Longyearbyen, Svalbard and Jan Mayen"
    },
    {
      "lat": 78.1870457616152,
      "lon": 15.627202670177246,
      "geoinfo": {
        "display_name": "Haugen, Longyearbyen, Svalbard, Norway",
        "road": null,
        "house_number": null,
        "neighbourhood": null,
        "suburb": "Haugen",
        "city_district": null,
        "city": "Longyearbyen",
        "state": null,
        "postcode": null,
        "country": "Norway",
        "country_code": "no"
      },
      "address": "868, Haugen, 45814 Longyearbyen, Svalbard and Jan Mayen"
    },
    {
      "lat": 78.2526763222087,
      "lon": 15.532183460995752,
      "geoinfo": {
        "display_name": "Vei 620, Adventpynten, Longyearbyen, Svalbard, Norway",
        "road": "Vei 620",
        "house_number": null,
        "neighbourhood": null,
        "suburb": "Adventpynten",
        "city_district": null,
        "city": "Longyearbyen",
        "state": null,
        "postcode": null,
        "country": "Norway",
        "country_code": "no"
      },
      "address": "Vei 620, 74766 Longyearbyen, Svalbard and Jan Mayen"
    },
    {
      "lat": 78.20628618593472,
      "lon": 15.616661189498384,
      "geoinfo": {
        "display_name": "Vei 100, Longyearbyen, Old Longyear City, Haugen, Longyearbyen, Svalbard, Norway",
        "road": "Vei 100",
        "house_number": null,
        "neighbourhood": null,
        "suburb": "Haugen",
        "city_district": null,
        "city": "Longyearbyen",
        "state": null,
        "postcode": null,
        "country": "Norway",
        "country_code": "no"
      },
      "address": "Vei 100, 45677 Longyearbyen, Svalbard and Jan Mayen"
    },
    {
      "lat": 78.18631717662726,
      "lon": 15.61031102474785,
      "geoinfo": {
        "display_name": "Nybyen, Longyearbyen, Svalbard, Norway",
        "road": null,
        "house_number": null,
        "neighbourhood": null,
        "suburb": "Nybyen",
        "city_district": null,
        "city": "Longyearbyen",
        "state": null,
        "postcode": null,
        "country": "Norway",
        "country_code": "no"
      },
      "address": "890, Nybyen, 76925 Longyearbyen, Svalbard and Jan Mayen"
    },
    {
      "lat": 78.24214369952055,
      "lon": 15.519849600701335,
      "geoinfo": {
        "display_name": "Vei 600, Sjømrådet, Lia, Longyearbyen, Svalbard, Norway",
        "road": "Vei 600",
        "house_number": null,
        "neighbourhood": null,
        "suburb": "Lia",
        "city_district": null,
        "city": "Longyearbyen",
        "state": null,
        "postcode": null,
        "country": "Norway",
        "country_code": "no"
      },
      "address": "Vei 600, 51796 Longyearbyen, Svalbard and Jan Mayen"
    },
    {
      "lat": 78.18140992271901,
      "lon": 15.620751651793285,
      "geoinfo": {
        "display_name": "Haugen, Longyearbyen, Svalbard, Norway",
        "road": null,
        "house_number": null,
        "neighbourhood": null,
        "suburb": "Haugen",
        "city_district": null,
        "city": "Longyearbyen",
        "state": null,
        "postcode": null,
        "country": "Norway",
        "country_code": "no"
      },
      "address": "181, Haugen, 82780 Longyearbyen, Svalbard and Jan Mayen"
    },
    {
      "lat": 78.23767471882555,
      "lon": 15.747948372505652,
      "geoinfo": {
        "display_name": "Longyearbyen, Svalbard, 9170, Norway",
        "road": null,
        "house_number": null,
        "neighbourhood": null,
        "suburb": null,
        "city_district": null,
        "city": "Longyearbyen",
        "state": null,
        "postcode": "9170",
        "country": "Norway",
        "country_code": "no"
      },
      "address": "503, 9170 Longyearbyen, Svalbard and Jan Mayen"
    },
    {
      "lat": 78.23881455218616,
      "lon": 15.627394358431971,
      "geoinfo": {
        "display_name": "Sjømrådet, Lia, Longyearbyen, Svalbard, 9170, Norway",
        "road": null,
        "house_number": null,
        "neighbourhood": null,
        "suburb": "Lia",
        "city_district": null,
        "city": "Longyearbyen",
        "state": null,
        "postcode": "9170",
        "country": "Norway",
        "country_code": "no"
      },
      "address": "303, Lia, 9170 Longyearbyen, Svalbard and Jan Mayen"
    },
    {
      "lat": 78.25460965119893,
      "lon": 15.509458490330527,
      "geoinfo": {
        "display_name": "Vei 620, Adventpynten, Longyearbyen, Svalbard, Norway",
        "road": "Vei 620",
        "house_number": null,
        "neighbourhood": null,
        "suburb": "Adventpynten",
        "city_district": null,
        "city": "Longyearbyen",
        "state": null,
        "postcode": null,
        "country": "Norway",
        "country_code": "no"
      },
      "address": "Vei 620, 61507 Longyearbyen, Svalbard and Jan Mayen"
    },
    {
      "lat": 78.18675642933496,
      "lon": 15.586966100515994,
      "geoinfo": {
        "display_name": "Sverdrupbyen, Nybyen, Longyearbyen, Svalbard, Norway",
        "road": null,
        "house_number": null,
        "neighbourhood": "Sverdrupbyen",
        "suburb": "Nybyen",
        "city_district": null,
        "city": "Longyearbyen",
        "state": null,
        "postcode": null,
        "country": "Norway",
        "country_code": "no"
      },
      "address": "430, Sverdrupbyen, 95116 Longyearbyen, Svalbard and Jan Mayen"
    },
    {
      "lat": 78.19312314595398,
      "lon": 15.672211576121137,
      "geoinfo": {
        "display_name": "Gruvedalen, Longyearbyen, Svalbard, 9170, Norway",
        "road": null,
        "house_number": null,
        "neighbourhood": null,
        "suburb": "Gruvedalen",
        "city_district": null,
        "city": "Longyearbyen",
        "state": null,
        "postcode": "9170",
        "country": "Norway",
        "country_code": "no"
      },
      "address": "850, Gruvedalen, 9170 Longyearbyen, Svalbard and Jan Mayen"
    },
    {
      "lat": 78.25260378143969,
      "lon": 15.554285180359042,
      "geoinfo": {
        "display_name": "Adventpynten, Longyearbyen, Svalbard, Norway",
        "road": null,
        "house_number": null,
        "neighbourhood": null,
        "suburb": "Adventpynten",
        "city_district": null,
        "city": "Longyearbyen",
        "state": null,
        "postcode": null,
        "country": "Norway",
        "country_code": "no"
      },
      "address": "783, Adventpynten, 39180 Longyearbyen, Svalbard and Jan Mayen"
    },
    {
      "lat": 78.23953254464709,
      "lon": 15.517812962169243,
      "geoinfo": {
        "display_name": "Vei 700, Adventpynten, Longyearbyen, Svalbard, Norway",
        "road": "Vei 700",
        "house_number": null,
        "neighbourhood": null,
        "suburb": "Adventpynten",
        "city_district": null,
        "city": "Longyearbyen",
        "state": null,
        "postcode": null,
        "country": "Norway",
        "country_code": "no"
      },
      "address": "Vei 700, 59031 Longyearbyen, Svalbard and Jan Mayen"
    },
    {
      "lat": 78.25933689325255,
      "lon": 15.766776737234059,
      "geoinfo": {
        "display_name": "Hiorthfjellgruva, 400, Gruvedalen, Longyearbyen, Svalbard, Norway",
        "road": "400",
        "house_number": null,
        "neighbourhood": null,
        "suburb": "Gruvedalen",
        "city_district": null,
        "city": "Longyearbyen",
        "state": null,
        "postcode": null,
        "country": "Norway",
        "country_code": "no"
      },
      "address": "400, 85468 Longyearbyen, Svalbard and Jan Mayen"
    },
    {
      "lat": 78.23771231413309,
      "lon": 15.634766879285117,
      "geoinfo": {
        "display_name": "Sjømrådet, Lia, Longyearbyen, Svalbard, 9170, Norway",
        "road": null,
        "house_number": null,
        "neighbourhood": null,
        "suburb": "Lia",
        "city_district": null,
        "city": "Longyearbyen",
        "state": null,
        "postcode": "9170",
        "country": "Norway",
        "country_code": "no"
      },
      "address": "518, Lia, 9170 Longyearbyen, Svalbard and Jan Mayen"
    },
    {
      "lat": 78.18025674014471,
      "lon": 15.620685428237637,
      "geoinfo": {
        "display_name": "Haugen, Longyearbyen, Svalbard, Norway",
        "road": null,
        "house_number": null,
        "neighbourhood": null,
        "suburb": "Haugen",
        "city_district": null,
        "city": "Longyearbyen",
        "state": null,
        "postcode": null,
        "country": "Norway",
        "country_code": "no"
      },
      "address": "571, Haugen, 13751 Longyearbyen, Svalbard and Jan Mayen"
    },
    {
      "lat": 78.1826937801558,
      "lon": 15.671520753066357,
      "geoinfo": {
        "display_name": "Gruvedalen, Longyearbyen, Svalbard, 9170, Norway",
        "road": null,
        "house_number": null,
        "neighbourhood": null,
        "suburb": "Gruvedalen",
        "city_district": null,
        "city": "Longyearbyen",
        "state": null,
        "postcode": "9170",
        "country": "Norway",
        "country_code": "no"
      },
      "address": "570, Gruvedalen, 9170 Longyearbyen, Svalbard and Jan Mayen"
    },
    {
      "lat": 78.22857889210397,
      "lon": 15.694337368132881,
      "geoinfo": {
        "display_name": "Gruvedalen, Longyearbyen, Svalbard, 9170, Norway",
        "road": null,
        "house_number": null,
        "neighbourhood": null,
        "suburb": "Gruvedalen",
        "city_district": null,
        "city": "Longyearbyen",
        "state": null,
        "postcode": "9170",
        "country": "Norway",
        "country_code": "no"
      },
      "address": "576, Gruvedalen, 9170 Longyearbyen, Svalbard and Jan Mayen"
    },
    {
      "lat": 78.23149681727638,
      "lon": 15.581840825969136,
      "geoinfo": {
        "display_name": "Vei 600, Sjømrådet, Lia, Longyearbyen, Svalbard, Norway",
        "road": "Vei 600",
        "house_number": null,
        "neighbourhood": null,
        "suburb": "Lia",
        "city_district": null,
        "city": "Longyearbyen",
        "state": null,
        "postcode": null,
        "country": "Norway",
        "country_code": "no"
      },
      "address": "Vei 600, 46228 Longyearbyen, Svalbard and Jan Mayen"
    },
    {
      "lat": 78.2096418722319,
      "lon": 15.780993311090983,
      "geoinfo": {
        "display_name": "400, Braathenssletta, Longyearbyen, Svalbard, Norway",
        "road": "400",
        "house_number": null,
        "neighbourhood": null,
        "suburb": null,
        "city_district": null,
        "city": "Longyearbyen",
        "state": null,
        "postcode": null,
        "country": "Norway",
        "country_code": "no"
      },
      "address": "400, 98656 Longyearbyen, Svalbard and Jan Mayen"
    },
    {
      "lat": 78.23073462201008,
      "lon": 15.645238753569352,
      "geoinfo": {
        "display_name": "23, Vei 600, Elvsletta Nord, Lia, Longyearbyen, Svalbard, 9170, Norway",
        "road": "Vei 600",
        "house_number": "23",
        "neighbourhood": null,
        "suburb": "Lia",
        "city_district": null,
        "city": "Longyearbyen",
        "state": null,
        "postcode": "9170",
        "country": "Norway",
        "country_code": "no"
      },
      "address": "Vei 600, 9170 Longyearbyen, Svalbard and Jan Mayen"
    },
    {
      "lat": 78.26444061626168,
      "lon": 15.567207428872065,
      "geoinfo": {
        "display_name": "Adventpynten, Longyearbyen, Svalbard, Norway",
        "road": null,
        "house_number": null,
        "neighbourhood": null,
        "suburb": "Adventpynten",
        "city_district": null,
        "city": "Longyearbyen",
        "state": null,
        "postcode": null,
        "country": "Norway",
        "country_code": "no"
      },
      "address": "932, Adventpynten, 73523 Longyearbyen, Svalbard and Jan Mayen"
    },
    {
      "lat": 78.2537036687668,
      "lon": 15.55195462904576,
      "geoinfo": {
        "display_name": "Adventpynten, Longyearbyen, Svalbard, Norway",
        "road": null,
        "house_number": null,
        "neighbourhood": null,
        "suburb": "Adventpynten",
        "city_district": null,
        "city": "Longyearbyen",
        "state": null,
        "postcode": null,
        "country": "Norway",
        "country_code": "no"
      },
      "address": "434, Adventpynten, 97112 Longyearbyen, Svalbard and Jan Mayen"
    },
    {
      "lat": 78.20418271105353,
      "lon": 15.558117866316845,
      "geoinfo": {
        "display_name": "Vei 300, Sverdrupbyen, Nybyen, Longyearbyen, Svalbard, Norway",
        "road": "Vei 300",
        "house_number": null,
        "neighbourhood": "Sverdrupbyen",
        "suburb": "Nybyen",
        "city_district": null,
        "city": "Longyearbyen",
        "state": null,
        "postcode": null,
        "country": "Norway",
        "country_code": "no"
      },
      "address": "Vei 300, 89796 Longyearbyen, Svalbard and Jan Mayen"
    },
    {
      "lat": 78.20981927889777,
      "lon": 15.55745305998211,
      "geoinfo": {
        "display_name": "Nybyen, Longyearbyen, Svalbard, Norway",
        "road": null,
        "house_number": null,
        "neighbourhood": null,
        "suburb": "Nybyen",
        "city_district": null,
        "city": "Longyearbyen",
        "state": null,
        "postcode": null,
        "country": "Norway",
        "country_code": "no"
      },
      "address": "103, Nybyen, 37699 Longyearbyen, Svalbard and Jan Mayen"
    }
  ],
  "updated_at": "2025-10-19T09:57:46.387369+00:00",
  "_kind": "geo_samples"
}