{
  "country_code": "CV",
  "country": "Cabo Verde",
  "city": "Espargos",
  "geonameid": 8521418,
  "target_addresses": 25,
  "samples": [
    {
      "lat": 16.72599737524087,
      "lon": -22.949962642585465,
      "geoinfo": {
        "display_name": "EN1-SL-01, Espargos, Sal, 4110, Cape Verde",
        "road": "EN1-SL-01",
        "house_number": null,
        "neighbourhood": null,
        "suburb": null,
        "city_district": null,
        "city": "Espargos",
        "state": null,
        "postcode": "4110",
        "country": "Cape Verde",
        "country_code": "cv"
      },
      "address": "EN1-SL-01, Espargos, Cabo Verde"
    },
    {
      "lat": 16.79496378700865,
      "lon": -22.949688966779508,
      "geoinfo": {
        "display_name": "Sal, Cape Verde",
        "road": null,
        "house_number": null,
        "neighbourhood": null,
        "suburb": null,
        "city_district": null,
        "city": null,
        "state": null,
        "postcode": null,
        "country": "Cape Verde",
        "country_code": "cv"
      },
      "address": "Espargos, Cabo Verde"
    },
    {
      "lat": 16.748537958726732,
      "lon": -22.92884264263045,
      "geoinfo": {
        "display_name": "EN3-SL-02, Alta Santa Cruz, Pedra de Lume, Sal, Cape Verde",
        "road": "EN3-SL-02",
        "house_number": null,
        "neighbourhood": null,
        "suburb": "Alta Santa Cruz",
        "city_district": null,
        "city": "Pedra de Lume",
        "state": null,
        "postcode": null,
        "country": "Cape Verde",
        "country_code": "cv"
      },
      "address": "EN3-SL-02, Espargos, Cabo Verde"
    },
    {
      "lat": 16.768811380016242,
      "lon": -22.93244252769818,
      "geoinfo": {
        "display_name": "Chã Fraseca, Espargos, Sal, 4110, Cape Verde",
        "road": null,
        "house_number": null,
        "neighbourhood": null,
        "suburb": "Chã Fraseca",
        "city_district": null,
        "city": "Espargos",
        "state": null,
        "postcode": "4110",
        "country": "Cape Verde",
        "country_code": "cv"
      },
      "address": "Chã Fraseca, Espargos, Cabo Verde"
    },
    {
      "lat": 16.77391588049816,
      "lon": -22.936555076982994,
      "geoinfo": {
        "display_name": "Terra Boa, Alta Santa Cruz, Espargos, Sal, 4110, Cape Verde",
        "road": null,
        "house_number": null,
        "neighbourhood": null,
        "suburb": "Alta Santa Cruz",
        "city_district": null,
        "city": "Espargos",
        "state": null,
        "postcode": "4110",
        "country": "Cape Verde",
        "country_code": "cv"
      },
      "address": "Alta Santa Cruz, Espargos, Cabo Verde"
    },
    {
      "lat": 16.73745206762682,
      "lon": -22.94811785232529,
      "geoinfo": {
        "display_name": "Amílcar Cabral International Airport, Palmeira-Espargos, Hortelã, Espargos, Sal, 4110, Cape Verde",
        "road": "Palmeira-Espargos",
        "house_number": null,
        "neighbourhood": null,
        "suburb": "Hortelã",
        "city_district": null,
        "city": "Espargos",
        "state": null,
        "postcode": "4110",
        "country": "Cape Verde",
        "country_code": "cv"
      },
      "address": "Palmeira-Espargos, Espargos, Cabo Verde"
    },
    {
      "lat": 16.776560541068935,
      "lon": -22.93284911986315,
      "geoinfo": {
        "display_name": "Cadeia Civil do Sal, Rua Chã Matia, Chã Matia, Espargos, Sal, 4110, Cape Verde",
        "road": "Rua Chã Matia",
        "house_number": null,
        "neighbourhood": null,
        "suburb": "Chã Matia",
        "city_district": null,
        "city": "Espargos",
        "state": null,
        "postcode": "4110",
        "country": "Cape Verde",
        "country_code": "cv"
      },
      "address": "Rua Chã Matia, Espargos, Cabo Verde"
    },
    {
      "lat": 16.75722507383625,
      "lon": -22.941115493910175,
      "geoinfo": {
        "display_name": "Hortelã, Espargos, Sal, 4110, Cape Verde",
        "road": null,
        "house_number": null,
        "neighbourhood": null,
        "suburb": "Hortelã",
        "city_district": null,
        "city": "Espargos",
        "state": null,
        "postcode": "4110",
        "country": "Cape Verde",
        "country_code": "cv"
      },
      "address": "Hortelã, Espargos, Cabo Verde"
    },
    {
      "lat": 16.75096440378556,
      "lon": -22.954442731784976,
      "geoinfo": {
        "display_name": "Preguiça, Espargos, Sal, 4110, Cape Verde",
        "road": null,
        "house_number": null,
        "neighbourhood": null,
        "suburb": "Preguiça",
        "city_district": null,
        "city": "Espargos",
        "state": null,
        "postcode": "4110",
        "country": "Cape Verde",
        "country_code": "cv"
      },
      "address": "Preguiça, Espargos, Cabo Verde"
    },
    {
      "lat": 16.757074535488382,
      "lon": -22.94530904658783,
      "geoinfo": {
        "display_name": "Rua B. Leza, Preguiça, Espargos, Sal, 4110, Cape Verde",
        "road": "Rua B. Leza",
        "house_number": null,
        "neighbourhood": null,
        "suburb": "Preguiça",
        "city_district": null,
        "city": "Espargos",
        "state": null,
        "postcode": "4110",
        "country": "Cape Verde",
        "country_code": "cv"
      },
      "address": "Rua B. Leza, Espargos, Cabo Verde"
    },
    {
      "lat": 16.755800131970645,
      "lon": -22.939850866491305,
      "geoinfo": {
        "display_name": "Rua Morro Curral, Hortelã, Espargos, Sal, 4110, Cape Verde",
        "road": "Rua Morro Curral",
        "house_number": null,
        "neighbourhood": null,
        "suburb": "Hortelã",
        "city_district": null,
        "city": "Espargos",
        "state": null,
        "postcode": "4110",
        "country": "Cape Verde",
        "country_code": "cv"
      },
      "address": "Rua Morro Curral, Espargos, Cabo Verde"
    },
    {
      "lat": 16.752139442490556,
      "lon": -22.94468868737582,
      "geoinfo": {
        "display_name": "Hotel Atlântico, Rua 3 de Agosto, Hortelã, Espargos, Sal, 4110, Cape Verde",
        "road": "Rua 3 de Agosto",
        "house_number": null,
        "neighbourhood": null,
        "suburb": "Hortelã",
        "city_district": null,
        "city": "Espargos",
        "state": null,
        "postcode": "4110",
        "country": "Cape Verde",
        "country_code": "cv"
      },
      "address": "Rua 3 de Agosto, Espargos, Cabo Verde"
    },
    {
      "lat": 16.754541368954133,
      "lon": -22.97883767689415,
      "geoinfo": {
        "display_name": "Port, Travessa C, Palmeira, Sal, Cape Verde",
        "road": "Travessa C",
        "house_number": null,
        "neighbourhood": null,
        "suburb": null,
        "city_district": null,
        "city": "Palmeira",
        "state": null,
        "postcode": null,
        "country": "Cape Verde",
        "country_code": "cv"
      },
      "address": "Travessa C, Espargos, Cabo Verde"
    },
    {
      "lat": 16.788981937539486,
      "lon": -22.916175148008232,
      "geoinfo": {
        "display_name": "Chã Fraseca, Espargos, Sal, 4110, Cape Verde",
        "road": null,
        "house_number": null,
        "neighbourhood": null,
        "suburb": "Chã Fraseca",
        "city_district": null,
        "city": "Espargos",
        "state": null,
        "postcode": "4110",
        "country": "Cape Verde",
        "country_code": "cv"
      },
      "address": "372, Chã Fraseca, 4110 Espargos, Cabo Verde"
    },
    {
      "lat": 16.78938333155104,
      "lon": -22.917671810271415,
      "geoinfo": {
        "display_name": "Chã Fraseca, Espargos, Sal, 4110, Cape Verde",
        "road": null,
        "house_number": null,
        "neighbourhood": null,
        "suburb": "Chã Fraseca",
        "city_district": null,
        "city": "Espargos",
        "state": null,
        "postcode": "4110",
        "country": "Cape Verde",
        "country_code": "cv"
      },
      "address": "956, Chã Fraseca, 4110 Espargos, Cabo Verde"
    },
    {
      "lat": 16.738808333005764,
      "lon": -22.951463006999617,
      "geoinfo": {
        "display_name": "Amílcar Cabral International Airport, Palmeira-Espargos, Hortelã, Espargos, Sal, 4110, Cape Verde",
        "road": "Palmeira-Espargos",
        "house_number": null,
        "neighbourhood": null,
        "suburb": "Hortelã",
        "city_district": null,
        "city": "Espargos",
        "state": null,
        "postcode": "4110",
        "country": "Cape Verde",
        "country_code": "cv"
      },
      "address": "845, Palmeira-Espargos, 4110 Espargos, Cabo Verde"
    },
    {
      "lat": 16.762913707461312,
      "lon": -22.948486649292356,
      "geoinfo": {
        "display_name": "Rua 5 de Março, Alta Santa Cruz, Espargos, Sal, 4110, Cape Verde",
        "road": "Rua 5 de Março",
        "house_number": null,
        "neighbourhood": null,
        "suburb": "Alta Santa Cruz",
        "city_district": null,
        "city": "Espargos",
        "state": null,
        "postcode": "4110",
        "country": "Cape Verde",
        "country_code": "cv"
      },
      "address": "Rua 5 de Março, 4110 Espargos, Cabo Verde"
    },
    {
      "lat": 16.7636503635277,
      "lon": -22.941639806055043,
      "geoinfo": {
        "display_name": "Alta Santa Cruz, Ribeira Funda, Sal, 4110, Cape Verde",
        "road": null,
        "house_number": null,
        "neighbourhood": null,
        "suburb": "Alta Santa Cruz",
        "city_district": null,
        "city": "Ribeira Funda",
        "state": null,
        "postcode": "4110",
        "country": "Cape Verde",
        "country_code": "cv"
      },
      "address": "704, Alta Santa Cruz, 4110 Espargos, Cabo Verde"
    },
    {
      "lat": 16.764619056032625,
      "lon": -22.93893209332976,
      "geoinfo": {
        "display_name": "Chã Matia, Espargos, Sal, 4110, Cape Verde",
        "road": null,
        "house_number": null,
        "neighbourhood": null,
        "suburb": "Chã Matia",
        "city_district": null,
        "city": "Espargos",
        "state": null,
        "postcode": "4110",
        "country": "Cape Verde",
        "country_code": "cv"
      },
      "address": "821, Chã Matia, 4110 Espargos, Cabo Verde"
    },
    {
      "lat": 16.7541166712217,
      "lon": -22.957625914143637,
      "geoinfo": {
        "display_name": "Palmeira-Espargos, Chã Matia, Palmeira, Sal, Cape Verde",
        "road": "Palmeira-Espargos",
        "house_number": null,
        "neighbourhood": null,
        "suburb": "Chã Matia",
        "city_district": null,
        "city": "Palmeira",
        "state": null,
        "postcode": null,
        "country": "Cape Verde",
        "country_code": "cv"
      },
      "address": "596, Palmeira-Espargos, 40851 Espargos, Cabo Verde"
    }
  ],
  "updated_at": "2025-10-19T03:30:06.260213+00:00",
  "_kind": "geo_samples"
}