{
  "country_code": "CV",
  "country": "Cabo Verde",
  "city": "Mindelo",
  "geonameid": 3374462,
  "target_addresses": 25,
  "samples": [
    {
      "lat": 16.859346319158927,
      "lon": -24.96488125114103,
      "geoinfo": {
        "display_name": "Chã de Marinha II, São Vicente, 2110, Cape Verde",
        "road": null,
        "house_number": null,
        "neighbourhood": null,
        "suburb": "Chã de Marinha II",
        "city_district": null,
        "city": null,
        "state": null,
        "postcode": "2110",
        "country": "Cape Verde",
        "country_code": "cv"
      },
      "address": "592, Chã de Marinha II, 2110 Mindelo, Cabo Verde"
    },
    {
      "lat": 16.847402910439325,
      "lon": -24.987816791706422,
      "geoinfo": {
        "display_name": "Ribeira de Julião, São Vicente, 2110, Cape Verde",
        "road": null,
        "house_number": null,
        "neighbourhood": null,
        "suburb": "Ribeira de Julião",
        "city_district": null,
        "city": null,
        "state": null,
        "postcode": "2110",
        "country": "Cape Verde",
        "country_code": "cv"
      },
      "address": "191, Ribeira de Julião, 2110 Mindelo, Cabo Verde"
    },
    {
      "lat": 16.891988370397467,
      "lon": -24.992091668146422,
      "geoinfo": {
        "display_name": "Escola Técnica, Avenida Dr. Alberto Leite, Zona 2, Che Guevara, Mindelo, São Vicente, 2110, Cape Verde",
        "road": "Avenida Dr. Alberto Leite",
        "house_number": null,
        "neighbourhood": null,
        "suburb": "Che Guevara",
        "city_district": null,
        "city": "Mindelo",
        "state": null,
        "postcode": "2110",
        "country": "Cape Verde",
        "country_code": "cv"
      },
      "address": "494, Avenida Dr. Alberto Leite, 2110 Mindelo, Cabo Verde"
    },
    {
      "lat": 16.883361910884247,
      "lon": -24.991827033670145,
      "geoinfo": {
        "display_name": "mercado de peixe, Avenida Marginal, Zona 2, Montes, Mindelo, São Vicente, 2110, Cape Verde",
        "road": "Avenida Marginal",
        "house_number": null,
        "neighbourhood": null,
        "suburb": "Montes",
        "city_district": null,
        "city": "Mindelo",
        "state": null,
        "postcode": "2110",
        "country": "Cape Verde",
        "country_code": "cv"
      },
      "address": "646, Avenida Marginal, 2110 Mindelo, Cabo Verde"
    },
    {
      "lat": 16.909856442570323,
      "lon": -24.98560757405618,
      "geoinfo": {
        "display_name": "Zona 1, Platô-Chã de Alecrim, Ponta João Ribeiro, São Vicente, 2110, Cape Verde",
        "road": null,
        "house_number": null,
        "neighbourhood": null,
        "suburb": "Platô-Chã de Alecrim",
        "city_district": null,
        "city": "Ponta João Ribeiro",
        "state": null,
        "postcode": "2110",
        "country": "Cape Verde",
        "country_code": "cv"
      },
      "address": "419, Platô-Chã de Alecrim, 2110 Mindelo, Cabo Verde"
    },
    {
      "lat": 16.861911028501417,
      "lon": -24.963032140350514,
      "geoinfo": {
        "display_name": "Chã de Marinha II, São Vicente, 2110, Cape Verde",
        "road": null,
        "house_number": null,
        "neighbourhood": null,
        "suburb": "Chã de Marinha II",
        "city_district": null,
        "city": null,
        "state": null,
        "postcode": "2110",
        "country": "Cape Verde",
        "country_code": "cv"
      },
      "address": "577, Chã de Marinha II, 2110 Mindelo, Cabo Verde"
    },
    {
      "lat": 16.87413282477899,
      "lon": -24.95954478083813,
      "geoinfo": {
        "display_name": "Pedra Rolanda, Lameirão, São Vicente, 2110, Cape Verde",
        "road": null,
        "house_number": null,
        "neighbourhood": null,
        "suburb": "Pedra Rolanda",
        "city_district": null,
        "city": "Lameirão",
        "state": null,
        "postcode": "2110",
        "country": "Cape Verde",
        "country_code": "cv"
      },
      "address": "540, Pedra Rolanda, 2110 Mindelo, Cabo Verde"
    },
    {
      "lat": 16.894400712415862,
      "lon": -25.01443008003485,
      "geoinfo": {
        "display_name": "Cruise Ship dock, Condóminio Copacabana-Laginha, Porto Grande-São Vicente, São Vicente, 2110, Cape Verde",
        "road": null,
        "house_number": null,
        "neighbourhood": null,
        "suburb": "Porto Grande-São Vicente",
        "city_district": null,
        "city": null,
        "state": null,
        "postcode": "2110",
        "country": "Cape Verde",
        "country_code": "cv"
      },
      "address": "110, Porto Grande-São Vicente, 2110 Mindelo, Cabo Verde"
    },
    {
      "lat": 16.87645612127738,
      "lon": -24.978984706911113,
      "geoinfo": {
        "display_name": "Pedreira, São Vicente, 2110, Cape Verde",
        "road": null,
        "house_number": null,
        "neighbourhood": null,
        "suburb": "Pedreira",
        "city_district": null,
        "city": null,
        "state": null,
        "postcode": "2110",
        "country": "Cape Verde",
        "country_code": "cv"
      },
      "address": "561, Pedreira, 2110 Mindelo, Cabo Verde"
    },
    {
      "lat": 16.867636931185686,
      "lon": -24.982613186672847,
      "geoinfo": {
        "display_name": "(Ribeira de) Craquinha, São Vicente, 2110, Cape Verde",
        "road": null,
        "house_number": null,
        "neighbourhood": null,
        "suburb": "(Ribeira de) Craquinha",
        "city_district": null,
        "city": null,
        "state": null,
        "postcode": "2110",
        "country": "Cape Verde",
        "country_code": "cv"
      },
      "address": "083, (Ribeira de) Craquinha, 2110 Mindelo, Cabo Verde"
    },
    {
      "lat": 16.87451903335504,
      "lon": -24.98938666063326,
      "geoinfo": {
        "display_name": "Chã de Monte Sossego, São Vicente, 2110, Cape Verde",
        "road": null,
        "house_number": null,
        "neighbourhood": null,
        "suburb": "Chã de Monte Sossego",
        "city_district": null,
        "city": null,
        "state": null,
        "postcode": "2110",
        "country": "Cape Verde",
        "country_code": "cv"
      },
      "address": "467, Chã de Monte Sossego, 2110 Mindelo, Cabo Verde"
    },
    {
      "lat": 16.899316376769765,
      "lon": -25.005251221119394,
      "geoinfo": {
        "display_name": "Cruise Ship dock, Condóminio Copacabana-Laginha, Porto Grande-São Vicente, São Vicente, 2110, Cape Verde",
        "road": null,
        "house_number": null,
        "neighbourhood": null,
        "suburb": "Porto Grande-São Vicente",
        "city_district": null,
        "city": null,
        "state": null,
        "postcode": "2110",
        "country": "Cape Verde",
        "country_code": "cv"
      },
      "address": "069, Porto Grande-São Vicente, 2110 Mindelo, Cabo Verde"
    }
  ],
  "updated_at": "2025-10-19T03:34:16.606255+00:00",
  "_kind": "geo_samples"
}