{
  "country_code": "BA",
  "country": "Bosnia and Herzegovina",
  "city": "Bijeljina",
  "geonameid": 3204186,
  "target_addresses": 5,
  "samples": [
    {
      "lat": 44.71974908630635,
      "lon": 19.23805123397486,
      "geoinfo": {
        "display_name": "Cipirovine, Ćiprovine, City of Bijeljina, Republika Srpska, 76315, Bosnia and Herzegovina",
        "road": null,
        "house_number": null,
        "neighbourhood": null,
        "suburb": null,
        "city_district": "Cipirovine",
        "city": "Ćiprovine",
        "state": "Republika Srpska",
        "postcode": "76315",
        "country": "Bosnia and Herzegovina",
        "country_code": "ba"
      },
      "address": "Cipirovine, Bijeljina, Republika Srpska, Bosnia and Herzegovina"
    },
    {
      "lat": 44.7797415667129,
      "lon": 19.26698919681552,
      "geoinfo": {
        "display_name": "25, Blok 1, Dijelovi, City of Bijeljina, Republika Srpska, 76311, Bosnia and Herzegovina",
        "road": "Blok 1",
        "house_number": "25",
        "neighbourhood": null,
        "suburb": null,
        "city_district": "Dijelovi",
        "city": "Dijelovi",
        "state": "Republika Srpska",
        "postcode": "76311",
        "country": "Bosnia and Herzegovina",
        "country_code": "ba"
      },
      "address": "25 Blok 1, Bijeljina, Republika Srpska, Bosnia and Herzegovina"
    },
    {
      "lat": 44.769684263283054,
      "lon": 19.207930921192094,
      "geoinfo": {
        "display_name": "70, Raje Banjičića, Bijeljina, City of Bijeljina, Republika Srpska, 76300, Bosnia and Herzegovina",
        "road": "Raje Banjičića",
        "house_number": "70",
        "neighbourhood": null,
        "suburb": null,
        "city_district": null,
        "city": "Bijeljina",
        "state": "Republika Srpska",
        "postcode": "76300",
        "country": "Bosnia and Herzegovina",
        "country_code": "ba"
      },
      "address": "70 Raje Banjičića, Bijeljina, Republika Srpska, Bosnia and Herzegovina"
    },
    {
      "lat": 44.73592848896871,
      "lon": 19.24842224265777,
      "geoinfo": {
        "display_name": "Golo Brdo, City of Bijeljina, Republika Srpska, 76315, Bosnia and Herzegovina",
        "road": null,
        "house_number": null,
        "neighbourhood": null,
        "suburb": null,
        "city_district": "Golo Brdo",
        "city": "Golo Brdo",
        "state": "Republika Srpska",
        "postcode": "76315",
        "country": "Bosnia and Herzegovina",
        "country_code": "ba"
      },
      "address": "Golo Brdo, Bijeljina, Republika Srpska, Bosnia and Herzegovina"
    },
    {
      "lat": 44.766106881046824,
      "lon": 19.205828535844162,
      "geoinfo": {
        "display_name": "Intergaj, Bijeljina, City of Bijeljina, Republika Srpska, 76300, Bosnia and Herzegovina",
        "road": null,
        "house_number": null,
        "neighbourhood": "Intergaj",
        "suburb": null,
        "city_district": null,
        "city": "Bijeljina",
        "state": "Republika Srpska",
        "postcode": "76300",
        "country": "Bosnia and Herzegovina",
        "country_code": "ba"
      },
      "address": "Intergaj, Bijeljina, Republika Srpska, Bosnia and Herzegovina"
    },
    {
      "lat": 44.79938120279599,
      "lon": 19.206783831537933,
      "geoinfo": {
        "display_name": "Mala Obraska, Mala Obarska, City of Bijeljina, Republika Srpska, 76300, Bosnia and Herzegovina",
        "road": null,
        "house_number": null,
        "neighbourhood": null,
        "suburb": null,
        "city_district": "Mala Obraska",
        "city": "Mala Obarska",
        "state": "Republika Srpska",
        "postcode": "76300",
        "country": "Bosnia and Herzegovina",
        "country_code": "ba"
      },
      "address": "929, Mala Obraska, Bijeljina, 76300 Republika Srpska, Bosnia and Herzegovina"
    },
    {
      "lat": 44.793975628902395,
      "lon": 19.202508052682937,
      "geoinfo": {
        "display_name": "Mala Obraska, Mala Obarska, City of Bijeljina, Republika Srpska, 76300, Bosnia and Herzegovina",
        "road": null,
        "house_number": null,
        "neighbourhood": null,
        "suburb": null,
        "city_district": "Mala Obraska",
        "city": "Mala Obarska",
        "state": "Republika Srpska",
        "postcode": "76300",
        "country": "Bosnia and Herzegovina",
        "country_code": "ba"
      },
      "address": "793, Mala Obraska, Bijeljina, 76300 Republika Srpska, Bosnia and Herzegovina"
    },
    {
      "lat": 44.75518189303807,
      "lon": 19.277254330443743,
      "geoinfo": {
        "display_name": "Popovi, City of Bijeljina, Republika Srpska, 76311, Bosnia and Herzegovina",
        "road": null,
        "house_number": null,
        "neighbourhood": null,
        "suburb": null,
        "city_district": "Popovi",
        "city": "Popovi",
        "state": "Republika Srpska",
        "postcode": "76311",
        "country": "Bosnia and Herzegovina",
        "country_code": "ba"
      },
      "address": "313, Popovi, City of Bijeljina, Republika Srpska, 76311, Bosnia and Herzegovina"
    },
    {
      "lat": 44.76275349868344,
      "lon": 19.229072029388828,
      "geoinfo": {
        "display_name": "65, Srpske dobrovoljačke garde, Kruševlje 2, Bijeljina, City of Bijeljina, Republika Srpska, 76300, Bosnia and Herzegovina",
        "road": "Srpske dobrovoljačke garde",
        "house_number": "65",
        "neighbourhood": null,
        "suburb": null,
        "city_district": null,
        "city": "Bijeljina",
        "state": "Republika Srpska",
        "postcode": "76300",
        "country": "Bosnia and Herzegovina",
        "country_code": "ba"
      },
      "address": "65, Srpske dobrovoljačke garde, Kruševlje 2, Bijeljina, City of Bijeljina, Republika Srpska, 76300, Bosnia and Herzegovina"
    },
    {
      "lat": 44.755269088988854,
      "lon": 19.18345877516581,
      "geoinfo": {
        "display_name": "108, Mačvanska, Bijeljina, City of Bijeljina, Republika Srpska, 76300, Bosnia and Herzegovina",
        "road": "Mačvanska",
        "house_number": "108",
        "neighbourhood": null,
        "suburb": null,
        "city_district": null,
        "city": "Bijeljina",
        "state": "Republika Srpska",
        "postcode": "76300",
        "country": "Bosnia and Herzegovina",
        "country_code": "ba"
      },
      "address": "108, Mačvanska, Bijeljina, City of Bijeljina, Republika Srpska, 76300, Bosnia and Herzegovina"
    }
  ],
  "updated_at": "2025-10-19T02:36:08.452116+00:00",
  "_kind": "geo_samples"
}