{
  "country_code": "BA",
  "country": "Bosnia and Herzegovina",
  "city": "Bugojno",
  "geonameid": 3203099,
  "target_addresses": 5,
  "samples": [
    {
      "lat": 44.06968344078456,
      "lon": 17.457667345197383,
      "geoinfo": {
        "display_name": "Bugojno, Bugojno Municipality, Central Bosnia Canton, Federation of Bosnia and Herzegovina, 70230, Bosnia and Herzegovina",
        "road": null,
        "house_number": null,
        "neighbourhood": null,
        "suburb": null,
        "city_district": null,
        "city": "Bugojno",
        "state": "Federation of Bosnia and Herzegovina",
        "postcode": "70230",
        "country": "Bosnia and Herzegovina",
        "country_code": "ba"
      },
      "address": "Bugojno, Federation of Bosnia and Herzegovina, Bosnia and Herzegovina"
    },
    {
      "lat": 44.03333846731968,
      "lon": 17.474804059264585,
      "geoinfo": {
        "display_name": "Kandija, Bugojno Municipality, Central Bosnia Canton, Federation of Bosnia and Herzegovina, 70230, Bosnia and Herzegovina",
        "road": null,
        "house_number": null,
        "neighbourhood": null,
        "suburb": null,
        "city_district": "Kandija",
        "city": "Kandija",
        "state": "Federation of Bosnia and Herzegovina",
        "postcode": "70230",
        "country": "Bosnia and Herzegovina",
        "country_code": "ba"
      },
      "address": "Kandija, Bugojno, Federation of Bosnia and Herzegovina, Bosnia and Herzegovina"
    },
    {
      "lat": 44.07582693144473,
      "lon": 17.446613610908585,
      "geoinfo": {
        "display_name": "M-16, Odmorište INA, Gornje Luke, Bugojno, Lug, Bugojno Municipality, Central Bosnia Canton, Federation of Bosnia and Herzegovina, 70230, Bosnia and Herzegovina",
        "road": "M-16",
        "house_number": null,
        "neighbourhood": null,
        "suburb": null,
        "city_district": "Bugojno",
        "city": "Lug",
        "state": "Federation of Bosnia and Herzegovina",
        "postcode": "70230",
        "country": "Bosnia and Herzegovina",
        "country_code": "ba"
      },
      "address": "M-16, Bugojno, Federation of Bosnia and Herzegovina, Bosnia and Herzegovina"
    },
    {
      "lat": 44.02308566731505,
      "lon": 17.42326155631579,
      "geoinfo": {
        "display_name": "Vesela, Vesela Straža, Garačići, Bugojno Municipality, Central Bosnia Canton, Federation of Bosnia and Herzegovina, Bosnia and Herzegovina",
        "road": "Vesela",
        "house_number": null,
        "neighbourhood": null,
        "suburb": null,
        "city_district": null,
        "city": "Garačići",
        "state": "Federation of Bosnia and Herzegovina",
        "postcode": null,
        "country": "Bosnia and Herzegovina",
        "country_code": "ba"
      },
      "address": "Vesela, Bugojno, Federation of Bosnia and Herzegovina, Bosnia and Herzegovina"
    },
    {
      "lat": 44.051953403585514,
      "lon": 17.45075881651332,
      "geoinfo": {
        "display_name": "Sultan Ahmedova, Vrbasko naselje, Bugojno, Bugojno Municipality, Central Bosnia Canton, Federation of Bosnia and Herzegovina, 70230, Bosnia and Herzegovina",
        "road": "Sultan Ahmedova",
        "house_number": null,
        "neighbourhood": "Vrbasko naselje",
        "suburb": null,
        "city_district": "Bugojno",
        "city": "Bugojno",
        "state": "Federation of Bosnia and Herzegovina",
        "postcode": "70230",
        "country": "Bosnia and Herzegovina",
        "country_code": "ba"
      },
      "address": "Sultan Ahmedova, Bugojno, Federation of Bosnia and Herzegovina, Bosnia and Herzegovina"
    },
    {
      "lat": 44.0291027756687,
      "lon": 17.468346307776425,
      "geoinfo": {
        "display_name": "Kandija, Vrbanja, Bugojno Municipality, Central Bosnia Canton, Federation of Bosnia and Herzegovina, 70230, Bosnia and Herzegovina",
        "road": null,
        "house_number": null,
        "neighbourhood": null,
        "suburb": null,
        "city_district": "Kandija",
        "city": "Vrbanja",
        "state": "Federation of Bosnia and Herzegovina",
        "postcode": "70230",
        "country": "Bosnia and Herzegovina",
        "country_code": "ba"
      },
      "address": "071, Kandija, Bugojno, 70230 Federation of Bosnia and Herzegovina, Bosnia and Herzegovina"
    },
    {
      "lat": 44.086749635285926,
      "lon": 17.48670623539419,
      "geoinfo": {
        "display_name": "Gornji Bogdanovci, Bugojno Municipality, Central Bosnia Canton, Federation of Bosnia and Herzegovina, Bosnia and Herzegovina",
        "road": null,
        "house_number": null,
        "neighbourhood": null,
        "suburb": null,
        "city_district": null,
        "city": "Gornji Bogdanovci",
        "state": "Federation of Bosnia and Herzegovina",
        "postcode": null,
        "country": "Bosnia and Herzegovina",
        "country_code": "ba"
      },
      "address": "304, Gornji Bogdanovci, Bugojno Municipality, Central Bosnia Canton, 36074 Federation of Bosnia and Herzegovina, Bosnia and Herzegovina"
    },
    {
      "lat": 44.069303775938366,
      "lon": 17.493566568657055,
      "geoinfo": {
        "display_name": "M-16.4, Bristovi, Rostovo, Bugojno Municipality, Central Bosnia Canton, Federation of Bosnia and Herzegovina, Bosnia and Herzegovina",
        "road": "M-16.4",
        "house_number": null,
        "neighbourhood": null,
        "suburb": null,
        "city_district": "Bristovi",
        "city": "Rostovo",
        "state": "Federation of Bosnia and Herzegovina",
        "postcode": null,
        "country": "Bosnia and Herzegovina",
        "country_code": "ba"
      },
      "address": "M-16.4, Bristovi, Rostovo, Bugojno Municipality, Central Bosnia Canton, Federation of Bosnia and Herzegovina, Bosnia and Herzegovina"
    },
    {
      "lat": 44.03272646008716,
      "lon": 17.428635015612972,
      "geoinfo": {
        "display_name": "Vesela, Bugojno Municipality, Central Bosnia Canton, Federation of Bosnia and Herzegovina, 70230, Bosnia and Herzegovina",
        "road": null,
        "house_number": null,
        "neighbourhood": null,
        "suburb": null,
        "city_district": null,
        "city": "Vesela",
        "state": "Federation of Bosnia and Herzegovina",
        "postcode": "70230",
        "country": "Bosnia and Herzegovina",
        "country_code": "ba"
      },
      "address": "173, Vesela, Bugojno Municipality, Central Bosnia Canton, Federation of Bosnia and Herzegovina, 70230, Bosnia and Herzegovina"
    },
    {
      "lat": 44.047552486156135,
      "lon": 17.407627819558552,
      "geoinfo": {
        "display_name": "Bevrnjići, Bugojno Municipality, Central Bosnia Canton, Federation of Bosnia and Herzegovina, 70230, Bosnia and Herzegovina",
        "road": null,
        "house_number": null,
        "neighbourhood": null,
        "suburb": null,
        "city_district": null,
        "city": "Bevrnjići",
        "state": "Federation of Bosnia and Herzegovina",
        "postcode": "70230",
        "country": "Bosnia and Herzegovina",
        "country_code": "ba"
      },
      "address": "620, Bevrnjići, Bugojno Municipality, Central Bosnia Canton, Federation of Bosnia and Herzegovina, 70230, Bosnia and Herzegovina"
    }
  ],
  "updated_at": "2025-10-19T02:55:05.584563+00:00",
  "_kind": "geo_samples"
}