{
  "country_code": "BA",
  "country": "Bosnia and Herzegovina",
  "city": "Doboj",
  "geonameid": 3201984,
  "target_addresses": 5,
  "samples": [
    {
      "lat": 44.762928999125904,
      "lon": 18.12741852702918,
      "geoinfo": {
        "display_name": "R-I 3103, Poljice, Kostajnica, Svjetliča, City of Doboj, Republika Srpska, 74000, Bosnia and Herzegovina",
        "road": "R-I 3103",
        "house_number": null,
        "neighbourhood": null,
        "suburb": null,
        "city_district": "Kostajnica",
        "city": "Svjetliča",
        "state": "Republika Srpska",
        "postcode": "74000",
        "country": "Bosnia and Herzegovina",
        "country_code": "ba"
      },
      "address": "R-I 3103, Doboj, Republika Srpska, Bosnia and Herzegovina"
    },
    {
      "lat": 44.74150000269423,
      "lon": 18.11842054107706,
      "geoinfo": {
        "display_name": "Svjetlica, Svjetliča, City of Doboj, Republika Srpska, 74000, Bosnia and Herzegovina",
        "road": null,
        "house_number": null,
        "neighbourhood": null,
        "suburb": null,
        "city_district": "Svjetlica",
        "city": "Svjetliča",
        "state": "Republika Srpska",
        "postcode": "74000",
        "country": "Bosnia and Herzegovina",
        "country_code": "ba"
      },
      "address": "Svjetlica, Doboj, Republika Srpska, Bosnia and Herzegovina"
    },
    {
      "lat": 44.71022413332077,
      "lon": 18.14072108710837,
      "geoinfo": {
        "display_name": "Suho Polje, Stanić Rijeka, City of Doboj, Republika Srpska, 74207, Bosnia and Herzegovina",
        "road": null,
        "house_number": null,
        "neighbourhood": null,
        "suburb": null,
        "city_district": "Suho Polje",
        "city": "Stanić Rijeka",
        "state": "Republika Srpska",
        "postcode": "74207",
        "country": "Bosnia and Herzegovina",
        "country_code": "ba"
      },
      "address": "Suho Polje, Doboj, Republika Srpska, Bosnia and Herzegovina"
    },
    {
      "lat": 44.752163036295784,
      "lon": 18.119898243236506,
      "geoinfo": {
        "display_name": "Kostajnica, Svjetliča, City of Doboj, Republika Srpska, 74000, Bosnia and Herzegovina",
        "road": null,
        "house_number": null,
        "neighbourhood": null,
        "suburb": null,
        "city_district": "Kostajnica",
        "city": "Svjetliča",
        "state": "Republika Srpska",
        "postcode": "74000",
        "country": "Bosnia and Herzegovina",
        "country_code": "ba"
      },
      "address": "Kostajnica, Doboj, Republika Srpska, Bosnia and Herzegovina"
    },
    {
      "lat": 44.70227091867971,
      "lon": 18.06937747870778,
      "geoinfo": {
        "display_name": "M-I 105, Vila, Makljenovac, Doboj Jug Municipality, City of Doboj, Zenica-Doboj Canton, Republika Srpska, 74203, Bosnia and Herzegovina",
        "road": "M-I 105",
        "house_number": null,
        "neighbourhood": null,
        "suburb": null,
        "city_district": "Makljenovac",
        "city": "Makljenovac",
        "state": "Republika Srpska",
        "postcode": "74203",
        "country": "Bosnia and Herzegovina",
        "country_code": "ba"
      },
      "address": "M-I 105, Doboj, Republika Srpska, Bosnia and Herzegovina"
    },
    {
      "lat": 44.7379527757848,
      "lon": 18.03248495211068,
      "geoinfo": {
        "display_name": "Prisade, City of Doboj, Republika Srpska, 74203, Bosnia and Herzegovina",
        "road": null,
        "house_number": null,
        "neighbourhood": null,
        "suburb": null,
        "city_district": "Prisade",
        "city": "Prisade",
        "state": "Republika Srpska",
        "postcode": "74203",
        "country": "Bosnia and Herzegovina",
        "country_code": "ba"
      },
      "address": "127, Prisade, City of Doboj, Republika Srpska, 74203, Bosnia and Herzegovina"
    },
    {
      "lat": 44.752835308879305,
      "lon": 18.070310829376393,
      "geoinfo": {
        "display_name": "Crveni brijeg, Stare Ankare, Doboj, City of Doboj, Republika Srpska, 74000, Bosnia and Herzegovina",
        "road": null,
        "house_number": null,
        "neighbourhood": null,
        "suburb": null,
        "city_district": null,
        "city": "Doboj",
        "state": "Republika Srpska",
        "postcode": "74000",
        "country": "Bosnia and Herzegovina",
        "country_code": "ba"
      },
      "address": "798, Doboj, 74000 Republika Srpska, Bosnia and Herzegovina"
    },
    {
      "lat": 44.73049933223897,
      "lon": 18.029470427321844,
      "geoinfo": {
        "display_name": "Radušine, Prisade, City of Doboj, Republika Srpska, 74203, Bosnia and Herzegovina",
        "road": null,
        "house_number": null,
        "neighbourhood": null,
        "suburb": null,
        "city_district": "Prisade",
        "city": "Prisade",
        "state": "Republika Srpska",
        "postcode": "74203",
        "country": "Bosnia and Herzegovina",
        "country_code": "ba"
      },
      "address": "332, Prisade, Doboj, 74203 Republika Srpska, Bosnia and Herzegovina"
    },
    {
      "lat": 44.76608582513083,
      "lon": 18.087393068070483,
      "geoinfo": {
        "display_name": "Kostajnica, City of Doboj, Republika Srpska, 74000, Bosnia and Herzegovina",
        "road": null,
        "house_number": null,
        "neighbourhood": null,
        "suburb": null,
        "city_district": "Kostajnica",
        "city": "Kostajnica",
        "state": "Republika Srpska",
        "postcode": "74000",
        "country": "Bosnia and Herzegovina",
        "country_code": "ba"
      },
      "address": "186, Kostajnica, City of Doboj, Republika Srpska, 74000, Bosnia and Herzegovina"
    },
    {
      "lat": 44.761145239962126,
      "lon": 18.102410398949484,
      "geoinfo": {
        "display_name": "Kostajnica, Svjetliča, City of Doboj, Republika Srpska, 74000, Bosnia and Herzegovina",
        "road": null,
        "house_number": null,
        "neighbourhood": null,
        "suburb": null,
        "city_district": "Kostajnica",
        "city": "Svjetliča",
        "state": "Republika Srpska",
        "postcode": "74000",
        "country": "Bosnia and Herzegovina",
        "country_code": "ba"
      },
      "address": "723, Kostajnica, Doboj, 74000 Republika Srpska, Bosnia and Herzegovina"
    }
  ],
  "updated_at": "2025-10-19T01:04:23.809909+00:00",
  "_kind": "geo_samples"
}