{
  "country_code": "BA",
  "country": "Bosnia and Herzegovina",
  "city": "Ilidža",
  "geonameid": 3199145,
  "target_addresses": 5,
  "samples": [
    {
      "lat": 43.78890505866866,
      "lon": 18.312330619588142,
      "geoinfo": {
        "display_name": "Igmanska cesta, Kovači, Ilidža, Hrasnica, Ilidža Municipality, Sarajevo Canton, Federation of Bosnia and Herzegovina, 71212, Bosnia and Herzegovina",
        "road": "Igmanska cesta",
        "house_number": null,
        "neighbourhood": null,
        "suburb": null,
        "city_district": "Ilidža",
        "city": "Hrasnica",
        "state": "Federation of Bosnia and Herzegovina",
        "postcode": "71212",
        "country": "Bosnia and Herzegovina",
        "country_code": "ba"
      },
      "address": "Igmanska cesta, Ilidža, Federation of Bosnia and Herzegovina, Bosnia and Herzegovina"
    },
    {
      "lat": 43.82006972424269,
      "lon": 18.330003296263452,
      "geoinfo": {
        "display_name": "Mlinska, Butmir, Ilidža, MZ Butmir, Ilidža Municipality, Sarajevo Canton, Federation of Bosnia and Herzegovina, 71214, Bosnia and Herzegovina",
        "road": "Mlinska",
        "house_number": null,
        "neighbourhood": null,
        "suburb": "Butmir",
        "city_district": "Ilidža",
        "city": "MZ Butmir",
        "state": "Federation of Bosnia and Herzegovina",
        "postcode": "71214",
        "country": "Bosnia and Herzegovina",
        "country_code": "ba"
      },
      "address": "Mlinska, Ilidža, Federation of Bosnia and Herzegovina, Bosnia and Herzegovina"
    },
    {
      "lat": 43.823867267359226,
      "lon": 18.296007976697517,
      "geoinfo": {
        "display_name": "Čolakovića kula, Lužani, Ilidža, Ilidža Municipality, Sarajevo Canton, Federation of Bosnia and Herzegovina, 71210, Bosnia and Herzegovina",
        "road": "Čolakovića kula",
        "house_number": null,
        "neighbourhood": null,
        "suburb": "Lužani",
        "city_district": "Ilidža",
        "city": "Ilidža",
        "state": "Federation of Bosnia and Herzegovina",
        "postcode": "71210",
        "country": "Bosnia and Herzegovina",
        "country_code": "ba"
      },
      "address": "Čolakovića kula, Ilidža, Federation of Bosnia and Herzegovina, Bosnia and Herzegovina"
    },
    {
      "lat": 43.844307940786685,
      "lon": 18.320956814220906,
      "geoinfo": {
        "display_name": "Nikole Šopa, Naselje Bulevar, Stup, Ilidža, Ilidža Municipality, Sarajevo Canton, Federation of Bosnia and Herzegovina, 71161, Bosnia and Herzegovina",
        "road": "Nikole Šopa",
        "house_number": null,
        "neighbourhood": "Naselje Bulevar",
        "suburb": "Stup",
        "city_district": "Ilidža",
        "city": "Ilidža",
        "state": "Federation of Bosnia and Herzegovina",
        "postcode": "71161",
        "country": "Bosnia and Herzegovina",
        "country_code": "ba"
      },
      "address": "Nikole Šopa, Ilidža, Federation of Bosnia and Herzegovina, Bosnia and Herzegovina"
    },
    {
      "lat": 43.85839786445547,
      "lon": 18.27360171059125,
      "geoinfo": {
        "display_name": "Osik, Dolovi, Ilidža, Ilidža Municipality, Sarajevo Canton, Federation of Bosnia and Herzegovina, 71215, Bosnia and Herzegovina",
        "road": "Osik",
        "house_number": null,
        "neighbourhood": null,
        "suburb": null,
        "city_district": "Ilidža",
        "city": null,
        "state": "Federation of Bosnia and Herzegovina",
        "postcode": "71215",
        "country": "Bosnia and Herzegovina",
        "country_code": "ba"
      },
      "address": "Osik, Ilidža, Federation of Bosnia and Herzegovina, Bosnia and Herzegovina"
    },
    {
      "lat": 43.83734629364918,
      "lon": 18.293953942688677,
      "geoinfo": {
        "display_name": "Lužansko polje, Vreoca, Ilidža, Ilidža Municipality, Sarajevo Canton, Federation of Bosnia and Herzegovina, 71101, Bosnia and Herzegovina",
        "road": "Lužansko polje",
        "house_number": null,
        "neighbourhood": null,
        "suburb": "Vreoca",
        "city_district": "Ilidža",
        "city": "Ilidža",
        "state": "Federation of Bosnia and Herzegovina",
        "postcode": "71101",
        "country": "Bosnia and Herzegovina",
        "country_code": "ba"
      },
      "address": "191, Lužansko polje, Vreoca, Ilidža, Ilidža Municipality, Sarajevo Canton, Federation of Bosnia and Herzegovina, 71101, Bosnia and Herzegovina"
    },
    {
      "lat": 43.808363527560374,
      "lon": 18.32295310302775,
      "geoinfo": {
        "display_name": "25, Sokolovićkog bataljona, Sokolović-kolonija, Ilidža, Ilidža Municipality, Sarajevo Canton, Federation of Bosnia and Herzegovina, 71214, Bosnia and Herzegovina",
        "road": "Sokolovićkog bataljona",
        "house_number": "25",
        "neighbourhood": null,
        "suburb": "Sokolović-kolonija",
        "city_district": "Ilidža",
        "city": "Ilidža",
        "state": "Federation of Bosnia and Herzegovina",
        "postcode": "71214",
        "country": "Bosnia and Herzegovina",
        "country_code": "ba"
      },
      "address": "25, Sokolovićkog bataljona, Sokolović-kolonija, Ilidža, Ilidža Municipality, Sarajevo Canton, Federation of Bosnia and Herzegovina, 71214, Bosnia and Herzegovina"
    },
    {
      "lat": 43.86284527308496,
      "lon": 18.282869144772917,
      "geoinfo": {
        "display_name": "A1, Ilidža, Ilidža Municipality, City of Sarajevo, Sarajevo Canton, Federation of Bosnia and Herzegovina, 71215, Bosnia and Herzegovina",
        "road": "A1",
        "house_number": null,
        "neighbourhood": null,
        "suburb": null,
        "city_district": "Ilidža",
        "city": null,
        "state": "Federation of Bosnia and Herzegovina",
        "postcode": "71215",
        "country": "Bosnia and Herzegovina",
        "country_code": "ba"
      },
      "address": "A1, Ilidža, Ilidža Municipality, City of Sarajevo, Sarajevo Canton, Federation of Bosnia and Herzegovina, 71215, Bosnia and Herzegovina"
    },
    {
      "lat": 43.821943386778365,
      "lon": 18.266098700711115,
      "geoinfo": {
        "display_name": "Vrelo bosne, Vrelo Bosne, Ilidža, Ilidža Municipality, Sarajevo Canton, Federation of Bosnia and Herzegovina, 71101, Bosnia and Herzegovina",
        "road": "Vrelo bosne",
        "house_number": null,
        "neighbourhood": null,
        "suburb": null,
        "city_district": "Ilidža",
        "city": "Ilidža",
        "state": "Federation of Bosnia and Herzegovina",
        "postcode": "71101",
        "country": "Bosnia and Herzegovina",
        "country_code": "ba"
      },
      "address": "799, Vrelo bosne, Vrelo Bosne, Ilidža, Ilidža Municipality, Sarajevo Canton, Federation of Bosnia and Herzegovina, 71101, Bosnia and Herzegovina"
    },
    {
      "lat": 43.80148990655074,
      "lon": 18.350686542053072,
      "geoinfo": {
        "display_name": "243, Ravnogorska, Vojkovići, Sarajevo Dio - Ilidza, Krupac, Istočna Ilidža Municipality, City of Istočno Sarajevo, Republika Srpska, 71123, Bosnia and Herzegovina",
        "road": "Ravnogorska",
        "house_number": "243",
        "neighbourhood": null,
        "suburb": "Vojkovići",
        "city_district": "Sarajevo Dio - Ilidza",
        "city": "Krupac",
        "state": "Republika Srpska",
        "postcode": "71123",
        "country": "Bosnia and Herzegovina",
        "country_code": "ba"
      },
      "address": "243, Ravnogorska, Vojkovići, Sarajevo Dio - Ilidza, Krupac, Istočna Ilidža Municipality, City of Istočno Sarajevo, Republika Srpska, 71123, Bosnia and Herzegovina"
    }
  ],
  "updated_at": "2025-10-19T02:34:01.214373+00:00",
  "_kind": "geo_samples"
}