{
  "country_code": "BA",
  "country": "Bosnia and Herzegovina",
  "city": "Konjic",
  "geonameid": 3337476,
  "target_addresses": 5,
  "samples": [
    {
      "lat": 43.62013326165973,
      "lon": 18.00369417527007,
      "geoinfo": {
        "display_name": "Džajići, Town of Konjic, Herzegovina-Neretva Canton, Federation of Bosnia and Herzegovina, Bosnia and Herzegovina",
        "road": null,
        "house_number": null,
        "neighbourhood": null,
        "suburb": null,
        "city_district": null,
        "city": "Džajići",
        "state": "Federation of Bosnia and Herzegovina",
        "postcode": null,
        "country": "Bosnia and Herzegovina",
        "country_code": "ba"
      },
      "address": "Konjic, Federation of Bosnia and Herzegovina, Bosnia and Herzegovina"
    },
    {
      "lat": 43.65214199819506,
      "lon": 17.955249125109468,
      "geoinfo": {
        "display_name": "Tuleg, Konjic, Town of Konjic, Herzegovina-Neretva Canton, Federation of Bosnia and Herzegovina, 88400, Bosnia and Herzegovina",
        "road": "Tuleg",
        "house_number": null,
        "neighbourhood": "Tuleg",
        "suburb": null,
        "city_district": null,
        "city": "Konjic",
        "state": "Federation of Bosnia and Herzegovina",
        "postcode": "88400",
        "country": "Bosnia and Herzegovina",
        "country_code": "ba"
      },
      "address": "Tuleg, Konjic, Federation of Bosnia and Herzegovina, Bosnia and Herzegovina"
    },
    {
      "lat": 43.669565861806504,
      "lon": 17.916616879942787,
      "geoinfo": {
        "display_name": "Orahovica DOM, Orahovica, Town of Konjic, Herzegovina-Neretva Canton, Federation of Bosnia and Herzegovina, 88404, Bosnia and Herzegovina",
        "road": "Orahovica DOM",
        "house_number": null,
        "neighbourhood": null,
        "suburb": null,
        "city_district": null,
        "city": "Orahovica",
        "state": "Federation of Bosnia and Herzegovina",
        "postcode": "88404",
        "country": "Bosnia and Herzegovina",
        "country_code": "ba"
      },
      "address": "Orahovica DOM, Konjic, Federation of Bosnia and Herzegovina, Bosnia and Herzegovina"
    },
    {
      "lat": 43.612937746593396,
      "lon": 17.94628135686741,
      "geoinfo": {
        "display_name": "Crkva Svete Nedjelje, Tuščica, Turija, Konjic, Town of Konjic, Herzegovina-Neretva Canton, Federation of Bosnia and Herzegovina, 88400, Bosnia and Herzegovina",
        "road": "Tuščica",
        "house_number": null,
        "neighbourhood": "Tuščica",
        "suburb": null,
        "city_district": null,
        "city": "Konjic",
        "state": "Federation of Bosnia and Herzegovina",
        "postcode": "88400",
        "country": "Bosnia and Herzegovina",
        "country_code": "ba"
      },
      "address": "Tuščica, Konjic, Federation of Bosnia and Herzegovina, Bosnia and Herzegovina"
    },
    {
      "lat": 43.67257710722158,
      "lon": 17.98347611024822,
      "geoinfo": {
        "display_name": "Narentabahn, Ovčari, Town of Konjic, Herzegovina-Neretva Canton, Federation of Bosnia and Herzegovina, 88400, Bosnia and Herzegovina",
        "road": "Narentabahn",
        "house_number": null,
        "neighbourhood": null,
        "suburb": null,
        "city_district": null,
        "city": "Ovčari",
        "state": "Federation of Bosnia and Herzegovina",
        "postcode": "88400",
        "country": "Bosnia and Herzegovina",
        "country_code": "ba"
      },
      "address": "Narentabahn, Konjic, Federation of Bosnia and Herzegovina, Bosnia and Herzegovina"
    },
    {
      "lat": 43.649801606775355,
      "lon": 17.99980771483422,
      "geoinfo": {
        "display_name": "Dubravice, Zagorice, Town of Konjic, Herzegovina-Neretva Canton, Federation of Bosnia and Herzegovina, 88400, Bosnia and Herzegovina",
        "road": null,
        "house_number": null,
        "neighbourhood": null,
        "suburb": null,
        "city_district": null,
        "city": "Zagorice",
        "state": "Federation of Bosnia and Herzegovina",
        "postcode": "88400",
        "country": "Bosnia and Herzegovina",
        "country_code": "ba"
      },
      "address": "830, Dubravice, Zagorice, Town of Konjic, Herzegovina-Neretva Canton, Federation of Bosnia and Herzegovina, 88400, Bosnia and Herzegovina"
    },
    {
      "lat": 43.66595966263696,
      "lon": 17.911662563834128,
      "geoinfo": {
        "display_name": "Bubale, Orahovica, Town of Konjic, Herzegovina-Neretva Canton, Federation of Bosnia and Herzegovina, 88404, Bosnia and Herzegovina",
        "road": null,
        "house_number": null,
        "neighbourhood": null,
        "suburb": null,
        "city_district": null,
        "city": "Orahovica",
        "state": "Federation of Bosnia and Herzegovina",
        "postcode": "88404",
        "country": "Bosnia and Herzegovina",
        "country_code": "ba"
      },
      "address": "291, Bubale, Orahovica, Town of Konjic, Herzegovina-Neretva Canton, Federation of Bosnia and Herzegovina, 88404, Bosnia and Herzegovina"
    },
    {
      "lat": 43.61747234693567,
      "lon": 17.945549097598846,
      "geoinfo": {
        "display_name": "Jošanica, Mladeškovići, Town of Konjic, Herzegovina-Neretva Canton, Federation of Bosnia and Herzegovina, 88400, Bosnia and Herzegovina",
        "road": null,
        "house_number": null,
        "neighbourhood": null,
        "suburb": null,
        "city_district": null,
        "city": "Mladeškovići",
        "state": "Federation of Bosnia and Herzegovina",
        "postcode": "88400",
        "country": "Bosnia and Herzegovina",
        "country_code": "ba"
      },
      "address": "174, Jošanica, Mladeškovići, Town of Konjic, Herzegovina-Neretva Canton, Federation of Bosnia and Herzegovina, 88400, Bosnia and Herzegovina"
    },
    {
      "lat": 43.65370361676551,
      "lon": 17.976313356540015,
      "geoinfo": {
        "display_name": "Trešanica, Ovčari, Town of Konjic, Herzegovina-Neretva Canton, Federation of Bosnia and Herzegovina, 88400, Bosnia and Herzegovina",
        "road": "Trešanica",
        "house_number": null,
        "neighbourhood": "Trešanica",
        "suburb": null,
        "city_district": null,
        "city": "Ovčari",
        "state": "Federation of Bosnia and Herzegovina",
        "postcode": "88400",
        "country": "Bosnia and Herzegovina",
        "country_code": "ba"
      },
      "address": "393, Trešanica, Ovčari, Town of Konjic, Herzegovina-Neretva Canton, Federation of Bosnia and Herzegovina, 88400, Bosnia and Herzegovina"
    },
    {
      "lat": 43.618375868917795,
      "lon": 17.93227465944882,
      "geoinfo": {
        "display_name": "Bijela, Town of Konjic, Herzegovina-Neretva Canton, Federation of Bosnia and Herzegovina, 88400, Bosnia and Herzegovina",
        "road": null,
        "house_number": null,
        "neighbourhood": null,
        "suburb": null,
        "city_district": null,
        "city": "Bijela",
        "state": "Federation of Bosnia and Herzegovina",
        "postcode": "88400",
        "country": "Bosnia and Herzegovina",
        "country_code": "ba"
      },
      "address": "894, Bijela, Town of Konjic, Herzegovina-Neretva Canton, Federation of Bosnia and Herzegovina, 88400, Bosnia and Herzegovina"
    }
  ],
  "updated_at": "2025-10-19T02:36:29.447338+00:00",
  "_kind": "geo_samples"
}