{
  "country_code": "BA",
  "country": "Bosnia and Herzegovina",
  "city": "Lukavac",
  "geonameid": 3196079,
  "target_addresses": 5,
  "samples": [
    {
      "lat": 44.542066847642346,
      "lon": 18.46934342606591,
      "geoinfo": {
        "display_name": "Baćići, Town of Lukavac, Tuzla Canton, Federation of Bosnia and Herzegovina, Bosnia and Herzegovina",
        "road": null,
        "house_number": null,
        "neighbourhood": null,
        "suburb": null,
        "city_district": null,
        "city": "Baćići",
        "state": "Federation of Bosnia and Herzegovina",
        "postcode": null,
        "country": "Bosnia and Herzegovina",
        "country_code": "ba"
      },
      "address": "Lukavac, Federation of Bosnia and Herzegovina, Bosnia and Herzegovina"
    },
    {
      "lat": 44.565890449305144,
      "lon": 18.565834666843408,
      "geoinfo": {
        "display_name": "Mramor, Milešići, City of Tuzla, Tuzla Canton, Federation of Bosnia and Herzegovina, 75212, Bosnia and Herzegovina",
        "road": "Mramor",
        "house_number": null,
        "neighbourhood": null,
        "suburb": null,
        "city_district": null,
        "city": "Milešići",
        "state": "Federation of Bosnia and Herzegovina",
        "postcode": "75212",
        "country": "Bosnia and Herzegovina",
        "country_code": "ba"
      },
      "address": "Mramor, Lukavac, Federation of Bosnia and Herzegovina, Bosnia and Herzegovina"
    },
    {
      "lat": 44.557192546080884,
      "lon": 18.53278411231863,
      "geoinfo": {
        "display_name": "Turski Lukavac, Huskići, Town of Lukavac, Tuzla Canton, Federation of Bosnia and Herzegovina, 75300, Bosnia and Herzegovina",
        "road": null,
        "house_number": null,
        "neighbourhood": null,
        "suburb": "Turski Lukavac",
        "city_district": null,
        "city": "Huskići",
        "state": "Federation of Bosnia and Herzegovina",
        "postcode": "75300",
        "country": "Bosnia and Herzegovina",
        "country_code": "ba"
      },
      "address": "Turski Lukavac, Lukavac, Federation of Bosnia and Herzegovina, Bosnia and Herzegovina"
    },
    {
      "lat": 44.53253521634986,
      "lon": 18.556045077052442,
      "geoinfo": {
        "display_name": "Prvomajska, Bistrac Gornji, Bistarac Gornji, Town of Lukavac, Tuzla Canton, Federation of Bosnia and Herzegovina, 75300, Bosnia and Herzegovina",
        "road": "Prvomajska",
        "house_number": null,
        "neighbourhood": null,
        "suburb": null,
        "city_district": null,
        "city": "Bistarac Gornji",
        "state": "Federation of Bosnia and Herzegovina",
        "postcode": "75300",
        "country": "Bosnia and Herzegovina",
        "country_code": "ba"
      },
      "address": "Prvomajska, Lukavac, Federation of Bosnia and Herzegovina, Bosnia and Herzegovina"
    },
    {
      "lat": 44.52636797560504,
      "lon": 18.52745823990887,
      "geoinfo": {
        "display_name": "Fabrika Cementa Lukavac, Lukavačkih brigada, Lukavac, Town of Lukavac, Tuzla Canton, Federation of Bosnia and Herzegovina, 75300, Bosnia and Herzegovina",
        "road": "Lukavačkih brigada",
        "house_number": null,
        "neighbourhood": null,
        "suburb": null,
        "city_district": null,
        "city": "Lukavac",
        "state": "Federation of Bosnia and Herzegovina",
        "postcode": "75300",
        "country": "Bosnia and Herzegovina",
        "country_code": "ba"
      },
      "address": "Lukavačkih brigada, Lukavac, Federation of Bosnia and Herzegovina, Bosnia and Herzegovina"
    },
    {
      "lat": 44.57417343853487,
      "lon": 18.532193810002052,
      "geoinfo": {
        "display_name": "Lukavac Gornji, Town of Lukavac, Tuzla Canton, Federation of Bosnia and Herzegovina, 75300, Bosnia and Herzegovina",
        "road": null,
        "house_number": null,
        "neighbourhood": null,
        "suburb": null,
        "city_district": null,
        "city": "Lukavac Gornji",
        "state": "Federation of Bosnia and Herzegovina",
        "postcode": "75300",
        "country": "Bosnia and Herzegovina",
        "country_code": "ba"
      },
      "address": "210, Lukavac Gornji, Town of Lukavac, Tuzla Canton, Federation of Bosnia and Herzegovina, 75300, Bosnia and Herzegovina"
    },
    {
      "lat": 44.536849136290485,
      "lon": 18.55857695927059,
      "geoinfo": {
        "display_name": "Kalajevo, City of Tuzla, Tuzla Canton, Federation of Bosnia and Herzegovina, 75212, Bosnia and Herzegovina",
        "road": null,
        "house_number": null,
        "neighbourhood": null,
        "suburb": null,
        "city_district": null,
        "city": "Kalajevo",
        "state": "Federation of Bosnia and Herzegovina",
        "postcode": "75212",
        "country": "Bosnia and Herzegovina",
        "country_code": "ba"
      },
      "address": "905, Kalajevo, City of Tuzla, Tuzla Canton, Federation of Bosnia and Herzegovina, 75212, Bosnia and Herzegovina"
    },
    {
      "lat": 44.57095755425039,
      "lon": 18.500183571463648,
      "geoinfo": {
        "display_name": "Šikulje, Town of Lukavac, Tuzla Canton, Federation of Bosnia and Herzegovina, Bosnia and Herzegovina",
        "road": null,
        "house_number": null,
        "neighbourhood": null,
        "suburb": null,
        "city_district": null,
        "city": "Šikulje",
        "state": "Federation of Bosnia and Herzegovina",
        "postcode": null,
        "country": "Bosnia and Herzegovina",
        "country_code": "ba"
      },
      "address": "962, Šikulje, Town of Lukavac, Tuzla Canton, 23533 Federation of Bosnia and Herzegovina, Bosnia and Herzegovina"
    },
    {
      "lat": 44.524536417836636,
      "lon": 18.53378398908446,
      "geoinfo": {
        "display_name": "8. marta, Lukavac, Town of Lukavac, Tuzla Canton, Federation of Bosnia and Herzegovina, 75300, Bosnia and Herzegovina",
        "road": "8. marta",
        "house_number": null,
        "neighbourhood": null,
        "suburb": null,
        "city_district": null,
        "city": "Lukavac",
        "state": "Federation of Bosnia and Herzegovina",
        "postcode": "75300",
        "country": "Bosnia and Herzegovina",
        "country_code": "ba"
      },
      "address": "8. marta, Lukavac, Town of Lukavac, Tuzla Canton, Federation of Bosnia and Herzegovina, 75300, Bosnia and Herzegovina"
    },
    {
      "lat": 44.52805351934577,
      "lon": 18.551643374450055,
      "geoinfo": {
        "display_name": "Bistarac Gornji, Town of Lukavac, Tuzla Canton, Federation of Bosnia and Herzegovina, 75300, Bosnia and Herzegovina",
        "road": null,
        "house_number": null,
        "neighbourhood": null,
        "suburb": null,
        "city_district": null,
        "city": "Bistarac Gornji",
        "state": "Federation of Bosnia and Herzegovina",
        "postcode": "75300",
        "country": "Bosnia and Herzegovina",
        "country_code": "ba"
      },
      "address": "195, Bistarac Gornji, Town of Lukavac, Tuzla Canton, Federation of Bosnia and Herzegovina, 75300, Bosnia and Herzegovina"
    }
  ],
  "updated_at": "2025-10-19T02:54:25.556244+00:00",
  "_kind": "geo_samples"
}