{
  "country_code": "BA",
  "country": "Bosnia and Herzegovina",
  "city": "Mostar",
  "geonameid": 3194828,
  "target_addresses": 5,
  "samples": [
    {
      "lat": 43.375071182363165,
      "lon": 17.792710161879096,
      "geoinfo": {
        "display_name": "II Bojne rudničke, Orlac, Vihovići, Local community Vihovići, City of Mostar, Herzegovina-Neretva Canton, Federation of Bosnia and Herzegovina, 88000, Bosnia and Herzegovina",
        "road": "II Bojne rudničke",
        "house_number": null,
        "neighbourhood": null,
        "suburb": null,
        "city_district": "Vihovići",
        "city": "Local community Vihovići",
        "state": "Federation of Bosnia and Herzegovina",
        "postcode": "88000",
        "country": "Bosnia and Herzegovina",
        "country_code": "ba"
      },
      "address": "II Bojne rudničke, Mostar, Federation of Bosnia and Herzegovina, Bosnia and Herzegovina"
    },
    {
      "lat": 43.33296942809218,
      "lon": 17.74887442053468,
      "geoinfo": {
        "display_name": "Dolac, Local community Miljkovići, City of Mostar, Herzegovina-Neretva Canton, Federation of Bosnia and Herzegovina, Bosnia and Herzegovina",
        "road": null,
        "house_number": null,
        "neighbourhood": null,
        "suburb": null,
        "city_district": null,
        "city": "Local community Miljkovići",
        "state": "Federation of Bosnia and Herzegovina",
        "postcode": null,
        "country": "Bosnia and Herzegovina",
        "country_code": "ba"
      },
      "address": "Mostar, Federation of Bosnia and Herzegovina, Bosnia and Herzegovina"
    },
    {
      "lat": 43.37250322517133,
      "lon": 17.851384610894815,
      "geoinfo": {
        "display_name": "Vrapčići, Raštani, Suhi Do, City of Mostar, Herzegovina-Neretva Canton, Federation of Bosnia and Herzegovina, 88113, Bosnia and Herzegovina",
        "road": "Vrapčići",
        "house_number": null,
        "neighbourhood": null,
        "suburb": "Vrapčići",
        "city_district": null,
        "city": "Raštani",
        "state": "Federation of Bosnia and Herzegovina",
        "postcode": "88113",
        "country": "Bosnia and Herzegovina",
        "country_code": "ba"
      },
      "address": "Vrapčići, Mostar, Federation of Bosnia and Herzegovina, Bosnia and Herzegovina"
    },
    {
      "lat": 43.36178225699879,
      "lon": 17.837075787019554,
      "geoinfo": {
        "display_name": "Zalik, Bafo, Mostar, Suhi Do, City of Mostar, Herzegovina-Neretva Canton, Federation of Bosnia and Herzegovina, 88113, Bosnia and Herzegovina",
        "road": "Zalik",
        "house_number": null,
        "neighbourhood": null,
        "suburb": null,
        "city_district": null,
        "city": "Mostar",
        "state": "Federation of Bosnia and Herzegovina",
        "postcode": "88113",
        "country": "Bosnia and Herzegovina",
        "country_code": "ba"
      },
      "address": "Zalik, Mostar, Federation of Bosnia and Herzegovina, Bosnia and Herzegovina"
    },
    {
      "lat": 43.31325621382443,
      "lon": 17.763386397316975,
      "geoinfo": {
        "display_name": "Južna obilaznica Mostara, Babići, Dolac, Local community Miljkovići, City of Mostar, Herzegovina-Neretva Canton, Federation of Bosnia and Herzegovina, Bosnia and Herzegovina",
        "road": "Južna obilaznica Mostara",
        "house_number": null,
        "neighbourhood": "Babići",
        "suburb": null,
        "city_district": null,
        "city": "Local community Miljkovići",
        "state": "Federation of Bosnia and Herzegovina",
        "postcode": null,
        "country": "Bosnia and Herzegovina",
        "country_code": "ba"
      },
      "address": "Južna obilaznica Mostara, Mostar, Federation of Bosnia and Herzegovina, Bosnia and Herzegovina"
    },
    {
      "lat": 43.3564678859218,
      "lon": 17.866204747833695,
      "geoinfo": {
        "display_name": "Dobrč, City of Mostar, Herzegovina-Neretva Canton, Federation of Bosnia and Herzegovina, 88113, Bosnia and Herzegovina",
        "road": null,
        "house_number": null,
        "neighbourhood": null,
        "suburb": null,
        "city_district": null,
        "city": null,
        "state": "Federation of Bosnia and Herzegovina",
        "postcode": "88113",
        "country": "Bosnia and Herzegovina",
        "country_code": "ba"
      },
      "address": "852, Dobrč, City of Mostar, Herzegovina-Neretva Canton, Federation of Bosnia and Herzegovina, 88113, Bosnia and Herzegovina"
    },
    {
      "lat": 43.37065219340625,
      "lon": 17.819114166048454,
      "geoinfo": {
        "display_name": "II Bojne rudničke, Raštani, Local community Raštani, City of Mostar, Herzegovina-Neretva Canton, Federation of Bosnia and Herzegovina, 88000, Bosnia and Herzegovina",
        "road": "II Bojne rudničke",
        "house_number": null,
        "neighbourhood": null,
        "suburb": null,
        "city_district": "Raštani",
        "city": "Local community Raštani",
        "state": "Federation of Bosnia and Herzegovina",
        "postcode": "88000",
        "country": "Bosnia and Herzegovina",
        "country_code": "ba"
      },
      "address": "778, II Bojne rudničke, Raštani, Local community Raštani, City of Mostar, Herzegovina-Neretva Canton, Federation of Bosnia and Herzegovina, 88000, Bosnia and Herzegovina"
    },
    {
      "lat": 43.383888310555534,
      "lon": 17.789148525469518,
      "geoinfo": {
        "display_name": "Put Planinice, Vihovići, Local community Vihovići, City of Mostar, Herzegovina-Neretva Canton, Federation of Bosnia and Herzegovina, 88000, Bosnia and Herzegovina",
        "road": "Put Planinice",
        "house_number": null,
        "neighbourhood": null,
        "suburb": null,
        "city_district": "Vihovići",
        "city": "Local community Vihovići",
        "state": "Federation of Bosnia and Herzegovina",
        "postcode": "88000",
        "country": "Bosnia and Herzegovina",
        "country_code": "ba"
      },
      "address": "979, Put Planinice, Vihovići, Local community Vihovići, City of Mostar, Herzegovina-Neretva Canton, Federation of Bosnia and Herzegovina, 88000, Bosnia and Herzegovina"
    },
    {
      "lat": 43.32273187551177,
      "lon": 17.7707845624383,
      "geoinfo": {
        "display_name": "Babići, Miljkovići, Local community Miljkovići, City of Mostar, Herzegovina-Neretva Canton, Federation of Bosnia and Herzegovina, 88000, Bosnia and Herzegovina",
        "road": null,
        "house_number": null,
        "neighbourhood": "Babići",
        "suburb": null,
        "city_district": null,
        "city": "Local community Miljkovići",
        "state": "Federation of Bosnia and Herzegovina",
        "postcode": "88000",
        "country": "Bosnia and Herzegovina",
        "country_code": "ba"
      },
      "address": "181, Babići, Miljkovići, Local community Miljkovići, City of Mostar, Herzegovina-Neretva Canton, Federation of Bosnia and Herzegovina, 88000, Bosnia and Herzegovina"
    },
    {
      "lat": 43.356399332653105,
      "lon": 17.780754151794554,
      "geoinfo": {
        "display_name": "Cim, Local community Cim, City of Mostar, Herzegovina-Neretva Canton, Federation of Bosnia and Herzegovina, 88000, Bosnia and Herzegovina",
        "road": null,
        "house_number": null,
        "neighbourhood": null,
        "suburb": null,
        "city_district": "Cim",
        "city": "Local community Cim",
        "state": "Federation of Bosnia and Herzegovina",
        "postcode": "88000",
        "country": "Bosnia and Herzegovina",
        "country_code": "ba"
      },
      "address": "990, Cim, Local community Cim, City of Mostar, Herzegovina-Neretva Canton, Federation of Bosnia and Herzegovina, 88000, Bosnia and Herzegovina"
    }
  ],
  "updated_at": "2025-10-19T02:36:20.887147+00:00",
  "_kind": "geo_samples"
}