{
  "country_code": "BA",
  "country": "Bosnia and Herzegovina",
  "city": "Sarajevo",
  "geonameid": 3191281,
  "target_addresses": 5,
  "samples": [
    {
      "lat": 43.809314461935045,
      "lon": 18.37022391184786,
      "geoinfo": {
        "display_name": "3, Najdanović Dr Milutina, Mladičko Polje, Pavlovac, Sarajevo Dio - Ilidza, Gornje Mladice, Istočna Ilidža Municipality, City of Istočno Sarajevo, Republika Srpska, 71123, Bosnia and Herzegovina",
        "road": "Najdanović Dr Milutina",
        "house_number": "3",
        "neighbourhood": null,
        "suburb": "Pavlovac",
        "city_district": "Sarajevo Dio - Ilidza",
        "city": "Gornje Mladice",
        "state": "Republika Srpska",
        "postcode": "71123",
        "country": "Bosnia and Herzegovina",
        "country_code": "ba"
      },
      "address": "3 Najdanović Dr Milutina, Sarajevo, Republika Srpska, Bosnia and Herzegovina"
    },
    {
      "lat": 43.83111242015595,
      "lon": 18.322559830262907,
      "geoinfo": {
        "display_name": "Kasindolska, Stup, Ilidža, Ilidža Municipality, Sarajevo Canton, Federation of Bosnia and Herzegovina, 71210, Bosnia and Herzegovina",
        "road": "Kasindolska",
        "house_number": null,
        "neighbourhood": null,
        "suburb": "Stup",
        "city_district": "Ilidža",
        "city": "Ilidža",
        "state": "Federation of Bosnia and Herzegovina",
        "postcode": "71210",
        "country": "Bosnia and Herzegovina",
        "country_code": "ba"
      },
      "address": "Kasindolska, Sarajevo, Federation of Bosnia and Herzegovina, Bosnia and Herzegovina"
    },
    {
      "lat": 43.86697892311472,
      "lon": 18.328224765165764,
      "geoinfo": {
        "display_name": "Porodice Šečić, Briješće, Sarajevo, Novi Grad Municipality, City of Sarajevo, Sarajevo Canton, Federation of Bosnia and Herzegovina, 71161, Bosnia and Herzegovina",
        "road": "Porodice Šečić",
        "house_number": null,
        "neighbourhood": null,
        "suburb": "Briješće",
        "city_district": null,
        "city": "Sarajevo",
        "state": "Federation of Bosnia and Herzegovina",
        "postcode": "71161",
        "country": "Bosnia and Herzegovina",
        "country_code": "ba"
      },
      "address": "Porodice Šečić, Sarajevo, Federation of Bosnia and Herzegovina, Bosnia and Herzegovina"
    },
    {
      "lat": 43.846970527753385,
      "lon": 18.409651897243837,
      "geoinfo": {
        "display_name": "Boraca zlatišta, Cicin Han, Soukbunar, Sarajevo, Gornji Kovačići, Novo Sarajevo Municipality, City of Sarajevo, Sarajevo Canton, Federation of Bosnia and Herzegovina, 71144, Bosnia and Herzegovina",
        "road": "Boraca zlatišta",
        "house_number": null,
        "neighbourhood": "Cicin Han",
        "suburb": "Soukbunar",
        "city_district": null,
        "city": "Sarajevo",
        "state": "Federation of Bosnia and Herzegovina",
        "postcode": "71144",
        "country": "Bosnia and Herzegovina",
        "country_code": "ba"
      },
      "address": "Boraca zlatišta, Sarajevo, Federation of Bosnia and Herzegovina, Bosnia and Herzegovina"
    },
    {
      "lat": 43.830791181802056,
      "lon": 18.412347260495554,
      "geoinfo": {
        "display_name": "Petruše, Miljevići (RS), Miljevići, Istočno Novo Sarajevo Municipality, City of Istočno Sarajevo, Republika Srpska, 71144, Bosnia and Herzegovina",
        "road": "Petruše",
        "house_number": null,
        "neighbourhood": null,
        "suburb": null,
        "city_district": "Miljevići (RS)",
        "city": "Miljevići",
        "state": "Republika Srpska",
        "postcode": "71144",
        "country": "Bosnia and Herzegovina",
        "country_code": "ba"
      },
      "address": "Petruše, Sarajevo, Republika Srpska, Bosnia and Herzegovina"
    }
  ],
  "updated_at": "2025-10-16T10:39:48.578694+00:00",
  "_kind": "geo_samples"
}