{
  "country_code": "BA",
  "country": "Bosnia and Herzegovina",
  "city": "Travnik",
  "geonameid": 3188924,
  "target_addresses": 5,
  "samples": [
    {
      "lat": 44.201963987684096,
      "lon": 17.67712797219251,
      "geoinfo": {
        "display_name": "Slimena, Stojkovići, Travnik municipality, Town of Novi Travnik, Central Bosnia Canton, Federation of Bosnia and Herzegovina, 72290, Bosnia and Herzegovina",
        "road": null,
        "house_number": null,
        "neighbourhood": null,
        "suburb": null,
        "city_district": "Slimena",
        "city": "Stojkovići",
        "state": "Federation of Bosnia and Herzegovina",
        "postcode": "72290",
        "country": "Bosnia and Herzegovina",
        "country_code": "ba"
      },
      "address": "Slimena, Travnik, Federation of Bosnia and Herzegovina, Bosnia and Herzegovina"
    },
    {
      "lat": 44.254479014469815,
      "lon": 17.701744349402585,
      "geoinfo": {
        "display_name": "Radonjići, Travnik municipality, Central Bosnia Canton, Federation of Bosnia and Herzegovina, Bosnia and Herzegovina",
        "road": null,
        "house_number": null,
        "neighbourhood": null,
        "suburb": null,
        "city_district": null,
        "city": "Radonjići",
        "state": "Federation of Bosnia and Herzegovina",
        "postcode": null,
        "country": "Bosnia and Herzegovina",
        "country_code": "ba"
      },
      "address": "Travnik, Federation of Bosnia and Herzegovina, Bosnia and Herzegovina"
    },
    {
      "lat": 44.188319998535285,
      "lon": 17.664963084218527,
      "geoinfo": {
        "display_name": "Budušići, Town of Novi Travnik, Central Bosnia Canton, Federation of Bosnia and Herzegovina, 72290, Bosnia and Herzegovina",
        "road": null,
        "house_number": null,
        "neighbourhood": null,
        "suburb": null,
        "city_district": "Budušići",
        "city": "Budušići",
        "state": "Federation of Bosnia and Herzegovina",
        "postcode": "72290",
        "country": "Bosnia and Herzegovina",
        "country_code": "ba"
      },
      "address": "Budušići, Travnik, Federation of Bosnia and Herzegovina, Bosnia and Herzegovina"
    },
    {
      "lat": 44.25381467175532,
      "lon": 17.62306955647763,
      "geoinfo": {
        "display_name": "R-413a, Babići, Ovčarevo, Travnik municipality, Central Bosnia Canton, Federation of Bosnia and Herzegovina, 72283, Bosnia and Herzegovina",
        "road": "R-413a",
        "house_number": null,
        "neighbourhood": null,
        "suburb": null,
        "city_district": null,
        "city": "Ovčarevo",
        "state": "Federation of Bosnia and Herzegovina",
        "postcode": "72283",
        "country": "Bosnia and Herzegovina",
        "country_code": "ba"
      },
      "address": "R-413a, Travnik, Federation of Bosnia and Herzegovina, Bosnia and Herzegovina"
    },
    {
      "lat": 44.229027382261286,
      "lon": 17.60326989753161,
      "geoinfo": {
        "display_name": "Turići, Kraljevice, Travnik municipality, Central Bosnia Canton, Federation of Bosnia and Herzegovina, 72283, Bosnia and Herzegovina",
        "road": null,
        "house_number": null,
        "neighbourhood": null,
        "suburb": null,
        "city_district": "Turići",
        "city": "Kraljevice",
        "state": "Federation of Bosnia and Herzegovina",
        "postcode": "72283",
        "country": "Bosnia and Herzegovina",
        "country_code": "ba"
      },
      "address": "Turići, Travnik, Federation of Bosnia and Herzegovina, Bosnia and Herzegovina"
    },
    {
      "lat": 44.2190136467328,
      "lon": 17.71961902562761,
      "geoinfo": {
        "display_name": "Džepine, Kula, Bandol, Travnik municipality, Central Bosnia Canton, Federation of Bosnia and Herzegovina, 72276, Bosnia and Herzegovina",
        "road": null,
        "house_number": null,
        "neighbourhood": null,
        "suburb": null,
        "city_district": "Kula",
        "city": "Bandol",
        "state": "Federation of Bosnia and Herzegovina",
        "postcode": "72276",
        "country": "Bosnia and Herzegovina",
        "country_code": "ba"
      },
      "address": "534, Džepine, Kula, Bandol, Travnik municipality, Central Bosnia Canton, Federation of Bosnia and Herzegovina, 72276, Bosnia and Herzegovina"
    },
    {
      "lat": 44.26508628947902,
      "lon": 17.661511735857744,
      "geoinfo": {
        "display_name": "Velika Bukovica, Travnik municipality, Central Bosnia Canton, Federation of Bosnia and Herzegovina, 72270, Bosnia and Herzegovina",
        "road": null,
        "house_number": null,
        "neighbourhood": null,
        "suburb": null,
        "city_district": null,
        "city": "Velika Bukovica",
        "state": "Federation of Bosnia and Herzegovina",
        "postcode": "72270",
        "country": "Bosnia and Herzegovina",
        "country_code": "ba"
      },
      "address": "013, Velika Bukovica, Travnik municipality, Central Bosnia Canton, Federation of Bosnia and Herzegovina, 72270, Bosnia and Herzegovina"
    },
    {
      "lat": 44.23707825372923,
      "lon": 17.663425640761535,
      "geoinfo": {
        "display_name": "Musala, Travnik, Travnik municipality, Central Bosnia Canton, Federation of Bosnia and Herzegovina, 72270, Bosnia and Herzegovina",
        "road": null,
        "house_number": null,
        "neighbourhood": "Musala",
        "suburb": null,
        "city_district": "Travnik",
        "city": "Travnik",
        "state": "Federation of Bosnia and Herzegovina",
        "postcode": "72270",
        "country": "Bosnia and Herzegovina",
        "country_code": "ba"
      },
      "address": "710, Musala, Travnik, Travnik municipality, Central Bosnia Canton, Federation of Bosnia and Herzegovina, 72270, Bosnia and Herzegovina"
    },
    {
      "lat": 44.233804512137255,
      "lon": 17.68488844077281,
      "geoinfo": {
        "display_name": "Kapelica sv. Ivana Krstitelja, Stari put, Musala, Travnik, Travnik municipality, Central Bosnia Canton, Federation of Bosnia and Herzegovina, 72270, Bosnia and Herzegovina",
        "road": "Stari put",
        "house_number": null,
        "neighbourhood": "Musala",
        "suburb": null,
        "city_district": "Travnik",
        "city": "Travnik",
        "state": "Federation of Bosnia and Herzegovina",
        "postcode": "72270",
        "country": "Bosnia and Herzegovina",
        "country_code": "ba"
      },
      "address": "743, Stari put, Travnik, 72270 Federation of Bosnia and Herzegovina, Bosnia and Herzegovina"
    },
    {
      "lat": 44.26481496123566,
      "lon": 17.679402881536337,
      "geoinfo": {
        "display_name": "Velika Bukovica, Travnik municipality, Central Bosnia Canton, Federation of Bosnia and Herzegovina, 72270, Bosnia and Herzegovina",
        "road": null,
        "house_number": null,
        "neighbourhood": null,
        "suburb": null,
        "city_district": null,
        "city": "Velika Bukovica",
        "state": "Federation of Bosnia and Herzegovina",
        "postcode": "72270",
        "country": "Bosnia and Herzegovina",
        "country_code": "ba"
      },
      "address": "925, Velika Bukovica, Travnik municipality, Central Bosnia Canton, Federation of Bosnia and Herzegovina, 72270, Bosnia and Herzegovina"
    }
  ],
  "updated_at": "2025-10-19T01:03:33.481488+00:00",
  "_kind": "geo_samples"
}