{
  "country_code": "BA",
  "country": "Bosnia and Herzegovina",
  "city": "Trebinje",
  "geonameid": 3188893,
  "target_addresses": 5,
  "samples": [
    {
      "lat": 42.667984656384334,
      "lon": 18.34116055567962,
      "geoinfo": {
        "display_name": "Rasovac, City of Trebinje, Republika Srpska, 89000, Bosnia and Herzegovina",
        "road": null,
        "house_number": null,
        "neighbourhood": null,
        "suburb": null,
        "city_district": "Rasovac",
        "city": "Rasovac",
        "state": "Republika Srpska",
        "postcode": "89000",
        "country": "Bosnia and Herzegovina",
        "country_code": "ba"
      },
      "address": "Rasovac, Trebinje, Republika Srpska, Bosnia and Herzegovina"
    },
    {
      "lat": 42.72059120105967,
      "lon": 18.333657706053568,
      "geoinfo": {
        "display_name": "Staza T109 - Kovlo, Mjesna zajednica Hrupjela, Hrupjela, Trebinje, City of Trebinje, Republika Srpska, 89000, Bosnia and Herzegovina",
        "road": "Staza T109 - Kovlo",
        "house_number": null,
        "neighbourhood": "Mjesna zajednica Hrupjela",
        "suburb": "Hrupjela",
        "city_district": null,
        "city": "Trebinje",
        "state": "Republika Srpska",
        "postcode": "89000",
        "country": "Bosnia and Herzegovina",
        "country_code": "ba"
      },
      "address": "Staza T109 - Kovlo, Trebinje, Republika Srpska, Bosnia and Herzegovina"
    },
    {
      "lat": 42.72987148945853,
      "lon": 18.35173434766735,
      "geoinfo": {
        "display_name": "24, Podgljivlje, Mjesna zajednica Gorica, Podgljivlje, Trebinje, City of Trebinje, Republika Srpska, 89101, Bosnia and Herzegovina",
        "road": "Podgljivlje",
        "house_number": "24",
        "neighbourhood": "Mjesna zajednica Gorica",
        "suburb": "Podgljivlje",
        "city_district": null,
        "city": "Trebinje",
        "state": "Republika Srpska",
        "postcode": "89101",
        "country": "Bosnia and Herzegovina",
        "country_code": "ba"
      },
      "address": "24 Podgljivlje, Trebinje, Republika Srpska, Bosnia and Herzegovina"
    },
    {
      "lat": 42.695939519732036,
      "lon": 18.321878700162785,
      "geoinfo": {
        "display_name": "Stara škola u Pridvorcima, 112, Pridvorci, Mjesna zajednica Pridvorci, Pridvorci, Trebinje, City of Trebinje, Republika Srpska, 89101, Bosnia and Herzegovina",
        "road": "Pridvorci",
        "house_number": "112",
        "neighbourhood": "Mjesna zajednica Pridvorci",
        "suburb": null,
        "city_district": "Pridvorci",
        "city": "Trebinje",
        "state": "Republika Srpska",
        "postcode": "89101",
        "country": "Bosnia and Herzegovina",
        "country_code": "ba"
      },
      "address": "112 Pridvorci, Trebinje, Republika Srpska, Bosnia and Herzegovina"
    },
    {
      "lat": 42.70251142862154,
      "lon": 18.374997053782778,
      "geoinfo": {
        "display_name": "Staza T118 - Golo Brdo, Gornje Police, Trebinje, City of Trebinje, Republika Srpska, 89101, Bosnia and Herzegovina",
        "road": "Staza T118 - Golo Brdo",
        "house_number": null,
        "neighbourhood": null,
        "suburb": "Gornje Police",
        "city_district": null,
        "city": "Trebinje",
        "state": "Republika Srpska",
        "postcode": "89101",
        "country": "Bosnia and Herzegovina",
        "country_code": "ba"
      },
      "address": "Staza T118 - Golo Brdo, Trebinje, Republika Srpska, Bosnia and Herzegovina"
    },
    {
      "lat": 42.712622388084505,
      "lon": 18.32401601744354,
      "geoinfo": {
        "display_name": "30, Joanikija Pamučine, Mjesna zajednica Zasad, Zasad, Trebinje, City of Trebinje, Republika Srpska, 89101, Bosnia and Herzegovina",
        "road": "Joanikija Pamučine",
        "house_number": "30",
        "neighbourhood": "Mjesna zajednica Zasad",
        "suburb": "Zasad",
        "city_district": null,
        "city": "Trebinje",
        "state": "Republika Srpska",
        "postcode": "89101",
        "country": "Bosnia and Herzegovina",
        "country_code": "ba"
      },
      "address": "30, Joanikija Pamučine, Mjesna zajednica Zasad, Zasad, Trebinje, City of Trebinje, Republika Srpska, 89101, Bosnia and Herzegovina"
    },
    {
      "lat": 42.709335039682905,
      "lon": 18.357803887448046,
      "geoinfo": {
        "display_name": "19, Zahumska, Mjesna zajednica Donje Police, Donje Police, Trebinje, City of Trebinje, Republika Srpska, 89101, Bosnia and Herzegovina",
        "road": "Zahumska",
        "house_number": "19",
        "neighbourhood": "Mjesna zajednica Donje Police",
        "suburb": "Donje Police",
        "city_district": null,
        "city": "Trebinje",
        "state": "Republika Srpska",
        "postcode": "89101",
        "country": "Bosnia and Herzegovina",
        "country_code": "ba"
      },
      "address": "19, Zahumska, Mjesna zajednica Donje Police, Donje Police, Trebinje, City of Trebinje, Republika Srpska, 89101, Bosnia and Herzegovina"
    },
    {
      "lat": 42.690834299994606,
      "lon": 18.314199724073788,
      "geoinfo": {
        "display_name": "Dalmatinerbahn, Mjesna zajednica Pridvorci, Volujac, City of Trebinje, Republika Srpska, 89000, Bosnia and Herzegovina",
        "road": "Dalmatinerbahn",
        "house_number": null,
        "neighbourhood": "Mjesna zajednica Pridvorci",
        "suburb": null,
        "city_district": "Volujac",
        "city": "Volujac",
        "state": "Republika Srpska",
        "postcode": "89000",
        "country": "Bosnia and Herzegovina",
        "country_code": "ba"
      },
      "address": "132, Dalmatinerbahn, Mjesna zajednica Pridvorci, Volujac, City of Trebinje, Republika Srpska, 89000, Bosnia and Herzegovina"
    },
    {
      "lat": 42.709540437780234,
      "lon": 18.346865990501417,
      "geoinfo": {
        "display_name": "1, Preobraženska, Stari grad, Mjesna zajednica Centar, Bregovi, Trebinje, City of Trebinje, Republika Srpska, 89101, Bosnia and Herzegovina",
        "road": "Preobraženska",
        "house_number": "1",
        "neighbourhood": "Stari grad",
        "suburb": "Bregovi",
        "city_district": null,
        "city": "Trebinje",
        "state": "Republika Srpska",
        "postcode": "89101",
        "country": "Bosnia and Herzegovina",
        "country_code": "ba"
      },
      "address": "1, Preobraženska, Stari grad, Mjesna zajednica Centar, Bregovi, Trebinje, City of Trebinje, Republika Srpska, 89101, Bosnia and Herzegovina"
    },
    {
      "lat": 42.69594426281294,
      "lon": 18.328429218141185,
      "geoinfo": {
        "display_name": "69, Pridvorci, Mjesna zajednica Pridvorci, Pridvorci, Trebinje, City of Trebinje, Republika Srpska, 89101, Bosnia and Herzegovina",
        "road": "Pridvorci",
        "house_number": "69",
        "neighbourhood": "Mjesna zajednica Pridvorci",
        "suburb": null,
        "city_district": "Pridvorci",
        "city": "Trebinje",
        "state": "Republika Srpska",
        "postcode": "89101",
        "country": "Bosnia and Herzegovina",
        "country_code": "ba"
      },
      "address": "69, Pridvorci, Mjesna zajednica Pridvorci, Pridvorci, Trebinje, City of Trebinje, Republika Srpska, 89101, Bosnia and Herzegovina"
    }
  ],
  "updated_at": "2025-10-19T00:59:18.450579+00:00",
  "_kind": "geo_samples"
}