{
  "country_code": "OM",
  "country": "Oman",
  "city": "Al Buraymī",
  "geonameid": 289317,
  "target_addresses": 4,
  "samples": [
    {
      "lat": 24.2616897335335,
      "lon": 55.836897566362985,
      "geoinfo": {
        "display_name": "Tawi Aqdah, Sohar - al Buraimi Road, البريمي, الخضراء, Al Buraimi Province, Al Buraimi Governorate, 512, Oman",
        "road": "Sohar - al Buraimi Road",
        "house_number": null,
        "neighbourhood": null,
        "suburb": null,
        "city_district": null,
        "city": "Al Buraimi Province",
        "state": "Al Buraimi Governorate",
        "postcode": "512",
        "country": "Oman",
        "country_code": "om"
      },
      "address": "Sohar - al Buraimi Road, Al Buraymī, Al Buraimi Governorate, Oman"
    },
    {
      "lat": 24.264033384164932,
      "lon": 55.78035534917908,
      "geoinfo": {
        "display_name": "البريمي, خضراء السلم, Al Buraimi Province, Al Buraimi Governorate, Oman",
        "road": null,
        "house_number": null,
        "neighbourhood": null,
        "suburb": null,
        "city_district": null,
        "city": "Al Buraimi Province",
        "state": "Al Buraimi Governorate",
        "postcode": null,
        "country": "Oman",
        "country_code": "om"
      },
      "address": "Al Buraymī, Al Buraimi Governorate, Oman"
    },
    {
      "lat": 24.261461780509276,
      "lon": 55.771850825117184,
      "geoinfo": {
        "display_name": "البريمي, As Suara, Al Buraimi Province, Al Buraimi Governorate, Oman",
        "road": null,
        "house_number": null,
        "neighbourhood": null,
        "suburb": null,
        "city_district": null,
        "city": "Al Buraimi Province",
        "state": "Al Buraimi Governorate",
        "postcode": null,
        "country": "Oman",
        "country_code": "om"
      },
      "address": "346, البريمي, As Suara, Al Buraimi Province, 09549 Al Buraimi Governorate, Oman"
    },
    {
      "lat": 24.272365816778684,
      "lon": 55.78977717945667,
      "geoinfo": {
        "display_name": "البريمي, خضراء السلم, Al Buraimi Province, Al Buraimi Governorate, 512, Oman",
        "road": null,
        "house_number": null,
        "neighbourhood": null,
        "suburb": null,
        "city_district": null,
        "city": "Al Buraimi Province",
        "state": "Al Buraimi Governorate",
        "postcode": "512",
        "country": "Oman",
        "country_code": "om"
      },
      "address": "506, البريمي, خضراء السلم, Al Buraimi Province, Al Buraimi Governorate, 512, Oman"
    },
    {
      "lat": 24.277116936920137,
      "lon": 55.81787238390521,
      "geoinfo": {
        "display_name": "Buraimi Industrial City, Al Buraimi Province, Al Buraimi Governorate, 512, Oman",
        "road": null,
        "house_number": null,
        "neighbourhood": null,
        "suburb": null,
        "city_district": null,
        "city": "Al Buraimi Province",
        "state": "Al Buraimi Governorate",
        "postcode": "512",
        "country": "Oman",
        "country_code": "om"
      },
      "address": "138, Buraimi Industrial City, Al Buraimi Province, Al Buraimi Governorate, 512, Oman"
    },
    {
      "lat": 24.239185455993287,
      "lon": 55.79470050686072,
      "geoinfo": {
        "display_name": "Sohar - al Buraimi Road, البريمي, الخضراء, Al Buraimi Province, Al Buraimi Governorate, 512, Oman",
        "road": "Sohar - al Buraimi Road",
        "house_number": null,
        "neighbourhood": null,
        "suburb": null,
        "city_district": null,
        "city": "Al Buraimi Province",
        "state": "Al Buraimi Governorate",
        "postcode": "512",
        "country": "Oman",
        "country_code": "om"
      },
      "address": "952, Sohar - al Buraimi Road, البريمي, الخضراء, Al Buraimi Province, Al Buraimi Governorate, 512, Oman"
    }
  ],
  "updated_at": "2025-10-19T08:55:37.873807+00:00",
  "_kind": "geo_samples"
}