{
  "country_code": "OM",
  "country": "Oman",
  "city": "‘Ibrī",
  "geonameid": 287830,
  "target_addresses": 21,
  "samples": [
    {
      "lat": 23.242358864586116,
      "lon": 56.479272478742885,
      "geoinfo": {
        "display_name": "Ibri, Ad Dhahirah Governorate, Oman",
        "road": null,
        "house_number": null,
        "neighbourhood": null,
        "suburb": null,
        "city_district": null,
        "city": "Ibri",
        "state": "Ad Dhahirah Governorate",
        "postcode": null,
        "country": "Oman",
        "country_code": "om"
      },
      "address": "‘Ibrī, Ad Dhahirah Governorate, Oman"
    },
    {
      "lat": 23.220441645412937,
      "lon": 56.5234164840246,
      "geoinfo": {
        "display_name": "Hellat As'sad, Ad Dhahirah Governorate, Oman",
        "road": null,
        "house_number": null,
        "neighbourhood": null,
        "suburb": null,
        "city_district": null,
        "city": "Hellat As'sad",
        "state": "Ad Dhahirah Governorate",
        "postcode": null,
        "country": "Oman",
        "country_code": "om"
      },
      "address": "Hellat As'sad, 76152 Ad Dhahirah Governorate, Oman"
    },
    {
      "lat": 23.19298753889073,
      "lon": 56.48902282797325,
      "geoinfo": {
        "display_name": "Murtafa'at Ibri, Ad Dhahirah Governorate, Oman",
        "road": null,
        "house_number": null,
        "neighbourhood": null,
        "suburb": null,
        "city_district": null,
        "city": "Murtafa'at Ibri",
        "state": "Ad Dhahirah Governorate",
        "postcode": null,
        "country": "Oman",
        "country_code": "om"
      },
      "address": "Murtafa'at Ibri, 66904 Ad Dhahirah Governorate, Oman"
    },
    {
      "lat": 23.185997975106833,
      "lon": 56.49518908632267,
      "geoinfo": {
        "display_name": "Ibri, Ad Dhahirah Governorate, Oman",
        "road": null,
        "house_number": null,
        "neighbourhood": null,
        "suburb": null,
        "city_district": null,
        "city": "Ibri",
        "state": "Ad Dhahirah Governorate",
        "postcode": null,
        "country": "Oman",
        "country_code": "om"
      },
      "address": "Ibri, 98800 Ad Dhahirah Governorate, Oman"
    },
    {
      "lat": 23.198881846907224,
      "lon": 56.490845648365294,
      "geoinfo": {
        "display_name": "Murtafa'at Ibri, Ad Dhahirah Governorate, Oman",
        "road": null,
        "house_number": null,
        "neighbourhood": null,
        "suburb": null,
        "city_district": null,
        "city": "Murtafa'at Ibri",
        "state": "Ad Dhahirah Governorate",
        "postcode": null,
        "country": "Oman",
        "country_code": "om"
      },
      "address": "802, Murtafa'at Ibri, 92758 Ad Dhahirah Governorate, Oman"
    },
    {
      "lat": 23.239634694711103,
      "lon": 56.477093352772606,
      "geoinfo": {
        "display_name": "Ibri, Ad Dhahirah Governorate, Oman",
        "road": null,
        "house_number": null,
        "neighbourhood": null,
        "suburb": null,
        "city_district": null,
        "city": "Ibri",
        "state": "Ad Dhahirah Governorate",
        "postcode": null,
        "country": "Oman",
        "country_code": "om"
      },
      "address": "534, Ibri, 31858 Ad Dhahirah Governorate, Oman"
    },
    {
      "lat": 23.21957522122054,
      "lon": 56.50129504070529,
      "geoinfo": {
        "display_name": "Hayy Almazra, Ad Dhahirah Governorate, Oman",
        "road": null,
        "house_number": null,
        "neighbourhood": null,
        "suburb": null,
        "city_district": null,
        "city": "Hayy Almazra",
        "state": "Ad Dhahirah Governorate",
        "postcode": null,
        "country": "Oman",
        "country_code": "om"
      },
      "address": "378, Hayy Almazra, 90989 Ad Dhahirah Governorate, Oman"
    },
    {
      "lat": 23.224462821349977,
      "lon": 56.52468672546753,
      "geoinfo": {
        "display_name": "Hayy Al Aqabah, Ad Dhahirah Governorate, Oman",
        "road": null,
        "house_number": null,
        "neighbourhood": null,
        "suburb": null,
        "city_district": null,
        "city": "Hayy Al Aqabah",
        "state": "Ad Dhahirah Governorate",
        "postcode": null,
        "country": "Oman",
        "country_code": "om"
      },
      "address": "564, Hayy Al Aqabah, 70461 Ad Dhahirah Governorate, Oman"
    },
    {
      "lat": 23.195210719994854,
      "lon": 56.50123110401102,
      "geoinfo": {
        "display_name": "Ibri, Ad Dhahirah Governorate, Oman",
        "road": null,
        "house_number": null,
        "neighbourhood": null,
        "suburb": null,
        "city_district": null,
        "city": "Ibri",
        "state": "Ad Dhahirah Governorate",
        "postcode": null,
        "country": "Oman",
        "country_code": "om"
      },
      "address": "416, Ibri, 80874 Ad Dhahirah Governorate, Oman"
    },
    {
      "lat": 23.21620470175011,
      "lon": 56.54518281308125,
      "geoinfo": {
        "display_name": "AL Qurayn, Ad Dhahirah Governorate, Oman",
        "road": null,
        "house_number": null,
        "neighbourhood": null,
        "suburb": null,
        "city_district": null,
        "city": "AL Qurayn",
        "state": "Ad Dhahirah Governorate",
        "postcode": null,
        "country": "Oman",
        "country_code": "om"
      },
      "address": "437, AL Qurayn, 76664 Ad Dhahirah Governorate, Oman"
    },
    {
      "lat": 23.200938011644077,
      "lon": 56.4832311466601,
      "geoinfo": {
        "display_name": "Ibri - Rub' al Khali Road, Ibri, Ad Dhahirah Governorate, Oman",
        "road": "Ibri - Rub' al Khali Road",
        "house_number": null,
        "neighbourhood": null,
        "suburb": null,
        "city_district": null,
        "city": "Ibri",
        "state": "Ad Dhahirah Governorate",
        "postcode": null,
        "country": "Oman",
        "country_code": "om"
      },
      "address": "165, Ibri - Rub' al Khali Road, Ibri, 88166 Ad Dhahirah Governorate, Oman"
    },
    {
      "lat": 23.260537701257082,
      "lon": 56.49815593768057,
      "geoinfo": {
        "display_name": "Rayibah, Ad Dhahirah Governorate, Oman",
        "road": null,
        "house_number": null,
        "neighbourhood": null,
        "suburb": null,
        "city_district": null,
        "city": "Rayibah",
        "state": "Ad Dhahirah Governorate",
        "postcode": null,
        "country": "Oman",
        "country_code": "om"
      },
      "address": "119, Rayibah, 34088 Ad Dhahirah Governorate, Oman"
    },
    {
      "lat": 23.245789424829695,
      "lon": 56.51826170826693,
      "geoinfo": {
        "display_name": "Kawas, Ad Dhahirah Governorate, Oman",
        "road": null,
        "house_number": null,
        "neighbourhood": null,
        "suburb": null,
        "city_district": null,
        "city": "Kawas",
        "state": "Ad Dhahirah Governorate",
        "postcode": null,
        "country": "Oman",
        "country_code": "om"
      },
      "address": "559, Kawas, 26809 Ad Dhahirah Governorate, Oman"
    },
    {
      "lat": 23.20688492120905,
      "lon": 56.54608023748888,
      "geoinfo": {
        "display_name": "AL Qurayn, Ad Dhahirah Governorate, Oman",
        "road": null,
        "house_number": null,
        "neighbourhood": null,
        "suburb": null,
        "city_district": null,
        "city": "AL Qurayn",
        "state": "Ad Dhahirah Governorate",
        "postcode": null,
        "country": "Oman",
        "country_code": "om"
      },
      "address": "144, AL Qurayn, 32257 Ad Dhahirah Governorate, Oman"
    },
    {
      "lat": 23.21715947535924,
      "lon": 56.528471971843125,
      "geoinfo": {
        "display_name": "Sultan Thuwaini bin Said Road, Hellat As'sad, Ad Dhahirah Governorate, Oman",
        "road": "Sultan Thuwaini bin Said Road",
        "house_number": null,
        "neighbourhood": null,
        "suburb": null,
        "city_district": null,
        "city": "Hellat As'sad",
        "state": "Ad Dhahirah Governorate",
        "postcode": null,
        "country": "Oman",
        "country_code": "om"
      },
      "address": "770, Sultan Thuwaini bin Said Road, Hellat As'sad, 76819 Ad Dhahirah Governorate, Oman"
    },
    {
      "lat": 23.243454371145386,
      "lon": 56.53085708990836,
      "geoinfo": {
        "display_name": "Kawas, Ad Dhahirah Governorate, Oman",
        "road": null,
        "house_number": null,
        "neighbourhood": null,
        "suburb": null,
        "city_district": null,
        "city": "Kawas",
        "state": "Ad Dhahirah Governorate",
        "postcode": null,
        "country": "Oman",
        "country_code": "om"
      },
      "address": "147, Kawas, 29668 Ad Dhahirah Governorate, Oman"
    },
    {
      "lat": 23.25240728403361,
      "lon": 56.543738631849415,
      "geoinfo": {
        "display_name": "Ibri, Ad Dhahirah Governorate, Oman",
        "road": null,
        "house_number": null,
        "neighbourhood": null,
        "suburb": null,
        "city_district": null,
        "city": "Ibri",
        "state": "Ad Dhahirah Governorate",
        "postcode": null,
        "country": "Oman",
        "country_code": "om"
      },
      "address": "374, Ibri, 41020 Ad Dhahirah Governorate, Oman"
    },
    {
      "lat": 23.231950681696443,
      "lon": 56.52687899452811,
      "geoinfo": {
        "display_name": "Hayy Al Aqabah, Ad Dhahirah Governorate, Oman",
        "road": null,
        "house_number": null,
        "neighbourhood": null,
        "suburb": null,
        "city_district": null,
        "city": "Hayy Al Aqabah",
        "state": "Ad Dhahirah Governorate",
        "postcode": null,
        "country": "Oman",
        "country_code": "om"
      },
      "address": "029, Hayy Al Aqabah, 56598 Ad Dhahirah Governorate, Oman"
    },
    {
      "lat": 23.237831578403007,
      "lon": 56.47984251823305,
      "geoinfo": {
        "display_name": "Ibri, Ad Dhahirah Governorate, Oman",
        "road": null,
        "house_number": null,
        "neighbourhood": null,
        "suburb": null,
        "city_district": null,
        "city": "Ibri",
        "state": "Ad Dhahirah Governorate",
        "postcode": null,
        "country": "Oman",
        "country_code": "om"
      },
      "address": "881, Ibri, 39248 Ad Dhahirah Governorate, Oman"
    },
    {
      "lat": 23.215176852618967,
      "lon": 56.47226068100536,
      "geoinfo": {
        "display_name": "Ibri, Ad Dhahirah Governorate, Oman",
        "road": null,
        "house_number": null,
        "neighbourhood": null,
        "suburb": null,
        "city_district": null,
        "city": "Ibri",
        "state": "Ad Dhahirah Governorate",
        "postcode": null,
        "country": "Oman",
        "country_code": "om"
      },
      "address": "319, Ibri, 10828 Ad Dhahirah Governorate, Oman"
    },
    {
      "lat": 23.24106426768445,
      "lon": 56.524564023477545,
      "geoinfo": {
        "display_name": "Kawas, Ad Dhahirah Governorate, Oman",
        "road": null,
        "house_number": null,
        "neighbourhood": null,
        "suburb": null,
        "city_district": null,
        "city": "Kawas",
        "state": "Ad Dhahirah Governorate",
        "postcode": null,
        "country": "Oman",
        "country_code": "om"
      },
      "address": "472, Kawas, 81001 Ad Dhahirah Governorate, Oman"
    }
  ],
  "updated_at": "2025-10-19T06:04:21.995454+00:00",
  "_kind": "geo_samples"
}