{
  "country_code": "OM",
  "country": "Oman",
  "city": "Izkī",
  "geonameid": 287814,
  "target_addresses": 4,
  "samples": [
    {
      "lat": 22.90619690437905,
      "lon": 57.78099840041029,
      "geoinfo": {
        "display_name": "Al Owainah, Ad Dhaher, Izki Province, Ad Dakhiliyah Governorate, 614, Oman",
        "road": null,
        "house_number": null,
        "neighbourhood": null,
        "suburb": null,
        "city_district": null,
        "city": "Ad Dhaher",
        "state": "Ad Dakhiliyah Governorate",
        "postcode": "614",
        "country": "Oman",
        "country_code": "om"
      },
      "address": "Izkī, Ad Dakhiliyah Governorate, Oman"
    },
    {
      "lat": 22.958088976042255,
      "lon": 57.770487279283,
      "geoinfo": {
        "display_name": "Shell, Izki - Nizwa - Bahla Road, Izki, Izki Province, Ad Dakhiliyah Governorate, 614, Oman",
        "road": "Izki - Nizwa - Bahla Road",
        "house_number": null,
        "neighbourhood": null,
        "suburb": null,
        "city_district": null,
        "city": "Izki",
        "state": "Ad Dakhiliyah Governorate",
        "postcode": "614",
        "country": "Oman",
        "country_code": "om"
      },
      "address": "Izki - Nizwa - Bahla Road, Izkī, Ad Dakhiliyah Governorate, Oman"
    },
    {
      "lat": 22.918045172768494,
      "lon": 57.796521570913654,
      "geoinfo": {
        "display_name": "Al Qaryatayn Road, Izki Province, Ad Dakhiliyah Governorate, Oman",
        "road": "Al Qaryatayn Road",
        "house_number": null,
        "neighbourhood": null,
        "suburb": null,
        "city_district": null,
        "city": null,
        "state": "Ad Dakhiliyah Governorate",
        "postcode": null,
        "country": "Oman",
        "country_code": "om"
      },
      "address": "Al Qaryatayn Road, Izkī, Ad Dakhiliyah Governorate, Oman"
    },
    {
      "lat": 22.96986709351194,
      "lon": 57.787642016432834,
      "geoinfo": {
        "display_name": "Sultan Thuwaini bin Said Road, Qarut Al Janoobeyah, Izki Province, Ad Dakhiliyah Governorate, Oman",
        "road": "Sultan Thuwaini bin Said Road",
        "house_number": null,
        "neighbourhood": null,
        "suburb": null,
        "city_district": null,
        "city": "Qarut Al Janoobeyah",
        "state": "Ad Dakhiliyah Governorate",
        "postcode": null,
        "country": "Oman",
        "country_code": "om"
      },
      "address": "Sultan Thuwaini bin Said Road, Izkī, Ad Dakhiliyah Governorate, Oman"
    },
    {
      "lat": 22.97288254700718,
      "lon": 57.76824361057004,
      "geoinfo": {
        "display_name": "Qarut Al Janoobeyah, Izki Province, Ad Dakhiliyah Governorate, Oman",
        "road": null,
        "house_number": null,
        "neighbourhood": null,
        "suburb": null,
        "city_district": null,
        "city": "Qarut Al Janoobeyah",
        "state": "Ad Dakhiliyah Governorate",
        "postcode": null,
        "country": "Oman",
        "country_code": "om"
      },
      "address": "583, Qarut Al Janoobeyah, Izki Province, 82492 Ad Dakhiliyah Governorate, Oman"
    },
    {
      "lat": 22.92517798219725,
      "lon": 57.726385657912864,
      "geoinfo": {
        "display_name": "Al Nizar Village, Izki Province, Ad Dakhiliyah Governorate, 614, Oman",
        "road": null,
        "house_number": null,
        "neighbourhood": null,
        "suburb": null,
        "city_district": null,
        "city": "Al Nizar Village",
        "state": "Ad Dakhiliyah Governorate",
        "postcode": "614",
        "country": "Oman",
        "country_code": "om"
      },
      "address": "236, Al Nizar Village, Izki Province, Ad Dakhiliyah Governorate, 614, Oman"
    },
    {
      "lat": 22.953713533619258,
      "lon": 57.77888086107369,
      "geoinfo": {
        "display_name": "Izki, Izki Province, Ad Dakhiliyah Governorate, 614, Oman",
        "road": null,
        "house_number": null,
        "neighbourhood": null,
        "suburb": null,
        "city_district": null,
        "city": "Izki",
        "state": "Ad Dakhiliyah Governorate",
        "postcode": "614",
        "country": "Oman",
        "country_code": "om"
      },
      "address": "731, Izki, Izki Province, Ad Dakhiliyah Governorate, 614, Oman"
    },
    {
      "lat": 22.922381495590795,
      "lon": 57.727913893161684,
      "geoinfo": {
        "display_name": "Izki - Nizwa - Bahla Road, Nizwa Province, Izki Province, Ad Dakhiliyah Governorate, Oman",
        "road": "Izki - Nizwa - Bahla Road",
        "house_number": null,
        "neighbourhood": null,
        "suburb": null,
        "city_district": null,
        "city": "Nizwa Province",
        "state": "Ad Dakhiliyah Governorate",
        "postcode": null,
        "country": "Oman",
        "country_code": "om"
      },
      "address": "361, Izki - Nizwa - Bahla Road, Nizwa Province, Izki Province, 77351 Ad Dakhiliyah Governorate, Oman"
    }
  ],
  "updated_at": "2025-10-19T04:58:05.779056+00:00",
  "_kind": "geo_samples"
}