{
  "country_code": "OM",
  "country": "Oman",
  "city": "Muscat",
  "geonameid": 287286,
  "target_addresses": 4,
  "samples": [
    {
      "lat": 23.62250673549307,
      "lon": 58.433163435839404,
      "geoinfo": {
        "display_name": "Hayy al Safarat, Bawshar Province, Muscat Governorate, 131, Oman",
        "road": null,
        "house_number": null,
        "neighbourhood": "Hayy al Safarat",
        "suburb": null,
        "city_district": "Hayy al Safarat",
        "city": "Bawshar Province",
        "state": "Muscat Governorate",
        "postcode": "131",
        "country": "Oman",
        "country_code": "om"
      },
      "address": "Hayy al Safarat, Muscat, Muscat Governorate, Oman"
    },
    {
      "lat": 23.55510803459803,
      "lon": 58.427986519492855,
      "geoinfo": {
        "display_name": "al Jabal Street, Bawshar Province, Muscat Governorate, 101, Oman",
        "road": "al Jabal Street",
        "house_number": null,
        "neighbourhood": null,
        "suburb": null,
        "city_district": null,
        "city": "Bawshar Province",
        "state": "Muscat Governorate",
        "postcode": "101",
        "country": "Oman",
        "country_code": "om"
      },
      "address": "al Jabal Street, Muscat, Muscat Governorate, Oman"
    },
    {
      "lat": 23.56029864603834,
      "lon": 58.41627698471744,
      "geoinfo": {
        "display_name": "Shabiyat Bawshar, Bawshar, Bawshar Province, Muscat Governorate, 101, Oman",
        "road": null,
        "house_number": null,
        "neighbourhood": "Shabiyat Bawshar",
        "suburb": null,
        "city_district": null,
        "city": "Bawshar",
        "state": "Muscat Governorate",
        "postcode": "101",
        "country": "Oman",
        "country_code": "om"
      },
      "address": "Shabiyat Bawshar, Muscat, Muscat Governorate, Oman"
    },
    {
      "lat": 23.614506418662955,
      "lon": 58.41860713769671,
      "geoinfo": {
        "display_name": "Hayy al Wizarat, Bawshar Province, Muscat Governorate, 118, Oman",
        "road": null,
        "house_number": null,
        "neighbourhood": "Hayy al Wizarat",
        "suburb": null,
        "city_district": "Hayy al Wizarat",
        "city": "Bawshar Province",
        "state": "Muscat Governorate",
        "postcode": "118",
        "country": "Oman",
        "country_code": "om"
      },
      "address": "Hayy al Wizarat, Muscat, Muscat Governorate, Oman"
    },
    {
      "lat": 23.578485177361113,
      "lon": 58.452096088327906,
      "geoinfo": {
        "display_name": "Al Khuwair, Bawshar Province, Muscat Governorate, 136, Oman",
        "road": null,
        "house_number": null,
        "neighbourhood": null,
        "suburb": "Al Khuwair",
        "city_district": null,
        "city": "Bawshar Province",
        "state": "Muscat Governorate",
        "postcode": "136",
        "country": "Oman",
        "country_code": "om"
      },
      "address": "606, Al Khuwair, Bawshar Province, Muscat Governorate, 136, Oman"
    },
    {
      "lat": 23.55045411099667,
      "lon": 58.426528773403696,
      "geoinfo": {
        "display_name": "al Jabal Street, Bawshar Province, Muscat Governorate, 101, Oman",
        "road": "al Jabal Street",
        "house_number": null,
        "neighbourhood": null,
        "suburb": null,
        "city_district": null,
        "city": "Bawshar Province",
        "state": "Muscat Governorate",
        "postcode": "101",
        "country": "Oman",
        "country_code": "om"
      },
      "address": "049, al Jabal Street, Bawshar Province, Muscat Governorate, 101, Oman"
    },
    {
      "lat": 23.60300153334646,
      "lon": 58.42458804616726,
      "geoinfo": {
        "display_name": "Hayy al Wizarat, Hayy al Safarat, Bawshar Province, Muscat Governorate, 118, Oman",
        "road": null,
        "house_number": null,
        "neighbourhood": "Hayy al Wizarat",
        "suburb": null,
        "city_district": "Hayy al Safarat",
        "city": "Bawshar Province",
        "state": "Muscat Governorate",
        "postcode": "118",
        "country": "Oman",
        "country_code": "om"
      },
      "address": "269, Hayy al Wizarat, Muscat, 118 Muscat Governorate, Oman"
    },
    {
      "lat": 23.584192707512948,
      "lon": 58.36711099536268,
      "geoinfo": {
        "display_name": "Block 262, Al Azaiba al Janubiyah, Bawshar Province, Muscat Governorate, 130, Oman",
        "road": null,
        "house_number": null,
        "neighbourhood": "Block 262",
        "suburb": "Al Azaiba al Janubiyah",
        "city_district": null,
        "city": "Bawshar Province",
        "state": "Muscat Governorate",
        "postcode": "130",
        "country": "Oman",
        "country_code": "om"
      },
      "address": "Block 262, Al Azaiba al Janubiyah, Bawshar Province, Muscat Governorate, 130, Oman"
    }
  ],
  "updated_at": "2025-10-19T06:20:40.704579+00:00",
  "_kind": "geo_samples"
}