{
  "country_code": "OM",
  "country": "Oman",
  "city": "Nizwá",
  "geonameid": 286987,
  "target_addresses": 4,
  "samples": [
    {
      "lat": 22.93933434387767,
      "lon": 57.5807922264639,
      "geoinfo": {
        "display_name": "Al Hawrah, Nizwa Province, Ad Dakhiliyah Governorate, 611, Oman",
        "road": null,
        "house_number": null,
        "neighbourhood": null,
        "suburb": null,
        "city_district": null,
        "city": "Nizwa Province",
        "state": "Ad Dakhiliyah Governorate",
        "postcode": "611",
        "country": "Oman",
        "country_code": "om"
      },
      "address": "Nizwá, Ad Dakhiliyah Governorate, Oman"
    },
    {
      "lat": 22.96636579497748,
      "lon": 57.51181350607959,
      "geoinfo": {
        "display_name": "Jahfiyah, Nizwa Province, Ad Dakhiliyah Governorate, Oman",
        "road": null,
        "house_number": null,
        "neighbourhood": null,
        "suburb": "Jahfiyah",
        "city_district": null,
        "city": "Nizwa Province",
        "state": "Ad Dakhiliyah Governorate",
        "postcode": null,
        "country": "Oman",
        "country_code": "om"
      },
      "address": "Jahfiyah, Nizwá, Ad Dakhiliyah Governorate, Oman"
    },
    {
      "lat": 22.90035045879835,
      "lon": 57.51807509743561,
      "geoinfo": {
        "display_name": "store, Al Ain Road, نزوى, Fuluj Sayghah, Nizwa Province, Ad Dakhiliyah Governorate, 611, Oman",
        "road": "Al Ain Road",
        "house_number": null,
        "neighbourhood": null,
        "suburb": "Fuluj Sayghah",
        "city_district": null,
        "city": "Nizwa Province",
        "state": "Ad Dakhiliyah Governorate",
        "postcode": "611",
        "country": "Oman",
        "country_code": "om"
      },
      "address": "Al Ain Road, Nizwá, Ad Dakhiliyah Governorate, Oman"
    },
    {
      "lat": 22.966956866109804,
      "lon": 57.558379169565,
      "geoinfo": {
        "display_name": "نزوى, Ghabrah, Nizwa Province, Ad Dakhiliyah Governorate, Oman",
        "road": null,
        "house_number": null,
        "neighbourhood": null,
        "suburb": "Ghabrah",
        "city_district": null,
        "city": "Nizwa Province",
        "state": "Ad Dakhiliyah Governorate",
        "postcode": null,
        "country": "Oman",
        "country_code": "om"
      },
      "address": "Ghabrah, Nizwá, Ad Dakhiliyah Governorate, Oman"
    },
    {
      "lat": 22.906450085868492,
      "lon": 57.55780659051276,
      "geoinfo": {
        "display_name": "حي التراث, Nizwa Province, Ad Dakhiliyah Governorate, 611, Oman",
        "road": null,
        "house_number": null,
        "neighbourhood": null,
        "suburb": null,
        "city_district": null,
        "city": "Nizwa Province",
        "state": "Ad Dakhiliyah Governorate",
        "postcode": "611",
        "country": "Oman",
        "country_code": "om"
      },
      "address": "562, حي التراث, Nizwa Province, Ad Dakhiliyah Governorate, 611, Oman"
    },
    {
      "lat": 22.94875208842937,
      "lon": 57.52008817837886,
      "geoinfo": {
        "display_name": "Izki - Nizwa - Bahla Road, نزوى, Fuluj Sayghah, Nizwa Province, Ad Dakhiliyah Governorate, 611, Oman",
        "road": "Izki - Nizwa - Bahla Road",
        "house_number": null,
        "neighbourhood": null,
        "suburb": "Fuluj Sayghah",
        "city_district": null,
        "city": "Nizwa Province",
        "state": "Ad Dakhiliyah Governorate",
        "postcode": "611",
        "country": "Oman",
        "country_code": "om"
      },
      "address": "436, Izki - Nizwa - Bahla Road, نزوى, Fuluj Sayghah, Nizwa Province, Ad Dakhiliyah Governorate, 611, Oman"
    },
    {
      "lat": 22.91989421884219,
      "lon": 57.501510485286566,
      "geoinfo": {
        "display_name": "نزوى, Nizwa Province, Ad Dakhiliyah Governorate, Oman",
        "road": null,
        "house_number": null,
        "neighbourhood": null,
        "suburb": null,
        "city_district": null,
        "city": "Nizwa Province",
        "state": "Ad Dakhiliyah Governorate",
        "postcode": null,
        "country": "Oman",
        "country_code": "om"
      },
      "address": "448, نزوى, Nizwa Province, 37190 Ad Dakhiliyah Governorate, Oman"
    },
    {
      "lat": 22.95110575005637,
      "lon": 57.50946166577103,
      "geoinfo": {
        "display_name": "Fuluj Sayghah, Nizwa Province, Ad Dakhiliyah Governorate, Oman",
        "road": null,
        "house_number": null,
        "neighbourhood": null,
        "suburb": "Fuluj Sayghah",
        "city_district": null,
        "city": "Nizwa Province",
        "state": "Ad Dakhiliyah Governorate",
        "postcode": null,
        "country": "Oman",
        "country_code": "om"
      },
      "address": "391, Fuluj Sayghah, Nizwa Province, 29654 Ad Dakhiliyah Governorate, Oman"
    }
  ],
  "updated_at": "2025-10-19T08:54:41.528716+00:00",
  "_kind": "geo_samples"
}