{
  "country_code": "OM",
  "country": "Oman",
  "city": "Seeb",
  "geonameid": 288967,
  "target_addresses": 4,
  "samples": [
    {
      "lat": 23.679743330733533,
      "lon": 58.2048048531524,
      "geoinfo": {
        "display_name": "Dama Street, Block 334, al Seeb al Jadidah, Seeb Province, Muscat Governorate, 310, Oman",
        "road": "Dama Street",
        "house_number": null,
        "neighbourhood": "Block 334",
        "suburb": "al Seeb al Jadidah",
        "city_district": null,
        "city": "Seeb Province",
        "state": "Muscat Governorate",
        "postcode": "310",
        "country": "Oman",
        "country_code": "om"
      },
      "address": "Dama Street, Seeb, Muscat Governorate, Oman"
    },
    {
      "lat": 23.66217033023358,
      "lon": 58.16297459393615,
      "geoinfo": {
        "display_name": "Block 355, al Mabelah al Janubiyah, Seeb Province, Muscat Governorate, 121, Oman",
        "road": null,
        "house_number": null,
        "neighbourhood": "Block 355",
        "suburb": "al Mabelah al Janubiyah",
        "city_district": null,
        "city": "Seeb Province",
        "state": "Muscat Governorate",
        "postcode": "121",
        "country": "Oman",
        "country_code": "om"
      },
      "address": "Block 355, Seeb, Muscat Governorate, Oman"
    },
    {
      "lat": 23.66609139844074,
      "lon": 58.174591970514996,
      "geoinfo": {
        "display_name": "Block 342, al Seeb al Jadidah, Seeb Province, Muscat Governorate, 310, Oman",
        "road": null,
        "house_number": null,
        "neighbourhood": "Block 342",
        "suburb": "al Seeb al Jadidah",
        "city_district": null,
        "city": "Seeb Province",
        "state": "Muscat Governorate",
        "postcode": "310",
        "country": "Oman",
        "country_code": "om"
      },
      "address": "Block 342, Seeb, Muscat Governorate, Oman"
    },
    {
      "lat": 23.680396033896574,
      "lon": 58.1806189687076,
      "geoinfo": {
        "display_name": "Al Binood Street, Block 342, al Seeb al Jadidah, Seeb Province, Muscat Governorate, 310, Oman",
        "road": "Al Binood Street",
        "house_number": null,
        "neighbourhood": "Block 342",
        "suburb": "al Seeb al Jadidah",
        "city_district": null,
        "city": "Seeb Province",
        "state": "Muscat Governorate",
        "postcode": "310",
        "country": "Oman",
        "country_code": "om"
      },
      "address": "Al Binood Street, Seeb, Muscat Governorate, Oman"
    },
    {
      "lat": 23.70224340245141,
      "lon": 58.16972303033871,
      "geoinfo": {
        "display_name": "Muscat Governorate, Oman",
        "road": null,
        "house_number": null,
        "neighbourhood": null,
        "suburb": null,
        "city_district": null,
        "city": null,
        "state": "Muscat Governorate",
        "postcode": null,
        "country": "Oman",
        "country_code": "om"
      },
      "address": "610, 36413 Muscat Governorate, Oman"
    },
    {
      "lat": 23.637091777269113,
      "lon": 58.18768143696641,
      "geoinfo": {
        "display_name": "Way 5168, Block 351, al Khoudh, Seeb Province, Muscat Governorate, 132, Oman",
        "road": "Way 5168",
        "house_number": null,
        "neighbourhood": "Block 351",
        "suburb": "al Khoudh",
        "city_district": null,
        "city": "Seeb Province",
        "state": "Muscat Governorate",
        "postcode": "132",
        "country": "Oman",
        "country_code": "om"
      },
      "address": "Way 5168, Block 351, al Khoudh, Seeb Province, Muscat Governorate, 132, Oman"
    },
    {
      "lat": 23.69970829399237,
      "lon": 58.203192811755386,
      "geoinfo": {
        "display_name": "Muscat Governorate, Oman",
        "road": null,
        "house_number": null,
        "neighbourhood": null,
        "suburb": null,
        "city_district": null,
        "city": null,
        "state": "Muscat Governorate",
        "postcode": null,
        "country": "Oman",
        "country_code": "om"
      },
      "address": "574, Seeb, 93125 Muscat Governorate, Oman"
    },
    {
      "lat": 23.681022426856703,
      "lon": 58.150862398057114,
      "geoinfo": {
        "display_name": "Block 362, Sur al Hadid, Seeb Province, Muscat Governorate, 121, Oman",
        "road": null,
        "house_number": null,
        "neighbourhood": "Sur al Hadid",
        "suburb": null,
        "city_district": null,
        "city": "Seeb Province",
        "state": "Muscat Governorate",
        "postcode": "121",
        "country": "Oman",
        "country_code": "om"
      },
      "address": "Block 362, Sur al Hadid, Seeb Province, Muscat Governorate, 121, Oman"
    }
  ],
  "updated_at": "2025-10-19T08:55:07.559693+00:00",
  "_kind": "geo_samples"
}