{
  "country_code": "OM",
  "country": "Oman",
  "city": "Şaḩam",
  "geonameid": 286647,
  "target_addresses": 4,
  "samples": [
    {
      "lat": 24.16082376334814,
      "lon": 56.8802402910163,
      "geoinfo": {
        "display_name": "As Saham, Saham Province, Al Batinah North Governorate, 319, Oman",
        "road": null,
        "house_number": null,
        "neighbourhood": null,
        "suburb": null,
        "city_district": null,
        "city": "Saham Province",
        "state": "Al Batinah North Governorate",
        "postcode": "319",
        "country": "Oman",
        "country_code": "om"
      },
      "address": "Şaḩam, Al Batinah North Governorate, Oman"
    },
    {
      "lat": 24.184445778691583,
      "lon": 56.874089457482576,
      "geoinfo": {
        "display_name": "Sur ash Shiyadi, Saham Province, Al Batinah North Governorate, 319, Oman",
        "road": null,
        "house_number": null,
        "neighbourhood": null,
        "suburb": null,
        "city_district": null,
        "city": "Saham Province",
        "state": "Al Batinah North Governorate",
        "postcode": "319",
        "country": "Oman",
        "country_code": "om"
      },
      "address": "426, Sur ash Shiyadi, Saham Province, Al Batinah North Governorate, 319, Oman"
    },
    {
      "lat": 24.180015353092735,
      "lon": 56.86908262620942,
      "geoinfo": {
        "display_name": "Al Qashi, Saham Province, Al Batinah North Governorate, 319, Oman",
        "road": null,
        "house_number": null,
        "neighbourhood": null,
        "suburb": null,
        "city_district": null,
        "city": "Saham Province",
        "state": "Al Batinah North Governorate",
        "postcode": "319",
        "country": "Oman",
        "country_code": "om"
      },
      "address": "186, Al Qashi, Saham Province, Al Batinah North Governorate, 319, Oman"
    },
    {
      "lat": 24.13732056453144,
      "lon": 56.8689824768611,
      "geoinfo": {
        "display_name": "Murtafaat Saham, Saham Province, Al Batinah North Governorate, 319, Oman",
        "road": null,
        "house_number": null,
        "neighbourhood": null,
        "suburb": null,
        "city_district": null,
        "city": "Saham Province",
        "state": "Al Batinah North Governorate",
        "postcode": "319",
        "country": "Oman",
        "country_code": "om"
      },
      "address": "790, Murtafaat Saham, Saham Province, Al Batinah North Governorate, 319, Oman"
    },
    {
      "lat": 24.182139037316517,
      "lon": 56.852669645665614,
      "geoinfo": {
        "display_name": "Al Qashi, Saham Province, Al Batinah North Governorate, 319, Oman",
        "road": null,
        "house_number": null,
        "neighbourhood": null,
        "suburb": null,
        "city_district": null,
        "city": "Saham Province",
        "state": "Al Batinah North Governorate",
        "postcode": "319",
        "country": "Oman",
        "country_code": "om"
      },
      "address": "395, Al Qashi, Saham Province, Al Batinah North Governorate, 319, Oman"
    }
  ],
  "updated_at": "2025-10-19T08:54:13.685174+00:00",
  "_kind": "geo_samples"
}