{
  "country_code": "UZ",
  "country": "Uzbekistan",
  "city": "Yangiqo‘rg‘on",
  "geonameid": 1512350,
  "target_addresses": 3,
  "samples": [
    {
      "lat": 41.216168668069336,
      "lon": 71.71868711264965,
      "geoinfo": {
        "display_name": "Navkent, Yangikurgan District, Namangan Region, 161200, Uzbekistan",
        "road": null,
        "house_number": null,
        "neighbourhood": null,
        "suburb": null,
        "city_district": null,
        "city": "Navkent",
        "state": "Namangan Region",
        "postcode": "161200",
        "country": "Uzbekistan",
        "country_code": "uz"
      },
      "address": "Yangiqo‘rg‘on, Namangan Region, Uzbekistan"
    },
    {
      "lat": 41.188376158198245,
      "lon": 71.67915710654509,
      "geoinfo": {
        "display_name": "Ravat, Yangikurgan District, Namangan Region, 161200, Uzbekistan",
        "road": null,
        "house_number": null,
        "neighbourhood": null,
        "suburb": null,
        "city_district": null,
        "city": "Ravat",
        "state": "Namangan Region",
        "postcode": "161200",
        "country": "Uzbekistan",
        "country_code": "uz"
      },
      "address": "953, Ravat, Yangikurgan District, Namangan Region, 161200, Uzbekistan"
    },
    {
      "lat": 41.17476684936078,
      "lon": 71.7439756097088,
      "geoinfo": {
        "display_name": "Yangikurgan, Yangikurgan District, Namangan Region, 161200, Uzbekistan",
        "road": null,
        "house_number": null,
        "neighbourhood": null,
        "suburb": null,
        "city_district": null,
        "city": "Yangikurgan",
        "state": "Namangan Region",
        "postcode": "161200",
        "country": "Uzbekistan",
        "country_code": "uz"
      },
      "address": "555, Yangikurgan, Yangikurgan District, Namangan Region, 161200, Uzbekistan"
    }
  ],
  "updated_at": "2025-10-19T06:32:02.284853+00:00",
  "_kind": "geo_samples"
}