{
  "country_code": "TW",
  "country": "Taiwan",
  "city": "Beigang",
  "geonameid": 1670826,
  "target_addresses": 2,
  "samples": [
    {
      "lat": 23.561592109961296,
      "lon": 120.27240845381864,
      "geoinfo": {
        "display_name": "207之22, Fuchao, Fuzhao Village, Beigang Township, Yunlin County, 652005, Taiwan",
        "road": null,
        "house_number": "207之22",
        "neighbourhood": null,
        "suburb": null,
        "city_district": "Fuzhao Village",
        "city": "Beigang Township",
        "state": null,
        "postcode": "652005",
        "country": "Taiwan",
        "country_code": "tw"
      },
      "address": "Fuzhao Village, Beigang, Taiwan"
    },
    {
      "lat": 23.597798398202272,
      "lon": 120.31367515648945,
      "geoinfo": {
        "display_name": "197之25, Fufan, Fufan Village, Beigang Township, Yunlin County, 65147, Taiwan",
        "road": null,
        "house_number": "197之25",
        "neighbourhood": null,
        "suburb": null,
        "city_district": "Fufan Village",
        "city": "Beigang Township",
        "state": null,
        "postcode": "65147",
        "country": "Taiwan",
        "country_code": "tw"
      },
      "address": "Fufan Village, Beigang, Taiwan"
    },
    {
      "lat": 23.592732555142806,
      "lon": 120.29299500316523,
      "geoinfo": {
        "display_name": "60, Liucuo, Liucuo Village, Beigang Township, Yunlin County, 65147, Taiwan",
        "road": null,
        "house_number": "60",
        "neighbourhood": null,
        "suburb": null,
        "city_district": "Liucuo Village",
        "city": "Beigang Township",
        "state": null,
        "postcode": "65147",
        "country": "Taiwan",
        "country_code": "tw"
      },
      "address": "60, Liucuo, Liucuo Village, Beigang Township, Yunlin County, 65147, Taiwan"
    },
    {
      "lat": 23.57865653482858,
      "lon": 120.25926551688711,
      "geoinfo": {
        "display_name": "Wangcuoliao, Tucuo Village, Shuilin Township, Yunlin County, 65241, Taiwan",
        "road": null,
        "house_number": null,
        "neighbourhood": null,
        "suburb": null,
        "city_district": "Tucuo Village",
        "city": "Shuilin Township",
        "state": null,
        "postcode": "65241",
        "country": "Taiwan",
        "country_code": "tw"
      },
      "address": "746, Wangcuoliao, Tucuo Village, Shuilin Township, Yunlin County, 65241, Taiwan"
    }
  ],
  "updated_at": "2025-10-19T07:17:42.029656+00:00",
  "_kind": "geo_samples"
}