{
  "country_code": "TW",
  "country": "Taiwan",
  "city": "Budai",
  "geonameid": 1670295,
  "target_addresses": 2,
  "samples": [
    {
      "lat": 23.374588668834015,
      "lon": 120.17481836636452,
      "geoinfo": {
        "display_name": "NPC, 太平東路, Dong'anzhuang, Guangfu Village, Budai Township, Chiayi County, 625, Taiwan",
        "road": "太平東路",
        "house_number": null,
        "neighbourhood": null,
        "suburb": null,
        "city_district": "Guangfu Village",
        "city": "Budai Township",
        "state": null,
        "postcode": "625",
        "country": "Taiwan",
        "country_code": "tw"
      },
      "address": "太平東路, Budai, Taiwan"
    },
    {
      "lat": 23.36455075178287,
      "lon": 120.14745559069934,
      "geoinfo": {
        "display_name": "Haomei Village, Budai Township, Chiayi County, 625, Taiwan",
        "road": null,
        "house_number": null,
        "neighbourhood": null,
        "suburb": null,
        "city_district": "Haomei Village",
        "city": "Budai Township",
        "state": null,
        "postcode": "625",
        "country": "Taiwan",
        "country_code": "tw"
      },
      "address": "Haomei Village, Budai, Taiwan"
    },
    {
      "lat": 23.356366059331826,
      "lon": 120.15315824403166,
      "geoinfo": {
        "display_name": "Guangfu Village, Budai Township, Chiayi County, 625, Taiwan",
        "road": null,
        "house_number": null,
        "neighbourhood": null,
        "suburb": null,
        "city_district": "Guangfu Village",
        "city": "Budai Township",
        "state": null,
        "postcode": "625",
        "country": "Taiwan",
        "country_code": "tw"
      },
      "address": "917, Guangfu Village, Budai Township, Chiayi County, 625, Taiwan"
    },
    {
      "lat": 23.37339220097584,
      "lon": 120.13218132736458,
      "geoinfo": {
        "display_name": "Haomeiliao, Budai Township, Chiayi County, 625, Taiwan",
        "road": null,
        "house_number": null,
        "neighbourhood": null,
        "suburb": null,
        "city_district": null,
        "city": "Budai Township",
        "state": null,
        "postcode": "625",
        "country": "Taiwan",
        "country_code": "tw"
      },
      "address": "181, Haomeiliao, Budai Township, Chiayi County, 625, Taiwan"
    }
  ],
  "updated_at": "2025-10-19T07:21:28.788832+00:00",
  "_kind": "geo_samples"
}