{
  "country_code": "TW",
  "country": "Taiwan",
  "city": "Caotun",
  "geonameid": 1666855,
  "target_addresses": 2,
  "samples": [
    {
      "lat": 23.99366229532374,
      "lon": 120.72192715040472,
      "geoinfo": {
        "display_name": "Yong'an Road, Dingkan, Beishi Village, Caotun Township, Nantou County, 542, Taiwan",
        "road": "Yong'an Road",
        "house_number": null,
        "neighbourhood": null,
        "suburb": null,
        "city_district": "Beishi Village",
        "city": "Caotun Township",
        "state": null,
        "postcode": "542",
        "country": "Taiwan",
        "country_code": "tw"
      },
      "address": "Yong'an Road, Caotun, Taiwan"
    },
    {
      "lat": 23.958846927528786,
      "lon": 120.66052357404718,
      "geoinfo": {
        "display_name": "Formosa Freeway, Guogou, Bizhou Village, Caotun Township, Nantou County, 54067, Taiwan",
        "road": "Formosa Freeway",
        "house_number": null,
        "neighbourhood": null,
        "suburb": null,
        "city_district": "Bizhou Village",
        "city": "Caotun Township",
        "state": null,
        "postcode": "54067",
        "country": "Taiwan",
        "country_code": "tw"
      },
      "address": "Formosa Freeway, Caotun, Taiwan"
    },
    {
      "lat": 23.998534613509374,
      "lon": 120.7120434089287,
      "geoinfo": {
        "display_name": "Yushi Village, Caotun Township, Nantou County, 542021, Taiwan",
        "road": null,
        "house_number": null,
        "neighbourhood": null,
        "suburb": null,
        "city_district": "Yushi Village",
        "city": "Caotun Township",
        "state": null,
        "postcode": "542021",
        "country": "Taiwan",
        "country_code": "tw"
      },
      "address": "064, Yushi Village, Caotun Township, Nantou County, 542021, Taiwan"
    },
    {
      "lat": 23.941627381761705,
      "lon": 120.66177877712542,
      "geoinfo": {
        "display_name": "南崗三路97巷, 南崗產業園區, Kulingjiao, Fuxing Village, Nantou City, Nantou County, 54067, Taiwan",
        "road": "南崗三路97巷",
        "house_number": null,
        "neighbourhood": null,
        "suburb": null,
        "city_district": "Fuxing Village",
        "city": "Nantou City",
        "state": null,
        "postcode": "54067",
        "country": "Taiwan",
        "country_code": "tw"
      },
      "address": "南崗三路97巷, 南崗產業園區, Kulingjiao, Fuxing Village, Nantou City, Nantou County, 54067, Taiwan"
    }
  ],
  "updated_at": "2025-10-19T07:20:49.402197+00:00",
  "_kind": "geo_samples"
}