{
  "country_code": "TW",
  "country": "Taiwan",
  "city": "Changhua",
  "geonameid": 1993459,
  "target_addresses": 2,
  "samples": [
    {
      "lat": 24.035026758558207,
      "lon": 120.5433821011096,
      "geoinfo": {
        "display_name": "300號, 彰員路二段783巷, Yaliao, Wende Village, Huatan Township, Changhua County, 503, Taiwan",
        "road": "彰員路二段783巷",
        "house_number": "300號",
        "neighbourhood": null,
        "suburb": null,
        "city_district": "Wende Village",
        "city": "Huatan Township",
        "state": null,
        "postcode": "503",
        "country": "Taiwan",
        "country_code": "tw"
      },
      "address": "300號 彰員路二段783巷, Changhua, Taiwan"
    },
    {
      "lat": 24.070708459726827,
      "lon": 120.52648728721347,
      "geoinfo": {
        "display_name": "20號, 平安街64巷72弄, Sankuaicuo, Pinghe Village, Changhua City, Changhua County, 50091, Taiwan",
        "road": "平安街64巷72弄",
        "house_number": "20號",
        "neighbourhood": null,
        "suburb": null,
        "city_district": "Pinghe Village",
        "city": "Changhua City",
        "state": null,
        "postcode": "50091",
        "country": "Taiwan",
        "country_code": "tw"
      },
      "address": "20號 平安街64巷72弄, Changhua, Taiwan"
    },
    {
      "lat": 24.10250903172786,
      "lon": 120.56476723317279,
      "geoinfo": {
        "display_name": "82號, 寶聖路32巷, Baopou, Baobu Village, Changhua City, Changhua County, 50089, Taiwan",
        "road": "寶聖路32巷",
        "house_number": "82號",
        "neighbourhood": null,
        "suburb": null,
        "city_district": "Baobu Village",
        "city": "Changhua City",
        "state": null,
        "postcode": "50089",
        "country": "Taiwan",
        "country_code": "tw"
      },
      "address": "82號, 寶聖路32巷, Baopou, Baobu Village, Changhua City, Changhua County, 50089, Taiwan"
    },
    {
      "lat": 24.025361990566232,
      "lon": 120.54825778602822,
      "geoinfo": {
        "display_name": "52號, 學府路49巷, Chituqi, Changsha Village, Huatan Township, Changhua County, 503, Taiwan",
        "road": "學府路49巷",
        "house_number": "52號",
        "neighbourhood": null,
        "suburb": null,
        "city_district": "Changsha Village",
        "city": "Huatan Township",
        "state": null,
        "postcode": "503",
        "country": "Taiwan",
        "country_code": "tw"
      },
      "address": "52號, 學府路49巷, Chituqi, Changsha Village, Huatan Township, Changhua County, 503, Taiwan"
    }
  ],
  "updated_at": "2025-10-19T07:22:36.651220+00:00",
  "_kind": "geo_samples"
}