{
  "country_code": "TW",
  "country": "Taiwan",
  "city": "Daxi",
  "geonameid": 1668467,
  "target_addresses": 2,
  "samples": [
    {
      "lat": 24.896294687383424,
      "lon": 121.32219805979386,
      "geoinfo": {
        "display_name": "1101之8號, Xinyi Road, Yongfu Village, Daxi District, Taoyuan City, 33554, Taiwan",
        "road": "Xinyi Road",
        "house_number": "1101之8號",
        "neighbourhood": null,
        "suburb": "Yongfu Village",
        "city_district": null,
        "city": "Taoyuan City",
        "state": null,
        "postcode": "33554",
        "country": "Taiwan",
        "country_code": "tw"
      },
      "address": "1101之8號 Xinyi Road, Daxi, Taiwan"
    },
    {
      "lat": 24.911982987546455,
      "lon": 121.31706590669492,
      "geoinfo": {
        "display_name": "18號, 信義路789巷199弄, Yongfu Village, Daxi District, Taoyuan City, 33553, Taiwan",
        "road": "信義路789巷199弄",
        "house_number": "18號",
        "neighbourhood": null,
        "suburb": "Yongfu Village",
        "city_district": null,
        "city": "Taoyuan City",
        "state": null,
        "postcode": "33553",
        "country": "Taiwan",
        "country_code": "tw"
      },
      "address": "18號 信義路789巷199弄, Daxi, Taiwan"
    },
    {
      "lat": 24.913477698378756,
      "lon": 121.28806332865732,
      "geoinfo": {
        "display_name": "476之1號, Jieshou Road, Xiawei, Renmei Village, Daxi District, Taoyuan City, 33543, Taiwan",
        "road": "Jieshou Road",
        "house_number": "476之1號",
        "neighbourhood": null,
        "suburb": "Renmei Village",
        "city_district": null,
        "city": "Taoyuan City",
        "state": null,
        "postcode": "33543",
        "country": "Taiwan",
        "country_code": "tw"
      },
      "address": "476之1號, Jieshou Road, Xiawei, Renmei Village, Daxi District, Taoyuan City, 33543, Taiwan"
    },
    {
      "lat": 24.854647597005304,
      "lon": 121.25521715820639,
      "geoinfo": {
        "display_name": "National Atomic Research Institute, 1000, Wenhua Road, Kanding, Jia'an Village, Longtan District, Taoyuan City, 32546, Taiwan",
        "road": "Wenhua Road",
        "house_number": "1000",
        "neighbourhood": null,
        "suburb": "Jia'an Village",
        "city_district": null,
        "city": "Taoyuan City",
        "state": null,
        "postcode": "32546",
        "country": "Taiwan",
        "country_code": "tw"
      },
      "address": "National Atomic Research Institute, 1000, Wenhua Road, Kanding, Jia'an Village, Longtan District, Taoyuan City, 32546, Taiwan"
    }
  ],
  "updated_at": "2025-10-19T10:31:34.063588+00:00",
  "_kind": "geo_samples"
}