{
  "country_code": "TW",
  "country": "Taiwan",
  "city": "Hualien City",
  "geonameid": 1674504,
  "target_addresses": 2,
  "samples": [
    {
      "lat": 23.96244430050931,
      "lon": 121.62993131714211,
      "geoinfo": {
        "display_name": "25號碼頭, Minxiao Village, Hualien City, Hualien County, 970, Taiwan",
        "road": null,
        "house_number": null,
        "neighbourhood": null,
        "suburb": null,
        "city_district": "Minxiao Village",
        "city": "Hualien City",
        "state": null,
        "postcode": "970",
        "country": "Taiwan",
        "country_code": "tw"
      },
      "address": "Minxiao Village, Hualien City, Taiwan"
    },
    {
      "lat": 23.990006527577183,
      "lon": 121.63510897952803,
      "geoinfo": {
        "display_name": "花蓮港區聯外道路, 外港管制區, Minle Village, Hualien City, Hualien County, 970, Taiwan",
        "road": "花蓮港區聯外道路",
        "house_number": null,
        "neighbourhood": null,
        "suburb": null,
        "city_district": "Minle Village",
        "city": "Hualien City",
        "state": null,
        "postcode": "970",
        "country": "Taiwan",
        "country_code": "tw"
      },
      "address": "花蓮港區聯外道路, Hualien City, Taiwan"
    },
    {
      "lat": 24.006113568166718,
      "lon": 121.62964532541632,
      "geoinfo": {
        "display_name": "花蓮高爾夫球場, 北興路, Minxiang Village, Hualien City, Hualien County, 970, Taiwan",
        "road": "北興路",
        "house_number": null,
        "neighbourhood": null,
        "suburb": null,
        "city_district": "Minxiang Village",
        "city": "Hualien City",
        "state": null,
        "postcode": "970",
        "country": "Taiwan",
        "country_code": "tw"
      },
      "address": "130, 北興路, 970 Hualien City, Taiwan"
    },
    {
      "lat": 23.979377010847603,
      "lon": 121.59522987029075,
      "geoinfo": {
        "display_name": "國風國中, 7, 林政街, Guofeng Village, Hualien City, Hualien County, 970, Taiwan",
        "road": "林政街",
        "house_number": "7",
        "neighbourhood": null,
        "suburb": null,
        "city_district": "Guofeng Village",
        "city": "Hualien City",
        "state": null,
        "postcode": "970",
        "country": "Taiwan",
        "country_code": "tw"
      },
      "address": "國風國中, 7, 林政街, Guofeng Village, Hualien City, Hualien County, 970, Taiwan"
    }
  ],
  "updated_at": "2025-10-19T05:58:46.173156+00:00",
  "_kind": "geo_samples"
}