{
  "country_code": "TW",
  "country": "Taiwan",
  "city": "Jinhu",
  "geonameid": 1675170,
  "target_addresses": 2,
  "samples": [
    {
      "lat": 24.41687969333742,
      "lon": 118.4345366529962,
      "geoinfo": {
        "display_name": "Liaoluo, Liaoluo Village, Jinhu Town, Kinmen, 89141, Taiwan",
        "road": null,
        "house_number": null,
        "neighbourhood": null,
        "suburb": null,
        "city_district": "Liaoluo Village",
        "city": "Jinhu Town",
        "state": null,
        "postcode": "89141",
        "country": "Taiwan",
        "country_code": "tw"
      },
      "address": "Liaoluo Village, Jinhu, Taiwan"
    },
    {
      "lat": 24.42919259292832,
      "lon": 118.463046470684,
      "geoinfo": {
        "display_name": "三哨, 下湖人工湖環湖道路, Houfeng, Lian'an Village, Jinhu Town, Kinmen, 89142, Taiwan",
        "road": "下湖人工湖環湖道路",
        "house_number": null,
        "neighbourhood": null,
        "suburb": null,
        "city_district": "Lian'an Village",
        "city": "Jinhu Town",
        "state": null,
        "postcode": "89142",
        "country": "Taiwan",
        "country_code": "tw"
      },
      "address": "下湖人工湖環湖道路, Jinhu, Taiwan"
    },
    {
      "lat": 24.412210027440604,
      "lon": 118.44655516405577,
      "geoinfo": {
        "display_name": "100號, Xintang, Liaoluo Village, Jinhu Town, Kinmen, 89142, Taiwan",
        "road": null,
        "house_number": "100號",
        "neighbourhood": null,
        "suburb": null,
        "city_district": "Liaoluo Village",
        "city": "Jinhu Town",
        "state": null,
        "postcode": "89142",
        "country": "Taiwan",
        "country_code": "tw"
      },
      "address": "100號, Xintang, Liaoluo Village, Jinhu Town, Kinmen, 89142, Taiwan"
    },
    {
      "lat": 24.461519326594818,
      "lon": 118.43526765686913,
      "geoinfo": {
        "display_name": "Huanghai Road, Nanxiong, Shanwai Village, Jinhu Town, Kinmen, 89142, Taiwan",
        "road": "Huanghai Road",
        "house_number": null,
        "neighbourhood": null,
        "suburb": null,
        "city_district": "Shanwai Village",
        "city": "Jinhu Town",
        "state": null,
        "postcode": "89142",
        "country": "Taiwan",
        "country_code": "tw"
      },
      "address": "195, Huanghai Road, Nanxiong, Shanwai Village, Jinhu Town, Kinmen, 89142, Taiwan"
    },
    {
      "lat": 24.41230672688601,
      "lon": 118.45855340278987,
      "geoinfo": {
        "display_name": "Fengshang, Lian'an Village, Jinhu Town, Kinmen, 89142, Taiwan",
        "road": null,
        "house_number": null,
        "neighbourhood": null,
        "suburb": null,
        "city_district": "Lian'an Village",
        "city": "Jinhu Town",
        "state": null,
        "postcode": "89142",
        "country": "Taiwan",
        "country_code": "tw"
      },
      "address": "707, Fengshang, Lian'an Village, Jinhu Town, Kinmen, 89142, Taiwan"
    }
  ],
  "updated_at": "2025-10-19T04:11:06.884518+00:00",
  "_kind": "geo_samples"
}