{
  "country_code": "TW",
  "country": "Taiwan",
  "city": "Keelung",
  "geonameid": 1678228,
  "target_addresses": 2,
  "samples": [
    {
      "lat": 25.15977982356438,
      "lon": 121.75787635612612,
      "geoinfo": {
        "display_name": "光華路, Taibai Village, Zhongshan, Taibaizhuang, Keelung, 202009, Taiwan",
        "road": "光華路",
        "house_number": null,
        "neighbourhood": "Taibai Village",
        "suburb": "Zhongshan",
        "city_district": null,
        "city": "Keelung",
        "state": null,
        "postcode": "202009",
        "country": "Taiwan",
        "country_code": "tw"
      },
      "address": "光華路, Keelung, Taiwan"
    },
    {
      "lat": 25.1408599097571,
      "lon": 121.77851883666808,
      "geoinfo": {
        "display_name": "51號, 教忠街161巷, Xiaozhong Village, Xinyi, Bachimen, Keelung, 20142, Taiwan",
        "road": "教忠街161巷",
        "house_number": "51號",
        "neighbourhood": "Xiaozhong Village",
        "suburb": "Xinyi",
        "city_district": null,
        "city": "Keelung",
        "state": null,
        "postcode": "20142",
        "country": "Taiwan",
        "country_code": "tw"
      },
      "address": "51號 教忠街161巷, Keelung, Taiwan"
    },
    {
      "lat": 25.101176197001717,
      "lon": 121.72468251583022,
      "geoinfo": {
        "display_name": "91之1號, 八堵路185巷, Banan Village, Nuannuan, Badu, Keelung, 20541, Taiwan",
        "road": "八堵路185巷",
        "house_number": "91之1號",
        "neighbourhood": "Banan Village",
        "suburb": "Nuannuan",
        "city_district": null,
        "city": "Keelung",
        "state": null,
        "postcode": "20541",
        "country": "Taiwan",
        "country_code": "tw"
      },
      "address": "91之1號, 八堵路185巷, Banan Village, Nuannuan, Badu, Keelung, 20541, Taiwan"
    },
    {
      "lat": 25.10970988208446,
      "lon": 121.75260674253946,
      "geoinfo": {
        "display_name": "150號, Lane 48, Zhongyang Road, Jiqing Village, Ruifang District, Sijiaoting, New Taipei, 22449, Taiwan",
        "road": "Lane 48, Zhongyang Road",
        "house_number": "150號",
        "neighbourhood": "Jiqing Village",
        "suburb": "Ruifang District",
        "city_district": null,
        "city": "New Taipei",
        "state": null,
        "postcode": "22449",
        "country": "Taiwan",
        "country_code": "tw"
      },
      "address": "150號, Lane 48, Zhongyang Road, Jiqing Village, Ruifang District, Sijiaoting, New Taipei, 22449, Taiwan"
    }
  ],
  "updated_at": "2025-10-19T06:54:43.654064+00:00",
  "_kind": "geo_samples"
}