{
  "country_code": "TW",
  "country": "Taiwan",
  "city": "Neihu",
  "geonameid": 1671467,
  "target_addresses": 2,
  "samples": [
    {
      "lat": 25.107132566633414,
      "lon": 121.59937040679381,
      "geoinfo": {
        "display_name": "開眼山步道, Dahu Village, Neihu District, Taipei, 114015, Taiwan",
        "road": "開眼山步道",
        "house_number": null,
        "neighbourhood": "Dahu Village",
        "suburb": "Neihu District",
        "city_district": null,
        "city": "Taipei",
        "state": null,
        "postcode": "114015",
        "country": "Taiwan",
        "country_code": "tw"
      },
      "address": "開眼山步道, Neihu, Taiwan"
    },
    {
      "lat": 25.084316416534133,
      "lon": 121.61081258061215,
      "geoinfo": {
        "display_name": "保線路, Dahu Village, Neihu District, Taipei, 11477, Taiwan",
        "road": "保線路",
        "house_number": null,
        "neighbourhood": "Dahu Village",
        "suburb": "Neihu District",
        "city_district": null,
        "city": "Taipei",
        "state": null,
        "postcode": "11477",
        "country": "Taiwan",
        "country_code": "tw"
      },
      "address": "保線路, Neihu, Taiwan"
    },
    {
      "lat": 25.064685510671787,
      "lon": 121.56401939384794,
      "geoinfo": {
        "display_name": "34號, 撫遠街394巷, Zhuangjing Village, Songshan District, Xiatayou, Taipei, 105, Taiwan",
        "road": "撫遠街394巷",
        "house_number": "34號",
        "neighbourhood": "Zhuangjing Village",
        "suburb": "Songshan District",
        "city_district": null,
        "city": "Taipei",
        "state": null,
        "postcode": "105",
        "country": "Taiwan",
        "country_code": "tw"
      },
      "address": "34號, 撫遠街394巷, Zhuangjing Village, Songshan District, Xiatayou, Taipei, 105, Taiwan"
    },
    {
      "lat": 25.093663940310265,
      "lon": 121.57972220492125,
      "geoinfo": {
        "display_name": "臨427之3號, Neihu Road Section 3, Jinrui Village, Neihu District, Taipei, 114, Taiwan",
        "road": "Neihu Road Section 3",
        "house_number": "臨427之3號",
        "neighbourhood": "Jinrui Village",
        "suburb": "Neihu District",
        "city_district": null,
        "city": "Taipei",
        "state": null,
        "postcode": "114",
        "country": "Taiwan",
        "country_code": "tw"
      },
      "address": "臨427之3號, Neihu Road Section 3, Jinrui Village, Neihu District, Taipei, 114, Taiwan"
    }
  ],
  "updated_at": "2025-10-19T10:32:13.135023+00:00",
  "_kind": "geo_samples"
}