{
  "country_code": "TW",
  "country": "Taiwan",
  "city": "Pitou",
  "geonameid": 1670436,
  "target_addresses": 2,
  "samples": [
    {
      "lat": 23.918557514501977,
      "lon": 120.49512302895856,
      "geoinfo": {
        "display_name": "151號, Sun Yat-sen Freeway, Haifeng Village, Tianwei Township, Changhua County, 55241, Taiwan",
        "road": "Sun Yat-sen Freeway",
        "house_number": "151號",
        "neighbourhood": null,
        "suburb": null,
        "city_district": "Haifeng Village",
        "city": "Tianwei Township",
        "state": null,
        "postcode": "55241",
        "country": "Taiwan",
        "country_code": "tw"
      },
      "address": "151號 Sun Yat-sen Freeway, Pitou, Taiwan"
    },
    {
      "lat": 23.89184506762032,
      "lon": 120.49456645832684,
      "geoinfo": {
        "display_name": "Sun Yat-sen Freeway, Liuhao, Heli Village, Bitou Township, Changhua County, 52345, Taiwan",
        "road": "Sun Yat-sen Freeway",
        "house_number": null,
        "neighbourhood": null,
        "suburb": null,
        "city_district": "Heli Village",
        "city": "Bitou Township",
        "state": null,
        "postcode": "52345",
        "country": "Taiwan",
        "country_code": "tw"
      },
      "address": "Sun Yat-sen Freeway, Pitou, Taiwan"
    },
    {
      "lat": 23.864055241084756,
      "lon": 120.49111462393319,
      "geoinfo": {
        "display_name": "彰199, Wacuo Village, Xizhou Township, Changhua County, 52345, Taiwan",
        "road": "彰199",
        "house_number": null,
        "neighbourhood": null,
        "suburb": null,
        "city_district": "Wacuo Village",
        "city": "Xizhou Township",
        "state": null,
        "postcode": "52345",
        "country": "Taiwan",
        "country_code": "tw"
      },
      "address": "彰199, Wacuo Village, Xizhou Township, Changhua County, 52345, Taiwan"
    },
    {
      "lat": 23.912814226874616,
      "lon": 120.50228521638108,
      "geoinfo": {
        "display_name": "臨42號, 中正路三段, Sanshizhangli, Renli Village, Tianwei Township, Changhua County, 55241, Taiwan",
        "road": "中正路三段",
        "house_number": "臨42號",
        "neighbourhood": null,
        "suburb": null,
        "city_district": "Renli Village",
        "city": "Tianwei Township",
        "state": null,
        "postcode": "55241",
        "country": "Taiwan",
        "country_code": "tw"
      },
      "address": "臨42號, 中正路三段, Sanshizhangli, Renli Village, Tianwei Township, Changhua County, 55241, Taiwan"
    }
  ],
  "updated_at": "2025-10-19T07:17:35.020368+00:00",
  "_kind": "geo_samples"
}