{
  "country_code": "TW",
  "country": "Taiwan",
  "city": "Sanxia",
  "geonameid": 1670106,
  "target_addresses": 2,
  "samples": [
    {
      "lat": 24.90099600533055,
      "lon": 121.3480750270421,
      "geoinfo": {
        "display_name": "31號, 中正路三段, Erjiu Village, Sanxia District, Dapu, New Taipei, 23742, Taiwan",
        "road": "中正路三段",
        "house_number": "31號",
        "neighbourhood": "Erjiu Village",
        "suburb": "Sanxia District",
        "city_district": null,
        "city": "New Taipei",
        "state": null,
        "postcode": "23742",
        "country": "Taiwan",
        "country_code": "tw"
      },
      "address": "31號 中正路三段, Sanxia, Taiwan"
    },
    {
      "lat": 24.908532947037525,
      "lon": 121.34466373719691,
      "geoinfo": {
        "display_name": "2K, 中正路三段, Erjiu Village, Sanxia District, Dapu, New Taipei, 23742, Taiwan",
        "road": "中正路三段",
        "house_number": null,
        "neighbourhood": "Erjiu Village",
        "suburb": "Sanxia District",
        "city_district": null,
        "city": "New Taipei",
        "state": null,
        "postcode": "23742",
        "country": "Taiwan",
        "country_code": "tw"
      },
      "address": "中正路三段, Sanxia, Taiwan"
    },
    {
      "lat": 24.94558298896863,
      "lon": 121.34474040058457,
      "geoinfo": {
        "display_name": "Jian-shan Junior High School, 1, Guozhong Road, Jianshan Village, Yingge District, Erqiao, New Taipei, 23942, Taiwan",
        "road": "Guozhong Road",
        "house_number": "1",
        "neighbourhood": "Jianshan Village",
        "suburb": "Yingge District",
        "city_district": null,
        "city": "New Taipei",
        "state": null,
        "postcode": "23942",
        "country": "Taiwan",
        "country_code": "tw"
      },
      "address": "Jian-shan Junior High School, 1, Guozhong Road, Jianshan Village, Yingge District, Erqiao, New Taipei, 23942, Taiwan"
    },
    {
      "lat": 24.916053303712435,
      "lon": 121.37430598623081,
      "geoinfo": {
        "display_name": "大同路87巷, Zhongzheng Village, Sanxia District, Dapu, New Taipei, 23714, Taiwan",
        "road": "大同路87巷",
        "house_number": null,
        "neighbourhood": "Zhongzheng Village",
        "suburb": "Sanxia District",
        "city_district": null,
        "city": "New Taipei",
        "state": null,
        "postcode": "23714",
        "country": "Taiwan",
        "country_code": "tw"
      },
      "address": "大同路87巷, Zhongzheng Village, Sanxia District, Dapu, New Taipei, 23714, Taiwan"
    }
  ],
  "updated_at": "2025-10-19T07:17:26.899415+00:00",
  "_kind": "geo_samples"
}