{
  "country_code": "TW",
  "country": "Taiwan",
  "city": "Shetou",
  "geonameid": 1669506,
  "target_addresses": 2,
  "samples": [
    {
      "lat": 23.935940027658116,
      "lon": 120.58355437800594,
      "geoinfo": {
        "display_name": "185號, 大明路, Nanbiancuo, Daming Village, Yuanlin City, Changhua County, 51045, Taiwan",
        "road": "大明路",
        "house_number": "185號",
        "neighbourhood": null,
        "suburb": null,
        "city_district": "Daming Village",
        "city": "Yuanlin City",
        "state": null,
        "postcode": "51045",
        "country": "Taiwan",
        "country_code": "tw"
      },
      "address": "185號 大明路, Shetou, Taiwan"
    },
    {
      "lat": 23.913095371553172,
      "lon": 120.58172662336281,
      "geoinfo": {
        "display_name": "301號, 員集路三段, Yamunan, Qiaotou Village, Shetou, Changhua County, 51141, Taiwan",
        "road": "員集路三段",
        "house_number": "301號",
        "neighbourhood": null,
        "suburb": null,
        "city_district": "Qiaotou Village",
        "city": "Shetou",
        "state": null,
        "postcode": "51141",
        "country": "Taiwan",
        "country_code": "tw"
      },
      "address": "301號 員集路三段, Shetou, Taiwan"
    },
    {
      "lat": 23.884599770893676,
      "lon": 120.60520241389,
      "geoinfo": {
        "display_name": "28之1號, 清興路, Pidou, Bidou Village, Shetou, Changhua County, 520011, Taiwan",
        "road": "清興路",
        "house_number": "28之1號",
        "neighbourhood": null,
        "suburb": null,
        "city_district": "Bidou Village",
        "city": "Shetou",
        "state": null,
        "postcode": "520011",
        "country": "Taiwan",
        "country_code": "tw"
      },
      "address": "28之1號, 清興路, Pidou, Bidou Village, Shetou, Changhua County, 520011, Taiwan"
    },
    {
      "lat": 23.87386868056442,
      "lon": 120.61067270911562,
      "geoinfo": {
        "display_name": "327號, 山腳路五段100巷, Jinmaozhuang, Pinghe Village, Tianzhong, Changhua County, 520011, Taiwan",
        "road": "山腳路五段100巷",
        "house_number": "327號",
        "neighbourhood": null,
        "suburb": null,
        "city_district": "Pinghe Village",
        "city": "Tianzhong",
        "state": null,
        "postcode": "520011",
        "country": "Taiwan",
        "country_code": "tw"
      },
      "address": "327號, 山腳路五段100巷, Jinmaozhuang, Pinghe Village, Tianzhong, Changhua County, 520011, Taiwan"
    }
  ],
  "updated_at": "2025-10-19T07:17:19.658962+00:00",
  "_kind": "geo_samples"
}