{
  "country_code": "TW",
  "country": "Taiwan",
  "city": "Taitung",
  "geonameid": 1668295,
  "target_addresses": 2,
  "samples": [
    {
      "lat": 22.77900004315124,
      "lon": 121.14786851323825,
      "geoinfo": {
        "display_name": "Taitung Levee, 巴布麓, Baosang Village, Taitung City, Taitung County, 950, Taiwan",
        "road": "Taitung Levee",
        "house_number": null,
        "neighbourhood": null,
        "suburb": null,
        "city_district": "Baosang Village",
        "city": "Taitung City",
        "state": null,
        "postcode": "950",
        "country": "Taiwan",
        "country_code": "tw"
      },
      "address": "Taitung Levee, Taitung, Taiwan"
    },
    {
      "lat": 22.79325773987185,
      "lon": 121.14988775805176,
      "geoinfo": {
        "display_name": "富源路, XiaNongChang, Fuyuan Village, Beinan, Taitung County, 954, Taiwan",
        "road": "富源路",
        "house_number": null,
        "neighbourhood": null,
        "suburb": null,
        "city_district": "Fuyuan Village",
        "city": "Beinan",
        "state": null,
        "postcode": "954",
        "country": "Taiwan",
        "country_code": "tw"
      },
      "address": "富源路, Taitung, Taiwan"
    },
    {
      "lat": 22.771043036468825,
      "lon": 121.18479470666098,
      "geoinfo": {
        "display_name": "Haibao, Fugang Village, Taitung City, Taitung County, 950, Taiwan",
        "road": null,
        "house_number": null,
        "neighbourhood": null,
        "suburb": null,
        "city_district": "Fugang Village",
        "city": "Taitung City",
        "state": null,
        "postcode": "950",
        "country": "Taiwan",
        "country_code": "tw"
      },
      "address": "304, Haibao, Fugang Village, Taitung City, Taitung County, 950, Taiwan"
    },
    {
      "lat": 22.721593981007384,
      "lon": 121.12856992358327,
      "geoinfo": {
        "display_name": "68號, 四川路一段22巷, Madong, Feng Village, Taitung City, Taitung County, 950023, Taiwan",
        "road": "四川路一段22巷",
        "house_number": "68號",
        "neighbourhood": null,
        "suburb": null,
        "city_district": "Feng Village",
        "city": "Taitung City",
        "state": null,
        "postcode": "950023",
        "country": "Taiwan",
        "country_code": "tw"
      },
      "address": "68號, 四川路一段22巷, Madong, Feng Village, Taitung City, Taitung County, 950023, Taiwan"
    }
  ],
  "updated_at": "2025-10-19T07:21:03.810000+00:00",
  "_kind": "geo_samples"
}