{
  "country_code": "TW",
  "country": "Taiwan",
  "city": "Taoyuan City",
  "geonameid": 6696918,
  "target_addresses": 2,
  "samples": [
    {
      "lat": 24.994852575075427,
      "lon": 121.28562053680068,
      "geoinfo": {
        "display_name": "佛光童軍四給營地, 221, 德華街, Zhonglu, Zhongxin Village, Taoyuan District, Taoyuan City, 330, Taiwan",
        "road": "德華街",
        "house_number": "221",
        "neighbourhood": null,
        "suburb": "Zhonglu",
        "city_district": null,
        "city": "Taoyuan City",
        "state": null,
        "postcode": "330",
        "country": "Taiwan",
        "country_code": "tw"
      },
      "address": "221 德華街, Taoyuan City, Taiwan"
    },
    {
      "lat": 25.0266053493082,
      "lon": 121.26976400872533,
      "geoinfo": {
        "display_name": "162號, Fushang Street, Fujian, Fuzhu Village, Taoyuan District, Taoyuan City, 338, Taiwan",
        "road": "Fushang Street",
        "house_number": "162號",
        "neighbourhood": null,
        "suburb": "Fuzhu Village",
        "city_district": null,
        "city": "Taoyuan City",
        "state": null,
        "postcode": "338",
        "country": "Taiwan",
        "country_code": "tw"
      },
      "address": "162號 Fushang Street, Taoyuan City, Taiwan"
    },
    {
      "lat": 25.021380454174416,
      "lon": 121.28831530341826,
      "geoinfo": {
        "display_name": "28之1號, 莊敬路二段230巷, Xibuzi, Xipu Village, Taoyuan District, Taoyuan City, 330, Taiwan",
        "road": "莊敬路二段230巷",
        "house_number": "28之1號",
        "neighbourhood": null,
        "suburb": "Xipu Village",
        "city_district": null,
        "city": "Taoyuan City",
        "state": null,
        "postcode": "330",
        "country": "Taiwan",
        "country_code": "tw"
      },
      "address": "28之1號, 莊敬路二段230巷, Xibuzi, Xipu Village, Taoyuan District, Taoyuan City, 330, Taiwan"
    },
    {
      "lat": 25.034874469787827,
      "lon": 121.30896303613991,
      "geoinfo": {
        "display_name": "煉油廠區道路, 中油桃園煉油廠, Nanshang Village, Guishan District, Taoyuan City, 333, Taiwan",
        "road": "煉油廠區道路",
        "house_number": null,
        "neighbourhood": null,
        "suburb": "Nanshang Village",
        "city_district": null,
        "city": "Taoyuan City",
        "state": null,
        "postcode": "333",
        "country": "Taiwan",
        "country_code": "tw"
      },
      "address": "241, 煉油廠區道路, 中油桃園煉油廠, Nanshang Village, Guishan District, Taoyuan City, 333, Taiwan"
    }
  ],
  "updated_at": "2025-10-19T06:54:51.364947+00:00",
  "_kind": "geo_samples"
}