{
  "country_code": "TW",
  "country": "Taiwan",
  "city": "Yujing",
  "geonameid": 1665357,
  "target_addresses": 2,
  "samples": [
    {
      "lat": 23.135108347061536,
      "lon": 120.48259663352997,
      "geoinfo": {
        "display_name": "136號, Zhuwei Village, Zhuwei, Tainan, 714, Taiwan",
        "road": null,
        "house_number": "136號",
        "neighbourhood": null,
        "suburb": "Zhuwei Village",
        "city_district": null,
        "city": "Tainan",
        "state": null,
        "postcode": "714",
        "country": "Taiwan",
        "country_code": "tw"
      },
      "address": "Zhuwei Village, Yujing, Taiwan"
    },
    {
      "lat": 23.160284599511055,
      "lon": 120.4738767358943,
      "geoinfo": {
        "display_name": "斗六仔農路, Jiushe, Zhongzheng Village, Yujing District, Tainan, 714, Taiwan",
        "road": "斗六仔農路",
        "house_number": null,
        "neighbourhood": null,
        "suburb": "Zhongzheng Village",
        "city_district": null,
        "city": "Tainan",
        "state": null,
        "postcode": "714",
        "country": "Taiwan",
        "country_code": "tw"
      },
      "address": "斗六仔農路, Yujing, Taiwan"
    },
    {
      "lat": 23.152300094043014,
      "lon": 120.43186940162494,
      "geoinfo": {
        "display_name": "番輔, Huanhu Village, Danei District, Tainan, 742, Taiwan",
        "road": null,
        "house_number": null,
        "neighbourhood": null,
        "suburb": "Huanhu Village",
        "city_district": null,
        "city": "Tainan",
        "state": null,
        "postcode": "742",
        "country": "Taiwan",
        "country_code": "tw"
      },
      "address": "717, 番輔, Huanhu Village, Danei District, Tainan, 742, Taiwan"
    },
    {
      "lat": 23.157129409232503,
      "lon": 120.42990555532322,
      "geoinfo": {
        "display_name": "番輔, Huanhu Village, Danei District, Tainan, 742, Taiwan",
        "road": null,
        "house_number": null,
        "neighbourhood": null,
        "suburb": "Huanhu Village",
        "city_district": null,
        "city": "Tainan",
        "state": null,
        "postcode": "742",
        "country": "Taiwan",
        "country_code": "tw"
      },
      "address": "632, 番輔, Huanhu Village, Danei District, Tainan, 742, Taiwan"
    }
  ],
  "updated_at": "2025-10-19T10:30:58.186542+00:00",
  "_kind": "geo_samples"
}