{
  "country_code": "TW",
  "country": "Taiwan",
  "city": "Zhudong",
  "geonameid": 1677053,
  "target_addresses": 2,
  "samples": [
    {
      "lat": 24.760739566913216,
      "lon": 121.05942900097328,
      "geoinfo": {
        "display_name": "101號, 中興路二段297巷, Tuopanshan, Sanzhong Village, Zhudong, Hsinchu County, 310, Taiwan",
        "road": "中興路二段297巷",
        "house_number": "101號",
        "neighbourhood": null,
        "suburb": null,
        "city_district": null,
        "city": "Zhudong",
        "state": null,
        "postcode": "310",
        "country": "Taiwan",
        "country_code": "tw"
      },
      "address": "101號 中興路二段297巷, Zhudong, Taiwan"
    },
    {
      "lat": 24.746477842846602,
      "lon": 121.0716004883647,
      "geoinfo": {
        "display_name": "中興路一段147巷139弄, Sichongbu, Sanzhong Village, Zhudong, Hsinchu County, 310, Taiwan",
        "road": "中興路一段147巷139弄",
        "house_number": null,
        "neighbourhood": null,
        "suburb": null,
        "city_district": null,
        "city": "Zhudong",
        "state": null,
        "postcode": "310",
        "country": "Taiwan",
        "country_code": "tw"
      },
      "address": "中興路一段147巷139弄, Zhudong, Taiwan"
    },
    {
      "lat": 24.746753164106742,
      "lon": 121.11303604871432,
      "geoinfo": {
        "display_name": "39號, Wangyekeng, Yongxing Village, Qionglin, Hsinchu County, 307, Taiwan",
        "road": null,
        "house_number": "39號",
        "neighbourhood": null,
        "suburb": null,
        "city_district": null,
        "city": "Qionglin",
        "state": null,
        "postcode": "307",
        "country": "Taiwan",
        "country_code": "tw"
      },
      "address": "39號, Wangyekeng, Yongxing Village, Qionglin, Hsinchu County, 307, Taiwan"
    },
    {
      "lat": 24.725992941294347,
      "lon": 121.09388746515704,
      "geoinfo": {
        "display_name": "177號, Section 1, Dongning Road, Xiagongguan, Zhongzheng Village, Zhudong, Hsinchu County, 31046, Taiwan",
        "road": "Section 1, Dongning Road",
        "house_number": "177號",
        "neighbourhood": null,
        "suburb": null,
        "city_district": null,
        "city": "Zhudong",
        "state": null,
        "postcode": "31046",
        "country": "Taiwan",
        "country_code": "tw"
      },
      "address": "177號, Section 1, Dongning Road, Xiagongguan, Zhongzheng Village, Zhudong, Hsinchu County, 31046, Taiwan"
    }
  ],
  "updated_at": "2025-10-19T05:08:04.304027+00:00",
  "_kind": "geo_samples"
}