{
  "country_code": "JE",
  "country": "Jersey",
  "city": "Saint Helier",
  "geonameid": 3042091,
  "target_addresses": 100,
  "samples": [
    {
      "lat": 49.163181917667025,
      "lon": -2.152693946202274,
      "geoinfo": {
        "display_name": "St Aubin, St Brelade, JE3 8BZ, Jersey",
        "road": null,
        "house_number": null,
        "neighbourhood": null,
        "suburb": null,
        "city_district": null,
        "city": "St Brelade",
        "state": null,
        "postcode": "JE3 8BZ",
        "country": "Jersey",
        "country_code": "je"
      },
      "address": "Saint Helier, Jersey"
    },
    {
      "lat": 49.16283683432417,
      "lon": -2.10043308860185,
      "geoinfo": {
        "display_name": "Havre des Pas, Canton de Haut, La Vingtaine de la Ville, St Helier, JE2 4PL, Jersey",
        "road": null,
        "house_number": null,
        "neighbourhood": null,
        "suburb": "Havre des Pas",
        "city_district": "La Vingtaine de la Ville",
        "city": "St Helier",
        "state": null,
        "postcode": "JE2 4PL",
        "country": "Jersey",
        "country_code": "je"
      },
      "address": "Havre des Pas, Saint Helier, Jersey"
    },
    {
      "lat": 49.18167086396787,
      "lon": -2.096678544293427,
      "geoinfo": {
        "display_name": "Mont Millais, Havre des Pas, Canton de Haut, La Vingtaine de la Ville, St Helier, JE2 4AP, Jersey",
        "road": "Mont Millais",
        "house_number": null,
        "neighbourhood": null,
        "suburb": "Havre des Pas",
        "city_district": "La Vingtaine de la Ville",
        "city": "St Helier",
        "state": null,
        "postcode": "JE2 4AP",
        "country": "Jersey",
        "country_code": "je"
      },
      "address": "Mont Millais, Saint Helier, Jersey"
    },
    {
      "lat": 49.20940006938698,
      "lon": -2.1087726518603893,
      "geoinfo": {
        "display_name": "Rue du Vieux Moulin, La Vingtaine des Augrès, Trinity, JE3 5FP, Jersey",
        "road": "Rue du Vieux Moulin",
        "house_number": null,
        "neighbourhood": null,
        "suburb": null,
        "city_district": "La Vingtaine des Augrès",
        "city": "Trinity",
        "state": null,
        "postcode": "JE3 5FP",
        "country": "Jersey",
        "country_code": "je"
      },
      "address": "Rue du Vieux Moulin, Saint Helier, Jersey"
    },
    {
      "lat": 49.1753383677021,
      "lon": -2.111322536707541,
      "geoinfo": {
        "display_name": "Victoria Pier Cafe, Victoria Pier, La Collette, Canton de Haut, La Vingtaine de la Ville, St Helier, JE2 4NZ, Jersey",
        "road": "Victoria Pier",
        "house_number": null,
        "neighbourhood": null,
        "suburb": "La Collette",
        "city_district": "La Vingtaine de la Ville",
        "city": "St Helier",
        "state": null,
        "postcode": "JE2 4NZ",
        "country": "Jersey",
        "country_code": "je"
      },
      "address": "Victoria Pier, Saint Helier, Jersey"
    },
    {
      "lat": 49.165028421363274,
      "lon": -2.1241092195026416,
      "geoinfo": {
        "display_name": "London Berth, La Collette, Le Dicq, Georgetown, JE2 4NZ, Jersey",
        "road": null,
        "house_number": null,
        "neighbourhood": null,
        "suburb": "La Collette",
        "city_district": null,
        "city": "Georgetown",
        "state": null,
        "postcode": "JE2 4NZ",
        "country": "Jersey",
        "country_code": "je"
      },
      "address": "La Collette, Saint Helier, Jersey"
    },
    {
      "lat": 49.19658011612515,
      "lon": -2.1156956786940926,
      "geoinfo": {
        "display_name": "Le Grand Clos, Vingtaine du Mont à l'Abbé, St Helier, JE2 3LE, Jersey",
        "road": "Le Grand Clos",
        "house_number": null,
        "neighbourhood": null,
        "suburb": null,
        "city_district": "Vingtaine du Mont à l'Abbé",
        "city": "St Helier",
        "state": null,
        "postcode": "JE2 3LE",
        "country": "Jersey",
        "country_code": "je"
      },
      "address": "Le Grand Clos, Saint Helier, Jersey"
    },
    {
      "lat": 49.20520411022494,
      "lon": -2.085854260648467,
      "geoinfo": {
        "display_name": "Grands Vaux, Five Oaks, Vingtaine de dessous l'Église, St Saviour, JE2 7WH, Jersey",
        "road": "Grands Vaux",
        "house_number": null,
        "neighbourhood": null,
        "suburb": "Five Oaks",
        "city_district": "Vingtaine de dessous l'Église",
        "city": "St Saviour",
        "state": null,
        "postcode": "JE2 7WH",
        "country": "Jersey",
        "country_code": "je"
      },
      "address": "Grands Vaux, Saint Helier, Jersey"
    },
    {
      "lat": 49.188476903626324,
      "lon": -2.096122953526299,
      "geoinfo": {
        "display_name": "Beaulieu Park, Canton de Haut, La Vingtaine de la Ville, St Helier, JE2 4RP, Jersey",
        "road": "Beaulieu Park",
        "house_number": null,
        "neighbourhood": null,
        "suburb": "Canton de Haut",
        "city_district": "La Vingtaine de la Ville",
        "city": "St Helier",
        "state": null,
        "postcode": "JE2 4RP",
        "country": "Jersey",
        "country_code": "je"
      },
      "address": "Beaulieu Park, Saint Helier, Jersey"
    },
    {
      "lat": 49.17946837494252,
      "lon": -2.129603973593735,
      "geoinfo": {
        "display_name": "Elizabeth Castle, Lower Ward, La Collette, St Helier, JE2 4NZ, Jersey",
        "road": "Lower Ward",
        "house_number": null,
        "neighbourhood": null,
        "suburb": "La Collette",
        "city_district": null,
        "city": "St Helier",
        "state": null,
        "postcode": "JE2 4NZ",
        "country": "Jersey",
        "country_code": "je"
      },
      "address": "Lower Ward, Saint Helier, Jersey"
    },
    {
      "lat": 49.194005464963936,
      "lon": -2.1579714886741987,
      "geoinfo": {
        "display_name": "St Aubin's Bay Promenade, La Vingtaine de St. Nicolas, St Peter, JE3 1PP, Jersey",
        "road": "St Aubin's Bay Promenade",
        "house_number": null,
        "neighbourhood": null,
        "suburb": null,
        "city_district": "La Vingtaine de St. Nicolas",
        "city": "St Peter",
        "state": null,
        "postcode": "JE3 1PP",
        "country": "Jersey",
        "country_code": "je"
      },
      "address": "St Aubin's Bay Promenade, Saint Helier, Jersey"
    },
    {
      "lat": 49.19675005752363,
      "lon": -2.1339175562590285,
      "geoinfo": {
        "display_name": "Romney Close, Vingtaine du Mont Cochon, St Helier, JE2 3LY, Jersey",
        "road": "Romney Close",
        "house_number": null,
        "neighbourhood": null,
        "suburb": null,
        "city_district": "Vingtaine du Mont Cochon",
        "city": "St Helier",
        "state": null,
        "postcode": "JE2 3LY",
        "country": "Jersey",
        "country_code": "je"
      },
      "address": "Romney Close, Saint Helier, Jersey"
    },
    {
      "lat": 49.21267983693144,
      "lon": -2.1209925344649894,
      "geoinfo": {
        "display_name": "Ruette Pinel, Vingtaine du Mont à l'Abbé, St Helier, JE2 4FL, Jersey",
        "road": "Ruette Pinel",
        "house_number": null,
        "neighbourhood": null,
        "suburb": null,
        "city_district": "Vingtaine du Mont à l'Abbé",
        "city": "St Helier",
        "state": null,
        "postcode": "JE2 4FL",
        "country": "Jersey",
        "country_code": "je"
      },
      "address": "Ruette Pinel, Saint Helier, Jersey"
    },
    {
      "lat": 49.17999016839912,
      "lon": -2.1160039289191164,
      "geoinfo": {
        "display_name": "Canton de Bas, La Vingtaine de la Ville, St Helier, JE2 4NZ, Jersey",
        "road": null,
        "house_number": null,
        "neighbourhood": null,
        "suburb": "Canton de Bas",
        "city_district": "La Vingtaine de la Ville",
        "city": "St Helier",
        "state": null,
        "postcode": "JE2 4NZ",
        "country": "Jersey",
        "country_code": "je"
      },
      "address": "Canton de Bas, Saint Helier, Jersey"
    },
    {
      "lat": 49.17779583594866,
      "lon": -2.116318133356092,
      "geoinfo": {
        "display_name": "East Pier, Route du Port Elizabeth, Canton de Bas, La Vingtaine de la Ville, St Helier, JE2 3NW, Jersey",
        "road": "Route du Port Elizabeth",
        "house_number": null,
        "neighbourhood": null,
        "suburb": "Canton de Bas",
        "city_district": "La Vingtaine de la Ville",
        "city": "St Helier",
        "state": null,
        "postcode": "JE2 3NW",
        "country": "Jersey",
        "country_code": "je"
      },
      "address": "Route du Port Elizabeth, Saint Helier, Jersey"
    },
    {
      "lat": 49.19675319457501,
      "lon": -2.148970735380329,
      "geoinfo": {
        "display_name": "Saint Aubin's Bay Promenade, Bel Royal, La Vingtaine Bas de la Vallée, Saint Lawrence, JE3 1LU, Jersey",
        "road": "Saint Aubin's Bay Promenade",
        "house_number": null,
        "neighbourhood": null,
        "suburb": "Bel Royal",
        "city_district": "La Vingtaine Bas de la Vallée",
        "city": "Saint Lawrence",
        "state": null,
        "postcode": "JE3 1LU",
        "country": "Jersey",
        "country_code": "je"
      },
      "address": "Saint Aubin's Bay Promenade, Saint Helier, Jersey"
    },
    {
      "lat": 49.20606554183454,
      "lon": -2.1046120671041493,
      "geoinfo": {
        "display_name": "Highfield Estate, Grands Vaux, Vingtaine de Haut du Mont au Prêtre, St Helier, JE2 3FX, Jersey",
        "road": "Highfield Estate",
        "house_number": null,
        "neighbourhood": null,
        "suburb": "Grands Vaux",
        "city_district": "Vingtaine de Haut du Mont au Prêtre",
        "city": "St Helier",
        "state": null,
        "postcode": "JE2 3FX",
        "country": "Jersey",
        "country_code": "je"
      },
      "address": "Highfield Estate, Saint Helier, Jersey"
    },
    {
      "lat": 49.16976322693924,
      "lon": -2.0775587825947572,
      "geoinfo": {
        "display_name": "Willow Cottage, Rue de Maupertuis, Samarès, La Vingtaine de Samarès, St Clement, JE2 7QT, Jersey",
        "road": "Rue de Maupertuis",
        "house_number": null,
        "neighbourhood": null,
        "suburb": "Samarès",
        "city_district": "La Vingtaine de Samarès",
        "city": "St Clement",
        "state": null,
        "postcode": "JE2 7QT",
        "country": "Jersey",
        "country_code": "je"
      },
      "address": "Rue de Maupertuis, Saint Helier, Jersey"
    },
    {
      "lat": 49.21080450711637,
      "lon": -2.11338074486109,
      "geoinfo": {
        "display_name": "Grande Route de St. Jean, Vingtaine du Mont à l'Abbé, St Helier, JE2 3FN, Jersey",
        "road": "Grande Route de St. Jean",
        "house_number": null,
        "neighbourhood": null,
        "suburb": null,
        "city_district": "Vingtaine du Mont à l'Abbé",
        "city": "St Helier",
        "state": null,
        "postcode": "JE2 3FN",
        "country": "Jersey",
        "country_code": "je"
      },
      "address": "Grande Route de St. Jean, Saint Helier, Jersey"
    },
    {
      "lat": 49.19071817782692,
      "lon": -2.117593630793264,
      "geoinfo": {
        "display_name": "Westmount Court, Vingtaine du Mont à l'Abbé, St Helier, JE2 3LP, Jersey",
        "road": "Westmount Court",
        "house_number": null,
        "neighbourhood": null,
        "suburb": null,
        "city_district": "Vingtaine du Mont à l'Abbé",
        "city": "St Helier",
        "state": null,
        "postcode": "JE2 3LP",
        "country": "Jersey",
        "country_code": "je"
      },
      "address": "Westmount Court, Saint Helier, Jersey"
    },
    {
      "lat": 49.18389071597992,
      "lon": -2.138598469213583,
      "geoinfo": {
        "display_name": "Millbrook, La Vingtaine Bas de la Vallée, Saint Lawrence, JE3 1LL, Jersey",
        "road": null,
        "house_number": null,
        "neighbourhood": null,
        "suburb": "Millbrook",
        "city_district": "La Vingtaine Bas de la Vallée",
        "city": "Saint Lawrence",
        "state": null,
        "postcode": "JE3 1LL",
        "country": "Jersey",
        "country_code": "je"
      },
      "address": "Millbrook, Saint Helier, Jersey"
    },
    {
      "lat": 49.2162590559856,
      "lon": -2.1125416285129357,
      "geoinfo": {
        "display_name": "Rue du Becquet Vincent, La Vingtaine des Augrès, Trinity, JE3 5FP, Jersey",
        "road": "Rue du Becquet Vincent",
        "house_number": null,
        "neighbourhood": null,
        "suburb": null,
        "city_district": "La Vingtaine des Augrès",
        "city": "Trinity",
        "state": null,
        "postcode": "JE3 5FP",
        "country": "Jersey",
        "country_code": "je"
      },
      "address": "Rue du Becquet Vincent, Saint Helier, Jersey"
    },
    {
      "lat": 49.181645565557055,
      "lon": -2.131954779651932,
      "geoinfo": {
        "display_name": "Westmount, Vingtaine du Mont à l'Abbé, St Helier, JE2 3LP, Jersey",
        "road": null,
        "house_number": null,
        "neighbourhood": null,
        "suburb": null,
        "city_district": "Vingtaine du Mont à l'Abbé",
        "city": "St Helier",
        "state": null,
        "postcode": "JE2 3LP",
        "country": "Jersey",
        "country_code": "je"
      },
      "address": "Vingtaine du Mont à l'Abbé, Saint Helier, Jersey"
    },
    {
      "lat": 49.18258500418676,
      "lon": -2.053265089964066,
      "geoinfo": {
        "display_name": "Rue des Alleurs, Grouville Arsenal, La Vingtaine de Longueville, Grouville, JE3 9HP, Jersey",
        "road": "Rue des Alleurs",
        "house_number": null,
        "neighbourhood": null,
        "suburb": null,
        "city_district": "La Vingtaine de Longueville",
        "city": "Grouville",
        "state": null,
        "postcode": "JE3 9HP",
        "country": "Jersey",
        "country_code": "je"
      },
      "address": "Rue des Alleurs, Saint Helier, Jersey"
    },
    {
      "lat": 49.178430352870876,
      "lon": -2.09153592593918,
      "geoinfo": {
        "display_name": "Victoria Road, Le Dicq, Vingtaine de Petite Longueville, St Saviour, JE2 7QG, Jersey",
        "road": "Victoria Road",
        "house_number": null,
        "neighbourhood": null,
        "suburb": "Le Dicq",
        "city_district": "Vingtaine de Petite Longueville",
        "city": "St Saviour",
        "state": null,
        "postcode": "JE2 7QG",
        "country": "Jersey",
        "country_code": "je"
      },
      "address": "Victoria Road, Saint Helier, Jersey"
    },
    {
      "lat": 49.208558209283076,
      "lon": -2.131714836471996,
      "geoinfo": {
        "display_name": "Ruelle de St. Clair, La Vingtaine du Coin Hatain, Saint Lawrence, JE3 1LL, Jersey",
        "road": "Ruelle de St. Clair",
        "house_number": null,
        "neighbourhood": null,
        "suburb": null,
        "city_district": "La Vingtaine du Coin Hatain",
        "city": "Saint Lawrence",
        "state": null,
        "postcode": "JE3 1LL",
        "country": "Jersey",
        "country_code": "je"
      },
      "address": "Ruelle de St. Clair, Saint Helier, Jersey"
    },
    {
      "lat": 49.206582978267875,
      "lon": -2.1395250409810544,
      "geoinfo": {
        "display_name": "Rue de Bas, La Vingtaine Haut de la Vallée, Saint Lawrence, JE3 1JQ, Jersey",
        "road": "Rue de Bas",
        "house_number": null,
        "neighbourhood": null,
        "suburb": null,
        "city_district": "La Vingtaine Haut de la Vallée",
        "city": "Saint Lawrence",
        "state": null,
        "postcode": "JE3 1JQ",
        "country": "Jersey",
        "country_code": "je"
      },
      "address": "Rue de Bas, Saint Helier, Jersey"
    },
    {
      "lat": 49.21082501994853,
      "lon": -2.1275999012819815,
      "geoinfo": {
        "display_name": "Route du Mont Cochon, Vingtaine du Mont Cochon, St Helier, JE3 1HS, Jersey",
        "road": "Route du Mont Cochon",
        "house_number": null,
        "neighbourhood": null,
        "suburb": null,
        "city_district": "Vingtaine du Mont Cochon",
        "city": "St Helier",
        "state": null,
        "postcode": "JE3 1HS",
        "country": "Jersey",
        "country_code": "je"
      },
      "address": "Route du Mont Cochon, Saint Helier, Jersey"
    },
    {
      "lat": 49.20664228940237,
      "lon": -2.120596425432879,
      "geoinfo": {
        "display_name": "Fern Valley, Vingtaine du Mont à l'Abbé, St Helier, JE2 3FN, Jersey",
        "road": "Fern Valley",
        "house_number": null,
        "neighbourhood": null,
        "suburb": null,
        "city_district": "Vingtaine du Mont à l'Abbé",
        "city": "St Helier",
        "state": null,
        "postcode": "JE2 3FN",
        "country": "Jersey",
        "country_code": "je"
      },
      "address": "Fern Valley, Saint Helier, Jersey"
    },
    {
      "lat": 49.19417354203468,
      "lon": -2.121366157604816,
      "geoinfo": {
        "display_name": "Tower Road, Vingtaine du Mont à l'Abbé, St Helier, JE2 3RY, Jersey",
        "road": "Tower Road",
        "house_number": null,
        "neighbourhood": null,
        "suburb": null,
        "city_district": "Vingtaine du Mont à l'Abbé",
        "city": "St Helier",
        "state": null,
        "postcode": "JE2 3RY",
        "country": "Jersey",
        "country_code": "je"
      },
      "address": "Tower Road, Saint Helier, Jersey"
    },
    {
      "lat": 49.215963953829885,
      "lon": -2.0923981850624465,
      "geoinfo": {
        "display_name": "Rue de la Croiserie, La Vingtaine de la Croiserie, Trinity, JE3 5HH, Jersey",
        "road": "Rue de la Croiserie",
        "house_number": null,
        "neighbourhood": null,
        "suburb": null,
        "city_district": "La Vingtaine de la Croiserie",
        "city": "Trinity",
        "state": null,
        "postcode": "JE3 5HH",
        "country": "Jersey",
        "country_code": "je"
      },
      "address": "Rue de la Croiserie, Saint Helier, Jersey"
    },
    {
      "lat": 49.23001368721209,
      "lon": -2.093424612284457,
      "geoinfo": {
        "display_name": "Route de la Trinité, La Vingtaine du Rondin, Trinity, JE3 5HH, Jersey",
        "road": "Route de la Trinité",
        "house_number": null,
        "neighbourhood": null,
        "suburb": null,
        "city_district": "La Vingtaine du Rondin",
        "city": "Trinity",
        "state": null,
        "postcode": "JE3 5HH",
        "country": "Jersey",
        "country_code": "je"
      },
      "address": "Route de la Trinité, Saint Helier, Jersey"
    },
    {
      "lat": 49.19788994685454,
      "lon": -2.0617715816715307,
      "geoinfo": {
        "display_name": "La Hougue, La Vingtaine de la Rue, Grouville, JE2 7UP, Jersey",
        "road": "La Hougue",
        "house_number": null,
        "neighbourhood": null,
        "suburb": null,
        "city_district": "La Vingtaine de la Rue",
        "city": "Grouville",
        "state": null,
        "postcode": "JE2 7UP",
        "country": "Jersey",
        "country_code": "je"
      },
      "address": "La Hougue, Saint Helier, Jersey"
    },
    {
      "lat": 49.1975764648802,
      "lon": -2.119890066164258,
      "geoinfo": {
        "display_name": "West Hill, Vingtaine du Mont à l'Abbé, St Helier, JE2 3LE, Jersey",
        "road": "West Hill",
        "house_number": null,
        "neighbourhood": null,
        "suburb": null,
        "city_district": "Vingtaine du Mont à l'Abbé",
        "city": "St Helier",
        "state": null,
        "postcode": "JE2 3LE",
        "country": "Jersey",
        "country_code": "je"
      },
      "address": "West Hill, Saint Helier, Jersey"
    },
    {
      "lat": 49.22842728430046,
      "lon": -2.0869679450427747,
      "geoinfo": {
        "display_name": "La Verte Rue, La Vingtaine du Rondin, Trinity, JE3 5HH, Jersey",
        "road": "La Verte Rue",
        "house_number": null,
        "neighbourhood": null,
        "suburb": null,
        "city_district": "La Vingtaine du Rondin",
        "city": "Trinity",
        "state": null,
        "postcode": "JE3 5HH",
        "country": "Jersey",
        "country_code": "je"
      },
      "address": "La Verte Rue, Saint Helier, Jersey"
    },
    {
      "lat": 49.20008895319853,
      "lon": -2.1330589833017375,
      "geoinfo": {
        "display_name": "Les Champs Park Estate, Vingtaine du Mont Cochon, St Helier, JE2 3SH, Jersey",
        "road": "Les Champs Park Estate",
        "house_number": null,
        "neighbourhood": null,
        "suburb": null,
        "city_district": "Vingtaine du Mont Cochon",
        "city": "St Helier",
        "state": null,
        "postcode": "JE2 3SH",
        "country": "Jersey",
        "country_code": "je"
      },
      "address": "Les Champs Park Estate, Saint Helier, Jersey"
    },
    {
      "lat": 49.19353866082894,
      "lon": -2.1105749494402337,
      "geoinfo": {
        "display_name": "St John's Road, Vingtaine du Rouge Bouillon, St Helier, JE2 3XZ, Jersey",
        "road": "St John's Road",
        "house_number": null,
        "neighbourhood": null,
        "suburb": null,
        "city_district": "Vingtaine du Rouge Bouillon",
        "city": "St Helier",
        "state": null,
        "postcode": "JE2 3XZ",
        "country": "Jersey",
        "country_code": "je"
      },
      "address": "St John's Road, Saint Helier, Jersey"
    },
    {
      "lat": 49.18998811787473,
      "lon": -2.114039667539278,
      "geoinfo": {
        "display_name": "Westmount Park, Vingtaine du Rouge Bouillon, St Helier, JE2 3LP, Jersey",
        "road": "Westmount Park",
        "house_number": null,
        "neighbourhood": null,
        "suburb": null,
        "city_district": "Vingtaine du Rouge Bouillon",
        "city": "St Helier",
        "state": null,
        "postcode": "JE2 3LP",
        "country": "Jersey",
        "country_code": "je"
      },
      "address": "Westmount Park, Saint Helier, Jersey"
    },
    {
      "lat": 49.2080030761157,
      "lon": -2.053581111900477,
      "geoinfo": {
        "display_name": "Rue de Rue, La Vingtaine de la Quéruée, St Martin, JE3 6BH, Jersey",
        "road": "Rue de Rue",
        "house_number": null,
        "neighbourhood": null,
        "suburb": null,
        "city_district": "La Vingtaine de la Quéruée",
        "city": "St Martin",
        "state": null,
        "postcode": "JE3 6BH",
        "country": "Jersey",
        "country_code": "je"
      },
      "address": "Rue de Rue, Saint Helier, Jersey"
    },
    {
      "lat": 49.182281200343276,
      "lon": -2.0810907779504975,
      "geoinfo": {
        "display_name": "Miladi Farm, Longueville, Vingtaine de Petite Longueville, St Saviour, JE2 7QP, Jersey",
        "road": null,
        "house_number": null,
        "neighbourhood": null,
        "suburb": "Longueville",
        "city_district": "Vingtaine de Petite Longueville",
        "city": "St Saviour",
        "state": null,
        "postcode": "JE2 7QP",
        "country": "Jersey",
        "country_code": "je"
      },
      "address": "Longueville, Saint Helier, Jersey"
    },
    {
      "lat": 49.18104379498675,
      "lon": -2.110218568911743,
      "geoinfo": {
        "display_name": "Skate park, New North Quay, Havre des Pas, Canton de Haut, La Vingtaine de la Ville, St Helier, JE2 3NG, Jersey",
        "road": "New North Quay",
        "house_number": null,
        "neighbourhood": null,
        "suburb": "Havre des Pas",
        "city_district": "La Vingtaine de la Ville",
        "city": "St Helier",
        "state": null,
        "postcode": "JE2 3NG",
        "country": "Jersey",
        "country_code": "je"
      },
      "address": "New North Quay, Saint Helier, Jersey"
    },
    {
      "lat": 49.17539371946477,
      "lon": -2.109367501832998,
      "geoinfo": {
        "display_name": "JEC, La Collette Power Station, Canton de Haut, La Vingtaine de la Ville, St Helier, JE2 4UL, Jersey",
        "road": "JEC",
        "house_number": null,
        "neighbourhood": null,
        "suburb": "Canton de Haut",
        "city_district": "La Vingtaine de la Ville",
        "city": "St Helier",
        "state": null,
        "postcode": "JE2 4UL",
        "country": "Jersey",
        "country_code": "je"
      },
      "address": "JEC, Saint Helier, Jersey"
    },
    {
      "lat": 49.19757626921032,
      "lon": -2.1131008643612477,
      "geoinfo": {
        "display_name": "Morrisons Daily, Queen's Road, Vingtaine du Mont à l'Abbé, St Helier, JE2 3LE, Jersey",
        "road": "Queen's Road",
        "house_number": null,
        "neighbourhood": null,
        "suburb": null,
        "city_district": "Vingtaine du Mont à l'Abbé",
        "city": "St Helier",
        "state": null,
        "postcode": "JE2 3LE",
        "country": "Jersey",
        "country_code": "je"
      },
      "address": "Queen's Road, Saint Helier, Jersey"
    },
    {
      "lat": 49.20713434361257,
      "lon": -2.0964138579296003,
      "geoinfo": {
        "display_name": "Oaklands Lane, Grands Vaux, Vingtaine de Haut du Mont au Prêtre, St Helier, JE2 3FX, Jersey",
        "road": "Oaklands Lane",
        "house_number": null,
        "neighbourhood": null,
        "suburb": "Grands Vaux",
        "city_district": "Vingtaine de Haut du Mont au Prêtre",
        "city": "St Helier",
        "state": null,
        "postcode": "JE2 3FX",
        "country": "Jersey",
        "country_code": "je"
      },
      "address": "Oaklands Lane, Saint Helier, Jersey"
    },
    {
      "lat": 49.19206836260503,
      "lon": -2.061804096550355,
      "geoinfo": {
        "display_name": "Rue des Vaux, La Vingtaine de la Rue, Grouville, JE3 9HP, Jersey",
        "road": "Rue des Vaux",
        "house_number": null,
        "neighbourhood": null,
        "suburb": null,
        "city_district": "La Vingtaine de la Rue",
        "city": "Grouville",
        "state": null,
        "postcode": "JE3 9HP",
        "country": "Jersey",
        "country_code": "je"
      },
      "address": "Rue des Vaux, Saint Helier, Jersey"
    },
    {
      "lat": 49.21601647326023,
      "lon": -2.1256024637837116,
      "geoinfo": {
        "display_name": "Le Bu de la Rue, La Vingtaine du Coin Hatain, Saint Lawrence, JE2 4FL, Jersey",
        "road": "Le Bu de la Rue",
        "house_number": null,
        "neighbourhood": null,
        "suburb": null,
        "city_district": "La Vingtaine du Coin Hatain",
        "city": "Saint Lawrence",
        "state": null,
        "postcode": "JE2 4FL",
        "country": "Jersey",
        "country_code": "je"
      },
      "address": "Le Bu de la Rue, Saint Helier, Jersey"
    },
    {
      "lat": 49.22617788018558,
      "lon": -2.125162470988692,
      "geoinfo": {
        "display_name": "Joe Friere Fruits, Route de St Jean, La Vingtaine du Coin Hatain, Saint Lawrence, JE3 1HS, Jersey",
        "road": "Route de St Jean",
        "house_number": null,
        "neighbourhood": null,
        "suburb": null,
        "city_district": "La Vingtaine du Coin Hatain",
        "city": "Saint Lawrence",
        "state": null,
        "postcode": "JE3 1HS",
        "country": "Jersey",
        "country_code": "je"
      },
      "address": "Route de St Jean, Saint Helier, Jersey"
    },
    {
      "lat": 49.17835276612955,
      "lon": -2.119921414728242,
      "geoinfo": {
        "display_name": "Elizabeth Marina, Rue de Carteret, Canton de Bas, La Vingtaine de la Ville, St Helier, JE2 3EG, Jersey",
        "road": "Rue de Carteret",
        "house_number": null,
        "neighbourhood": null,
        "suburb": "Canton de Bas",
        "city_district": "La Vingtaine de la Ville",
        "city": "St Helier",
        "state": null,
        "postcode": "JE2 3EG",
        "country": "Jersey",
        "country_code": "je"
      },
      "address": "Rue de Carteret, Saint Helier, Jersey"
    },
    {
      "lat": 49.18192907091016,
      "lon": -2.074998053983862,
      "geoinfo": {
        "display_name": "Longueville Court W, Longueville Road, Vingtaine de la Grande Longueville, St Saviour, JE2 7QP, Jersey",
        "road": "Longueville Road",
        "house_number": null,
        "neighbourhood": null,
        "suburb": null,
        "city_district": "Vingtaine de la Grande Longueville",
        "city": "St Saviour",
        "state": null,
        "postcode": "JE2 7QP",
        "country": "Jersey",
        "country_code": "je"
      },
      "address": "Longueville Road, Saint Helier, Jersey"
    },
    {
      "lat": 49.19663446698747,
      "lon": -2.121490837841094,
      "geoinfo": {
        "display_name": "Le Cotil de Haute-Clair, Vingtaine du Mont à l'Abbé, St Helier, JE2 3SF, Jersey",
        "road": "Le Cotil de Haute-Clair",
        "house_number": null,
        "neighbourhood": null,
        "suburb": null,
        "city_district": "Vingtaine du Mont à l'Abbé",
        "city": "St Helier",
        "state": null,
        "postcode": "JE2 3SF",
        "country": "Jersey",
        "country_code": "je"
      },
      "address": "Le Cotil de Haute-Clair, Saint Helier, Jersey"
    },
    {
      "lat": 49.200726921673464,
      "lon": -2.1426186851523696,
      "geoinfo": {
        "display_name": "Stuart Court Methodist Residential Home, La Rue de Haut, La Vingtaine Bas de la Vallée, Saint Lawrence, JE3 1JQ, Jersey",
        "road": "La Rue de Haut",
        "house_number": null,
        "neighbourhood": null,
        "suburb": null,
        "city_district": "La Vingtaine Bas de la Vallée",
        "city": "Saint Lawrence",
        "state": null,
        "postcode": "JE3 1JQ",
        "country": "Jersey",
        "country_code": "je"
      },
      "address": "La Rue de Haut, Saint Helier, Jersey"
    },
    {
      "lat": 49.193829036641866,
      "lon": -2.107656959766861,
      "geoinfo": {
        "display_name": "Raleigh Lane, Vingtaine du Rouge Bouillon, St Helier, JE2 3ZB, Jersey",
        "road": "Raleigh Lane",
        "house_number": null,
        "neighbourhood": null,
        "suburb": null,
        "city_district": "Vingtaine du Rouge Bouillon",
        "city": "St Helier",
        "state": null,
        "postcode": "JE2 3ZB",
        "country": "Jersey",
        "country_code": "je"
      },
      "address": "Raleigh Lane, Saint Helier, Jersey"
    },
    {
      "lat": 49.19338760114449,
      "lon": -2.112228237317012,
      "geoinfo": {
        "display_name": "Old St John's Road, Vingtaine du Mont à l'Abbé, St Helier, JE2 3PP, Jersey",
        "road": "Old St John's Road",
        "house_number": null,
        "neighbourhood": null,
        "suburb": null,
        "city_district": "Vingtaine du Mont à l'Abbé",
        "city": "St Helier",
        "state": null,
        "postcode": "JE2 3PP",
        "country": "Jersey",
        "country_code": "je"
      },
      "address": "Old St John's Road, Saint Helier, Jersey"
    },
    {
      "lat": 49.170337443284076,
      "lon": -2.069997700480476,
      "geoinfo": {
        "display_name": "Rue de la Croix, Samarès, La Vingtaine de Samarès, St Clement, JE2 6GJ, Jersey",
        "road": "Rue de la Croix",
        "house_number": null,
        "neighbourhood": null,
        "suburb": "Samarès",
        "city_district": "La Vingtaine de Samarès",
        "city": "St Clement",
        "state": null,
        "postcode": "JE2 6GJ",
        "country": "Jersey",
        "country_code": "je"
      },
      "address": "Rue de la Croix, Saint Helier, Jersey"
    },
    {
      "lat": 49.210590391550426,
      "lon": -2.1018837207797896,
      "geoinfo": {
        "display_name": "Rue de la Hauteur, La Vingtaine des Augrès, Trinity, JE2 3FX, Jersey",
        "road": "Rue de la Hauteur",
        "house_number": null,
        "neighbourhood": null,
        "suburb": null,
        "city_district": "La Vingtaine des Augrès",
        "city": "Trinity",
        "state": null,
        "postcode": "JE2 3FX",
        "country": "Jersey",
        "country_code": "je"
      },
      "address": "Rue de la Hauteur, Saint Helier, Jersey"
    },
    {
      "lat": 49.19634787536758,
      "lon": -2.125559809088625,
      "geoinfo": {
        "display_name": "Le Clos St Andre, Clos St.Andre, Vingtaine du Mont Cochon, St Helier, JE2 3LN, Jersey",
        "road": "Le Clos St Andre",
        "house_number": null,
        "neighbourhood": null,
        "suburb": null,
        "city_district": "Vingtaine du Mont Cochon",
        "city": "St Helier",
        "state": null,
        "postcode": "JE2 3LN",
        "country": "Jersey",
        "country_code": "je"
      },
      "address": "Le Clos St Andre, Saint Helier, Jersey"
    },
    {
      "lat": 49.18167293425445,
      "lon": -2.0984461595233372,
      "geoinfo": {
        "display_name": "Don Road, Havre des Pas, Canton de Haut, La Vingtaine de la Ville, St Helier, JE2 4QA, Jersey",
        "road": "Don Road",
        "house_number": null,
        "neighbourhood": null,
        "suburb": "Havre des Pas",
        "city_district": "La Vingtaine de la Ville",
        "city": "St Helier",
        "state": null,
        "postcode": "JE2 4QA",
        "country": "Jersey",
        "country_code": "je"
      },
      "address": "Don Road, Saint Helier, Jersey"
    },
    {
      "lat": 49.17563041531755,
      "lon": -2.10696579259326,
      "geoinfo": {
        "display_name": "Cycle Route 1, La Collette, Canton de Haut, La Vingtaine de la Ville, St Helier, JE2 4UL, Jersey",
        "road": "Cycle Route 1",
        "house_number": null,
        "neighbourhood": null,
        "suburb": "La Collette",
        "city_district": "La Vingtaine de la Ville",
        "city": "St Helier",
        "state": null,
        "postcode": "JE2 4UL",
        "country": "Jersey",
        "country_code": "je"
      },
      "address": "Cycle Route 1, Saint Helier, Jersey"
    },
    {
      "lat": 49.19705679131477,
      "lon": -2.108172322910633,
      "geoinfo": {
        "display_name": "D'Auvergne School, Le Clos de Debenaire, Clos de Debenaire, Vingtaine du Mont à l'Abbé, St Helier, JE2 3GA, Jersey",
        "road": "Le Clos de Debenaire",
        "house_number": null,
        "neighbourhood": null,
        "suburb": null,
        "city_district": "Vingtaine du Mont à l'Abbé",
        "city": "St Helier",
        "state": null,
        "postcode": "JE2 3GA",
        "country": "Jersey",
        "country_code": "je"
      },
      "address": "Le Clos de Debenaire, Saint Helier, Jersey"
    },
    {
      "lat": 49.22502186211854,
      "lon": -2.087520277319052,
      "geoinfo": {
        "display_name": "Rue du Moulin de Bas, La Vingtaine de Rozel, Trinity, JE3 5HH, Jersey",
        "road": "Rue du Moulin de Bas",
        "house_number": null,
        "neighbourhood": null,
        "suburb": null,
        "city_district": "La Vingtaine de Rozel",
        "city": "Trinity",
        "state": null,
        "postcode": "JE3 5HH",
        "country": "Jersey",
        "country_code": "je"
      },
      "address": "Rue du Moulin de Bas, Saint Helier, Jersey"
    },
    {
      "lat": 49.1994524357485,
      "lon": -2.082213374802809,
      "geoinfo": {
        "display_name": "Rue à la Dame, Five Oaks, Vingtaine des Pigneaux, St Saviour, JE2 7NH, Jersey",
        "road": "Rue à la Dame",
        "house_number": null,
        "neighbourhood": null,
        "suburb": "Five Oaks",
        "city_district": "Vingtaine des Pigneaux",
        "city": "St Saviour",
        "state": null,
        "postcode": "JE2 7NH",
        "country": "Jersey",
        "country_code": "je"
      },
      "address": "Rue à la Dame, Saint Helier, Jersey"
    },
    {
      "lat": 49.205693489816504,
      "lon": -2.10943839392935,
      "geoinfo": {
        "display_name": "Vallee des Vaux, Grands Vaux, Vingtaine de Haut du Mont au Prêtre, St Helier, JE2 3FN, Jersey",
        "road": "Vallee des Vaux",
        "house_number": null,
        "neighbourhood": null,
        "suburb": "Grands Vaux",
        "city_district": "Vingtaine de Haut du Mont au Prêtre",
        "city": "St Helier",
        "state": null,
        "postcode": "JE2 3FN",
        "country": "Jersey",
        "country_code": "je"
      },
      "address": "Vallee des Vaux, Saint Helier, Jersey"
    },
    {
      "lat": 49.17070940834114,
      "lon": -2.1120071704711747,
      "geoinfo": {
        "display_name": "Household Green Waste Reception, La Route de Veulle, La Collette, Canton de Haut, La Vingtaine de la Ville, St Helier, JE2 4NZ, Jersey",
        "road": "La Route de Veulle",
        "house_number": null,
        "neighbourhood": null,
        "suburb": "La Collette",
        "city_district": "La Vingtaine de la Ville",
        "city": "St Helier",
        "state": null,
        "postcode": "JE2 4NZ",
        "country": "Jersey",
        "country_code": "je"
      },
      "address": "La Route de Veulle, Saint Helier, Jersey"
    },
    {
      "lat": 49.195538639169456,
      "lon": -2.123000568933012,
      "geoinfo": {
        "display_name": "Bellozanne Road, Vingtaine du Mont à l'Abbé, St Helier, JE2 3SF, Jersey",
        "road": "Bellozanne Road",
        "house_number": null,
        "neighbourhood": null,
        "suburb": null,
        "city_district": "Vingtaine du Mont à l'Abbé",
        "city": "St Helier",
        "state": null,
        "postcode": "JE2 3SF",
        "country": "Jersey",
        "country_code": "je"
      },
      "address": "Bellozanne Road, Saint Helier, Jersey"
    },
    {
      "lat": 49.201927637582784,
      "lon": -2.079968848259286,
      "geoinfo": {
        "display_name": "La Rue du Moulin, Vingtaine des Pigneaux, St Saviour, JE2 7GR, Jersey",
        "road": "La Rue du Moulin",
        "house_number": null,
        "neighbourhood": null,
        "suburb": null,
        "city_district": "Vingtaine des Pigneaux",
        "city": "St Saviour",
        "state": null,
        "postcode": "JE2 7GR",
        "country": "Jersey",
        "country_code": "je"
      },
      "address": "La Rue du Moulin, Saint Helier, Jersey"
    },
    {
      "lat": 49.19112136244718,
      "lon": -2.104586141447271,
      "geoinfo": {
        "display_name": "Clairvale Road, Vingtaine de Bas du Mont au Prêtre, St Helier, JE2 3YH, Jersey",
        "road": "Clairvale Road",
        "house_number": null,
        "neighbourhood": null,
        "suburb": null,
        "city_district": "Vingtaine de Bas du Mont au Prêtre",
        "city": "St Helier",
        "state": null,
        "postcode": "JE2 3YH",
        "country": "Jersey",
        "country_code": "je"
      },
      "address": "Clairvale Road, Saint Helier, Jersey"
    },
    {
      "lat": 49.20974597032719,
      "lon": -2.1072087670854738,
      "geoinfo": {
        "display_name": "Rue de la Vallée, Grands Vaux, Vingtaine de Haut du Mont au Prêtre, St Helier, JE2 3FX, Jersey",
        "road": "Rue de la Vallée",
        "house_number": null,
        "neighbourhood": null,
        "suburb": "Grands Vaux",
        "city_district": "Vingtaine de Haut du Mont au Prêtre",
        "city": "St Helier",
        "state": null,
        "postcode": "JE2 3FX",
        "country": "Jersey",
        "country_code": "je"
      },
      "address": "Rue de la Vallée, Saint Helier, Jersey"
    },
    {
      "lat": 49.19495369139704,
      "lon": -2.0642314822824552,
      "geoinfo": {
        "display_name": "La Vingtaine de la Rue, Grouville, JE2 7UH, Jersey",
        "road": null,
        "house_number": null,
        "neighbourhood": null,
        "suburb": null,
        "city_district": "La Vingtaine de la Rue",
        "city": "Grouville",
        "state": null,
        "postcode": "JE2 7UH",
        "country": "Jersey",
        "country_code": "je"
      },
      "address": "La Vingtaine de la Rue, Saint Helier, Jersey"
    },
    {
      "lat": 49.171234999080575,
      "lon": -2.1080589349517167,
      "geoinfo": {
        "display_name": "EFW Plant, La Collette Energy Recovery Facility, Canton de Haut, La Vingtaine de la Ville, St Helier, JE2 4UL, Jersey",
        "road": "EFW Plant",
        "house_number": null,
        "neighbourhood": null,
        "suburb": "Canton de Haut",
        "city_district": "La Vingtaine de la Ville",
        "city": "St Helier",
        "state": null,
        "postcode": "JE2 4UL",
        "country": "Jersey",
        "country_code": "je"
      },
      "address": "EFW Plant, Saint Helier, Jersey"
    },
    {
      "lat": 49.18530383239987,
      "lon": -2.1011258676908144,
      "geoinfo": {
        "display_name": "Wesley Street, Havre des Pas, Canton de Haut, La Vingtaine de la Ville, St Helier, JE2 4GD, Jersey",
        "road": "Wesley Street",
        "house_number": null,
        "neighbourhood": null,
        "suburb": "Havre des Pas",
        "city_district": "La Vingtaine de la Ville",
        "city": "St Helier",
        "state": null,
        "postcode": "JE2 4GD",
        "country": "Jersey",
        "country_code": "je"
      },
      "address": "Wesley Street, Saint Helier, Jersey"
    },
    {
      "lat": 49.20496813908653,
      "lon": -2.0812181711933633,
      "geoinfo": {
        "display_name": "Highfield, Five Oaks, Vingtaine de dessous l'Église, St Saviour, JE2 7NH, Jersey",
        "road": "Highfield",
        "house_number": null,
        "neighbourhood": null,
        "suburb": "Five Oaks",
        "city_district": "Vingtaine de dessous l'Église",
        "city": "St Saviour",
        "state": null,
        "postcode": "JE2 7NH",
        "country": "Jersey",
        "country_code": "je"
      },
      "address": "Highfield, Saint Helier, Jersey"
    },
    {
      "lat": 49.18573986584942,
      "lon": -2.093658242335894,
      "geoinfo": {
        "display_name": "Claremont Field, Claremont Road, Canton de Haut, La Vingtaine de la Ville, St Helier, JE2 4RY, Jersey",
        "road": "Claremont Road",
        "house_number": null,
        "neighbourhood": null,
        "suburb": "Canton de Haut",
        "city_district": "La Vingtaine de la Ville",
        "city": "St Helier",
        "state": null,
        "postcode": "JE2 4RY",
        "country": "Jersey",
        "country_code": "je"
      },
      "address": "Claremont Road, Saint Helier, Jersey"
    },
    {
      "lat": 49.20250617617135,
      "lon": -2.095188173774326,
      "geoinfo": {
        "display_name": "Mount Neron, Grands Vaux, Vingtaine de Haut du Mont au Prêtre, St Helier, JE2 7NX, Jersey",
        "road": "Mount Neron",
        "house_number": null,
        "neighbourhood": null,
        "suburb": "Grands Vaux",
        "city_district": "Vingtaine de Haut du Mont au Prêtre",
        "city": "St Helier",
        "state": null,
        "postcode": "JE2 7NX",
        "country": "Jersey",
        "country_code": "je"
      },
      "address": "Mount Neron, Saint Helier, Jersey"
    },
    {
      "lat": 49.195880325808815,
      "lon": -2.1352048565784383,
      "geoinfo": {
        "display_name": "Victoria Avenue, Vingtaine du Mont Cochon, St Helier, JE3 1LL, Jersey",
        "road": "Victoria Avenue",
        "house_number": null,
        "neighbourhood": null,
        "suburb": null,
        "city_district": "Vingtaine du Mont Cochon",
        "city": "St Helier",
        "state": null,
        "postcode": "JE3 1LL",
        "country": "Jersey",
        "country_code": "je"
      },
      "address": "Victoria Avenue, Saint Helier, Jersey"
    },
    {
      "lat": 49.20750532609606,
      "lon": -2.0822657431729668,
      "geoinfo": {
        "display_name": "Les Ruettes, Five Oaks, Vingtaine de dessous l'Église, St Saviour, JE2 7NH, Jersey",
        "road": "Les Ruettes",
        "house_number": null,
        "neighbourhood": null,
        "suburb": "Five Oaks",
        "city_district": "Vingtaine de dessous l'Église",
        "city": "St Saviour",
        "state": null,
        "postcode": "JE2 7NH",
        "country": "Jersey",
        "country_code": "je"
      },
      "address": "Les Ruettes, Saint Helier, Jersey"
    },
    {
      "lat": 49.21562040790058,
      "lon": -2.1578195290059514,
      "geoinfo": {
        "display_name": "Rue de la Ville au Bas, La Vingtaine du Coin Tourgis Sud, Saint Lawrence, JE3 1FU, Jersey",
        "road": "Rue de la Ville au Bas",
        "house_number": null,
        "neighbourhood": null,
        "suburb": null,
        "city_district": "La Vingtaine du Coin Tourgis Sud",
        "city": "Saint Lawrence",
        "state": null,
        "postcode": "JE3 1FU",
        "country": "Jersey",
        "country_code": "je"
      },
      "address": "Rue de la Ville au Bas, Saint Helier, Jersey"
    },
    {
      "lat": 49.19836811182009,
      "lon": -2.109860111113822,
      "geoinfo": {
        "display_name": "La Pouquelaye, Vingtaine du Mont à l'Abbé, St Helier, JE2 3LE, Jersey",
        "road": "La Pouquelaye",
        "house_number": null,
        "neighbourhood": null,
        "suburb": null,
        "city_district": "Vingtaine du Mont à l'Abbé",
        "city": "St Helier",
        "state": null,
        "postcode": "JE2 3LE",
        "country": "Jersey",
        "country_code": "je"
      },
      "address": "La Pouquelaye, Saint Helier, Jersey"
    },
    {
      "lat": 49.18242499509413,
      "lon": -2.091407462762029,
      "geoinfo": {
        "display_name": "Fountain Lane, Plat Douet, Vingtaine de Petite Longueville, St Saviour, JE2 4RS, Jersey",
        "road": "Fountain Lane",
        "house_number": null,
        "neighbourhood": null,
        "suburb": "Plat Douet",
        "city_district": "Vingtaine de Petite Longueville",
        "city": "St Saviour",
        "state": null,
        "postcode": "JE2 4RS",
        "country": "Jersey",
        "country_code": "je"
      },
      "address": "Fountain Lane, Saint Helier, Jersey"
    },
    {
      "lat": 49.197469987011054,
      "lon": -2.1102517696943273,
      "geoinfo": {
        "display_name": "Nomond Avenue, Normond Avenue, Vingtaine du Mont à l'Abbé, St Helier, JE2 3ZB, Jersey",
        "road": "Nomond Avenue",
        "house_number": null,
        "neighbourhood": null,
        "suburb": null,
        "city_district": "Vingtaine du Mont à l'Abbé",
        "city": "St Helier",
        "state": null,
        "postcode": "JE2 3ZB",
        "country": "Jersey",
        "country_code": "je"
      },
      "address": "Nomond Avenue, Saint Helier, Jersey"
    },
    {
      "lat": 49.205032426424104,
      "lon": -2.125520755330049,
      "geoinfo": {
        "display_name": "Ruelle Vaucluse, Vingtaine du Mont Cochon, St Helier, JE2 3LN, Jersey",
        "road": "Ruelle Vaucluse",
        "house_number": null,
        "neighbourhood": null,
        "suburb": null,
        "city_district": "Vingtaine du Mont Cochon",
        "city": "St Helier",
        "state": null,
        "postcode": "JE2 3LN",
        "country": "Jersey",
        "country_code": "je"
      },
      "address": "Ruelle Vaucluse, Saint Helier, Jersey"
    },
    {
      "lat": 49.19280941827132,
      "lon": -2.1247092086103825,
      "geoinfo": {
        "display_name": "Bellozanne Road, Route de St. Aubin, Vingtaine du Mont à l'Abbé, St Helier, JE2 3SF, Jersey",
        "road": "Route de St. Aubin",
        "house_number": null,
        "neighbourhood": null,
        "suburb": null,
        "city_district": "Vingtaine du Mont à l'Abbé",
        "city": "St Helier",
        "state": null,
        "postcode": "JE2 3SF",
        "country": "Jersey",
        "country_code": "je"
      },
      "address": "Route de St. Aubin, Saint Helier, Jersey"
    }
  ],
  "updated_at": "2025-10-16T17:19:32.407836+00:00",
  "_kind": "geo_samples"
}