{
  "country_code": "KW",
  "country": "Kuwait",
  "city": "Al Aḩmadī",
  "geonameid": 285839,
  "target_addresses": 6,
  "samples": [
    {
      "lat": 29.04876735928697,
      "lon": 48.119911496027996,
      "geoinfo": {
        "display_name": "305 Shuaiba Port, Shuaiba, Ahmadi Governorate, 53302, Kuwait",
        "road": "305 Shuaiba Port",
        "house_number": null,
        "neighbourhood": null,
        "suburb": null,
        "city_district": null,
        "city": "Shuaiba",
        "state": "Ahmadi Governorate",
        "postcode": "53302",
        "country": "Kuwait",
        "country_code": "kw"
      },
      "address": "305 Shuaiba Port, Al Aḩmadī, Ahmadi Governorate, Kuwait"
    },
    {
      "lat": 29.11012163339702,
      "lon": 48.0589897175258,
      "geoinfo": {
        "display_name": "Riqqa Subahiya Road, East Ahmadi - Block 13, North Ahmadi, Ahmadi, East Ahmadi, Ahmadi Governorate, 60012, Kuwait",
        "road": "Riqqa Subahiya Road",
        "house_number": null,
        "neighbourhood": "East Ahmadi - Block 13",
        "suburb": "North Ahmadi",
        "city_district": null,
        "city": "Ahmadi",
        "state": "Ahmadi Governorate",
        "postcode": "60012",
        "country": "Kuwait",
        "country_code": "kw"
      },
      "address": "Riqqa Subahiya Road, Al Aḩmadī, Ahmadi Governorate, Kuwait"
    },
    {
      "lat": 29.080983260063153,
      "lon": 48.12694500930422,
      "geoinfo": {
        "display_name": "Turfa Bin Al-Abd Street, Fahaheel - Block 8, Fahaheel, Ahmadi Governorate, 63008, Kuwait",
        "road": "Turfa Bin Al-Abd Street",
        "house_number": null,
        "neighbourhood": "Fahaheel - Block 8",
        "suburb": "Fahaheel",
        "city_district": null,
        "city": "Fahaheel",
        "state": "Ahmadi Governorate",
        "postcode": "63008",
        "country": "Kuwait",
        "country_code": "kw"
      },
      "address": "Turfa Bin Al-Abd Street, Al Aḩmadī, Ahmadi Governorate, Kuwait"
    },
    {
      "lat": 29.052444690705624,
      "lon": 48.04818287896382,
      "geoinfo": {
        "display_name": "South Ahmadi, Ahmadi, East Ahmadi, Ahmadi Governorate, 60012, Kuwait",
        "road": null,
        "house_number": null,
        "neighbourhood": null,
        "suburb": "South Ahmadi",
        "city_district": null,
        "city": "Ahmadi",
        "state": "Ahmadi Governorate",
        "postcode": "60012",
        "country": "Kuwait",
        "country_code": "kw"
      },
      "address": "South Ahmadi, Al Aḩmadī, Ahmadi Governorate, Kuwait"
    },
    {
      "lat": 29.044944595328847,
      "lon": 48.07587517180779,
      "geoinfo": {
        "display_name": "Ahmadi (Quarries), Ahmadi, Ahmadi Governorate, Kuwait",
        "road": null,
        "house_number": null,
        "neighbourhood": null,
        "suburb": null,
        "city_district": null,
        "city": "Ahmadi",
        "state": "Ahmadi Governorate",
        "postcode": null,
        "country": "Kuwait",
        "country_code": "kw"
      },
      "address": "Al Aḩmadī, Ahmadi Governorate, Kuwait"
    },
    {
      "lat": 29.075826794010528,
      "lon": 48.065693695860155,
      "geoinfo": {
        "display_name": "Mina Ahmadi Road, East Ahmadi - Block 8, South Ahmadi, Ahmadi, East Ahmadi, Ahmadi Governorate, 60012, Kuwait",
        "road": "Mina Ahmadi Road",
        "house_number": null,
        "neighbourhood": "East Ahmadi - Block 8",
        "suburb": "South Ahmadi",
        "city_district": null,
        "city": "Ahmadi",
        "state": "Ahmadi Governorate",
        "postcode": "60012",
        "country": "Kuwait",
        "country_code": "kw"
      },
      "address": "Mina Ahmadi Road, Al Aḩmadī, Ahmadi Governorate, Kuwait"
    },
    {
      "lat": 29.076266921303013,
      "lon": 48.10468381503396,
      "geoinfo": {
        "display_name": "South-Sabahiya, Ahmadi Governorate, 53302, Kuwait",
        "road": null,
        "house_number": null,
        "neighbourhood": null,
        "suburb": null,
        "city_district": null,
        "city": "South-Sabahiya",
        "state": "Ahmadi Governorate",
        "postcode": "53302",
        "country": "Kuwait",
        "country_code": "kw"
      },
      "address": "639, Al Aḩmadī, 53302 Ahmadi Governorate, Kuwait"
    },
    {
      "lat": 29.08115228454275,
      "lon": 48.0491588989676,
      "geoinfo": {
        "display_name": "Magwa Road, East Ahmadi - Block 8, Ahmadi, East Ahmadi, Ahmadi Governorate, 60012, Kuwait",
        "road": "Magwa Road",
        "house_number": null,
        "neighbourhood": "East Ahmadi - Block 8",
        "suburb": null,
        "city_district": null,
        "city": "Ahmadi",
        "state": "Ahmadi Governorate",
        "postcode": "60012",
        "country": "Kuwait",
        "country_code": "kw"
      },
      "address": "804, Magwa Road, Al Aḩmadī, 60012 Ahmadi Governorate, Kuwait"
    },
    {
      "lat": 29.09536320440762,
      "lon": 48.06360393836458,
      "geoinfo": {
        "display_name": "7, 3rd Street North, East Ahmadi - Block 14, North Ahmadi, Ahmadi, East Ahmadi, Ahmadi Governorate, 60012, Kuwait",
        "road": "3rd Street North",
        "house_number": "7",
        "neighbourhood": "East Ahmadi - Block 14",
        "suburb": "North Ahmadi",
        "city_district": null,
        "city": "Ahmadi",
        "state": "Ahmadi Governorate",
        "postcode": "60012",
        "country": "Kuwait",
        "country_code": "kw"
      },
      "address": "3rd Street North, Al Aḩmadī, 60012 Ahmadi Governorate, Kuwait"
    },
    {
      "lat": 29.10261068623813,
      "lon": 48.090299918830404,
      "geoinfo": {
        "display_name": "King Fahad Bin Abdul Aziz Road, East Ahmadi - Block 10, East Ahmadi, Ahmadi, East Ahmadi, Ahmadi Governorate, 60012, Kuwait",
        "road": "King Fahad Bin Abdul Aziz Road",
        "house_number": null,
        "neighbourhood": "East Ahmadi - Block 10",
        "suburb": "East Ahmadi",
        "city_district": null,
        "city": "Ahmadi",
        "state": "Ahmadi Governorate",
        "postcode": "60012",
        "country": "Kuwait",
        "country_code": "kw"
      },
      "address": "052, King Fahad Bin Abdul Aziz Road, Al Aḩmadī, 60012 Ahmadi Governorate, Kuwait"
    },
    {
      "lat": 29.066657458485153,
      "lon": 48.10573072094156,
      "geoinfo": {
        "display_name": "South-Sabahiya, Ahmadi Governorate, 53302, Kuwait",
        "road": null,
        "house_number": null,
        "neighbourhood": null,
        "suburb": null,
        "city_district": null,
        "city": "South-Sabahiya",
        "state": "Ahmadi Governorate",
        "postcode": "53302",
        "country": "Kuwait",
        "country_code": "kw"
      },
      "address": "064, Al Aḩmadī, 53302 Ahmadi Governorate, Kuwait"
    },
    {
      "lat": 29.051058408721726,
      "lon": 48.10917446168654,
      "geoinfo": {
        "display_name": "King Abdulaziz Bin Abdulrahman Al Saud Expressway, Shuaiba, Ahmadi Governorate, 53302, Kuwait",
        "road": "King Abdulaziz Bin Abdulrahman Al Saud Expressway",
        "house_number": null,
        "neighbourhood": null,
        "suburb": null,
        "city_district": null,
        "city": "Shuaiba",
        "state": "Ahmadi Governorate",
        "postcode": "53302",
        "country": "Kuwait",
        "country_code": "kw"
      },
      "address": "527, King Abdulaziz Bin Abdulrahman Al Saud Expressway, Shuaiba, Ahmadi Governorate, 53302, Kuwait"
    }
  ],
  "updated_at": "2025-10-19T05:45:26.453049+00:00",
  "_kind": "geo_samples"
}