{
  "country_code": "KW",
  "country": "Kuwait",
  "city": "Al Farwānīyah",
  "geonameid": 285815,
  "target_addresses": 6,
  "samples": [
    {
      "lat": 29.237367531094606,
      "lon": 47.961113137581584,
      "geoinfo": {
        "display_name": "International Airport, Farwaniya Governorate, 54117, Kuwait",
        "road": null,
        "house_number": null,
        "neighbourhood": null,
        "suburb": null,
        "city_district": null,
        "city": "International Airport",
        "state": "Farwaniya Governorate",
        "postcode": "54117",
        "country": "Kuwait",
        "country_code": "kw"
      },
      "address": "Al Farwānīyah, Farwaniya Governorate, Kuwait"
    },
    {
      "lat": 29.2998983599451,
      "lon": 47.92850078418171,
      "geoinfo": {
        "display_name": "44, Street 2, Block 4, Rabiya, Farwaniya Governorate, 85201, Kuwait",
        "road": "Street 2",
        "house_number": "44",
        "neighbourhood": "Block 4",
        "suburb": "Rabiya",
        "city_district": null,
        "city": "Rabiya",
        "state": "Farwaniya Governorate",
        "postcode": "85201",
        "country": "Kuwait",
        "country_code": "kw"
      },
      "address": "44 Street 2, Al Farwānīyah, Farwaniya Governorate, Kuwait"
    },
    {
      "lat": 29.241082544248393,
      "lon": 47.97794476835923,
      "geoinfo": {
        "display_name": "55, International Airport, Farwaniya Governorate, 46010, Kuwait",
        "road": "55",
        "house_number": null,
        "neighbourhood": null,
        "suburb": null,
        "city_district": null,
        "city": "International Airport",
        "state": "Farwaniya Governorate",
        "postcode": "46010",
        "country": "Kuwait",
        "country_code": "kw"
      },
      "address": "55, Al Farwānīyah, Farwaniya Governorate, Kuwait"
    },
    {
      "lat": 29.250517138440397,
      "lon": 47.92654863743071,
      "geoinfo": {
        "display_name": "Street 200, Jileeb Al-Shuyoukh - Block 4, Jaleeb Al Shoyoukh, Farwaniya Governorate, 85600, Kuwait",
        "road": "Street 200",
        "house_number": null,
        "neighbourhood": null,
        "suburb": null,
        "city_district": "Jileeb Al-Shuyoukh - Block 4",
        "city": "Jaleeb Al Shoyoukh",
        "state": "Farwaniya Governorate",
        "postcode": "85600",
        "country": "Kuwait",
        "country_code": "kw"
      },
      "address": "Street 200, Al Farwānīyah, Farwaniya Governorate, Kuwait"
    },
    {
      "lat": 29.252537603306457,
      "lon": 47.9554051612466,
      "geoinfo": {
        "display_name": "Ghazali Road, Farwaniya - Block 5, Farwaniya, International Airport, Farwaniya Governorate, 54117, Kuwait",
        "road": "Ghazali Road",
        "house_number": null,
        "neighbourhood": "Farwaniya - Block 5",
        "suburb": "Farwaniya",
        "city_district": null,
        "city": "International Airport",
        "state": "Farwaniya Governorate",
        "postcode": "54117",
        "country": "Kuwait",
        "country_code": "kw"
      },
      "address": "Ghazali Road, Al Farwānīyah, Farwaniya Governorate, Kuwait"
    },
    {
      "lat": 29.30597935375203,
      "lon": 47.92257081860478,
      "geoinfo": {
        "display_name": "Riggai 1, Riggai, Farwaniya Governorate, 85201, Kuwait",
        "road": null,
        "house_number": null,
        "neighbourhood": "Riggai 1",
        "suburb": null,
        "city_district": null,
        "city": "Riggai",
        "state": "Farwaniya Governorate",
        "postcode": "85201",
        "country": "Kuwait",
        "country_code": "kw"
      },
      "address": "Riggai 1, Al Farwānīyah, Farwaniya Governorate, Kuwait"
    },
    {
      "lat": 29.274839967090024,
      "lon": 47.949510405564894,
      "geoinfo": {
        "display_name": "Street 109, Ishbilya 1, Ishbiliya, Farwaniya Governorate, 54117, Kuwait",
        "road": "Street 109",
        "house_number": null,
        "neighbourhood": "Ishbilya 1",
        "suburb": null,
        "city_district": null,
        "city": "Ishbiliya",
        "state": "Farwaniya Governorate",
        "postcode": "54117",
        "country": "Kuwait",
        "country_code": "kw"
      },
      "address": "Street 109, Al Farwānīyah, 54117 Farwaniya Governorate, Kuwait"
    },
    {
      "lat": 29.284958745045234,
      "lon": 47.99551144801627,
      "geoinfo": {
        "display_name": "30, Street 203, Zahra - Block 2, Zahra, Hawalli Governorate, 47707, Kuwait",
        "road": "Street 203",
        "house_number": "30",
        "neighbourhood": "Zahra - Block 2",
        "suburb": null,
        "city_district": null,
        "city": "Zahra",
        "state": "Hawalli Governorate",
        "postcode": "47707",
        "country": "Kuwait",
        "country_code": "kw"
      },
      "address": "Street 203, Al Farwānīyah, 47707 Hawalli Governorate, Kuwait"
    },
    {
      "lat": 29.266393385384504,
      "lon": 47.95979095970281,
      "geoinfo": {
        "display_name": "Jassim Mohammed Al Kharafi Road, Farwaniya - Block 6, Farwaniya, Farwaniya Governorate, 54117, Kuwait",
        "road": "Jassim Mohammed Al Kharafi Road",
        "house_number": null,
        "neighbourhood": "Farwaniya - Block 6",
        "suburb": null,
        "city_district": null,
        "city": "Farwaniya",
        "state": "Farwaniya Governorate",
        "postcode": "54117",
        "country": "Kuwait",
        "country_code": "kw"
      },
      "address": "Jassim Mohammed Al Kharafi Road, Farwaniya - Block 6, Farwaniya, Farwaniya Governorate, 54117, Kuwait"
    },
    {
      "lat": 29.237662672904033,
      "lon": 47.98002174917122,
      "geoinfo": {
        "display_name": "55, International Airport, Farwaniya Governorate, 46010, Kuwait",
        "road": "55",
        "house_number": null,
        "neighbourhood": null,
        "suburb": null,
        "city_district": null,
        "city": "International Airport",
        "state": "Farwaniya Governorate",
        "postcode": "46010",
        "country": "Kuwait",
        "country_code": "kw"
      },
      "address": "55, Al Farwānīyah, 46010 Farwaniya Governorate, Kuwait"
    },
    {
      "lat": 29.248428473351407,
      "lon": 47.99492776801149,
      "geoinfo": {
        "display_name": "Wista, Mubarak al-Kabir Governorate, 20011, Kuwait",
        "road": null,
        "house_number": null,
        "neighbourhood": null,
        "suburb": null,
        "city_district": null,
        "city": "Wista",
        "state": "Mubarak al-Kabir Governorate",
        "postcode": "20011",
        "country": "Kuwait",
        "country_code": "kw"
      },
      "address": "637, Al Farwānīyah, 20011 Mubarak al-Kabir Governorate, Kuwait"
    },
    {
      "lat": 29.279977047229476,
      "lon": 47.97384370964696,
      "geoinfo": {
        "display_name": "7, Street 98, Block 4, Khaitan, Farwaniya Governorate, 83004, Kuwait",
        "road": "Street 98",
        "house_number": "7",
        "neighbourhood": "Block 4",
        "suburb": "Khaitan",
        "city_district": null,
        "city": "Khaitan",
        "state": "Farwaniya Governorate",
        "postcode": "83004",
        "country": "Kuwait",
        "country_code": "kw"
      },
      "address": "Street 98, Al Farwānīyah, 83004 Farwaniya Governorate, Kuwait"
    }
  ],
  "updated_at": "2025-10-19T05:41:54.299745+00:00",
  "_kind": "geo_samples"
}