{
  "country_code": "KW",
  "country": "Kuwait",
  "city": "Al Manqaf",
  "geonameid": 285778,
  "target_addresses": 6,
  "samples": [
    {
      "lat": 29.106998655810305,
      "lon": 48.14681279721583,
      "geoinfo": {
        "display_name": "Mangaf, Ahmadi Governorate, 63008, Kuwait",
        "road": null,
        "house_number": null,
        "neighbourhood": null,
        "suburb": "Mangaf",
        "city_district": null,
        "city": "Mangaf",
        "state": "Ahmadi Governorate",
        "postcode": "63008",
        "country": "Kuwait",
        "country_code": "kw"
      },
      "address": "Mangaf, Al Manqaf, Ahmadi Governorate, Kuwait"
    },
    {
      "lat": 29.104655121767763,
      "lon": 48.18097149333451,
      "geoinfo": {
        "display_name": "Ahmadi, East Ahmadi, Ahmadi Governorate, 60012, Kuwait",
        "road": null,
        "house_number": null,
        "neighbourhood": null,
        "suburb": null,
        "city_district": null,
        "city": "Ahmadi",
        "state": "Ahmadi Governorate",
        "postcode": "60012",
        "country": "Kuwait",
        "country_code": "kw"
      },
      "address": "Al Manqaf, Ahmadi Governorate, Kuwait"
    },
    {
      "lat": 29.127619384784165,
      "lon": 48.1414024008697,
      "geoinfo": {
        "display_name": "Salem Sabah Al Salem Al Sabah Street, Mangaf Coast - 5, Mangaf, Ahmadi Governorate, 63008, Kuwait",
        "road": "Salem Sabah Al Salem Al Sabah Street",
        "house_number": null,
        "neighbourhood": "Mangaf Coast - 5",
        "suburb": "Mangaf",
        "city_district": null,
        "city": "Mangaf",
        "state": "Ahmadi Governorate",
        "postcode": "63008",
        "country": "Kuwait",
        "country_code": "kw"
      },
      "address": "Salem Sabah Al Salem Al Sabah Street, Al Manqaf, Ahmadi Governorate, Kuwait"
    },
    {
      "lat": 29.131407337702065,
      "lon": 48.15831397857279,
      "geoinfo": {
        "display_name": "Abu Halifa, Ahmadi Governorate, 54001, Kuwait",
        "road": null,
        "house_number": null,
        "neighbourhood": null,
        "suburb": "Abu Halifa",
        "city_district": null,
        "city": "Abu Halifa",
        "state": "Ahmadi Governorate",
        "postcode": "54001",
        "country": "Kuwait",
        "country_code": "kw"
      },
      "address": "Abu Halifa, Al Manqaf, Ahmadi Governorate, Kuwait"
    },
    {
      "lat": 29.05777009037022,
      "lon": 48.15605242839582,
      "geoinfo": {
        "display_name": "305, East Shuaiba Industrial, Ahmadi Governorate, 65200, Kuwait",
        "road": "305",
        "house_number": null,
        "neighbourhood": null,
        "suburb": null,
        "city_district": null,
        "city": "East Shuaiba Industrial",
        "state": "Ahmadi Governorate",
        "postcode": "65200",
        "country": "Kuwait",
        "country_code": "kw"
      },
      "address": "305, Al Manqaf, Ahmadi Governorate, Kuwait"
    },
    {
      "lat": 29.087797334191265,
      "lon": 48.1376583903664,
      "geoinfo": {
        "display_name": "Salem Sabah Al Salem Al Sabah Street, Fahaheel - Block 10, Fahaheel, Ahmadi Governorate, 63008, Kuwait",
        "road": "Salem Sabah Al Salem Al Sabah Street",
        "house_number": null,
        "neighbourhood": "Fahaheel - Block 10",
        "suburb": "Fahaheel",
        "city_district": null,
        "city": "Fahaheel",
        "state": "Ahmadi Governorate",
        "postcode": "63008",
        "country": "Kuwait",
        "country_code": "kw"
      },
      "address": "Salem Sabah Al Salem Al Sabah Street, Fahaheel - Block 10, Fahaheel, Ahmadi Governorate, 63008, Kuwait"
    },
    {
      "lat": 29.096392067543476,
      "lon": 48.14521630597197,
      "geoinfo": {
        "display_name": "Fahaheel Sea Club, Salem Sabah Al Salem Al Sabah Street, Mangaf Coast - 5, Mangaf, Ahmadi Governorate, 63008, Kuwait",
        "road": "Salem Sabah Al Salem Al Sabah Street",
        "house_number": null,
        "neighbourhood": "Mangaf Coast - 5",
        "suburb": "Mangaf",
        "city_district": null,
        "city": "Mangaf",
        "state": "Ahmadi Governorate",
        "postcode": "63008",
        "country": "Kuwait",
        "country_code": "kw"
      },
      "address": "Fahaheel Sea Club, Salem Sabah Al Salem Al Sabah Street, Mangaf Coast - 5, Mangaf, Ahmadi Governorate, 63008, Kuwait"
    },
    {
      "lat": 29.060769279154652,
      "lon": 48.12555615499542,
      "geoinfo": {
        "display_name": "Mina Al Ahmadi Refinery, Shuaiba, Ahmadi Governorate, 53302, Kuwait",
        "road": null,
        "house_number": null,
        "neighbourhood": null,
        "suburb": null,
        "city_district": null,
        "city": "Shuaiba",
        "state": "Ahmadi Governorate",
        "postcode": "53302",
        "country": "Kuwait",
        "country_code": "kw"
      },
      "address": "243, Mina Al Ahmadi Refinery, Shuaiba, Ahmadi Governorate, 53302, Kuwait"
    },
    {
      "lat": 29.059671833968597,
      "lon": 48.11991296452334,
      "geoinfo": {
        "display_name": "Mina Al Ahmadi Refinery, Shuaiba, Ahmadi Governorate, 53302, Kuwait",
        "road": null,
        "house_number": null,
        "neighbourhood": null,
        "suburb": null,
        "city_district": null,
        "city": "Shuaiba",
        "state": "Ahmadi Governorate",
        "postcode": "53302",
        "country": "Kuwait",
        "country_code": "kw"
      },
      "address": "308, Mina Al Ahmadi Refinery, Shuaiba, Ahmadi Governorate, 53302, Kuwait"
    },
    {
      "lat": 29.077712252502057,
      "lon": 48.1409069293126,
      "geoinfo": {
        "display_name": "Fahad Sanad Abdullhadi Al Ajmi, Khalid Alsfaih Road, Fahaheel - Block 12, Fahaheel, Ahmadi Governorate, 63008, Kuwait",
        "road": "Khalid Alsfaih Road",
        "house_number": null,
        "neighbourhood": "Fahaheel - Block 12",
        "suburb": "Fahaheel",
        "city_district": null,
        "city": "Fahaheel",
        "state": "Ahmadi Governorate",
        "postcode": "63008",
        "country": "Kuwait",
        "country_code": "kw"
      },
      "address": "Fahad Sanad Abdullhadi Al Ajmi, Khalid Alsfaih Road, Fahaheel - Block 12, Fahaheel, Ahmadi Governorate, 63008, Kuwait"
    }
  ],
  "updated_at": "2025-10-19T05:18:51.377730+00:00",
  "_kind": "geo_samples"
}