{
  "country_code": "KW",
  "country": "Kuwait",
  "city": "Bayān",
  "geonameid": 285663,
  "target_addresses": 6,
  "samples": [
    {
      "lat": 29.304448166074426,
      "lon": 48.056229193608075,
      "geoinfo": {
        "display_name": "20, Street 1, Bayan - Block 4, Bayan, Hawalli Governorate, 32001, Kuwait",
        "road": "Street 1",
        "house_number": "20",
        "neighbourhood": "Bayan - Block 4",
        "suburb": null,
        "city_district": null,
        "city": "Bayan",
        "state": "Hawalli Governorate",
        "postcode": "32001",
        "country": "Kuwait",
        "country_code": "kw"
      },
      "address": "20 Street 1, Bayān, Hawalli Governorate, Kuwait"
    },
    {
      "lat": 29.326782456516323,
      "lon": 48.05279965371343,
      "geoinfo": {
        "display_name": "Street 2 Lane 1, Salmiya - Block 12, Maidan Hawalli, Salmiya, Hawalli Governorate, 30007, Kuwait",
        "road": "Street 2 Lane 1",
        "house_number": null,
        "neighbourhood": "Salmiya - Block 12",
        "suburb": "Maidan Hawalli",
        "city_district": null,
        "city": "Salmiya",
        "state": "Hawalli Governorate",
        "postcode": "30007",
        "country": "Kuwait",
        "country_code": "kw"
      },
      "address": "Street 2 Lane 1, Bayān, Hawalli Governorate, Kuwait"
    },
    {
      "lat": 29.309610955881595,
      "lon": 48.08935782155603,
      "geoinfo": {
        "display_name": "Coast Strip A, Hawalli Governorate, 25409, Kuwait",
        "road": null,
        "house_number": null,
        "neighbourhood": null,
        "suburb": null,
        "city_district": null,
        "city": "Coast Strip A",
        "state": "Hawalli Governorate",
        "postcode": "25409",
        "country": "Kuwait",
        "country_code": "kw"
      },
      "address": "Bayān, Hawalli Governorate, Kuwait"
    },
    {
      "lat": 29.307205611763383,
      "lon": 48.05147668530282,
      "geoinfo": {
        "display_name": "Essa Mohammad Almukhaizeem Street, Bayan - Block 1, Bayan, Hawalli Governorate, 32001, Kuwait",
        "road": "Essa Mohammad Almukhaizeem Street",
        "house_number": null,
        "neighbourhood": "Bayan - Block 1",
        "suburb": null,
        "city_district": null,
        "city": "Bayan",
        "state": "Hawalli Governorate",
        "postcode": "32001",
        "country": "Kuwait",
        "country_code": "kw"
      },
      "address": "Essa Mohammad Almukhaizeem Street, Bayān, Hawalli Governorate, Kuwait"
    },
    {
      "lat": 29.309129406727532,
      "lon": 48.021429354887346,
      "geoinfo": {
        "display_name": "King Fahad Bin Abdul Aziz Road, Block 9, Jabriya, Hawalli Governorate, 47702, Kuwait",
        "road": "King Fahad Bin Abdul Aziz Road",
        "house_number": null,
        "neighbourhood": "Block 9",
        "suburb": null,
        "city_district": null,
        "city": "Jabriya",
        "state": "Hawalli Governorate",
        "postcode": "47702",
        "country": "Kuwait",
        "country_code": "kw"
      },
      "address": "King Fahad Bin Abdul Aziz Road, Bayān, Hawalli Governorate, Kuwait"
    },
    {
      "lat": 29.298060325846627,
      "lon": 48.04257199538781,
      "geoinfo": {
        "display_name": "1, Street 5, Bayan - Block 6, Bayan, Hawalli Governorate, 32001, Kuwait",
        "road": "Street 5",
        "house_number": "1",
        "neighbourhood": "Bayan - Block 6",
        "suburb": null,
        "city_district": null,
        "city": "Bayan",
        "state": "Hawalli Governorate",
        "postcode": "32001",
        "country": "Kuwait",
        "country_code": "kw"
      },
      "address": "1 Street 5, Bayān, Hawalli Governorate, Kuwait"
    },
    {
      "lat": 29.282907837646384,
      "lon": 48.05026156695192,
      "geoinfo": {
        "display_name": "7, Street 117, Block 1, Mubarak Al-Abdullah, Hawalli Governorate, 32093, Kuwait",
        "road": "Street 117",
        "house_number": "7",
        "neighbourhood": "Block 1",
        "suburb": "Mubarak Al-Abdullah",
        "city_district": null,
        "city": null,
        "state": "Hawalli Governorate",
        "postcode": "32093",
        "country": "Kuwait",
        "country_code": "kw"
      },
      "address": "Street 117, Bayān, 32093 Hawalli Governorate, Kuwait"
    },
    {
      "lat": 29.26948935970886,
      "lon": 48.04322879010381,
      "geoinfo": {
        "display_name": "Block 6, Mubarak Al-Abdullah, Hawalli Governorate, 32093, Kuwait",
        "road": null,
        "house_number": null,
        "neighbourhood": "Block 6",
        "suburb": "Mubarak Al-Abdullah",
        "city_district": null,
        "city": null,
        "state": "Hawalli Governorate",
        "postcode": "32093",
        "country": "Kuwait",
        "country_code": "kw"
      },
      "address": "Block 6, Bayān, 32093 Hawalli Governorate, Kuwait"
    },
    {
      "lat": 29.293539399245088,
      "lon": 48.07945141411227,
      "geoinfo": {
        "display_name": "42, Street 5, Block 8, Salwa, Hawalli Governorate, 25600, Kuwait",
        "road": "Street 5",
        "house_number": "42",
        "neighbourhood": "Block 8",
        "suburb": "Salwa",
        "city_district": null,
        "city": "Salwa",
        "state": "Hawalli Governorate",
        "postcode": "25600",
        "country": "Kuwait",
        "country_code": "kw"
      },
      "address": "Street 5, Bayān, 25600 Hawalli Governorate, Kuwait"
    },
    {
      "lat": 29.298995664595076,
      "lon": 48.076516087384945,
      "geoinfo": {
        "display_name": "13, Street 10, Block 5, Salwa, Hawalli Governorate, 25409, Kuwait",
        "road": "Street 10",
        "house_number": "13",
        "neighbourhood": "Block 5",
        "suburb": "Salwa",
        "city_district": null,
        "city": "Salwa",
        "state": "Hawalli Governorate",
        "postcode": "25409",
        "country": "Kuwait",
        "country_code": "kw"
      },
      "address": "Street 10, Bayān, 25409 Hawalli Governorate, Kuwait"
    },
    {
      "lat": 29.289312959366164,
      "lon": 48.075722627501136,
      "geoinfo": {
        "display_name": "19, Street 4, Block 7, Salwa, Hawalli Governorate, 25600, Kuwait",
        "road": "Street 4",
        "house_number": "19",
        "neighbourhood": "Block 7",
        "suburb": "Salwa",
        "city_district": null,
        "city": "Salwa",
        "state": "Hawalli Governorate",
        "postcode": "25600",
        "country": "Kuwait",
        "country_code": "kw"
      },
      "address": "Street 4, Bayān, 25600 Hawalli Governorate, Kuwait"
    },
    {
      "lat": 29.278680624417813,
      "lon": 48.084740041221245,
      "geoinfo": {
        "display_name": "20, Street 14, Block 12, Salwa, Hawalli Governorate, 25600, Kuwait",
        "road": "Street 14",
        "house_number": "20",
        "neighbourhood": "Block 12",
        "suburb": null,
        "city_district": null,
        "city": "Salwa",
        "state": "Hawalli Governorate",
        "postcode": "25600",
        "country": "Kuwait",
        "country_code": "kw"
      },
      "address": "Street 14, Bayān, 25600 Hawalli Governorate, Kuwait"
    }
  ],
  "updated_at": "2025-10-19T03:38:23.003746+00:00",
  "_kind": "geo_samples"
}