{
  "country_code": "KW",
  "country": "Kuwait",
  "city": "Salwá",
  "geonameid": 387958,
  "target_addresses": 6,
  "samples": [
    {
      "lat": 29.294923743172596,
      "lon": 48.09162545528896,
      "geoinfo": {
        "display_name": "Street 42, Anjafa, Salwa, Hawalli Governorate, 25600, Kuwait",
        "road": "Street 42",
        "house_number": null,
        "neighbourhood": "Anjafa",
        "suburb": "Salwa",
        "city_district": null,
        "city": "Salwa",
        "state": "Hawalli Governorate",
        "postcode": "25600",
        "country": "Kuwait",
        "country_code": "kw"
      },
      "address": "Street 42, Salwá, Hawalli Governorate, Kuwait"
    },
    {
      "lat": 29.2635165907611,
      "lon": 48.09478043072235,
      "geoinfo": {
        "display_name": "Street 10, Mubarak al-Kabir Governorate, 25600, Kuwait",
        "road": "Street 10",
        "house_number": null,
        "neighbourhood": null,
        "suburb": null,
        "city_district": null,
        "city": null,
        "state": "Mubarak al-Kabir Governorate",
        "postcode": "25600",
        "country": "Kuwait",
        "country_code": "kw"
      },
      "address": "Street 10, Salwá, Mubarak al-Kabir Governorate, Kuwait"
    },
    {
      "lat": 29.269963571396474,
      "lon": 48.07539683961145,
      "geoinfo": {
        "display_name": "Block 5, Mishrif, Mishref, Hawalli Governorate, 25600, Kuwait",
        "road": null,
        "house_number": null,
        "neighbourhood": "Block 5",
        "suburb": "Mishrif",
        "city_district": null,
        "city": "Mishref",
        "state": "Hawalli Governorate",
        "postcode": "25600",
        "country": "Kuwait",
        "country_code": "kw"
      },
      "address": "Block 5, Salwá, Hawalli Governorate, Kuwait"
    },
    {
      "lat": 29.274299097497334,
      "lon": 48.07025941972308,
      "geoinfo": {
        "display_name": "7, Street 9, Block 4, Mishrif, Mishref, Hawalli Governorate, 25600, Kuwait",
        "road": "Street 9",
        "house_number": "7",
        "neighbourhood": "Block 4",
        "suburb": "Mishrif",
        "city_district": null,
        "city": "Mishref",
        "state": "Hawalli Governorate",
        "postcode": "25600",
        "country": "Kuwait",
        "country_code": "kw"
      },
      "address": "7 Street 9, Salwá, Hawalli Governorate, Kuwait"
    },
    {
      "lat": 29.28371593137304,
      "lon": 48.12508667074219,
      "geoinfo": {
        "display_name": "Rumaithiya, Hawalli Governorate, 25409, Kuwait",
        "road": null,
        "house_number": null,
        "neighbourhood": null,
        "suburb": null,
        "city_district": null,
        "city": "Rumaithiya",
        "state": "Hawalli Governorate",
        "postcode": "25409",
        "country": "Kuwait",
        "country_code": "kw"
      },
      "address": "Salwá, Hawalli Governorate, Kuwait"
    },
    {
      "lat": 29.300754995780792,
      "lon": 48.0488183481402,
      "geoinfo": {
        "display_name": "Street 2, Bayan - Block 5, Bayan, Hawalli Governorate, 32001, Kuwait",
        "road": "Street 2",
        "house_number": null,
        "neighbourhood": "Bayan - Block 5",
        "suburb": null,
        "city_district": null,
        "city": "Bayan",
        "state": "Hawalli Governorate",
        "postcode": "32001",
        "country": "Kuwait",
        "country_code": "kw"
      },
      "address": "Street 2, Salwá, Hawalli Governorate, Kuwait"
    },
    {
      "lat": 29.28522669332563,
      "lon": 48.07173625291789,
      "geoinfo": {
        "display_name": "Block 1, Mishrif, Mishref, Hawalli Governorate, 25600, Kuwait",
        "road": null,
        "house_number": null,
        "neighbourhood": "Block 1",
        "suburb": "Mishrif",
        "city_district": null,
        "city": "Mishref",
        "state": "Hawalli Governorate",
        "postcode": "25600",
        "country": "Kuwait",
        "country_code": "kw"
      },
      "address": "Block 1, Salwá, 25600 Hawalli Governorate, Kuwait"
    },
    {
      "lat": 29.329871814549254,
      "lon": 48.08607068483487,
      "geoinfo": {
        "display_name": "15, Street 7, Salmiya - Block 6, Salmiya, Hawalli Governorate, 20006, Kuwait",
        "road": "Street 7",
        "house_number": "15",
        "neighbourhood": "Salmiya - Block 6",
        "suburb": null,
        "city_district": null,
        "city": "Salmiya",
        "state": "Hawalli Governorate",
        "postcode": "20006",
        "country": "Kuwait",
        "country_code": "kw"
      },
      "address": "Street 7, Salwá, 20006 Hawalli Governorate, Kuwait"
    },
    {
      "lat": 29.296300759922566,
      "lon": 48.129067514706485,
      "geoinfo": {
        "display_name": "Rumaithiya, Hawalli Governorate, 25409, Kuwait",
        "road": null,
        "house_number": null,
        "neighbourhood": null,
        "suburb": null,
        "city_district": null,
        "city": "Rumaithiya",
        "state": "Hawalli Governorate",
        "postcode": "25409",
        "country": "Kuwait",
        "country_code": "kw"
      },
      "address": "425, Salwá, 25409 Hawalli Governorate, Kuwait"
    },
    {
      "lat": 29.32288672058154,
      "lon": 48.03804587559121,
      "geoinfo": {
        "display_name": "50, Street 3, Block 7, Jabriya, Hawalli Governorate, 32001, Kuwait",
        "road": "Street 3",
        "house_number": "50",
        "neighbourhood": "Block 7",
        "suburb": null,
        "city_district": null,
        "city": "Jabriya",
        "state": "Hawalli Governorate",
        "postcode": "32001",
        "country": "Kuwait",
        "country_code": "kw"
      },
      "address": "Street 3, Salwá, 32001 Hawalli Governorate, Kuwait"
    },
    {
      "lat": 29.25857576391059,
      "lon": 48.069419909065466,
      "geoinfo": {
        "display_name": "36, Street 2, Block 4, Sabah Al Salem, Mubarak al-Kabir Governorate, 00965, Kuwait",
        "road": "Street 2",
        "house_number": "36",
        "neighbourhood": "Block 4",
        "suburb": "Sabah Al Salem",
        "city_district": null,
        "city": "Sabah Al Salem",
        "state": "Mubarak al-Kabir Governorate",
        "postcode": "00965",
        "country": "Kuwait",
        "country_code": "kw"
      },
      "address": "36, Street 2, Block 4, Sabah Al Salem, Mubarak al-Kabir Governorate, 00965, Kuwait"
    },
    {
      "lat": 29.337128416471188,
      "lon": 48.07581715151625,
      "geoinfo": {
        "display_name": "Hamad Al-Mubarak Street, Salmiya - Block 5, Salmiya, Hawalli Governorate, 20004, Kuwait",
        "road": "Hamad Al-Mubarak Street",
        "house_number": null,
        "neighbourhood": "Salmiya - Block 5",
        "suburb": null,
        "city_district": null,
        "city": "Salmiya",
        "state": "Hawalli Governorate",
        "postcode": "20004",
        "country": "Kuwait",
        "country_code": "kw"
      },
      "address": "243, Hamad Al-Mubarak Street, Salwá, 20004 Hawalli Governorate, Kuwait"
    }
  ],
  "updated_at": "2025-10-19T05:19:16.747716+00:00",
  "_kind": "geo_samples"
}