{
  "country_code": "KW",
  "country": "Kuwait",
  "city": "Ḩawallī",
  "geonameid": 285629,
  "target_addresses": 6,
  "samples": [
    {
      "lat": 29.297692563699954,
      "lon": 48.03087998482951,
      "geoinfo": {
        "display_name": "Bayan - Block 13, Bayan, Hawalli Governorate, 47702, Kuwait",
        "road": null,
        "house_number": null,
        "neighbourhood": "Bayan - Block 13",
        "suburb": null,
        "city_district": null,
        "city": "Bayan",
        "state": "Hawalli Governorate",
        "postcode": "47702",
        "country": "Kuwait",
        "country_code": "kw"
      },
      "address": "Bayan - Block 13, Ḩawallī, Hawalli Governorate, Kuwait"
    },
    {
      "lat": 29.343211437314057,
      "lon": 48.011908707857145,
      "geoinfo": {
        "display_name": "Kuwait Bahrain, Bin Khaldoon Street, Hawally - Block 2, Hawally, Hawalli Governorate, 32003, Kuwait",
        "road": "Bin Khaldoon Street",
        "house_number": null,
        "neighbourhood": "Hawally - Block 2",
        "suburb": null,
        "city_district": null,
        "city": "Hawally",
        "state": "Hawalli Governorate",
        "postcode": "32003",
        "country": "Kuwait",
        "country_code": "kw"
      },
      "address": "Bin Khaldoon Street, Ḩawallī, Hawalli Governorate, Kuwait"
    },
    {
      "lat": 29.333916103797886,
      "lon": 48.00550663852361,
      "geoinfo": {
        "display_name": "1, Ebn Roshd Street, Hawally - Block 1, Hawally, Hawalli Governorate, 32003, Kuwait",
        "road": "Ebn Roshd Street",
        "house_number": "1",
        "neighbourhood": "Hawally - Block 1",
        "suburb": null,
        "city_district": null,
        "city": "Hawally",
        "state": "Hawalli Governorate",
        "postcode": "32003",
        "country": "Kuwait",
        "country_code": "kw"
      },
      "address": "1 Ebn Roshd Street, Ḩawallī, Hawalli Governorate, Kuwait"
    },
    {
      "lat": 29.319301499129715,
      "lon": 48.034873221925245,
      "geoinfo": {
        "display_name": "34, Street 5, Block 7, Jabriya, Hawalli Governorate, 32001, Kuwait",
        "road": "Street 5",
        "house_number": "34",
        "neighbourhood": "Block 7",
        "suburb": null,
        "city_district": null,
        "city": "Jabriya",
        "state": "Hawalli Governorate",
        "postcode": "32001",
        "country": "Kuwait",
        "country_code": "kw"
      },
      "address": "34 Street 5, Ḩawallī, Hawalli Governorate, Kuwait"
    },
    {
      "lat": 29.301867144043996,
      "lon": 48.02214586267039,
      "geoinfo": {
        "display_name": "Street 214, Salam - Block 2, Salam, Hawalli Governorate, 47702, Kuwait",
        "road": "Street 214",
        "house_number": null,
        "neighbourhood": "Salam - Block 2",
        "suburb": null,
        "city_district": null,
        "city": "Salam",
        "state": "Hawalli Governorate",
        "postcode": "47702",
        "country": "Kuwait",
        "country_code": "kw"
      },
      "address": "Street 214, Ḩawallī, Hawalli Governorate, Kuwait"
    },
    {
      "lat": 29.323866721205775,
      "lon": 48.03332444167982,
      "geoinfo": {
        "display_name": "54, Street 109, Block 7, Jabriya, Hawalli Governorate, 30004, Kuwait",
        "road": "Street 109",
        "house_number": "54",
        "neighbourhood": "Block 7",
        "suburb": null,
        "city_district": null,
        "city": "Jabriya",
        "state": "Hawalli Governorate",
        "postcode": "30004",
        "country": "Kuwait",
        "country_code": "kw"
      },
      "address": "54 Street 109, Ḩawallī, Hawalli Governorate, Kuwait"
    },
    {
      "lat": 29.333513764492952,
      "lon": 48.004121473981726,
      "geoinfo": {
        "display_name": "11, Street 40, Rawda 4 - Block 4, Rawda, Capital Governorate, 32003, Kuwait",
        "road": "Street 40",
        "house_number": "11",
        "neighbourhood": "Rawda 4 - Block 4",
        "suburb": null,
        "city_district": null,
        "city": "Rawda",
        "state": "Capital Governorate",
        "postcode": "32003",
        "country": "Kuwait",
        "country_code": "kw"
      },
      "address": "Street 40, Ḩawallī, 32003 Capital Governorate, Kuwait"
    },
    {
      "lat": 29.350841739521396,
      "lon": 48.02407698643571,
      "geoinfo": {
        "display_name": "36, Manama Street, Block 3, Shaab, Hawalli Governorate, 30004, Kuwait",
        "road": "Manama Street",
        "house_number": "36",
        "neighbourhood": "Block 3",
        "suburb": "Shaab",
        "city_district": null,
        "city": "Shaab",
        "state": "Hawalli Governorate",
        "postcode": "30004",
        "country": "Kuwait",
        "country_code": "kw"
      },
      "address": "36, Manama Street, Ḩawallī, 30004 Hawalli Governorate, Kuwait"
    },
    {
      "lat": 29.314131429656292,
      "lon": 48.006073764818076,
      "geoinfo": {
        "display_name": "Abdullatif Saleh Al Musalam Street, Surra - Block 6, Surra, Capital Governorate, 47701, Kuwait",
        "road": "Abdullatif Saleh Al Musalam Street",
        "house_number": null,
        "neighbourhood": "Surra - Block 6",
        "suburb": null,
        "city_district": null,
        "city": "Surra",
        "state": "Capital Governorate",
        "postcode": "47701",
        "country": "Kuwait",
        "country_code": "kw"
      },
      "address": "Abdullatif Saleh Al Musalam Street, Surra - Block 6, Surra, Capital Governorate, 47701, Kuwait"
    },
    {
      "lat": 29.35059060100959,
      "lon": 48.01000009249279,
      "geoinfo": {
        "display_name": "4, Street 92, Qadsiya - Block 9, Qadsiya, Capital Governorate, 32003, Kuwait",
        "road": "Street 92",
        "house_number": "4",
        "neighbourhood": "Qadsiya - Block 9",
        "suburb": null,
        "city_district": null,
        "city": "Qadsiya",
        "state": "Capital Governorate",
        "postcode": "32003",
        "country": "Kuwait",
        "country_code": "kw"
      },
      "address": "Street 92, Ḩawallī, 32003 Capital Governorate, Kuwait"
    },
    {
      "lat": 29.36741706621004,
      "lon": 48.03460566422908,
      "geoinfo": {
        "display_name": "Bnaid Al Qar, Capital Governorate, 35020, Kuwait",
        "road": null,
        "house_number": null,
        "neighbourhood": null,
        "suburb": "Bnaid Al Qar",
        "city_district": null,
        "city": "Bnaid Al Qar",
        "state": "Capital Governorate",
        "postcode": "35020",
        "country": "Kuwait",
        "country_code": "kw"
      },
      "address": "687, Bnaid Al Qar, Capital Governorate, 35020, Kuwait"
    },
    {
      "lat": 29.33541880159271,
      "lon": 47.99898174512496,
      "geoinfo": {
        "display_name": "Street 51, Rawda 4 - Block 4, Rawda, Capital Governorate, 32003, Kuwait",
        "road": "Street 51",
        "house_number": null,
        "neighbourhood": "Rawda 4 - Block 4",
        "suburb": null,
        "city_district": null,
        "city": "Rawda",
        "state": "Capital Governorate",
        "postcode": "32003",
        "country": "Kuwait",
        "country_code": "kw"
      },
      "address": "Street 51, Ḩawallī, 32003 Capital Governorate, Kuwait"
    }
  ],
  "updated_at": "2025-10-19T05:44:40.279426+00:00",
  "_kind": "geo_samples"
}