{
  "country_code": "MZ",
  "country": "Mozambique",
  "city": "Pemba",
  "geonameid": 1028918,
  "target_addresses": 2,
  "samples": [
    {
      "lat": -12.964338795689349,
      "lon": 40.52360746623568,
      "geoinfo": {
        "display_name": "Bairro Cariacó, Pemba, Cidade de Pemba, Cabo Delgado Province, Zona Norte, 3203, Mozambique",
        "road": null,
        "house_number": null,
        "neighbourhood": null,
        "suburb": "Bairro Cariacó",
        "city_district": null,
        "city": "Pemba",
        "state": "Cabo Delgado Province",
        "postcode": "3203",
        "country": "Mozambique",
        "country_code": "mz"
      },
      "address": "Bairro Cariacó, Pemba, Cabo Delgado Province, Mozambique"
    },
    {
      "lat": -12.990702073291539,
      "lon": 40.525418982801376,
      "geoinfo": {
        "display_name": "Pemba International Airport, DPS-  Depósito Provincial de Medicamentos., Bairro Alto Gingone, Pemba, Cidade de Pemba, Cabo Delgado Province, Zona Norte, 3203, Mozambique",
        "road": "DPS-  Depósito Provincial de Medicamentos.",
        "house_number": null,
        "neighbourhood": null,
        "suburb": "Bairro Alto Gingone",
        "city_district": null,
        "city": "Pemba",
        "state": "Cabo Delgado Province",
        "postcode": "3203",
        "country": "Mozambique",
        "country_code": "mz"
      },
      "address": "DPS-  Depósito Provincial de Medicamentos., Pemba, Cabo Delgado Province, Mozambique"
    },
    {
      "lat": -12.959893010589292,
      "lon": 40.537578411935115,
      "geoinfo": {
        "display_name": "Bairro Cariacó, Pemba, Cidade de Pemba, Cabo Delgado Province, Zona Norte, 3203, Mozambique",
        "road": null,
        "house_number": null,
        "neighbourhood": null,
        "suburb": "Bairro Cariacó",
        "city_district": null,
        "city": "Pemba",
        "state": "Cabo Delgado Province",
        "postcode": "3203",
        "country": "Mozambique",
        "country_code": "mz"
      },
      "address": "856, Bairro Cariacó, Pemba, Cidade de Pemba, Cabo Delgado Province, Zona Norte, 3203, Mozambique"
    },
    {
      "lat": -12.982736822763826,
      "lon": 40.55838796840963,
      "geoinfo": {
        "display_name": "Bairro Maringanha, Pemba, Cidade de Pemba, Cabo Delgado Province, Zona Norte, 1234, Mozambique",
        "road": null,
        "house_number": null,
        "neighbourhood": null,
        "suburb": "Bairro Maringanha",
        "city_district": null,
        "city": "Pemba",
        "state": "Cabo Delgado Province",
        "postcode": "1234",
        "country": "Mozambique",
        "country_code": "mz"
      },
      "address": "379, Bairro Maringanha, Pemba, Cidade de Pemba, Cabo Delgado Province, Zona Norte, 1234, Mozambique"
    }
  ],
  "updated_at": "2025-10-19T05:55:05.520611+00:00",
  "_kind": "geo_samples"
}