{
  "country_code": "GE",
  "country": "Georgia",
  "city": "Khashuri",
  "geonameid": 613988,
  "target_addresses": 6,
  "samples": [
    {
      "lat": 42.00988788676004,
      "lon": 43.64232562539502,
      "geoinfo": {
        "display_name": "Zemo Osiauri, Khashuri Municipality, Shida Kartli, 5700, Georgia",
        "road": null,
        "house_number": null,
        "neighbourhood": null,
        "suburb": null,
        "city_district": null,
        "city": "Zemo Osiauri",
        "state": "Shida Kartli",
        "postcode": "5700",
        "country": "Georgia",
        "country_code": "ge"
      },
      "address": "Khashuri, Shida Kartli, Georgia"
    },
    {
      "lat": 42.013608349626,
      "lon": 43.5736685817098,
      "geoinfo": {
        "display_name": "Grigol Surameli Street, Kakaltkhevi, Surami, Khashuri Municipality, Shida Kartli, 5700, Georgia",
        "road": "Grigol Surameli Street",
        "house_number": null,
        "neighbourhood": "Kakaltkhevi",
        "suburb": null,
        "city_district": null,
        "city": "Surami",
        "state": "Shida Kartli",
        "postcode": "5700",
        "country": "Georgia",
        "country_code": "ge"
      },
      "address": "Grigol Surameli Street, Khashuri, Shida Kartli, Georgia"
    },
    {
      "lat": 41.99710599324612,
      "lon": 43.64415647159906,
      "geoinfo": {
        "display_name": "Khashuri — Akhaltsikhe — Vale, Kvemo Osiauri, Khashuri Municipality, Shida Kartli, 5700, Georgia",
        "road": "Khashuri — Akhaltsikhe — Vale",
        "house_number": null,
        "neighbourhood": null,
        "suburb": null,
        "city_district": null,
        "city": "Kvemo Osiauri",
        "state": "Shida Kartli",
        "postcode": "5700",
        "country": "Georgia",
        "country_code": "ge"
      },
      "address": "Khashuri — Akhaltsikhe — Vale, Khashuri, Shida Kartli, Georgia"
    },
    {
      "lat": 42.03769636332435,
      "lon": 43.60916571993572,
      "geoinfo": {
        "display_name": "ქემფერის წმ.ნინოს სახ.ეკლესია, Tbilisi — Senaki — Leselidze, Surami, Khashuri Municipality, Shida Kartli, 5700, Georgia",
        "road": "Tbilisi — Senaki — Leselidze",
        "house_number": null,
        "neighbourhood": null,
        "suburb": null,
        "city_district": null,
        "city": "Surami",
        "state": "Shida Kartli",
        "postcode": "5700",
        "country": "Georgia",
        "country_code": "ge"
      },
      "address": "Tbilisi — Senaki — Leselidze, Khashuri, Shida Kartli, Georgia"
    },
    {
      "lat": 41.98003155578634,
      "lon": 43.62119711099612,
      "geoinfo": {
        "display_name": "Alexander Natadze Lane, Khashuri, Khashuri Municipality, Shida Kartli, 5700, Georgia",
        "road": "Alexander Natadze Lane",
        "house_number": null,
        "neighbourhood": null,
        "suburb": null,
        "city_district": null,
        "city": "Khashuri",
        "state": "Shida Kartli",
        "postcode": "5700",
        "country": "Georgia",
        "country_code": "ge"
      },
      "address": "Alexander Natadze Lane, Khashuri, Shida Kartli, Georgia"
    },
    {
      "lat": 42.035247650768234,
      "lon": 43.57251872986831,
      "geoinfo": {
        "display_name": "Kakaltkhevi, Surami, Khashuri Municipality, Shida Kartli, 5700, Georgia",
        "road": null,
        "house_number": null,
        "neighbourhood": "Kakaltkhevi",
        "suburb": null,
        "city_district": null,
        "city": "Surami",
        "state": "Shida Kartli",
        "postcode": "5700",
        "country": "Georgia",
        "country_code": "ge"
      },
      "address": "Kakaltkhevi, Khashuri, Shida Kartli, Georgia"
    },
    {
      "lat": 41.9998459401269,
      "lon": 43.551034539580925,
      "geoinfo": {
        "display_name": "9 Aprili Street, Gverdisubani, Surami, Khashuri Municipality, Shida Kartli, 5700, Georgia",
        "road": "9 Aprili Street",
        "house_number": null,
        "neighbourhood": "Gverdisubani",
        "suburb": null,
        "city_district": null,
        "city": "Surami",
        "state": "Shida Kartli",
        "postcode": "5700",
        "country": "Georgia",
        "country_code": "ge"
      },
      "address": "9 Aprili Street, Gverdisubani, Surami, Khashuri Municipality, Shida Kartli, 5700, Georgia"
    },
    {
      "lat": 41.98921900423097,
      "lon": 43.64460144743954,
      "geoinfo": {
        "display_name": "Kvemo Osiauri, Khashuri Municipality, Shida Kartli, 5700, Georgia",
        "road": null,
        "house_number": null,
        "neighbourhood": null,
        "suburb": null,
        "city_district": null,
        "city": "Kvemo Osiauri",
        "state": "Shida Kartli",
        "postcode": "5700",
        "country": "Georgia",
        "country_code": "ge"
      },
      "address": "198, Kvemo Osiauri, Khashuri Municipality, Shida Kartli, 5700, Georgia"
    },
    {
      "lat": 41.97321534204531,
      "lon": 43.56618761545804,
      "geoinfo": {
        "display_name": "Rbona, Khashuri Municipality, Shida Kartli, 5700, Georgia",
        "road": null,
        "house_number": null,
        "neighbourhood": null,
        "suburb": null,
        "city_district": null,
        "city": "Rbona",
        "state": "Shida Kartli",
        "postcode": "5700",
        "country": "Georgia",
        "country_code": "ge"
      },
      "address": "575, Rbona, Khashuri Municipality, Shida Kartli, 5700, Georgia"
    },
    {
      "lat": 41.955030261297374,
      "lon": 43.581554350759085,
      "geoinfo": {
        "display_name": "Tagveti, Khashuri Municipality, Shida Kartli, 5700, Georgia",
        "road": null,
        "house_number": null,
        "neighbourhood": null,
        "suburb": null,
        "city_district": null,
        "city": "Tagveti",
        "state": "Shida Kartli",
        "postcode": "5700",
        "country": "Georgia",
        "country_code": "ge"
      },
      "address": "214, Tagveti, Khashuri Municipality, Shida Kartli, 5700, Georgia"
    },
    {
      "lat": 41.97023182297354,
      "lon": 43.59522594143362,
      "geoinfo": {
        "display_name": "Tagveti, Khashuri Municipality, Shida Kartli, 5700, Georgia",
        "road": null,
        "house_number": null,
        "neighbourhood": null,
        "suburb": null,
        "city_district": null,
        "city": "Tagveti",
        "state": "Shida Kartli",
        "postcode": "5700",
        "country": "Georgia",
        "country_code": "ge"
      },
      "address": "282, Tagveti, Khashuri Municipality, Shida Kartli, 5700, Georgia"
    },
    {
      "lat": 41.968656855442056,
      "lon": 43.628081335483145,
      "geoinfo": {
        "display_name": "Ghvriastskali, Khashuri Municipality, Shida Kartli, 5700, Georgia",
        "road": null,
        "house_number": null,
        "neighbourhood": null,
        "suburb": null,
        "city_district": null,
        "city": "Ghvriastskali",
        "state": "Shida Kartli",
        "postcode": "5700",
        "country": "Georgia",
        "country_code": "ge"
      },
      "address": "274, Ghvriastskali, Khashuri Municipality, Shida Kartli, 5700, Georgia"
    }
  ],
  "updated_at": "2025-10-19T04:08:30.941567+00:00",
  "_kind": "geo_samples"
}