{
  "country_code": "GE",
  "country": "Georgia",
  "city": "Kutaisi",
  "geonameid": 613607,
  "target_addresses": 6,
  "samples": [
    {
      "lat": 42.294593788807674,
      "lon": 42.73090786694748,
      "geoinfo": {
        "display_name": "Mtsvanekvavila, Gumati, Kutaisi, Tskaltubo Municipality, Imereti, 4600, Georgia",
        "road": null,
        "house_number": null,
        "neighbourhood": "Mtsvanekvavila",
        "suburb": "Gumati",
        "city_district": null,
        "city": "Kutaisi",
        "state": "Imereti",
        "postcode": "4600",
        "country": "Georgia",
        "country_code": "ge"
      },
      "address": "Mtsvanekvavila, Kutaisi, Imereti, Georgia"
    },
    {
      "lat": 42.26130488071416,
      "lon": 42.74383420836291,
      "geoinfo": {
        "display_name": "Terjola Municipality, Imereti, 2400, Georgia",
        "road": null,
        "house_number": null,
        "neighbourhood": null,
        "suburb": null,
        "city_district": null,
        "city": null,
        "state": "Imereti",
        "postcode": "2400",
        "country": "Georgia",
        "country_code": "ge"
      },
      "address": "Kutaisi, Imereti, Georgia"
    },
    {
      "lat": 42.25907453747907,
      "lon": 42.68149594109422,
      "geoinfo": {
        "display_name": "78, Lado Meskhishvili Street, Dzelkviani, Kutaisi, Imereti, 4600, Georgia",
        "road": "Lado Meskhishvili Street",
        "house_number": "78",
        "neighbourhood": null,
        "suburb": "Dzelkviani",
        "city_district": null,
        "city": "Kutaisi",
        "state": "Imereti",
        "postcode": "4600",
        "country": "Georgia",
        "country_code": "ge"
      },
      "address": "78 Lado Meskhishvili Street, Kutaisi, Imereti, Georgia"
    },
    {
      "lat": 42.2752060559484,
      "lon": 42.660882698133165,
      "geoinfo": {
        "display_name": "28th Street, Banoja, Tskaltubo Municipality, Imereti, 5400, Georgia",
        "road": "28th Street",
        "house_number": null,
        "neighbourhood": null,
        "suburb": null,
        "city_district": null,
        "city": "Banoja",
        "state": "Imereti",
        "postcode": "5400",
        "country": "Georgia",
        "country_code": "ge"
      },
      "address": "28th Street, Kutaisi, Imereti, Georgia"
    },
    {
      "lat": 42.23768261546005,
      "lon": 42.665521920657525,
      "geoinfo": {
        "display_name": "Public School #38, Sulkhan Saba St, Sulkhan-Saba, Kutaisi, Imereti, 4600, Georgia",
        "road": "Sulkhan Saba St",
        "house_number": null,
        "neighbourhood": null,
        "suburb": "Sulkhan-Saba",
        "city_district": null,
        "city": "Kutaisi",
        "state": "Imereti",
        "postcode": "4600",
        "country": "Georgia",
        "country_code": "ge"
      },
      "address": "Sulkhan Saba St, Kutaisi, Imereti, Georgia"
    },
    {
      "lat": 42.24821977772623,
      "lon": 42.69704654643283,
      "geoinfo": {
        "display_name": "Didebuli, 1ბ, Ilia Chavchavadze Avenue, Nikea, Kutaisi, Imereti, 4600, Georgia",
        "road": "Ilia Chavchavadze Avenue",
        "house_number": "1ბ",
        "neighbourhood": null,
        "suburb": "Nikea",
        "city_district": null,
        "city": "Kutaisi",
        "state": "Imereti",
        "postcode": "4600",
        "country": "Georgia",
        "country_code": "ge"
      },
      "address": "1ბ Ilia Chavchavadze Avenue, Kutaisi, Imereti, Georgia"
    },
    {
      "lat": 42.271033088746414,
      "lon": 42.72599872859442,
      "geoinfo": {
        "display_name": "13, Davit Kldiashvili 8th Lane, Sapichkia, Kutaisi, Imereti, 4600, Georgia",
        "road": "Davit Kldiashvili 8th Lane",
        "house_number": "13",
        "neighbourhood": null,
        "suburb": "Sapichkia",
        "city_district": null,
        "city": "Kutaisi",
        "state": "Imereti",
        "postcode": "4600",
        "country": "Georgia",
        "country_code": "ge"
      },
      "address": "13, Davit Kldiashvili 8th Lane, Sapichkia, Kutaisi, Imereti, 4600, Georgia"
    },
    {
      "lat": 42.23285794069759,
      "lon": 42.719996587075855,
      "geoinfo": {
        "display_name": "cow trail, Kakhianouri, Kutaisi, Imereti, 4600, Georgia",
        "road": "cow trail",
        "house_number": null,
        "neighbourhood": null,
        "suburb": "Kakhianouri",
        "city_district": null,
        "city": "Kutaisi",
        "state": "Imereti",
        "postcode": "4600",
        "country": "Georgia",
        "country_code": "ge"
      },
      "address": "642, cow trail, Kakhianouri, Kutaisi, Imereti, 4600, Georgia"
    },
    {
      "lat": 42.281615506455374,
      "lon": 42.72894717436125,
      "geoinfo": {
        "display_name": "Mtsvanekvavila Street, Mtsvanekvavila, Sapichkia, Kutaisi, Tskaltubo Municipality, Imereti, 4600, Georgia",
        "road": "Mtsvanekvavila Street",
        "house_number": null,
        "neighbourhood": "Mtsvanekvavila",
        "suburb": "Sapichkia",
        "city_district": null,
        "city": "Kutaisi",
        "state": "Imereti",
        "postcode": "4600",
        "country": "Georgia",
        "country_code": "ge"
      },
      "address": "997, Mtsvanekvavila Street, Mtsvanekvavila, Sapichkia, Kutaisi, Tskaltubo Municipality, Imereti, 4600, Georgia"
    },
    {
      "lat": 42.23352131295048,
      "lon": 42.68963949341117,
      "geoinfo": {
        "display_name": "50, ნიკეას ქუჩა, Nikea, Kutaisi, Imereti, 4600, Georgia",
        "road": "ნიკეას ქუჩა",
        "house_number": "50",
        "neighbourhood": null,
        "suburb": "Nikea",
        "city_district": null,
        "city": "Kutaisi",
        "state": "Imereti",
        "postcode": "4600",
        "country": "Georgia",
        "country_code": "ge"
      },
      "address": "50, ნიკეას ქუჩა, Nikea, Kutaisi, Imereti, 4600, Georgia"
    },
    {
      "lat": 42.26171205035494,
      "lon": 42.73276554721658,
      "geoinfo": {
        "display_name": "Terjola Municipality, Imereti, 2400, Georgia",
        "road": null,
        "house_number": null,
        "neighbourhood": null,
        "suburb": null,
        "city_district": null,
        "city": null,
        "state": "Imereti",
        "postcode": "2400",
        "country": "Georgia",
        "country_code": "ge"
      },
      "address": "569, Kutaisi, 2400 Imereti, Georgia"
    },
    {
      "lat": 42.237047536514645,
      "lon": 42.669953312355915,
      "geoinfo": {
        "display_name": "47, Sulkhan-Saba Avenue, Sulkhan-Saba, Kutaisi, Imereti, 4600, Georgia",
        "road": "Sulkhan-Saba Avenue",
        "house_number": "47",
        "neighbourhood": null,
        "suburb": "Sulkhan-Saba",
        "city_district": null,
        "city": "Kutaisi",
        "state": "Imereti",
        "postcode": "4600",
        "country": "Georgia",
        "country_code": "ge"
      },
      "address": "47, Sulkhan-Saba Avenue, Sulkhan-Saba, Kutaisi, Imereti, 4600, Georgia"
    }
  ],
  "updated_at": "2025-10-19T05:28:26.906094+00:00",
  "_kind": "geo_samples"
}