{
  "country_code": "GE",
  "country": "Georgia",
  "city": "Rustavi",
  "geonameid": 612287,
  "target_addresses": 6,
  "samples": [
    {
      "lat": 41.576602129412535,
      "lon": 44.97526344890871,
      "geoinfo": {
        "display_name": "David Aghmashenebeli 5th Exit, David Aghmashenebeli District, Rustavi, Lower Kartli, 3700, Georgia",
        "road": "David Aghmashenebeli 5th Exit",
        "house_number": null,
        "neighbourhood": null,
        "suburb": "David Aghmashenebeli District",
        "city_district": null,
        "city": "Rustavi",
        "state": "Lower Kartli",
        "postcode": "3700",
        "country": "Georgia",
        "country_code": "ge"
      },
      "address": "David Aghmashenebeli 5th Exit, Rustavi, Lower Kartli, Georgia"
    },
    {
      "lat": 41.57341532648696,
      "lon": 44.961108863233896,
      "geoinfo": {
        "display_name": "ავტობაზრობა, Kutaisi Street, 21st Microdistrict, 13 Asureli Mama District, Rustavi, Lower Kartli, 3700, Georgia",
        "road": "Kutaisi Street",
        "house_number": null,
        "neighbourhood": "21st Microdistrict",
        "suburb": "13 Asureli Mama District",
        "city_district": null,
        "city": "Rustavi",
        "state": "Lower Kartli",
        "postcode": "3700",
        "country": "Georgia",
        "country_code": "ge"
      },
      "address": "Kutaisi Street, Rustavi, Lower Kartli, Georgia"
    },
    {
      "lat": 41.598746890833475,
      "lon": 44.99818363026917,
      "geoinfo": {
        "display_name": "Aghtakla, Gardabani Municipality, Lower Kartli, 1300, Georgia",
        "road": null,
        "house_number": null,
        "neighbourhood": null,
        "suburb": null,
        "city_district": null,
        "city": "Aghtakla",
        "state": "Lower Kartli",
        "postcode": "1300",
        "country": "Georgia",
        "country_code": "ge"
      },
      "address": "Rustavi, Lower Kartli, Georgia"
    },
    {
      "lat": 41.59536116279103,
      "lon": 44.95275635518587,
      "geoinfo": {
        "display_name": "Tbilisi Bypass Road, Rustavi, Lower Kartli, 3700, Georgia",
        "road": "Tbilisi Bypass Road",
        "house_number": null,
        "neighbourhood": null,
        "suburb": null,
        "city_district": null,
        "city": "Rustavi",
        "state": "Lower Kartli",
        "postcode": "3700",
        "country": "Georgia",
        "country_code": "ge"
      },
      "address": "Tbilisi Bypass Road, Rustavi, Lower Kartli, Georgia"
    },
    {
      "lat": 41.55284844920151,
      "lon": 45.00067132551673,
      "geoinfo": {
        "display_name": "Children's Railway Rustavi, Vakhtang Gorgasali District, Rustavi, Lower Kartli, 3700, Georgia",
        "road": "Children's Railway Rustavi",
        "house_number": null,
        "neighbourhood": null,
        "suburb": "Vakhtang Gorgasali District",
        "city_district": null,
        "city": "Rustavi",
        "state": "Lower Kartli",
        "postcode": "3700",
        "country": "Georgia",
        "country_code": "ge"
      },
      "address": "Children's Railway Rustavi, Rustavi, Lower Kartli, Georgia"
    },
    {
      "lat": 41.54531349140176,
      "lon": 44.9902361273387,
      "geoinfo": {
        "display_name": "14, Aleksandre Qazbegi 1st Exit, Vakhtang Gorgasali District, Rustavi, Lower Kartli, 3700, Georgia",
        "road": "Aleksandre Qazbegi 1st Exit",
        "house_number": "14",
        "neighbourhood": null,
        "suburb": "Vakhtang Gorgasali District",
        "city_district": null,
        "city": "Rustavi",
        "state": "Lower Kartli",
        "postcode": "3700",
        "country": "Georgia",
        "country_code": "ge"
      },
      "address": "14 Aleksandre Qazbegi 1st Exit, Rustavi, Lower Kartli, Georgia"
    },
    {
      "lat": 41.575598535320545,
      "lon": 44.925624454027734,
      "geoinfo": {
        "display_name": "Mtisdziri, Gardabani Municipality, Lower Kartli, 1300, Georgia",
        "road": null,
        "house_number": null,
        "neighbourhood": null,
        "suburb": null,
        "city_district": null,
        "city": "Mtisdziri",
        "state": "Lower Kartli",
        "postcode": "1300",
        "country": "Georgia",
        "country_code": "ge"
      },
      "address": "817, Rustavi, 1300 Lower Kartli, Georgia"
    },
    {
      "lat": 41.602991182645816,
      "lon": 44.96906903269924,
      "geoinfo": {
        "display_name": "Karatakla, Gardabani Municipality, Lower Kartli, 1300, Georgia",
        "road": null,
        "house_number": null,
        "neighbourhood": null,
        "suburb": null,
        "city_district": null,
        "city": "Karatakla",
        "state": "Lower Kartli",
        "postcode": "1300",
        "country": "Georgia",
        "country_code": "ge"
      },
      "address": "225, Rustavi, 1300 Lower Kartli, Georgia"
    },
    {
      "lat": 41.58992339449331,
      "lon": 45.014686423450506,
      "geoinfo": {
        "display_name": "გამარჯვება-რუსთავი, Giorgi Chqondideli District, Rustavi, Gardabani Municipality, Lower Kartli, 1300, Georgia",
        "road": "გამარჯვება-რუსთავი",
        "house_number": null,
        "neighbourhood": null,
        "suburb": "Giorgi Chqondideli District",
        "city_district": null,
        "city": "Rustavi",
        "state": "Lower Kartli",
        "postcode": "1300",
        "country": "Georgia",
        "country_code": "ge"
      },
      "address": "981, გამარჯვება-რუსთავი, Giorgi Chqondideli District, Rustavi, Gardabani Municipality, Lower Kartli, 1300, Georgia"
    },
    {
      "lat": 41.53199562199762,
      "lon": 44.936151256723825,
      "geoinfo": {
        "display_name": "Tbilisi — Red Bridge, Algetis Meurneoba, Marneuli Municipality, Lower Kartli, 3000, Georgia",
        "road": "Tbilisi — Red Bridge",
        "house_number": null,
        "neighbourhood": null,
        "suburb": null,
        "city_district": null,
        "city": "Algetis Meurneoba",
        "state": "Lower Kartli",
        "postcode": "3000",
        "country": "Georgia",
        "country_code": "ge"
      },
      "address": "103, Tbilisi — Red Bridge, Algetis Meurneoba, Marneuli Municipality, Lower Kartli, 3000, Georgia"
    },
    {
      "lat": 41.52922740138233,
      "lon": 44.96052493411507,
      "geoinfo": {
        "display_name": "Tbilisi — Red Bridge, Algetis Meurneoba, Marneuli Municipality, Lower Kartli, 3000, Georgia",
        "road": "Tbilisi — Red Bridge",
        "house_number": null,
        "neighbourhood": null,
        "suburb": null,
        "city_district": null,
        "city": "Algetis Meurneoba",
        "state": "Lower Kartli",
        "postcode": "3000",
        "country": "Georgia",
        "country_code": "ge"
      },
      "address": "598, Tbilisi — Red Bridge, Algetis Meurneoba, Marneuli Municipality, Lower Kartli, 3000, Georgia"
    },
    {
      "lat": 41.54541587868199,
      "lon": 44.93947760145588,
      "geoinfo": {
        "display_name": "Marneuli Municipality, Lower Kartli, 3000, Georgia",
        "road": null,
        "house_number": null,
        "neighbourhood": null,
        "suburb": null,
        "city_district": null,
        "city": null,
        "state": "Lower Kartli",
        "postcode": "3000",
        "country": "Georgia",
        "country_code": "ge"
      },
      "address": "800, Marneuli Municipality, Lower Kartli, 3000, Georgia"
    }
  ],
  "updated_at": "2025-10-19T05:27:50.847178+00:00",
  "_kind": "geo_samples"
}