{
  "country_code": "GE",
  "country": "Georgia",
  "city": "Sokhumi",
  "geonameid": 611847,
  "target_addresses": 6,
  "samples": [
    {
      "lat": 42.9875523223143,
      "lon": 41.03024621204875,
      "geoinfo": {
        "display_name": "Театральная площадь, Sukhum, Autonomous Republic of Abkhazia, Abkhazia, Georgia",
        "road": null,
        "house_number": null,
        "neighbourhood": null,
        "suburb": null,
        "city_district": null,
        "city": "Sukhum",
        "state": "Autonomous Republic of Abkhazia",
        "postcode": null,
        "country": "Abkhazia",
        "country_code": "ge"
      },
      "address": "Sokhumi, Autonomous Republic of Abkhazia, Georgia"
    },
    {
      "lat": 42.970306920803154,
      "lon": 40.997402527959096,
      "geoinfo": {
        "display_name": "Cape Red Lighthouse, Sukhum, Autonomous Republic of Abkhazia, Abkhazia, Georgia",
        "road": null,
        "house_number": null,
        "neighbourhood": null,
        "suburb": "Cape Red Lighthouse",
        "city_district": null,
        "city": "Sukhum",
        "state": "Autonomous Republic of Abkhazia",
        "postcode": null,
        "country": "Abkhazia",
        "country_code": "ge"
      },
      "address": "Cape Red Lighthouse, Sokhumi, Autonomous Republic of Abkhazia, Georgia"
    },
    {
      "lat": 43.0155073388852,
      "lon": 40.99474180382642,
      "geoinfo": {
        "display_name": "улица Гочуа, Sukhum, Sukhum District, Autonomous Republic of Abkhazia, Abkhazia, Georgia",
        "road": "улица Гочуа",
        "house_number": null,
        "neighbourhood": null,
        "suburb": null,
        "city_district": null,
        "city": "Sukhum",
        "state": "Autonomous Republic of Abkhazia",
        "postcode": null,
        "country": "Abkhazia",
        "country_code": "ge"
      },
      "address": "улица Гочуа, Sokhumi, Autonomous Republic of Abkhazia, Georgia"
    },
    {
      "lat": 43.00818971127227,
      "lon": 40.95812511987938,
      "geoinfo": {
        "display_name": "სოხუმი — გუმისთა, Lechkop, Sukhum, Sukhum District, Autonomous Republic of Abkhazia, Abkhazia, Georgia",
        "road": "სოხუმი — გუმისთა",
        "house_number": null,
        "neighbourhood": null,
        "suburb": "Lechkop",
        "city_district": null,
        "city": "Sukhum",
        "state": "Autonomous Republic of Abkhazia",
        "postcode": null,
        "country": "Abkhazia",
        "country_code": "ge"
      },
      "address": "სოხუმი — გუმისთა, Sokhumi, Autonomous Republic of Abkhazia, Georgia"
    },
    {
      "lat": 42.987675910265835,
      "lon": 40.98903802193824,
      "geoinfo": {
        "display_name": "Adleiba Street, Cape Red Lighthouse, Sukhum, Autonomous Republic of Abkhazia, Abkhazia, Georgia",
        "road": "Adleiba Street",
        "house_number": null,
        "neighbourhood": null,
        "suburb": "Cape Red Lighthouse",
        "city_district": null,
        "city": "Sukhum",
        "state": "Autonomous Republic of Abkhazia",
        "postcode": null,
        "country": "Abkhazia",
        "country_code": "ge"
      },
      "address": "Adleiba Street, Sokhumi, Autonomous Republic of Abkhazia, Georgia"
    },
    {
      "lat": 43.018572252351085,
      "lon": 40.98266472698086,
      "geoinfo": {
        "display_name": "улица Интернационалистов, Sukhum, Autonomous Republic of Abkhazia, Abkhazia, Georgia",
        "road": "улица Интернационалистов",
        "house_number": null,
        "neighbourhood": null,
        "suburb": null,
        "city_district": null,
        "city": "Sukhum",
        "state": "Autonomous Republic of Abkhazia",
        "postcode": null,
        "country": "Abkhazia",
        "country_code": "ge"
      },
      "address": "улица Интернационалистов, Sokhumi, Autonomous Republic of Abkhazia, Georgia"
    },
    {
      "lat": 43.04207369801573,
      "lon": 40.96144617180864,
      "geoinfo": {
        "display_name": "Kutyshkha, Sukhum District, Autonomous Republic of Abkhazia, Abkhazia, Georgia",
        "road": null,
        "house_number": null,
        "neighbourhood": null,
        "suburb": null,
        "city_district": null,
        "city": "Kutyshkha",
        "state": "Autonomous Republic of Abkhazia",
        "postcode": null,
        "country": "Abkhazia",
        "country_code": "ge"
      },
      "address": "093, Sokhumi, 93977 Autonomous Republic of Abkhazia, Georgia"
    },
    {
      "lat": 43.00588348001579,
      "lon": 40.9763593330357,
      "geoinfo": {
        "display_name": "Sukhum, Autonomous Republic of Abkhazia, Abkhazia, Georgia",
        "road": null,
        "house_number": null,
        "neighbourhood": null,
        "suburb": null,
        "city_district": null,
        "city": "Sukhum",
        "state": "Autonomous Republic of Abkhazia",
        "postcode": null,
        "country": "Abkhazia",
        "country_code": "ge"
      },
      "address": "480, Sokhumi, 35850 Autonomous Republic of Abkhazia, Georgia"
    },
    {
      "lat": 42.97613503462156,
      "lon": 41.01616683620404,
      "geoinfo": {
        "display_name": "Sukhum, Autonomous Republic of Abkhazia, Abkhazia, Georgia",
        "road": null,
        "house_number": null,
        "neighbourhood": null,
        "suburb": null,
        "city_district": null,
        "city": "Sukhum",
        "state": "Autonomous Republic of Abkhazia",
        "postcode": null,
        "country": "Abkhazia",
        "country_code": "ge"
      },
      "address": "493, Sokhumi, 51806 Autonomous Republic of Abkhazia, Georgia"
    },
    {
      "lat": 42.97645436686201,
      "lon": 40.97662902489982,
      "geoinfo": {
        "display_name": "Башкирская улица, Гидрофизический институт, Маяцкий район, Sukhum, Autonomous Republic of Abkhazia, Abkhazia, Georgia",
        "road": "Башкирская улица",
        "house_number": null,
        "neighbourhood": null,
        "suburb": "Маяцкий район",
        "city_district": null,
        "city": "Sukhum",
        "state": "Autonomous Republic of Abkhazia",
        "postcode": null,
        "country": "Abkhazia",
        "country_code": "ge"
      },
      "address": "348, Башкирская улица, Sokhumi, 38860 Autonomous Republic of Abkhazia, Georgia"
    },
    {
      "lat": 42.99435008924435,
      "lon": 41.00246377027598,
      "geoinfo": {
        "display_name": "Теннисный клуб Akua, Aiaaira Avenue, Sukhum, Autonomous Republic of Abkhazia, Abkhazia, Georgia",
        "road": "Aiaaira Avenue",
        "house_number": null,
        "neighbourhood": null,
        "suburb": null,
        "city_district": null,
        "city": "Sukhum",
        "state": "Autonomous Republic of Abkhazia",
        "postcode": null,
        "country": "Abkhazia",
        "country_code": "ge"
      },
      "address": "485, Aiaaira Avenue, Sokhumi, 01084 Autonomous Republic of Abkhazia, Georgia"
    },
    {
      "lat": 42.97653599572571,
      "lon": 40.949079408869146,
      "geoinfo": {
        "display_name": "Cape Red Lighthouse, Sukhum, Autonomous Republic of Abkhazia, Abkhazia, Georgia",
        "road": null,
        "house_number": null,
        "neighbourhood": null,
        "suburb": "Cape Red Lighthouse",
        "city_district": null,
        "city": "Sukhum",
        "state": "Autonomous Republic of Abkhazia",
        "postcode": null,
        "country": "Abkhazia",
        "country_code": "ge"
      },
      "address": "246, Cape Red Lighthouse, Sukhum, Autonomous Republic of Abkhazia, 88876 Abkhazia, Georgia"
    }
  ],
  "updated_at": "2025-10-19T05:27:15.484352+00:00",
  "_kind": "geo_samples"
}