{
  "country_code": "GE",
  "country": "Georgia",
  "city": "Tbilisi",
  "geonameid": 611717,
  "target_addresses": 6,
  "samples": [
    {
      "lat": 41.67581809068935,
      "lon": 44.7890111926479,
      "geoinfo": {
        "display_name": "Krtsanisi-Shindisi, Kala, Ortachala, Krtsanisi District, Tbilisi, 0118, Georgia",
        "road": "Krtsanisi-Shindisi",
        "house_number": null,
        "neighbourhood": null,
        "suburb": "Krtsanisi District",
        "city_district": null,
        "city": "Tbilisi",
        "state": null,
        "postcode": "0118",
        "country": "Georgia",
        "country_code": "ge"
      },
      "address": "Krtsanisi-Shindisi, Tbilisi, Lower Kartli, Georgia"
    },
    {
      "lat": 41.66249891608245,
      "lon": 44.80973517217271,
      "geoinfo": {
        "display_name": "Krtsanisi, Kala, Ortachala, Krtsanisi District, Tbilisi, 0114, Georgia",
        "road": null,
        "house_number": null,
        "neighbourhood": "Krtsanisi",
        "suburb": "Krtsanisi District",
        "city_district": null,
        "city": "Tbilisi",
        "state": null,
        "postcode": "0114",
        "country": "Georgia",
        "country_code": "ge"
      },
      "address": "Krtsanisi, Tbilisi, Lower Kartli, Georgia"
    },
    {
      "lat": 41.66011094294683,
      "lon": 44.86065530297253,
      "geoinfo": {
        "display_name": "Ponichala — Marneuli — Guguti, Kvemo Teleti, Gardabani Municipality, Lower Kartli, 1300, Georgia",
        "road": "Ponichala — Marneuli — Guguti",
        "house_number": null,
        "neighbourhood": null,
        "suburb": null,
        "city_district": null,
        "city": "Kvemo Teleti",
        "state": "Lower Kartli",
        "postcode": "1300",
        "country": "Georgia",
        "country_code": "ge"
      },
      "address": "Ponichala — Marneuli — Guguti, Tbilisi, Lower Kartli, Georgia"
    },
    {
      "lat": 41.662881416520285,
      "lon": 44.87089114289966,
      "geoinfo": {
        "display_name": "Rustavi Highway, Ponichala, Krtsanisi District, Tbilisi, 0136, Georgia",
        "road": "Rustavi Highway",
        "house_number": null,
        "neighbourhood": "Ponichala",
        "suburb": "Krtsanisi District",
        "city_district": null,
        "city": "Tbilisi",
        "state": null,
        "postcode": "0136",
        "country": "Georgia",
        "country_code": "ge"
      },
      "address": "Rustavi Highway, Tbilisi, Lower Kartli, Georgia"
    },
    {
      "lat": 41.65051794964229,
      "lon": 44.81870591538315,
      "geoinfo": {
        "display_name": "Teleti Church of Saint George, Shavnabada Street, Kala, Ortachala, Krtsanisi District, Zemo Teleti, Gardabani Municipality, Lower Kartli, 1300, Georgia",
        "road": "Shavnabada Street",
        "house_number": null,
        "neighbourhood": null,
        "suburb": "Krtsanisi District",
        "city_district": null,
        "city": "Zemo Teleti",
        "state": "Lower Kartli",
        "postcode": "1300",
        "country": "Georgia",
        "country_code": "ge"
      },
      "address": "Shavnabada Street, Tbilisi, Lower Kartli, Georgia"
    },
    {
      "lat": 41.66416680575517,
      "lon": 44.82502192735233,
      "geoinfo": {
        "display_name": "Krtsanisi District, Tbilisi, Georgia",
        "road": null,
        "house_number": null,
        "neighbourhood": null,
        "suburb": "Krtsanisi District",
        "city_district": null,
        "city": "Tbilisi",
        "state": null,
        "postcode": null,
        "country": "Georgia",
        "country_code": "ge"
      },
      "address": "Krtsanisi District, Tbilisi, Lower Kartli, Georgia"
    },
    {
      "lat": 41.69432097589368,
      "lon": 44.844624591905365,
      "geoinfo": {
        "display_name": "84, Kvareli Street, Zemo Avlabari, Metromsheni, Isani District, Tbilisi, 0214, Georgia",
        "road": "Kvareli Street",
        "house_number": "84",
        "neighbourhood": null,
        "suburb": "Isani District",
        "city_district": null,
        "city": "Tbilisi",
        "state": null,
        "postcode": "0214",
        "country": "Georgia",
        "country_code": "ge"
      },
      "address": "84, Kvareli Street, Zemo Avlabari, Metromsheni, Isani District, Tbilisi, 0214, Georgia"
    },
    {
      "lat": 41.67160126565515,
      "lon": 44.828674516881385,
      "geoinfo": {
        "display_name": "10, Giorgi Guramishvili Street, Ortachala, Kala, Ortachala, Krtsanisi District, Tbilisi, 0014, Georgia",
        "road": "Giorgi Guramishvili Street",
        "house_number": "10",
        "neighbourhood": "Ortachala",
        "suburb": "Krtsanisi District",
        "city_district": null,
        "city": "Tbilisi",
        "state": null,
        "postcode": "0014",
        "country": "Georgia",
        "country_code": "ge"
      },
      "address": "10, Giorgi Guramishvili Street, Ortachala, Kala, Ortachala, Krtsanisi District, Tbilisi, 0014, Georgia"
    },
    {
      "lat": 41.71565103885987,
      "lon": 44.788827373920306,
      "geoinfo": {
        "display_name": "Kosmonavtebi Embankment, Kveda Chugureti, Chugureti District, Tbilisi, 0108, Georgia",
        "road": "Kosmonavtebi Embankment",
        "house_number": null,
        "neighbourhood": null,
        "suburb": "Chugureti District",
        "city_district": null,
        "city": "Tbilisi",
        "state": null,
        "postcode": "0108",
        "country": "Georgia",
        "country_code": "ge"
      },
      "address": "017, Kosmonavtebi Embankment, Kveda Chugureti, Chugureti District, Tbilisi, 0108, Georgia"
    },
    {
      "lat": 41.70459291295587,
      "lon": 44.821403984818076,
      "geoinfo": {
        "display_name": "Tamaz Mujirishvili Street, Zemo Avlabari, Metromsheni, Isani District, Tbilisi, 0152, Georgia",
        "road": "Tamaz Mujirishvili Street",
        "house_number": null,
        "neighbourhood": null,
        "suburb": "Isani District",
        "city_district": null,
        "city": "Tbilisi",
        "state": null,
        "postcode": "0152",
        "country": "Georgia",
        "country_code": "ge"
      },
      "address": "992, Tamaz Mujirishvili Street, Zemo Avlabari, Metromsheni, Isani District, Tbilisi, 0152, Georgia"
    },
    {
      "lat": 41.675174664237865,
      "lon": 44.846087361017666,
      "geoinfo": {
        "display_name": "Lertsami Street, Cholokashvili, Navtlughi, Isani District, Tbilisi, 0214, Georgia",
        "road": "Lertsami Street",
        "house_number": null,
        "neighbourhood": "Cholokashvili",
        "suburb": "Isani District",
        "city_district": null,
        "city": "Tbilisi",
        "state": null,
        "postcode": "0214",
        "country": "Georgia",
        "country_code": "ge"
      },
      "address": "060, Lertsami Street, Cholokashvili, Navtlughi, Isani District, Tbilisi, 0214, Georgia"
    },
    {
      "lat": 41.678308127150295,
      "lon": 44.79415896369687,
      "geoinfo": {
        "display_name": "Tabori Hills Golf & Recreation, Krtsanisi-Shindisi, Kala, Ortachala, Krtsanisi District, Tbilisi, 0118, Georgia",
        "road": "Krtsanisi-Shindisi",
        "house_number": null,
        "neighbourhood": null,
        "suburb": "Krtsanisi District",
        "city_district": null,
        "city": "Tbilisi",
        "state": null,
        "postcode": "0118",
        "country": "Georgia",
        "country_code": "ge"
      },
      "address": "919, Krtsanisi-Shindisi, 0118 Tbilisi, Georgia"
    }
  ],
  "updated_at": "2025-10-19T05:26:21.283440+00:00",
  "_kind": "geo_samples"
}