{
  "country_code": "GE",
  "country": "Georgia",
  "city": "Zestaponi",
  "geonameid": 610864,
  "target_addresses": 6,
  "samples": [
    {
      "lat": 42.13854679634513,
      "lon": 43.006086228652805,
      "geoinfo": {
        "display_name": "Kveda Sakara, Zestaponi Municipality, Imereti, 2000, Georgia",
        "road": null,
        "house_number": null,
        "neighbourhood": null,
        "suburb": null,
        "city_district": null,
        "city": "Kveda Sakara",
        "state": "Imereti",
        "postcode": "2000",
        "country": "Georgia",
        "country_code": "ge"
      },
      "address": "Zestaponi, Imereti, Georgia"
    },
    {
      "lat": 42.11410107031298,
      "lon": 43.01638137218348,
      "geoinfo": {
        "display_name": "Kvalita Settlement, Zestaponi, Zestaponi Municipality, Imereti, 2000, Georgia",
        "road": null,
        "house_number": null,
        "neighbourhood": null,
        "suburb": "Kvalita Settlement",
        "city_district": null,
        "city": "Zestaponi",
        "state": "Imereti",
        "postcode": "2000",
        "country": "Georgia",
        "country_code": "ge"
      },
      "address": "Kvalita Settlement, Zestaponi, Imereti, Georgia"
    },
    {
      "lat": 42.09911180338956,
      "lon": 43.075503643350274,
      "geoinfo": {
        "display_name": "Tbilisi — Senaki — Leselidze, Shorapani, Zestaponi Municipality, Imereti, 2000, Georgia",
        "road": "Tbilisi — Senaki — Leselidze",
        "house_number": null,
        "neighbourhood": null,
        "suburb": null,
        "city_district": null,
        "city": "Shorapani",
        "state": "Imereti",
        "postcode": "2000",
        "country": "Georgia",
        "country_code": "ge"
      },
      "address": "Tbilisi — Senaki — Leselidze, Zestaponi, Imereti, Georgia"
    },
    {
      "lat": 42.10573861031797,
      "lon": 43.0235057374353,
      "geoinfo": {
        "display_name": "Zaparojie Street, Tskalsadeni, Zestaponi, Zestaponi Municipality, Imereti, 2000, Georgia",
        "road": "Zaparojie Street",
        "house_number": null,
        "neighbourhood": null,
        "suburb": "Tskalsadeni",
        "city_district": null,
        "city": "Zestaponi",
        "state": "Imereti",
        "postcode": "2000",
        "country": "Georgia",
        "country_code": "ge"
      },
      "address": "Zaparojie Street, Zestaponi, Imereti, Georgia"
    },
    {
      "lat": 42.11259636366104,
      "lon": 43.02271361551557,
      "geoinfo": {
        "display_name": "Zestafoni Central Farmers Markets, Megobroba Street, Tskalsadeni, Zestaponi, Zestaponi Municipality, Imereti, 2000, Georgia",
        "road": "Megobroba Street",
        "house_number": null,
        "neighbourhood": null,
        "suburb": "Tskalsadeni",
        "city_district": null,
        "city": "Zestaponi",
        "state": "Imereti",
        "postcode": "2000",
        "country": "Georgia",
        "country_code": "ge"
      },
      "address": "Megobroba Street, Zestaponi, Imereti, Georgia"
    },
    {
      "lat": 42.11906766090438,
      "lon": 42.990910727218825,
      "geoinfo": {
        "display_name": "Zestaponi — Baghdati, Kvalita Settlement, Pirveli Sviri, Zestaponi Municipality, Imereti, 2000, Georgia",
        "road": "Zestaponi — Baghdati",
        "house_number": null,
        "neighbourhood": null,
        "suburb": "Kvalita Settlement",
        "city_district": null,
        "city": "Pirveli Sviri",
        "state": "Imereti",
        "postcode": "2000",
        "country": "Georgia",
        "country_code": "ge"
      },
      "address": "Zestaponi — Baghdati, Zestaponi, Imereti, Georgia"
    },
    {
      "lat": 42.0919874396966,
      "lon": 43.05502577670186,
      "geoinfo": {
        "display_name": "Mazniashvili Street, Zestaponi, Zestaponi Municipality, Imereti, 2000, Georgia",
        "road": "Mazniashvili Street",
        "house_number": null,
        "neighbourhood": null,
        "suburb": null,
        "city_district": null,
        "city": "Zestaponi",
        "state": "Imereti",
        "postcode": "2000",
        "country": "Georgia",
        "country_code": "ge"
      },
      "address": "188, Mazniashvili Street, Zestaponi, Zestaponi Municipality, Imereti, 2000, Georgia"
    },
    {
      "lat": 42.08227125857667,
      "lon": 43.05845717461461,
      "geoinfo": {
        "display_name": "Kveda Kldeeti, Zestaponi Municipality, Imereti, 2000, Georgia",
        "road": null,
        "house_number": null,
        "neighbourhood": null,
        "suburb": null,
        "city_district": null,
        "city": "Kveda Kldeeti",
        "state": "Imereti",
        "postcode": "2000",
        "country": "Georgia",
        "country_code": "ge"
      },
      "address": "971, Kveda Kldeeti, Zestaponi Municipality, Imereti, 2000, Georgia"
    },
    {
      "lat": 42.134952472215424,
      "lon": 43.016690475326484,
      "geoinfo": {
        "display_name": "Kveda Sakara, Zestaponi Municipality, Imereti, 2000, Georgia",
        "road": null,
        "house_number": null,
        "neighbourhood": null,
        "suburb": null,
        "city_district": null,
        "city": "Kveda Sakara",
        "state": "Imereti",
        "postcode": "2000",
        "country": "Georgia",
        "country_code": "ge"
      },
      "address": "094, Kveda Sakara, Zestaponi Municipality, Imereti, 2000, Georgia"
    },
    {
      "lat": 42.09921558637432,
      "lon": 43.01039403973386,
      "geoinfo": {
        "display_name": "Tskalsadeni, Kveda Kvaliti, Zestaponi Municipality, Imereti, 2000, Georgia",
        "road": null,
        "house_number": null,
        "neighbourhood": null,
        "suburb": "Tskalsadeni",
        "city_district": null,
        "city": "Kveda Kvaliti",
        "state": "Imereti",
        "postcode": "2000",
        "country": "Georgia",
        "country_code": "ge"
      },
      "address": "786, Tskalsadeni, Zestaponi, 2000 Imereti, Georgia"
    },
    {
      "lat": 42.13577287407924,
      "lon": 43.04001313410958,
      "geoinfo": {
        "display_name": "Kveda Sakara, Zestaponi Municipality, Imereti, 2000, Georgia",
        "road": null,
        "house_number": null,
        "neighbourhood": null,
        "suburb": null,
        "city_district": null,
        "city": "Kveda Sakara",
        "state": "Imereti",
        "postcode": "2000",
        "country": "Georgia",
        "country_code": "ge"
      },
      "address": "722, Kveda Sakara, Zestaponi Municipality, Imereti, 2000, Georgia"
    },
    {
      "lat": 42.08121880448667,
      "lon": 42.994491682711526,
      "geoinfo": {
        "display_name": "Shua Kvaliti, Zestaponi Municipality, Imereti, 2000, Georgia",
        "road": null,
        "house_number": null,
        "neighbourhood": null,
        "suburb": null,
        "city_district": null,
        "city": "Shua Kvaliti",
        "state": "Imereti",
        "postcode": "2000",
        "country": "Georgia",
        "country_code": "ge"
      },
      "address": "670, Shua Kvaliti, Zestaponi Municipality, Imereti, 2000, Georgia"
    }
  ],
  "updated_at": "2025-10-19T02:45:24.330564+00:00",
  "_kind": "geo_samples"
}