{
  "country_code": "LB",
  "country": "Lebanon",
  "city": "Aley",
  "geonameid": 280425,
  "target_addresses": 7,
  "samples": [
    {
      "lat": 33.83701838033448,
      "lon": 35.61170250180806,
      "geoinfo": {
        "display_name": "Aabadiye, Aabadiyeh, Baabda District, Mount Lebanon Governorate, 1501, Lebanon",
        "road": null,
        "house_number": null,
        "neighbourhood": null,
        "suburb": null,
        "city_district": null,
        "city": "Aabadiye",
        "state": "Mount Lebanon Governorate",
        "postcode": "1501",
        "country": "Lebanon",
        "country_code": "lb"
      },
      "address": "Aley, Mount Lebanon Governorate, Lebanon"
    },
    {
      "lat": 33.7969759591616,
      "lon": 35.55957914678498,
      "geoinfo": {
        "display_name": "Bsaba-Souk el Gharb, Aytat, Aaytat, Aley District, Mount Lebanon Governorate, 10001000, Lebanon",
        "road": "Bsaba-Souk el Gharb",
        "house_number": null,
        "neighbourhood": null,
        "suburb": null,
        "city_district": null,
        "city": "Aytat",
        "state": "Mount Lebanon Governorate",
        "postcode": "10001000",
        "country": "Lebanon",
        "country_code": "lb"
      },
      "address": "Bsaba-Souk el Gharb, Aley, Mount Lebanon Governorate, Lebanon"
    },
    {
      "lat": 33.83229285784894,
      "lon": 35.557658391150895,
      "geoinfo": {
        "display_name": "1305 Road, Yarzeh, Baabda, Baabda District, Mount Lebanon Governorate, 10001000, Lebanon",
        "road": "1305 Road",
        "house_number": null,
        "neighbourhood": null,
        "suburb": null,
        "city_district": null,
        "city": "Yarzeh",
        "state": "Mount Lebanon Governorate",
        "postcode": "10001000",
        "country": "Lebanon",
        "country_code": "lb"
      },
      "address": "1305 Road, Aley, Mount Lebanon Governorate, Lebanon"
    },
    {
      "lat": 33.84928992393369,
      "lon": 35.60170302745071,
      "geoinfo": {
        "display_name": "Street 31, Montiverdi, Beit Mery, Matn District, Mount Lebanon Governorate, 5101, Lebanon",
        "road": "Street 31",
        "house_number": null,
        "neighbourhood": null,
        "suburb": null,
        "city_district": null,
        "city": "Montiverdi",
        "state": "Mount Lebanon Governorate",
        "postcode": "5101",
        "country": "Lebanon",
        "country_code": "lb"
      },
      "address": "Street 31, Aley, Mount Lebanon Governorate, Lebanon"
    },
    {
      "lat": 33.81194712199255,
      "lon": 35.60842678677131,
      "geoinfo": {
        "display_name": "Main Street, Dahr El Wahech, Aley, Aley District, Mount Lebanon Governorate, 1501, Lebanon",
        "road": "Main Street",
        "house_number": null,
        "neighbourhood": null,
        "suburb": null,
        "city_district": null,
        "city": "Aley",
        "state": "Mount Lebanon Governorate",
        "postcode": "1501",
        "country": "Lebanon",
        "country_code": "lb"
      },
      "address": "Main Street, Aley, Mount Lebanon Governorate, Lebanon"
    },
    {
      "lat": 33.817425421297344,
      "lon": 35.6173201039102,
      "geoinfo": {
        "display_name": "Dhour Al Aabaydiyeh, Aabadiyeh, Baabda District, Mount Lebanon Governorate, 1501, Lebanon",
        "road": null,
        "house_number": null,
        "neighbourhood": null,
        "suburb": null,
        "city_district": null,
        "city": "Dhour Al Aabaydiyeh",
        "state": "Mount Lebanon Governorate",
        "postcode": "1501",
        "country": "Lebanon",
        "country_code": "lb"
      },
      "address": "604, Dhour Al Aabaydiyeh, Aabadiyeh, Baabda District, Mount Lebanon Governorate, 1501, Lebanon"
    },
    {
      "lat": 33.791588378012676,
      "lon": 35.58197057688165,
      "geoinfo": {
        "display_name": "Souk El Gharb, Souq El Gharb, Aley District, Mount Lebanon Governorate, 1501, Lebanon",
        "road": null,
        "house_number": null,
        "neighbourhood": null,
        "suburb": null,
        "city_district": null,
        "city": "Souk El Gharb",
        "state": "Mount Lebanon Governorate",
        "postcode": "1501",
        "country": "Lebanon",
        "country_code": "lb"
      },
      "address": "682, Souk El Gharb, Souq El Gharb, Aley District, Mount Lebanon Governorate, 1501, Lebanon"
    },
    {
      "lat": 33.792746777431766,
      "lon": 35.59517835893036,
      "geoinfo": {
        "display_name": "Aley, Aley District, Mount Lebanon Governorate, 1501, Lebanon",
        "road": null,
        "house_number": null,
        "neighbourhood": null,
        "suburb": null,
        "city_district": null,
        "city": "Aley",
        "state": "Mount Lebanon Governorate",
        "postcode": "1501",
        "country": "Lebanon",
        "country_code": "lb"
      },
      "address": "140, Aley, Aley District, Mount Lebanon Governorate, 1501, Lebanon"
    },
    {
      "lat": 33.82952776648505,
      "lon": 35.58115129166227,
      "geoinfo": {
        "display_name": "Aaraiya, Kahale, Aley District, Mount Lebanon Governorate, 1501, Lebanon",
        "road": null,
        "house_number": null,
        "neighbourhood": null,
        "suburb": null,
        "city_district": null,
        "city": "Aaraiya",
        "state": "Mount Lebanon Governorate",
        "postcode": "1501",
        "country": "Lebanon",
        "country_code": "lb"
      },
      "address": "256, Aaraiya, Kahale, Aley District, Mount Lebanon Governorate, 1501, Lebanon"
    },
    {
      "lat": 33.837438798320115,
      "lon": 35.604651162559506,
      "geoinfo": {
        "display_name": "Chouit, Baabda District, Mount Lebanon Governorate, 1501, Lebanon",
        "road": null,
        "house_number": null,
        "neighbourhood": null,
        "suburb": null,
        "city_district": null,
        "city": "Chouit",
        "state": "Mount Lebanon Governorate",
        "postcode": "1501",
        "country": "Lebanon",
        "country_code": "lb"
      },
      "address": "027, Aley, 1501 Mount Lebanon Governorate, Lebanon"
    },
    {
      "lat": 33.81718777554279,
      "lon": 35.57343784384227,
      "geoinfo": {
        "display_name": "Bsous, Aley District, Mount Lebanon Governorate, 10001000, Lebanon",
        "road": null,
        "house_number": null,
        "neighbourhood": null,
        "suburb": null,
        "city_district": null,
        "city": "Bsous",
        "state": "Mount Lebanon Governorate",
        "postcode": "10001000",
        "country": "Lebanon",
        "country_code": "lb"
      },
      "address": "614, Bsous, Aley District, Mount Lebanon Governorate, 10001000, Lebanon"
    },
    {
      "lat": 33.84698369003722,
      "lon": 35.606321967785135,
      "geoinfo": {
        "display_name": "Beit Mery, Matn District, Mount Lebanon Governorate, 5101, Lebanon",
        "road": null,
        "house_number": null,
        "neighbourhood": null,
        "suburb": null,
        "city_district": null,
        "city": "Beit Mery",
        "state": "Mount Lebanon Governorate",
        "postcode": "5101",
        "country": "Lebanon",
        "country_code": "lb"
      },
      "address": "740, Aley, 5101 Mount Lebanon Governorate, Lebanon"
    }
  ],
  "updated_at": "2025-10-19T05:45:40.359276+00:00",
  "_kind": "geo_samples"
}