{
  "country_code": "LB",
  "country": "Lebanon",
  "city": "Bsharri",
  "geonameid": 276359,
  "target_addresses": 7,
  "samples": [
    {
      "lat": 34.235153669089826,
      "lon": 36.02004580696687,
      "geoinfo": {
        "display_name": "Venessa, Bsharri, Bcharre, Bsharri District, North Governorate, 1377, Lebanon",
        "road": "Venessa",
        "house_number": null,
        "neighbourhood": null,
        "suburb": null,
        "city_district": null,
        "city": "Bsharri",
        "state": "North Governorate",
        "postcode": "1377",
        "country": "Lebanon",
        "country_code": "lb"
      },
      "address": "Venessa, Bsharri, North Governorate, Lebanon"
    },
    {
      "lat": 34.222770224189624,
      "lon": 35.997776674184806,
      "geoinfo": {
        "display_name": "Bqerqacha, Bsharri District, North Governorate, 1377, Lebanon",
        "road": null,
        "house_number": null,
        "neighbourhood": null,
        "suburb": null,
        "city_district": null,
        "city": "Bqerqacha",
        "state": "North Governorate",
        "postcode": "1377",
        "country": "Lebanon",
        "country_code": "lb"
      },
      "address": "Bsharri, North Governorate, Lebanon"
    },
    {
      "lat": 34.242209073810415,
      "lon": 36.0480367812676,
      "geoinfo": {
        "display_name": "Bcharreh Cedars of God Forest, Lebanon Mountain Trail Section 8, El Arz, Bcharre, Bsharri District, North Governorate, 1377, Lebanon",
        "road": "Lebanon Mountain Trail Section 8",
        "house_number": null,
        "neighbourhood": null,
        "suburb": null,
        "city_district": null,
        "city": "El Arz",
        "state": "North Governorate",
        "postcode": "1377",
        "country": "Lebanon",
        "country_code": "lb"
      },
      "address": "Lebanon Mountain Trail Section 8, Bsharri, North Governorate, Lebanon"
    },
    {
      "lat": 34.26348534811002,
      "lon": 36.02717949440312,
      "geoinfo": {
        "display_name": "A8, Bsharri, Bcharre, Bsharri District, North Governorate, 1377, Lebanon",
        "road": "A8",
        "house_number": null,
        "neighbourhood": null,
        "suburb": null,
        "city_district": null,
        "city": "Bsharri",
        "state": "North Governorate",
        "postcode": "1377",
        "country": "Lebanon",
        "country_code": "lb"
      },
      "address": "A8, Bsharri, North Governorate, Lebanon"
    },
    {
      "lat": 34.24741858745969,
      "lon": 35.99017228696215,
      "geoinfo": {
        "display_name": "مطعم غرين لاند, Rue Sainte-Hanne, Bazaoun, Bsharri District, North Governorate, 1377, Lebanon",
        "road": "Rue Sainte-Hanne",
        "house_number": null,
        "neighbourhood": null,
        "suburb": null,
        "city_district": null,
        "city": "Bazaoun",
        "state": "North Governorate",
        "postcode": "1377",
        "country": "Lebanon",
        "country_code": "lb"
      },
      "address": "Rue Sainte-Hanne, Bsharri, North Governorate, Lebanon"
    },
    {
      "lat": 34.235232765917566,
      "lon": 36.05815397008703,
      "geoinfo": {
        "display_name": "طريق أرز - بعلبك, Bcharre, Bsharri District, North Governorate, Lebanon",
        "road": "طريق أرز - بعلبك",
        "house_number": null,
        "neighbourhood": null,
        "suburb": null,
        "city_district": null,
        "city": null,
        "state": "North Governorate",
        "postcode": null,
        "country": "Lebanon",
        "country_code": "lb"
      },
      "address": "طريق أرز - بعلبك, Bsharri, North Governorate, Lebanon"
    },
    {
      "lat": 34.23837596383336,
      "lon": 36.00651543140781,
      "geoinfo": {
        "display_name": "طريق بقاع كفرا, Bekaa Kafra, Bqaa Kafra, Bsharri District, North Governorate, 1377, Lebanon",
        "road": "طريق بقاع كفرا",
        "house_number": null,
        "neighbourhood": null,
        "suburb": null,
        "city_district": null,
        "city": "Bekaa Kafra",
        "state": "North Governorate",
        "postcode": "1377",
        "country": "Lebanon",
        "country_code": "lb"
      },
      "address": "طريق بقاع كفرا, Bsharri, North Governorate, Lebanon"
    },
    {
      "lat": 34.241843936473195,
      "lon": 35.96759957779164,
      "geoinfo": {
        "display_name": "Old Souk Hasroun, Kfar Saroun, Bsharri District, North Governorate, 1377, Lebanon",
        "road": "Old Souk Hasroun",
        "house_number": null,
        "neighbourhood": null,
        "suburb": null,
        "city_district": null,
        "city": "Kfar Saroun",
        "state": "North Governorate",
        "postcode": "1377",
        "country": "Lebanon",
        "country_code": "lb"
      },
      "address": "086, Old Souk Hasroun, Kfar Saroun, Bsharri District, North Governorate, 1377, Lebanon"
    },
    {
      "lat": 34.29111886928312,
      "lon": 36.00421258807363,
      "geoinfo": {
        "display_name": "Ehden, Zgharta District, North Governorate, Lebanon",
        "road": null,
        "house_number": null,
        "neighbourhood": null,
        "suburb": null,
        "city_district": null,
        "city": "Ehden",
        "state": "North Governorate",
        "postcode": null,
        "country": "Lebanon",
        "country_code": "lb"
      },
      "address": "965, Bsharri, 31115 North Governorate, Lebanon"
    },
    {
      "lat": 34.21959508386186,
      "lon": 35.984762739129046,
      "geoinfo": {
        "display_name": "Hasroun, Bsharri District, North Governorate, 1377, Lebanon",
        "road": null,
        "house_number": null,
        "neighbourhood": null,
        "suburb": null,
        "city_district": null,
        "city": "Hasroun",
        "state": "North Governorate",
        "postcode": "1377",
        "country": "Lebanon",
        "country_code": "lb"
      },
      "address": "034, Hasroun, Bsharri District, North Governorate, 1377, Lebanon"
    },
    {
      "lat": 34.23411614827077,
      "lon": 36.0346402331049,
      "geoinfo": {
        "display_name": "El Arz, Bcharre, Bsharri District, North Governorate, 1377, Lebanon",
        "road": null,
        "house_number": null,
        "neighbourhood": null,
        "suburb": null,
        "city_district": null,
        "city": "El Arz",
        "state": "North Governorate",
        "postcode": "1377",
        "country": "Lebanon",
        "country_code": "lb"
      },
      "address": "829, El Arz, Bcharre, Bsharri District, North Governorate, 1377, Lebanon"
    },
    {
      "lat": 34.266815134974465,
      "lon": 36.00513081827253,
      "geoinfo": {
        "display_name": "Bsharri, Bcharre, Bsharri District, North Governorate, 1377, Lebanon",
        "road": null,
        "house_number": null,
        "neighbourhood": null,
        "suburb": null,
        "city_district": null,
        "city": "Bsharri",
        "state": "North Governorate",
        "postcode": "1377",
        "country": "Lebanon",
        "country_code": "lb"
      },
      "address": "783, Bsharri, Bcharre, Bsharri District, North Governorate, 1377, Lebanon"
    },
    {
      "lat": 34.235317007925815,
      "lon": 36.01163217512457,
      "geoinfo": {
        "display_name": "Bekaa Kafra, Bqaa Kafra, Bsharri District, North Governorate, 1377, Lebanon",
        "road": null,
        "house_number": null,
        "neighbourhood": null,
        "suburb": null,
        "city_district": null,
        "city": "Bekaa Kafra",
        "state": "North Governorate",
        "postcode": "1377",
        "country": "Lebanon",
        "country_code": "lb"
      },
      "address": "929, Bekaa Kafra, Bqaa Kafra, Bsharri District, North Governorate, 1377, Lebanon"
    },
    {
      "lat": 34.282429969299145,
      "lon": 36.039866814264755,
      "geoinfo": {
        "display_name": "El Arz, Bcharre, Bsharri District, North Governorate, 1377, Lebanon",
        "road": null,
        "house_number": null,
        "neighbourhood": null,
        "suburb": null,
        "city_district": null,
        "city": "El Arz",
        "state": "North Governorate",
        "postcode": "1377",
        "country": "Lebanon",
        "country_code": "lb"
      },
      "address": "884, El Arz, Bcharre, Bsharri District, North Governorate, 1377, Lebanon"
    }
  ],
  "updated_at": "2025-10-19T05:49:13.851672+00:00",
  "_kind": "geo_samples"
}