{
  "country_code": "LB",
  "country": "Lebanon",
  "city": "Ghazieh",
  "geonameid": 280155,
  "target_addresses": 7,
  "samples": [
    {
      "lat": 33.473847056505164,
      "lon": 35.36680959766802,
      "geoinfo": {
        "display_name": "Hajjeh, Sidon District, South Governorate, Lebanon",
        "road": null,
        "house_number": null,
        "neighbourhood": null,
        "suburb": null,
        "city_district": null,
        "city": "Hajjeh",
        "state": "South Governorate",
        "postcode": null,
        "country": "Lebanon",
        "country_code": "lb"
      },
      "address": "Ghazieh, South Governorate, Lebanon"
    },
    {
      "lat": 33.54162575925435,
      "lon": 35.373052693587134,
      "geoinfo": {
        "display_name": "A51, Bustan Al Quds, Saida Ed-Dekermane, Sidon, Sidon District, South Governorate, 1600, Lebanon",
        "road": "A51",
        "house_number": null,
        "neighbourhood": "Bustan Al Quds",
        "suburb": null,
        "city_district": "Saida Ed-Dekermane",
        "city": "Sidon",
        "state": "South Governorate",
        "postcode": "1600",
        "country": "Lebanon",
        "country_code": "lb"
      },
      "address": "A51, Ghazieh, South Governorate, Lebanon"
    },
    {
      "lat": 33.50220403126407,
      "lon": 35.34365193721003,
      "geoinfo": {
        "display_name": "Sea Road, Ghaziyeh, Sidon District, South Governorate, 1600, Lebanon",
        "road": "Sea Road",
        "house_number": null,
        "neighbourhood": null,
        "suburb": null,
        "city_district": null,
        "city": "Ghaziyeh",
        "state": "South Governorate",
        "postcode": "1600",
        "country": "Lebanon",
        "country_code": "lb"
      },
      "address": "Sea Road, Ghazieh, South Governorate, Lebanon"
    },
    {
      "lat": 33.48333533550663,
      "lon": 35.38459027917665,
      "geoinfo": {
        "display_name": "Aazze, Sidon District, South Governorate, Lebanon",
        "road": null,
        "house_number": null,
        "neighbourhood": null,
        "suburb": null,
        "city_district": null,
        "city": "Aazze",
        "state": "South Governorate",
        "postcode": null,
        "country": "Lebanon",
        "country_code": "lb"
      },
      "address": "274, Ghazieh, 09255 South Governorate, Lebanon"
    },
    {
      "lat": 33.5052439083644,
      "lon": 35.415866147555775,
      "geoinfo": {
        "display_name": "Aanqoun, Sidon District, South Governorate, Lebanon",
        "road": null,
        "house_number": null,
        "neighbourhood": null,
        "suburb": null,
        "city_district": null,
        "city": "Aanqoun",
        "state": "South Governorate",
        "postcode": null,
        "country": "Lebanon",
        "country_code": "lb"
      },
      "address": "976, Aanqoun, Sidon District, 12410 South Governorate, Lebanon"
    },
    {
      "lat": 33.5075784630438,
      "lon": 35.382947608822434,
      "geoinfo": {
        "display_name": "Qennarit, Sidon District, South Governorate, 1600, Lebanon",
        "road": null,
        "house_number": null,
        "neighbourhood": null,
        "suburb": null,
        "city_district": null,
        "city": "Qennarit",
        "state": "South Governorate",
        "postcode": "1600",
        "country": "Lebanon",
        "country_code": "lb"
      },
      "address": "184, Qennarit, Sidon District, South Governorate, 1600, Lebanon"
    },
    {
      "lat": 33.507373107428045,
      "lon": 35.354325046198745,
      "geoinfo": {
        "display_name": "Ghaziyeh, Sidon District, South Governorate, 1600, Lebanon",
        "road": null,
        "house_number": null,
        "neighbourhood": null,
        "suburb": null,
        "city_district": null,
        "city": "Ghaziyeh",
        "state": "South Governorate",
        "postcode": "1600",
        "country": "Lebanon",
        "country_code": "lb"
      },
      "address": "437, Ghaziyeh, Sidon District, South Governorate, 1600, Lebanon"
    },
    {
      "lat": 33.52279666247173,
      "lon": 35.3336702306647,
      "geoinfo": {
        "display_name": "Ghaziyeh, Sidon District, South Governorate, 1600, Lebanon",
        "road": null,
        "house_number": null,
        "neighbourhood": null,
        "suburb": null,
        "city_district": null,
        "city": "Ghaziyeh",
        "state": "South Governorate",
        "postcode": "1600",
        "country": "Lebanon",
        "country_code": "lb"
      },
      "address": "388, Ghaziyeh, Sidon District, South Governorate, 1600, Lebanon"
    },
    {
      "lat": 33.530170412817405,
      "lon": 35.38654922693211,
      "geoinfo": {
        "display_name": "Darb Es Sim, Darb El Sim, Sidon District, South Governorate, 1600, Lebanon",
        "road": null,
        "house_number": null,
        "neighbourhood": null,
        "suburb": null,
        "city_district": null,
        "city": "Darb Es Sim",
        "state": "South Governorate",
        "postcode": "1600",
        "country": "Lebanon",
        "country_code": "lb"
      },
      "address": "981, Darb Es Sim, Darb El Sim, Sidon District, South Governorate, 1600, Lebanon"
    },
    {
      "lat": 33.52674173897332,
      "lon": 35.412737531408844,
      "geoinfo": {
        "display_name": "Qraiyeh, Sidon District, South Governorate, 6613, Lebanon",
        "road": null,
        "house_number": null,
        "neighbourhood": null,
        "suburb": null,
        "city_district": null,
        "city": "Qraiyeh",
        "state": "South Governorate",
        "postcode": "6613",
        "country": "Lebanon",
        "country_code": "lb"
      },
      "address": "405, Qraiyeh, Sidon District, South Governorate, 6613, Lebanon"
    }
  ],
  "updated_at": "2025-10-19T05:45:18.306314+00:00",
  "_kind": "geo_samples"
}