{
  "country_code": "LB",
  "country": "Lebanon",
  "city": "Nabatîyé et Tahta",
  "geonameid": 278913,
  "target_addresses": 7,
  "samples": [
    {
      "lat": 33.34680041928339,
      "lon": 35.48780523434888,
      "geoinfo": {
        "display_name": "Mayfadoun, Nabatiyeh El Fawqa, Nabatieh District, Nabatieh Governorate, 1700, Lebanon",
        "road": null,
        "house_number": null,
        "neighbourhood": null,
        "suburb": null,
        "city_district": null,
        "city": "Mayfadoun",
        "state": "Nabatieh Governorate",
        "postcode": "1700",
        "country": "Lebanon",
        "country_code": "lb"
      },
      "address": "Nabatîyé et Tahta, Nabatieh Governorate, Lebanon"
    },
    {
      "lat": 33.384337239003585,
      "lon": 35.48771492332538,
      "geoinfo": {
        "display_name": "Imam Mahdi Mosque, Khallet El Hawa, Christians Neighbourhood, Nabatieh, Nabatieh Et Tahta, Nabatieh District, Nabatieh Governorate, 1700, Lebanon",
        "road": "Khallet El Hawa",
        "house_number": null,
        "neighbourhood": null,
        "suburb": null,
        "city_district": null,
        "city": "Nabatieh",
        "state": "Nabatieh Governorate",
        "postcode": "1700",
        "country": "Lebanon",
        "country_code": "lb"
      },
      "address": "Khallet El Hawa, Nabatîyé et Tahta, Nabatieh Governorate, Lebanon"
    },
    {
      "lat": 33.377281720125175,
      "lon": 35.465142349259196,
      "geoinfo": {
        "display_name": "Choukine - Harrouf Road, Bir el Qandeel, Nabatieh, Zibdine, Nabatieh District, Nabatieh Governorate, 1700, Lebanon",
        "road": "Choukine - Harrouf Road",
        "house_number": null,
        "neighbourhood": null,
        "suburb": null,
        "city_district": null,
        "city": "Nabatieh",
        "state": "Nabatieh Governorate",
        "postcode": "1700",
        "country": "Lebanon",
        "country_code": "lb"
      },
      "address": "Choukine - Harrouf Road, Nabatîyé et Tahta, Nabatieh Governorate, Lebanon"
    },
    {
      "lat": 33.363978764234105,
      "lon": 35.533012622669624,
      "geoinfo": {
        "display_name": "Nabatiyeh - Marjayoun Road, Klayaa, Kfar Tebnit, Nabatieh District, Nabatieh Governorate, 6728, Lebanon",
        "road": "Nabatiyeh - Marjayoun Road",
        "house_number": null,
        "neighbourhood": null,
        "suburb": null,
        "city_district": null,
        "city": "Klayaa",
        "state": "Nabatieh Governorate",
        "postcode": "6728",
        "country": "Lebanon",
        "country_code": "lb"
      },
      "address": "Nabatiyeh - Marjayoun Road, Nabatîyé et Tahta, Nabatieh Governorate, Lebanon"
    },
    {
      "lat": 33.381806102241384,
      "lon": 35.48181520807181,
      "geoinfo": {
        "display_name": "Mahmoud Fakih Street, Bir el Qandeel, Nabatieh, Nabatieh Et Tahta, Nabatieh District, Nabatieh Governorate, 1700, Lebanon",
        "road": "Mahmoud Fakih Street",
        "house_number": null,
        "neighbourhood": null,
        "suburb": null,
        "city_district": null,
        "city": "Nabatieh",
        "state": "Nabatieh Governorate",
        "postcode": "1700",
        "country": "Lebanon",
        "country_code": "lb"
      },
      "address": "976, Mahmoud Fakih Street, Bir el Qandeel, Nabatieh, Nabatieh Et Tahta, Nabatieh District, Nabatieh Governorate, 1700, Lebanon"
    },
    {
      "lat": 33.401507926880164,
      "lon": 35.51375148447711,
      "geoinfo": {
        "display_name": "Kafr Rumman, Nabatieh District, Nabatieh Governorate, 6728, Lebanon",
        "road": null,
        "house_number": null,
        "neighbourhood": null,
        "suburb": null,
        "city_district": null,
        "city": "Kafr Rumman",
        "state": "Nabatieh Governorate",
        "postcode": "6728",
        "country": "Lebanon",
        "country_code": "lb"
      },
      "address": "599, Nabatîyé et Tahta, 6728 Nabatieh Governorate, Lebanon"
    },
    {
      "lat": 33.39893831539871,
      "lon": 35.44994102837242,
      "geoinfo": {
        "display_name": "Kfour, Nabatieh District, Nabatieh Governorate, 1700, Lebanon",
        "road": null,
        "house_number": null,
        "neighbourhood": null,
        "suburb": null,
        "city_district": null,
        "city": "Kfour",
        "state": "Nabatieh Governorate",
        "postcode": "1700",
        "country": "Lebanon",
        "country_code": "lb"
      },
      "address": "663, Nabatîyé et Tahta, 1700 Nabatieh Governorate, Lebanon"
    },
    {
      "lat": 33.35274848127557,
      "lon": 35.4633720639265,
      "geoinfo": {
        "display_name": "Shoukine, Nabatieh District, Nabatieh Governorate, 1700, Lebanon",
        "road": null,
        "house_number": null,
        "neighbourhood": null,
        "suburb": null,
        "city_district": null,
        "city": "Shoukine",
        "state": "Nabatieh Governorate",
        "postcode": "1700",
        "country": "Lebanon",
        "country_code": "lb"
      },
      "address": "658, Nabatîyé et Tahta, 1700 Nabatieh Governorate, Lebanon"
    },
    {
      "lat": 33.37318231050529,
      "lon": 35.50911986138773,
      "geoinfo": {
        "display_name": "Kafr Rumman, Nabatieh District, Nabatieh Governorate, 1700, Lebanon",
        "road": null,
        "house_number": null,
        "neighbourhood": null,
        "suburb": null,
        "city_district": null,
        "city": null,
        "state": "Nabatieh Governorate",
        "postcode": "1700",
        "country": "Lebanon",
        "country_code": "lb"
      },
      "address": "270, Nabatîyé et Tahta, 1700 Nabatieh Governorate, Lebanon"
    },
    {
      "lat": 33.39915879618087,
      "lon": 35.49753266280232,
      "geoinfo": {
        "display_name": "Habboush, Nabatieh District, Nabatieh Governorate, 1700, Lebanon",
        "road": null,
        "house_number": null,
        "neighbourhood": null,
        "suburb": null,
        "city_district": null,
        "city": "Habboush",
        "state": "Nabatieh Governorate",
        "postcode": "1700",
        "country": "Lebanon",
        "country_code": "lb"
      },
      "address": "489, Nabatîyé et Tahta, 1700 Nabatieh Governorate, Lebanon"
    },
    {
      "lat": 33.35463326083838,
      "lon": 35.49801838369735,
      "geoinfo": {
        "display_name": "Nabatiyeh - Marjayoun Road, Nabatieh El Fawqa, Nabatiyeh El Fawqa, Nabatieh District, Nabatieh Governorate, 1700, Lebanon",
        "road": "Nabatiyeh - Marjayoun Road",
        "house_number": null,
        "neighbourhood": null,
        "suburb": null,
        "city_district": null,
        "city": "Nabatieh El Fawqa",
        "state": "Nabatieh Governorate",
        "postcode": "1700",
        "country": "Lebanon",
        "country_code": "lb"
      },
      "address": "975, Nabatiyeh - Marjayoun Road, Nabatîyé et Tahta, 1700 Nabatieh Governorate, Lebanon"
    }
  ],
  "updated_at": "2025-10-19T03:43:11.522567+00:00",
  "_kind": "geo_samples"
}