{
  "country_code": "LB",
  "country": "Lebanon",
  "city": "Tripoli",
  "geonameid": 266826,
  "target_addresses": 7,
  "samples": [
    {
      "lat": 34.44416094181115,
      "lon": 35.79561384641523,
      "geoinfo": {
        "display_name": "Mina, El Mina, Tripoli District, North Governorate, 1301, Lebanon",
        "road": null,
        "house_number": null,
        "neighbourhood": null,
        "suburb": null,
        "city_district": null,
        "city": "Mina",
        "state": "North Governorate",
        "postcode": "1301",
        "country": "Lebanon",
        "country_code": "lb"
      },
      "address": "Tripoli, North Governorate, Lebanon"
    },
    {
      "lat": 34.421180095738904,
      "lon": 35.83842849606838,
      "geoinfo": {
        "display_name": "Bab Al Reml, Tripoli, Tripoli District, North Governorate, 1300, Lebanon",
        "road": null,
        "house_number": null,
        "neighbourhood": "Bab Al Reml",
        "suburb": null,
        "city_district": null,
        "city": "Tripoli",
        "state": "North Governorate",
        "postcode": "1300",
        "country": "Lebanon",
        "country_code": "lb"
      },
      "address": "Bab Al Reml, Tripoli, North Governorate, Lebanon"
    },
    {
      "lat": 34.45273737278006,
      "lon": 35.8057968368184,
      "geoinfo": {
        "display_name": "Sea Road, Mina, El Mina, Tripoli District, North Governorate, 1301, Lebanon",
        "road": "Sea Road",
        "house_number": null,
        "neighbourhood": null,
        "suburb": null,
        "city_district": null,
        "city": "Mina",
        "state": "North Governorate",
        "postcode": "1301",
        "country": "Lebanon",
        "country_code": "lb"
      },
      "address": "Sea Road, Tripoli, North Governorate, Lebanon"
    },
    {
      "lat": 34.44736417171802,
      "lon": 35.862029472359396,
      "geoinfo": {
        "display_name": "Al Mankoubin, Tripoli, Beddaoui, Tripoli District, North Governorate, 1300, Lebanon",
        "road": null,
        "house_number": null,
        "neighbourhood": "Al Mankoubin",
        "suburb": null,
        "city_district": null,
        "city": "Tripoli",
        "state": "North Governorate",
        "postcode": "1300",
        "country": "Lebanon",
        "country_code": "lb"
      },
      "address": "Al Mankoubin, Tripoli, North Governorate, Lebanon"
    },
    {
      "lat": 34.420581977957134,
      "lon": 35.83493881595457,
      "geoinfo": {
        "display_name": "Mohieddine Makkouk Street, Bab Al Reml, Tripoli, Tripoli District, North Governorate, 1300, Lebanon",
        "road": "Mohieddine Makkouk Street",
        "house_number": null,
        "neighbourhood": "Bab Al Reml",
        "suburb": null,
        "city_district": null,
        "city": "Tripoli",
        "state": "North Governorate",
        "postcode": "1300",
        "country": "Lebanon",
        "country_code": "lb"
      },
      "address": "Mohieddine Makkouk Street, Tripoli, North Governorate, Lebanon"
    },
    {
      "lat": 34.46931570304844,
      "lon": 35.868288213112656,
      "geoinfo": {
        "display_name": "El Beddaoui, Beddaoui, Tripoli District, North Governorate, 1300, Lebanon",
        "road": null,
        "house_number": null,
        "neighbourhood": "El Beddaoui",
        "suburb": null,
        "city_district": null,
        "city": null,
        "state": "North Governorate",
        "postcode": "1300",
        "country": "Lebanon",
        "country_code": "lb"
      },
      "address": "El Beddaoui, Tripoli, North Governorate, Lebanon"
    },
    {
      "lat": 34.43057873335332,
      "lon": 35.83341040193527,
      "geoinfo": {
        "display_name": "Rue Achraf Kabbara, Bab Al Reml, Tripoli, Tripoli District, North Governorate, 1300, Lebanon",
        "road": "Rue Achraf Kabbara",
        "house_number": null,
        "neighbourhood": "Bab Al Reml",
        "suburb": null,
        "city_district": null,
        "city": "Tripoli",
        "state": "North Governorate",
        "postcode": "1300",
        "country": "Lebanon",
        "country_code": "lb"
      },
      "address": "Rue Achraf Kabbara, Tripoli, North Governorate, Lebanon"
    },
    {
      "lat": 34.43882976329396,
      "lon": 35.89434956295459,
      "geoinfo": {
        "display_name": "Al Aaqbe, Aalma, Zgharta District, North Governorate, 1304, Lebanon",
        "road": null,
        "house_number": null,
        "neighbourhood": null,
        "suburb": null,
        "city_district": null,
        "city": "Al Aaqbe",
        "state": "North Governorate",
        "postcode": "1304",
        "country": "Lebanon",
        "country_code": "lb"
      },
      "address": "528, Al Aaqbe, Aalma, Zgharta District, North Governorate, 1304, Lebanon"
    },
    {
      "lat": 34.432429807966216,
      "lon": 35.867603890540856,
      "geoinfo": {
        "display_name": "Mejdlaiya, Zgharta District, North Governorate, 1300, Lebanon",
        "road": null,
        "house_number": null,
        "neighbourhood": null,
        "suburb": null,
        "city_district": null,
        "city": null,
        "state": "North Governorate",
        "postcode": "1300",
        "country": "Lebanon",
        "country_code": "lb"
      },
      "address": "181, Tripoli, 1300 North Governorate, Lebanon"
    },
    {
      "lat": 34.44075835183089,
      "lon": 35.82204301514542,
      "geoinfo": {
        "display_name": "Quality Inn, Tripoli Interchange 2, Tripoli, Tripoli District, North Governorate, 1301, Lebanon",
        "road": "Tripoli Interchange 2",
        "house_number": null,
        "neighbourhood": null,
        "suburb": null,
        "city_district": null,
        "city": "Tripoli",
        "state": "North Governorate",
        "postcode": "1301",
        "country": "Lebanon",
        "country_code": "lb"
      },
      "address": "Quality Inn, Tripoli Interchange 2, Tripoli, Tripoli District, North Governorate, 1301, Lebanon"
    },
    {
      "lat": 34.45198223300718,
      "lon": 35.88515725633295,
      "geoinfo": {
        "display_name": "Wadi Nahleh, Beddaoui, Tripoli District, North Governorate, 1300, Lebanon",
        "road": null,
        "house_number": null,
        "neighbourhood": "Wadi Nahleh",
        "suburb": null,
        "city_district": null,
        "city": null,
        "state": "North Governorate",
        "postcode": "1300",
        "country": "Lebanon",
        "country_code": "lb"
      },
      "address": "418, Wadi Nahleh, Beddaoui, Tripoli District, North Governorate, 1300, Lebanon"
    },
    {
      "lat": 34.39613046876296,
      "lon": 35.864200172564566,
      "geoinfo": {
        "display_name": "Tripoli, Tripoli District, North Governorate, 1304, Lebanon",
        "road": null,
        "house_number": null,
        "neighbourhood": null,
        "suburb": null,
        "city_district": null,
        "city": "Tripoli",
        "state": "North Governorate",
        "postcode": "1304",
        "country": "Lebanon",
        "country_code": "lb"
      },
      "address": "213, Tripoli, Tripoli District, North Governorate, 1304, Lebanon"
    },
    {
      "lat": 34.43746187391927,
      "lon": 35.8034308817736,
      "geoinfo": {
        "display_name": "Bahsas, Ras Masqa, Koura District, North Governorate, 1300, Lebanon",
        "road": null,
        "house_number": null,
        "neighbourhood": null,
        "suburb": null,
        "city_district": null,
        "city": "Bahsas",
        "state": "North Governorate",
        "postcode": "1300",
        "country": "Lebanon",
        "country_code": "lb"
      },
      "address": "721, Tripoli, 1300 North Governorate, Lebanon"
    },
    {
      "lat": 34.40352418022337,
      "lon": 35.87391953609733,
      "geoinfo": {
        "display_name": "Tripoli, Bkeftine, Tripoli District, North Governorate, 1304, Lebanon",
        "road": null,
        "house_number": null,
        "neighbourhood": null,
        "suburb": null,
        "city_district": null,
        "city": "Tripoli",
        "state": "North Governorate",
        "postcode": "1304",
        "country": "Lebanon",
        "country_code": "lb"
      },
      "address": "774, Tripoli, 1304 North Governorate, Lebanon"
    }
  ],
  "updated_at": "2025-10-19T05:40:23.943608+00:00",
  "_kind": "geo_samples"
}