{
  "country_code": "LB",
  "country": "Lebanon",
  "city": "Tyre",
  "geonameid": 267008,
  "target_addresses": 7,
  "samples": [
    {
      "lat": 33.268993340744245,
      "lon": 35.22529178940676,
      "geoinfo": {
        "display_name": "Tyre, Burj Al Shamali, Tyre District, South Governorate, 1601, Lebanon",
        "road": null,
        "house_number": null,
        "neighbourhood": null,
        "suburb": null,
        "city_district": null,
        "city": "Tyre",
        "state": "South Governorate",
        "postcode": "1601",
        "country": "Lebanon",
        "country_code": "lb"
      },
      "address": "Tyre, South Governorate, Lebanon"
    },
    {
      "lat": 33.274448694500606,
      "lon": 35.215378339655594,
      "geoinfo": {
        "display_name": "Al Bass, Tyre, Tyre District, South Governorate, 1601, Lebanon",
        "road": null,
        "house_number": null,
        "neighbourhood": "Al Bass",
        "suburb": null,
        "city_district": null,
        "city": "Tyre",
        "state": "South Governorate",
        "postcode": "1601",
        "country": "Lebanon",
        "country_code": "lb"
      },
      "address": "Al Bass, Tyre, South Governorate, Lebanon"
    },
    {
      "lat": 33.278956833372646,
      "lon": 35.19542518187598,
      "geoinfo": {
        "display_name": "Dar Alma, Rue de Dotations, Tyre, Tyre District, South Governorate, 1601, Lebanon",
        "road": "Rue de Dotations",
        "house_number": null,
        "neighbourhood": null,
        "suburb": null,
        "city_district": null,
        "city": "Tyre",
        "state": "South Governorate",
        "postcode": "1601",
        "country": "Lebanon",
        "country_code": "lb"
      },
      "address": "Rue de Dotations, Tyre, South Governorate, Lebanon"
    },
    {
      "lat": 33.297529371656765,
      "lon": 35.231636551007526,
      "geoinfo": {
        "display_name": "Sea Road, Bourghliye, Aabbassiyeh, Tyre District, South Governorate, Lebanon",
        "road": "Sea Road",
        "house_number": null,
        "neighbourhood": null,
        "suburb": null,
        "city_district": null,
        "city": "Bourghliye",
        "state": "South Governorate",
        "postcode": null,
        "country": "Lebanon",
        "country_code": "lb"
      },
      "address": "Sea Road, Tyre, South Governorate, Lebanon"
    },
    {
      "lat": 33.250910921493464,
      "lon": 35.22900795266053,
      "geoinfo": {
        "display_name": "Hosh, Burj Al Shamali, Tyre District, South Governorate, Lebanon",
        "road": null,
        "house_number": null,
        "neighbourhood": null,
        "suburb": null,
        "city_district": null,
        "city": "Hosh",
        "state": "South Governorate",
        "postcode": null,
        "country": "Lebanon",
        "country_code": "lb"
      },
      "address": "928, Tyre, 71635 South Governorate, Lebanon"
    },
    {
      "lat": 33.24292052237589,
      "lon": 35.18622337729543,
      "geoinfo": {
        "display_name": "Er Rachidiye, Tyre, Tyre District, South Governorate, 1601, Lebanon",
        "road": null,
        "house_number": null,
        "neighbourhood": null,
        "suburb": null,
        "city_district": null,
        "city": "Tyre",
        "state": "South Governorate",
        "postcode": "1601",
        "country": "Lebanon",
        "country_code": "lb"
      },
      "address": "205, Er Rachidiye, Tyre, Tyre District, South Governorate, 1601, Lebanon"
    },
    {
      "lat": 33.268382754563085,
      "lon": 35.236779678333924,
      "geoinfo": {
        "display_name": "Burj Shemali Camp, Sea Highway, Hammadiyeh, Burj Al Shamali, Tyre District, South Governorate, 1601, Lebanon",
        "road": "Sea Highway",
        "house_number": null,
        "neighbourhood": null,
        "suburb": null,
        "city_district": null,
        "city": "Hammadiyeh",
        "state": "South Governorate",
        "postcode": "1601",
        "country": "Lebanon",
        "country_code": "lb"
      },
      "address": "516, Sea Highway, Tyre, 1601 South Governorate, Lebanon"
    },
    {
      "lat": 33.294003188766126,
      "lon": 35.17955020720155,
      "geoinfo": {
        "display_name": "Burj Al Shamali, Tyre District, South Governorate, 1601, Lebanon",
        "road": null,
        "house_number": null,
        "neighbourhood": null,
        "suburb": null,
        "city_district": null,
        "city": "Burj Al Shamali",
        "state": "South Governorate",
        "postcode": "1601",
        "country": "Lebanon",
        "country_code": "lb"
      },
      "address": "273, Burj Al Shamali, Tyre District, South Governorate, 1601, Lebanon"
    },
    {
      "lat": 33.27102553176786,
      "lon": 35.20980833405758,
      "geoinfo": {
        "display_name": "El Bass Refugee Camp, Rue Hafez el-Assad, Al Bass, Tyre, Tyre District, South Governorate, 1601, Lebanon",
        "road": "Rue Hafez el-Assad",
        "house_number": null,
        "neighbourhood": "Al Bass",
        "suburb": null,
        "city_district": null,
        "city": "Tyre",
        "state": "South Governorate",
        "postcode": "1601",
        "country": "Lebanon",
        "country_code": "lb"
      },
      "address": "819, Rue Hafez el-Assad, Tyre, 1601 South Governorate, Lebanon"
    },
    {
      "lat": 33.26315119850904,
      "lon": 35.18586394772751,
      "geoinfo": {
        "display_name": "Er Rachidiye, Tyre, Tyre District, South Governorate, 1601, Lebanon",
        "road": null,
        "house_number": null,
        "neighbourhood": null,
        "suburb": null,
        "city_district": null,
        "city": "Tyre",
        "state": "South Governorate",
        "postcode": "1601",
        "country": "Lebanon",
        "country_code": "lb"
      },
      "address": "077, Er Rachidiye, Tyre, Tyre District, South Governorate, 1601, Lebanon"
    },
    {
      "lat": 33.283764421437006,
      "lon": 35.21081674405064,
      "geoinfo": {
        "display_name": "Aabbassiyeh, Tyre District, South Governorate, 1601, Lebanon",
        "road": null,
        "house_number": null,
        "neighbourhood": null,
        "suburb": null,
        "city_district": null,
        "city": null,
        "state": "South Governorate",
        "postcode": "1601",
        "country": "Lebanon",
        "country_code": "lb"
      },
      "address": "206, Aabbassiyeh, Tyre District, South Governorate, 1601, Lebanon"
    }
  ],
  "updated_at": "2025-10-19T05:22:30.846375+00:00",
  "_kind": "geo_samples"
}