{
  "country_code": "AZ",
  "country": "Azerbaijan",
  "city": "Jalilabad",
  "geonameid": 148290,
  "target_addresses": 9,
  "samples": [
    {
      "lat": 39.2317637949918,
      "lon": 48.45527025421538,
      "geoinfo": {
        "display_name": "Sərhədabad yolu, Sərhədabad, Jalilabad District, Azerbaijan",
        "road": "Sərhədabad yolu",
        "house_number": null,
        "neighbourhood": null,
        "suburb": null,
        "city_district": null,
        "city": "Sərhədabad",
        "state": null,
        "postcode": null,
        "country": "Azerbaijan",
        "country_code": "az"
      },
      "address": "Sərhədabad yolu, Jalilabad, Azerbaijan"
    },
    {
      "lat": 39.23225802443776,
      "lon": 48.467025462601306,
      "geoinfo": {
        "display_name": "Jalilabad District, Azerbaijan",
        "road": null,
        "house_number": null,
        "neighbourhood": null,
        "suburb": null,
        "city_district": null,
        "city": null,
        "state": null,
        "postcode": null,
        "country": "Azerbaijan",
        "country_code": "az"
      },
      "address": "Jalilabad, Azerbaijan"
    },
    {
      "lat": 39.17535872095463,
      "lon": 48.49553319309406,
      "geoinfo": {
        "display_name": "Jalilabad District, Azerbaijan",
        "road": null,
        "house_number": null,
        "neighbourhood": null,
        "suburb": null,
        "city_district": null,
        "city": null,
        "state": null,
        "postcode": null,
        "country": "Azerbaijan",
        "country_code": "az"
      },
      "address": "30356 Jalilabad District, Azerbaijan"
    },
    {
      "lat": 39.20069761360617,
      "lon": 48.51326753718,
      "geoinfo": {
        "display_name": "Jalilabad, Jalilabad District, 0112, Azerbaijan",
        "road": null,
        "house_number": null,
        "neighbourhood": null,
        "suburb": null,
        "city_district": null,
        "city": "Jalilabad",
        "state": null,
        "postcode": "0112",
        "country": "Azerbaijan",
        "country_code": "az"
      },
      "address": "444, Jalilabad, Jalilabad District, 0112, Azerbaijan"
    },
    {
      "lat": 39.18524017545014,
      "lon": 48.44658177794866,
      "geoinfo": {
        "display_name": "Hacımayıllı, Jalilabad District, Azerbaijan",
        "road": null,
        "house_number": null,
        "neighbourhood": null,
        "suburb": null,
        "city_district": null,
        "city": null,
        "state": null,
        "postcode": null,
        "country": "Azerbaijan",
        "country_code": "az"
      },
      "address": "474, Hacımayıllı, 20305 Jalilabad District, Azerbaijan"
    },
    {
      "lat": 39.21802983628351,
      "lon": 48.46188862520958,
      "geoinfo": {
        "display_name": "Suluçeşmə yolu, Jalilabad District, 0112, Azerbaijan",
        "road": "Suluçeşmə yolu",
        "house_number": null,
        "neighbourhood": null,
        "suburb": null,
        "city_district": null,
        "city": null,
        "state": null,
        "postcode": "0112",
        "country": "Azerbaijan",
        "country_code": "az"
      },
      "address": "709, Suluçeşmə yolu, Jalilabad District, 0112, Azerbaijan"
    },
    {
      "lat": 39.216845280190185,
      "lon": 48.494838885023526,
      "geoinfo": {
        "display_name": "Jalilabad, Jalilabad District, 0112, Azerbaijan",
        "road": null,
        "house_number": null,
        "neighbourhood": null,
        "suburb": null,
        "city_district": null,
        "city": "Jalilabad",
        "state": null,
        "postcode": "0112",
        "country": "Azerbaijan",
        "country_code": "az"
      },
      "address": "788, Jalilabad, Jalilabad District, 0112, Azerbaijan"
    },
    {
      "lat": 39.21247391103217,
      "lon": 48.52067606197442,
      "geoinfo": {
        "display_name": "Jalilabad, Jalilabad District, 1500, Azerbaijan",
        "road": null,
        "house_number": null,
        "neighbourhood": null,
        "suburb": null,
        "city_district": null,
        "city": "Jalilabad",
        "state": null,
        "postcode": "1500",
        "country": "Azerbaijan",
        "country_code": "az"
      },
      "address": "561, Jalilabad, Jalilabad District, 1500, Azerbaijan"
    },
    {
      "lat": 39.22800050484762,
      "lon": 48.46038952580506,
      "geoinfo": {
        "display_name": "Y15-05, Jalilabad, Jalilabad District, 0112, Azerbaijan",
        "road": "Y15-05",
        "house_number": null,
        "neighbourhood": null,
        "suburb": null,
        "city_district": null,
        "city": "Jalilabad",
        "state": null,
        "postcode": "0112",
        "country": "Azerbaijan",
        "country_code": "az"
      },
      "address": "Y15-05, Jalilabad, Jalilabad District, 0112, Azerbaijan"
    },
    {
      "lat": 39.21078978498711,
      "lon": 48.51515199418975,
      "geoinfo": {
        "display_name": "20th January Street, Jalilabad, Jalilabad District, 0112, Azerbaijan",
        "road": "20th January Street",
        "house_number": null,
        "neighbourhood": null,
        "suburb": null,
        "city_district": null,
        "city": "Jalilabad",
        "state": null,
        "postcode": "0112",
        "country": "Azerbaijan",
        "country_code": "az"
      },
      "address": "20th January Street, Jalilabad, Jalilabad District, 0112, Azerbaijan"
    },
    {
      "lat": 39.19635641861372,
      "lon": 48.54003633769497,
      "geoinfo": {
        "display_name": "M3, Binə Xocavar, Jalilabad, Jalilabad District, 1514, Azerbaijan",
        "road": "M3",
        "house_number": null,
        "neighbourhood": null,
        "suburb": null,
        "city_district": null,
        "city": "Jalilabad",
        "state": null,
        "postcode": "1514",
        "country": "Azerbaijan",
        "country_code": "az"
      },
      "address": "M3, Binə Xocavar, Jalilabad, Jalilabad District, 1514, Azerbaijan"
    }
  ],
  "updated_at": "2025-10-19T03:16:44.182462+00:00",
  "_kind": "geo_samples"
}