{
  "country_code": "AZ",
  "country": "Azerbaijan",
  "city": "Qaraçuxur",
  "geonameid": 585103,
  "target_addresses": 2,
  "samples": [
    {
      "lat": 40.39687561598237,
      "lon": 49.980876731310964,
      "geoinfo": {
        "display_name": "Yaşar Əliyev küç., Karachukhur, Surakhany Raion, Baku City, 1067, Azerbaijan",
        "road": "Yaşar Əliyev küç.",
        "house_number": null,
        "neighbourhood": null,
        "suburb": "Karachukhur",
        "city_district": "Surakhany Raion",
        "city": "Baku City",
        "state": null,
        "postcode": "1067",
        "country": "Azerbaijan",
        "country_code": "az"
      },
      "address": "Yaşar Əliyev küç., Qaraçuxur, Azerbaijan"
    },
    {
      "lat": 40.406591330329505,
      "lon": 49.96004413074118,
      "geoinfo": {
        "display_name": "Nizami Raion, Baku City, 1035, Azerbaijan",
        "road": null,
        "house_number": null,
        "neighbourhood": null,
        "suburb": null,
        "city_district": "Nizami Raion",
        "city": "Baku City",
        "state": null,
        "postcode": "1035",
        "country": "Azerbaijan",
        "country_code": "az"
      },
      "address": "Nizami Raion, Qaraçuxur, Azerbaijan"
    },
    {
      "lat": 40.382712471437976,
      "lon": 49.99849839244112,
      "geoinfo": {
        "display_name": "Zığ - Suraxanı yolu, Zygh, Surakhany Raion, Baku City, 1131, Azerbaijan",
        "road": "Zığ - Suraxanı yolu",
        "house_number": null,
        "neighbourhood": null,
        "suburb": "Zygh",
        "city_district": "Surakhany Raion",
        "city": "Baku City",
        "state": null,
        "postcode": "1131",
        "country": "Azerbaijan",
        "country_code": "az"
      },
      "address": "712, Zığ - Suraxanı yolu, Zygh, Surakhany Raion, Baku City, 1131, Azerbaijan"
    },
    {
      "lat": 40.38621448856243,
      "lon": 50.022255074226436,
      "geoinfo": {
        "display_name": "Suraxanı - Hövsan yolu, Surakhany Raion, Baku City, 1125, Azerbaijan",
        "road": "Suraxanı - Hövsan yolu",
        "house_number": null,
        "neighbourhood": null,
        "suburb": null,
        "city_district": "Surakhany Raion",
        "city": "Baku City",
        "state": null,
        "postcode": "1125",
        "country": "Azerbaijan",
        "country_code": "az"
      },
      "address": "778, Suraxanı - Hövsan yolu, Surakhany Raion, Baku City, 1125, Azerbaijan"
    }
  ],
  "updated_at": "2025-10-19T00:56:45.609775+00:00",
  "_kind": "geo_samples"
}