{
  "country_code": "AZ",
  "country": "Azerbaijan",
  "city": "Qazax",
  "geonameid": 585226,
  "target_addresses": 2,
  "samples": [
    {
      "lat": 41.08485025404257,
      "lon": 45.30769329210116,
      "geoinfo": {
        "display_name": "Nərimanov Qəsəbəsi, Qazakh District, Azerbaijan",
        "road": null,
        "house_number": null,
        "neighbourhood": null,
        "suburb": null,
        "city_district": null,
        "city": "Nərimanov Qəsəbəsi",
        "state": null,
        "postcode": null,
        "country": "Azerbaijan",
        "country_code": "az"
      },
      "address": "Qazax, Azerbaijan"
    },
    {
      "lat": 41.1053658931787,
      "lon": 45.379027338596835,
      "geoinfo": {
        "display_name": "26, 28 May küç., Gazakh, Qazakh District, 0500, Azerbaijan",
        "road": "28 May küç.",
        "house_number": "26",
        "neighbourhood": null,
        "suburb": null,
        "city_district": null,
        "city": "Gazakh",
        "state": null,
        "postcode": "0500",
        "country": "Azerbaijan",
        "country_code": "az"
      },
      "address": "26 28 May küç., Qazax, Azerbaijan"
    },
    {
      "lat": 41.13312807046398,
      "lon": 45.378060157532865,
      "geoinfo": {
        "display_name": "Əliağa Şıxlinski küç., Düzqışlaq, Aghstafa District, Azerbaijan",
        "road": "Əliağa Şıxlinski küç.",
        "house_number": null,
        "neighbourhood": null,
        "suburb": null,
        "city_district": null,
        "city": "Düzqışlaq",
        "state": null,
        "postcode": null,
        "country": "Azerbaijan",
        "country_code": "az"
      },
      "address": "996, Əliağa Şıxlinski küç., 91326 Qazax, Azerbaijan"
    },
    {
      "lat": 41.13297472550374,
      "lon": 45.353371563587885,
      "geoinfo": {
        "display_name": "Kosalar kənd Məktəbi, Molla Məcid küç., Kosalar, Qazakh District, 3500, Azerbaijan",
        "road": "Molla Məcid küç.",
        "house_number": null,
        "neighbourhood": null,
        "suburb": null,
        "city_district": null,
        "city": "Kosalar",
        "state": null,
        "postcode": "3500",
        "country": "Azerbaijan",
        "country_code": "az"
      },
      "address": "495, Molla Məcid küç., 3500 Qazax, Azerbaijan"
    }
  ],
  "updated_at": "2025-10-19T02:35:16.412650+00:00",
  "_kind": "geo_samples"
}