{
  "country_code": "AZ",
  "country": "Azerbaijan",
  "city": "Sabunçu",
  "geonameid": 585184,
  "target_addresses": 2,
  "samples": [
    {
      "lat": 40.44819329786965,
      "lon": 49.92589355941913,
      "geoinfo": {
        "display_name": "Sabunchu Raion, Baku City, 1038, Azerbaijan",
        "road": null,
        "house_number": null,
        "neighbourhood": null,
        "suburb": null,
        "city_district": "Sabunchu Raion",
        "city": "Baku City",
        "state": null,
        "postcode": "1038",
        "country": "Azerbaijan",
        "country_code": "az"
      },
      "address": "Sabunchu Raion, Sabunçu, Azerbaijan"
    },
    {
      "lat": 40.42076100188556,
      "lon": 49.97281331932377,
      "geoinfo": {
        "display_name": "Ruhulla Axundov küç., Bakikhanov, Sabunchu Raion, Baku City, Azerbaijan",
        "road": "Ruhulla Axundov küç.",
        "house_number": null,
        "neighbourhood": null,
        "suburb": "Bakikhanov",
        "city_district": "Sabunchu Raion",
        "city": "Baku City",
        "state": null,
        "postcode": null,
        "country": "Azerbaijan",
        "country_code": "az"
      },
      "address": "Ruhulla Axundov küç., Sabunçu, Azerbaijan"
    },
    {
      "lat": 40.477933962151305,
      "lon": 49.912839727339566,
      "geoinfo": {
        "display_name": "Həsən Əliyev küç., Sabunchu Raion, Baku City, 1038, Azerbaijan",
        "road": "Həsən Əliyev küç.",
        "house_number": null,
        "neighbourhood": null,
        "suburb": null,
        "city_district": "Sabunchu Raion",
        "city": "Baku City",
        "state": null,
        "postcode": "1038",
        "country": "Azerbaijan",
        "country_code": "az"
      },
      "address": "913, Həsən Əliyev küç., Sabunchu Raion, Baku City, 1038, Azerbaijan"
    },
    {
      "lat": 40.438277258580435,
      "lon": 49.93739211087616,
      "geoinfo": {
        "display_name": "Sabunchu Raion, Baku City, 1034, Azerbaijan",
        "road": null,
        "house_number": null,
        "neighbourhood": null,
        "suburb": null,
        "city_district": "Sabunchu Raion",
        "city": "Baku City",
        "state": null,
        "postcode": "1034",
        "country": "Azerbaijan",
        "country_code": "az"
      },
      "address": "466, Sabunchu Raion, Baku City, 1034, Azerbaijan"
    }
  ],
  "updated_at": "2025-10-19T01:01:22.623458+00:00",
  "_kind": "geo_samples"
}