{
  "country_code": "AZ",
  "country": "Azerbaijan",
  "city": "Yeni Suraxanı",
  "geonameid": 586340,
  "target_addresses": 11,
  "samples": [
    {
      "lat": 40.39219738888376,
      "lon": 50.05418512937708,
      "geoinfo": {
        "display_name": "Hövsan, Baku City, 1089, Azerbaijan",
        "road": null,
        "house_number": null,
        "neighbourhood": null,
        "suburb": null,
        "city_district": null,
        "city": "Baku City",
        "state": null,
        "postcode": "1089",
        "country": "Azerbaijan",
        "country_code": "az"
      },
      "address": "Yeni Suraxanı, Azerbaijan"
    },
    {
      "lat": 40.443806098376314,
      "lon": 49.9929405691461,
      "geoinfo": {
        "display_name": "16 Saylı Cəzaçəkmə Müəssisəsi, 12-ci Bülbülə küç. \\ Yeni Ramana, Surakhany Raion, Yeni Romana, 1151, Azerbaijan",
        "road": "12-ci Bülbülə küç. \\ Yeni Ramana",
        "house_number": null,
        "neighbourhood": null,
        "suburb": null,
        "city_district": "Surakhany Raion",
        "city": "Yeni Romana",
        "state": null,
        "postcode": "1151",
        "country": "Azerbaijan",
        "country_code": "az"
      },
      "address": "12-ci Bülbülə küç. \\ Yeni Ramana, Yeni Suraxanı, Azerbaijan"
    },
    {
      "lat": 40.42348544426261,
      "lon": 50.03107612461044,
      "geoinfo": {
        "display_name": "12-ci Yeni Suraxanı küç., Surakhany Raion, Baku City, 1050, Azerbaijan",
        "road": "12-ci Yeni Suraxanı küç.",
        "house_number": null,
        "neighbourhood": null,
        "suburb": null,
        "city_district": "Surakhany Raion",
        "city": "Baku City",
        "state": null,
        "postcode": "1050",
        "country": "Azerbaijan",
        "country_code": "az"
      },
      "address": "12-ci Yeni Suraxanı küç., Yeni Suraxanı, Azerbaijan"
    },
    {
      "lat": 40.38964342798307,
      "lon": 50.047959749238174,
      "geoinfo": {
        "display_name": "Surakhany Raion, Baku City, Azerbaijan",
        "road": null,
        "house_number": null,
        "neighbourhood": null,
        "suburb": null,
        "city_district": "Surakhany Raion",
        "city": "Baku City",
        "state": null,
        "postcode": null,
        "country": "Azerbaijan",
        "country_code": "az"
      },
      "address": "Surakhany Raion, 48429 Baku City, Azerbaijan"
    },
    {
      "lat": 40.42723862713129,
      "lon": 50.01239327697041,
      "geoinfo": {
        "display_name": "Surakhany Raion, Baku City, 1049, Azerbaijan",
        "road": null,
        "house_number": null,
        "neighbourhood": null,
        "suburb": null,
        "city_district": "Surakhany Raion",
        "city": "Baku City",
        "state": null,
        "postcode": "1049",
        "country": "Azerbaijan",
        "country_code": "az"
      },
      "address": "489, Surakhany Raion, Baku City, 1049, Azerbaijan"
    },
    {
      "lat": 40.40814821292517,
      "lon": 50.06237655868989,
      "geoinfo": {
        "display_name": "Surakhany Raion, Baku City, Azerbaijan",
        "road": null,
        "house_number": null,
        "neighbourhood": null,
        "suburb": null,
        "city_district": "Surakhany Raion",
        "city": "Baku City",
        "state": null,
        "postcode": null,
        "country": "Azerbaijan",
        "country_code": "az"
      },
      "address": "899, Surakhany Raion, 62633 Baku City, Azerbaijan"
    },
    {
      "lat": 40.47285411770861,
      "lon": 50.02564072813101,
      "geoinfo": {
        "display_name": "Sabunchu Raion, Baku City, 1076, Azerbaijan",
        "road": null,
        "house_number": null,
        "neighbourhood": null,
        "suburb": null,
        "city_district": "Sabunchu Raion",
        "city": "Baku City",
        "state": null,
        "postcode": "1076",
        "country": "Azerbaijan",
        "country_code": "az"
      },
      "address": "359, Sabunchu Raion, Baku City, 1076, Azerbaijan"
    },
    {
      "lat": 40.44176535999653,
      "lon": 50.06894713820767,
      "geoinfo": {
        "display_name": "Füzuli küç., Khazar Raion, Baku City, 1045, Azerbaijan",
        "road": "Füzuli küç.",
        "house_number": null,
        "neighbourhood": null,
        "suburb": null,
        "city_district": "Khazar Raion",
        "city": "Baku City",
        "state": null,
        "postcode": "1045",
        "country": "Azerbaijan",
        "country_code": "az"
      },
      "address": "193, Füzuli küç., Khazar Raion, Baku City, 1045, Azerbaijan"
    },
    {
      "lat": 40.45382370583118,
      "lon": 49.9999311758231,
      "geoinfo": {
        "display_name": "Surakhany Raion, Baku City, 1151, Azerbaijan",
        "road": null,
        "house_number": null,
        "neighbourhood": null,
        "suburb": null,
        "city_district": "Surakhany Raion",
        "city": "Baku City",
        "state": null,
        "postcode": "1151",
        "country": "Azerbaijan",
        "country_code": "az"
      },
      "address": "681, Surakhany Raion, Baku City, 1151, Azerbaijan"
    },
    {
      "lat": 40.47255701668371,
      "lon": 50.039918794871014,
      "geoinfo": {
        "display_name": "Khazar Raion, Baku City, Azerbaijan",
        "road": null,
        "house_number": null,
        "neighbourhood": null,
        "suburb": null,
        "city_district": "Khazar Raion",
        "city": "Baku City",
        "state": null,
        "postcode": null,
        "country": "Azerbaijan",
        "country_code": "az"
      },
      "address": "594, Khazar Raion, 29397 Baku City, Azerbaijan"
    },
    {
      "lat": 40.42626433022493,
      "lon": 50.01952553669703,
      "geoinfo": {
        "display_name": "Surakhany Raion, Baku City, 1128, Azerbaijan",
        "road": null,
        "house_number": null,
        "neighbourhood": null,
        "suburb": null,
        "city_district": "Surakhany Raion",
        "city": "Baku City",
        "state": null,
        "postcode": "1128",
        "country": "Azerbaijan",
        "country_code": "az"
      },
      "address": "565, Surakhany Raion, Baku City, 1128, Azerbaijan"
    }
  ],
  "updated_at": "2025-10-19T03:19:03.264451+00:00",
  "_kind": "geo_samples"
}