{
  "country_code": "DK",
  "country": "Denmark",
  "city": "Allerød",
  "geonameid": 2624843,
  "target_addresses": 2,
  "samples": [
    {
      "lat": 55.853514850338485,
      "lon": 12.352791553037912,
      "geoinfo": {
        "display_name": "Midtervej, Stolelyng, Lillerød, Allerød Municipality, Capital Region of Denmark, 3450, Denmark",
        "road": "Midtervej",
        "house_number": null,
        "neighbourhood": null,
        "suburb": "Stolelyng",
        "city_district": null,
        "city": "Lillerød",
        "state": "Capital Region of Denmark",
        "postcode": "3450",
        "country": "Denmark",
        "country_code": "dk"
      },
      "address": "Midtervej, Allerød, Capital Region of Denmark, Denmark"
    },
    {
      "lat": 55.8500820545409,
      "lon": 12.361438319649832,
      "geoinfo": {
        "display_name": "Skomagervej, Kattehale, Lillerød, Allerød Municipality, Capital Region of Denmark, 3450, Denmark",
        "road": "Skomagervej",
        "house_number": null,
        "neighbourhood": null,
        "suburb": null,
        "city_district": null,
        "city": "Lillerød",
        "state": "Capital Region of Denmark",
        "postcode": "3450",
        "country": "Denmark",
        "country_code": "dk"
      },
      "address": "Skomagervej, Allerød, Capital Region of Denmark, Denmark"
    },
    {
      "lat": 55.8510417114947,
      "lon": 12.36228517127159,
      "geoinfo": {
        "display_name": "2, Bregnerød Skovvej, Kattehale, Birkerød, Allerød Municipality, Capital Region of Denmark, 3460, Denmark",
        "road": "Bregnerød Skovvej",
        "house_number": "2",
        "neighbourhood": null,
        "suburb": null,
        "city_district": null,
        "city": "Birkerød",
        "state": "Capital Region of Denmark",
        "postcode": "3460",
        "country": "Denmark",
        "country_code": "dk"
      },
      "address": "2, Bregnerød Skovvej, Kattehale, Birkerød, Allerød Municipality, Capital Region of Denmark, 3460, Denmark"
    },
    {
      "lat": 55.85906463409326,
      "lon": 12.393488626510557,
      "geoinfo": {
        "display_name": "Den Kongelige Livgarde, Kongevejen, Lille Blovstrød, Blovstrød, Allerød Municipality, Capital Region of Denmark, 3460, Denmark",
        "road": "Kongevejen",
        "house_number": null,
        "neighbourhood": null,
        "suburb": "Lille Blovstrød",
        "city_district": null,
        "city": "Blovstrød",
        "state": "Capital Region of Denmark",
        "postcode": "3460",
        "country": "Denmark",
        "country_code": "dk"
      },
      "address": "758, Kongevejen, Allerød, 3460 Capital Region of Denmark, Denmark"
    }
  ],
  "updated_at": "2025-10-19T01:58:48.589540+00:00",
  "_kind": "geo_samples"
}