{
  "country_code": "DK",
  "country": "Denmark",
  "city": "Helsingør",
  "geonameid": 2620473,
  "target_addresses": 2,
  "samples": [
    {
      "lat": 56.04265118887389,
      "lon": 12.66595362599424,
      "geoinfo": {
        "display_name": "Centrum, Helsingborgs kommun, Skåne County, Sweden",
        "road": null,
        "house_number": null,
        "neighbourhood": null,
        "suburb": "Centrum",
        "city_district": null,
        "city": null,
        "state": null,
        "postcode": null,
        "country": "Sweden",
        "country_code": "se"
      },
      "address": "Centrum, Helsingør, Denmark"
    },
    {
      "lat": 56.0721358099303,
      "lon": 12.585791043816192,
      "geoinfo": {
        "display_name": "Hellebæk, Helsingør Municipality, Capital Region of Denmark, 3150, Denmark",
        "road": null,
        "house_number": null,
        "neighbourhood": null,
        "suburb": null,
        "city_district": null,
        "city": "Hellebæk",
        "state": "Capital Region of Denmark",
        "postcode": "3150",
        "country": "Denmark",
        "country_code": "dk"
      },
      "address": "Helsingør, Capital Region of Denmark, Denmark"
    },
    {
      "lat": 56.046578647358864,
      "lon": 12.552479369663523,
      "geoinfo": {
        "display_name": "Den Skrå Bomvej, Helsingør Municipality, Capital Region of Denmark, 3150, Denmark",
        "road": "Den Skrå Bomvej",
        "house_number": null,
        "neighbourhood": null,
        "suburb": null,
        "city_district": null,
        "city": null,
        "state": "Capital Region of Denmark",
        "postcode": "3150",
        "country": "Denmark",
        "country_code": "dk"
      },
      "address": "175, Den Skrå Bomvej, Helsingør Municipality, Capital Region of Denmark, 3150, Denmark"
    },
    {
      "lat": 56.043056690850435,
      "lon": 12.593719872560378,
      "geoinfo": {
        "display_name": "11A, Mjølnersvej, Tårnhøjshuse, Elsinore, Helsingør Municipality, Capital Region of Denmark, 3000, Denmark",
        "road": "Mjølnersvej",
        "house_number": "11A",
        "neighbourhood": "Tårnhøjshuse",
        "suburb": null,
        "city_district": null,
        "city": "Elsinore",
        "state": "Capital Region of Denmark",
        "postcode": "3000",
        "country": "Denmark",
        "country_code": "dk"
      },
      "address": "11A, Mjølnersvej, Tårnhøjshuse, Elsinore, Helsingør Municipality, Capital Region of Denmark, 3000, Denmark"
    }
  ],
  "updated_at": "2025-10-19T01:58:32.477366+00:00",
  "_kind": "geo_samples"
}