{
  "country_code": "DK",
  "country": "Denmark",
  "city": "Hillerød",
  "geonameid": 2620320,
  "target_addresses": 8,
  "samples": [
    {
      "lat": 55.94560645704002,
      "lon": 12.238853129296565,
      "geoinfo": {
        "display_name": "Præstevej, Sønder Strødam, Tulstrup, Hillerød Municipality, Capital Region of Denmark, Denmark",
        "road": "Præstevej",
        "house_number": null,
        "neighbourhood": null,
        "suburb": null,
        "city_district": null,
        "city": "Tulstrup",
        "state": "Capital Region of Denmark",
        "postcode": null,
        "country": "Denmark",
        "country_code": "dk"
      },
      "address": "Præstevej, Hillerød, Capital Region of Denmark, Denmark"
    },
    {
      "lat": 55.912047812744206,
      "lon": 12.248170088276762,
      "geoinfo": {
        "display_name": "Rydegård, 8, Ved Freerslev Hegn, Freerslev, Hillerød, Hillerød Municipality, Capital Region of Denmark, 3400, Denmark",
        "road": "Ved Freerslev Hegn",
        "house_number": "8",
        "neighbourhood": null,
        "suburb": null,
        "city_district": null,
        "city": "Hillerød",
        "state": "Capital Region of Denmark",
        "postcode": "3400",
        "country": "Denmark",
        "country_code": "dk"
      },
      "address": "8 Ved Freerslev Hegn, Hillerød, Capital Region of Denmark, Denmark"
    },
    {
      "lat": 55.95012617562494,
      "lon": 12.308895842664663,
      "geoinfo": {
        "display_name": "27K, Frydenborgvej, Oddervang, Hillerød, Hillerød Municipality, Capital Region of Denmark, 3400, Denmark",
        "road": "Frydenborgvej",
        "house_number": "27K",
        "neighbourhood": "Oddervang",
        "suburb": null,
        "city_district": null,
        "city": "Hillerød",
        "state": "Capital Region of Denmark",
        "postcode": "3400",
        "country": "Denmark",
        "country_code": "dk"
      },
      "address": "27K, Frydenborgvej, Oddervang, Hillerød, Hillerød Municipality, Capital Region of Denmark, 3400, Denmark"
    },
    {
      "lat": 55.924203970935004,
      "lon": 12.264078633605568,
      "geoinfo": {
        "display_name": "Egespurs Alle, Hillerød, Hillerød Municipality, Capital Region of Denmark, 3400, Denmark",
        "road": "Egespurs Alle",
        "house_number": null,
        "neighbourhood": null,
        "suburb": null,
        "city_district": null,
        "city": "Hillerød",
        "state": "Capital Region of Denmark",
        "postcode": "3400",
        "country": "Denmark",
        "country_code": "dk"
      },
      "address": "029, Egespurs Alle, Hillerød, Hillerød Municipality, Capital Region of Denmark, 3400, Denmark"
    },
    {
      "lat": 55.886934192003224,
      "lon": 12.32225960888695,
      "geoinfo": {
        "display_name": "Vejs Ende, Børstingerød, Lillerød, Allerød Municipality, Capital Region of Denmark, 3450, Denmark",
        "road": "Vejs Ende",
        "house_number": null,
        "neighbourhood": null,
        "suburb": null,
        "city_district": null,
        "city": "Lillerød",
        "state": "Capital Region of Denmark",
        "postcode": "3450",
        "country": "Denmark",
        "country_code": "dk"
      },
      "address": "245, Vejs Ende, Børstingerød, Lillerød, Allerød Municipality, Capital Region of Denmark, 3450, Denmark"
    },
    {
      "lat": 55.91394466929618,
      "lon": 12.331295067378644,
      "geoinfo": {
        "display_name": "Nyvangsvej, Holmene, Teglgårdslund, Ny Hammersholt, Hillerød Municipality, Capital Region of Denmark, 3400, Denmark",
        "road": "Nyvangsvej",
        "house_number": null,
        "neighbourhood": null,
        "suburb": "Teglgårdslund",
        "city_district": null,
        "city": "Ny Hammersholt",
        "state": "Capital Region of Denmark",
        "postcode": "3400",
        "country": "Denmark",
        "country_code": "dk"
      },
      "address": "003, Nyvangsvej, Holmene, Teglgårdslund, Ny Hammersholt, Hillerød Municipality, Capital Region of Denmark, 3400, Denmark"
    },
    {
      "lat": 55.929427423231495,
      "lon": 12.223340450519341,
      "geoinfo": {
        "display_name": "Tjærebyvej, Ny Harløse, Hillerød Municipality, Capital Region of Denmark, 3330, Denmark",
        "road": "Tjærebyvej",
        "house_number": null,
        "neighbourhood": null,
        "suburb": null,
        "city_district": null,
        "city": null,
        "state": "Capital Region of Denmark",
        "postcode": "3330",
        "country": "Denmark",
        "country_code": "dk"
      },
      "address": "037, Tjærebyvej, Ny Harløse, Hillerød Municipality, Capital Region of Denmark, 3330, Denmark"
    },
    {
      "lat": 55.96639472951197,
      "lon": 12.319608430392009,
      "geoinfo": {
        "display_name": "Indelukkevej, Hillerød Municipality, Capital Region of Denmark, 3400, Denmark",
        "road": "Indelukkevej",
        "house_number": null,
        "neighbourhood": null,
        "suburb": null,
        "city_district": null,
        "city": null,
        "state": "Capital Region of Denmark",
        "postcode": "3400",
        "country": "Denmark",
        "country_code": "dk"
      },
      "address": "575, Indelukkevej, Hillerød Municipality, Capital Region of Denmark, 3400, Denmark"
    }
  ],
  "updated_at": "2025-10-19T04:08:44.002528+00:00",
  "_kind": "geo_samples"
}