{
  "country_code": "DK",
  "country": "Denmark",
  "city": "Odense",
  "geonameid": 2615876,
  "target_addresses": 2,
  "samples": [
    {
      "lat": 55.381325454089335,
      "lon": 10.336775811005529,
      "geoinfo": {
        "display_name": "1000 års Skoven, Havekolonien Enghaven, Haveforeningen Enghaven, Bolbro, Odense, Odense Municipality, 5200, Denmark",
        "road": "Havekolonien Enghaven",
        "house_number": null,
        "neighbourhood": null,
        "suburb": "Bolbro",
        "city_district": null,
        "city": "Odense",
        "state": null,
        "postcode": "5200",
        "country": "Denmark",
        "country_code": "dk"
      },
      "address": "Havekolonien Enghaven, Odense, Denmark"
    },
    {
      "lat": 55.42864411995606,
      "lon": 10.395167997487723,
      "geoinfo": {
        "display_name": "Nistedvej, Nisted, Anderup, Odense, Odense Municipality, 5000, Denmark",
        "road": "Nistedvej",
        "house_number": null,
        "neighbourhood": "Nisted",
        "suburb": "Anderup",
        "city_district": null,
        "city": "Odense",
        "state": null,
        "postcode": "5000",
        "country": "Denmark",
        "country_code": "dk"
      },
      "address": "Nistedvej, Odense, Denmark"
    },
    {
      "lat": 55.39171212910568,
      "lon": 10.442663468003133,
      "geoinfo": {
        "display_name": "38, Cikorievej, Korsløkke, Ejby, Odense, Odense Municipality, 5220, Denmark",
        "road": "Cikorievej",
        "house_number": "38",
        "neighbourhood": "Korsløkke",
        "suburb": "Ejby",
        "city_district": null,
        "city": "Odense",
        "state": null,
        "postcode": "5220",
        "country": "Denmark",
        "country_code": "dk"
      },
      "address": "38, Cikorievej, Korsløkke, Ejby, Odense, Odense Municipality, 5220, Denmark"
    },
    {
      "lat": 55.418362099914354,
      "lon": 10.340880134285191,
      "geoinfo": {
        "display_name": "19, Bekkasinvej, Tarup, Odense, Odense Municipality, 5210, Denmark",
        "road": "Bekkasinvej",
        "house_number": "19",
        "neighbourhood": null,
        "suburb": "Tarup",
        "city_district": null,
        "city": "Odense",
        "state": null,
        "postcode": "5210",
        "country": "Denmark",
        "country_code": "dk"
      },
      "address": "19, Bekkasinvej, Tarup, Odense, Odense Municipality, 5210, Denmark"
    }
  ],
  "updated_at": "2025-10-19T03:44:16.199767+00:00",
  "_kind": "geo_samples"
}