{
  "country_code": "DK",
  "country": "Denmark",
  "city": "Silkeborg",
  "geonameid": 2614030,
  "target_addresses": 8,
  "samples": [
    {
      "lat": 56.13863997558167,
      "lon": 9.549779949667505,
      "geoinfo": {
        "display_name": "Virklund Børnehus og Virklund Outdoor Bålhytte og shelterplads, Hjortespringet, Virklund, Silkeborg Municipality, Central Denmark Region, 8600, Denmark",
        "road": "Hjortespringet",
        "house_number": null,
        "neighbourhood": null,
        "suburb": null,
        "city_district": null,
        "city": "Virklund",
        "state": "Central Denmark Region",
        "postcode": "8600",
        "country": "Denmark",
        "country_code": "dk"
      },
      "address": "Hjortespringet, Silkeborg, Central Denmark Region, Denmark"
    },
    {
      "lat": 56.15277973520207,
      "lon": 9.5846587721231,
      "geoinfo": {
        "display_name": "Skovriderens Vej, Hattenæs, Silkeborg, Silkeborg Municipality, Central Denmark Region, 8600, Denmark",
        "road": "Skovriderens Vej",
        "house_number": null,
        "neighbourhood": null,
        "suburb": null,
        "city_district": null,
        "city": "Silkeborg",
        "state": "Central Denmark Region",
        "postcode": "8600",
        "country": "Denmark",
        "country_code": "dk"
      },
      "address": "Skovriderens Vej, Silkeborg, Central Denmark Region, Denmark"
    },
    {
      "lat": 56.16697991464,
      "lon": 9.561419193655805,
      "geoinfo": {
        "display_name": "11, Drosselvej, Århusbakken, Silkeborg, Silkeborg Municipality, Central Denmark Region, 8600, Denmark",
        "road": "Drosselvej",
        "house_number": "11",
        "neighbourhood": null,
        "suburb": "Århusbakken",
        "city_district": null,
        "city": "Silkeborg",
        "state": "Central Denmark Region",
        "postcode": "8600",
        "country": "Denmark",
        "country_code": "dk"
      },
      "address": "11, Drosselvej, Århusbakken, Silkeborg, Silkeborg Municipality, Central Denmark Region, 8600, Denmark"
    },
    {
      "lat": 56.16917433657634,
      "lon": 9.617421949257142,
      "geoinfo": {
        "display_name": "Velkommen til Schoubyes sø, Gjernstien, Gødvad, Resenbro, Silkeborg Municipality, Central Denmark Region, Denmark",
        "road": "Gjernstien",
        "house_number": null,
        "neighbourhood": null,
        "suburb": "Gødvad",
        "city_district": null,
        "city": "Resenbro",
        "state": "Central Denmark Region",
        "postcode": null,
        "country": "Denmark",
        "country_code": "dk"
      },
      "address": "158, Gjernstien, Silkeborg, 99392 Central Denmark Region, Denmark"
    },
    {
      "lat": 56.18140061471564,
      "lon": 9.4695129577619,
      "geoinfo": {
        "display_name": "Nørhedevej, Silkeborg Municipality, Central Denmark Region, Denmark",
        "road": "Nørhedevej",
        "house_number": null,
        "neighbourhood": null,
        "suburb": null,
        "city_district": null,
        "city": null,
        "state": "Central Denmark Region",
        "postcode": null,
        "country": "Denmark",
        "country_code": "dk"
      },
      "address": "687, Nørhedevej, Silkeborg Municipality, 72990 Central Denmark Region, Denmark"
    },
    {
      "lat": 56.19248129886471,
      "lon": 9.538063846990068,
      "geoinfo": {
        "display_name": "41, Dalvejen, Sandmark, Silkeborg, Silkeborg Municipality, Central Denmark Region, 8600, Denmark",
        "road": "Dalvejen",
        "house_number": "41",
        "neighbourhood": null,
        "suburb": "Sandmark",
        "city_district": null,
        "city": "Silkeborg",
        "state": "Central Denmark Region",
        "postcode": "8600",
        "country": "Denmark",
        "country_code": "dk"
      },
      "address": "41, Dalvejen, Sandmark, Silkeborg, Silkeborg Municipality, Central Denmark Region, 8600, Denmark"
    },
    {
      "lat": 56.16763618286382,
      "lon": 9.588674156937183,
      "geoinfo": {
        "display_name": "Silkeborg - Nordskoven/Aarhusvej, Nordskovvej, Søholt, Silkeborg, Silkeborg Municipality, Central Denmark Region, 8600, Denmark",
        "road": "Nordskovvej",
        "house_number": null,
        "neighbourhood": null,
        "suburb": "Søholt",
        "city_district": null,
        "city": "Silkeborg",
        "state": "Central Denmark Region",
        "postcode": "8600",
        "country": "Denmark",
        "country_code": "dk"
      },
      "address": "784, Nordskovvej, Silkeborg, 8600 Central Denmark Region, Denmark"
    },
    {
      "lat": 56.15474647703168,
      "lon": 9.581797526987044,
      "geoinfo": {
        "display_name": "Skovriderens Vej, Hattenæs, Silkeborg, Silkeborg Municipality, Central Denmark Region, 8600, Denmark",
        "road": "Skovriderens Vej",
        "house_number": null,
        "neighbourhood": null,
        "suburb": null,
        "city_district": null,
        "city": "Silkeborg",
        "state": "Central Denmark Region",
        "postcode": "8600",
        "country": "Denmark",
        "country_code": "dk"
      },
      "address": "910, Skovriderens Vej, Hattenæs, Silkeborg, Silkeborg Municipality, Central Denmark Region, 8600, Denmark"
    }
  ],
  "updated_at": "2025-10-19T04:08:05.961527+00:00",
  "_kind": "geo_samples"
}