{
  "country_code": "DK",
  "country": "Denmark",
  "city": "Tønder",
  "geonameid": 2611497,
  "target_addresses": 2,
  "samples": [
    {
      "lat": 54.9750021196276,
      "lon": 8.84229372747224,
      "geoinfo": {
        "display_name": "Gallehusskovvej, Gallehus, Tønder, Tønder Municipality, 6270, Denmark",
        "road": "Gallehusskovvej",
        "house_number": null,
        "neighbourhood": null,
        "suburb": null,
        "city_district": null,
        "city": "Tønder",
        "state": null,
        "postcode": "6270",
        "country": "Denmark",
        "country_code": "dk"
      },
      "address": "Gallehusskovvej, Tønder, Denmark"
    },
    {
      "lat": 54.951548225823736,
      "lon": 8.806061683441762,
      "geoinfo": {
        "display_name": "Møgeltønder Omfartsvej, Toghale, Møgeltønder, Tønder Municipality, Region of Southern Denmark, 6270, Denmark",
        "road": "Møgeltønder Omfartsvej",
        "house_number": null,
        "neighbourhood": null,
        "suburb": null,
        "city_district": null,
        "city": "Møgeltønder",
        "state": "Region of Southern Denmark",
        "postcode": "6270",
        "country": "Denmark",
        "country_code": "dk"
      },
      "address": "Møgeltønder Omfartsvej, Tønder, Region of Southern Denmark, Denmark"
    },
    {
      "lat": 54.9084183299601,
      "lon": 8.87805837633106,
      "geoinfo": {
        "display_name": "Bremsbølvej, Bremsbøl, Tønder Municipality, 6270, Denmark",
        "road": "Bremsbølvej",
        "house_number": null,
        "neighbourhood": null,
        "suburb": null,
        "city_district": null,
        "city": null,
        "state": null,
        "postcode": "6270",
        "country": "Denmark",
        "country_code": "dk"
      },
      "address": "729, Bremsbølvej, Bremsbøl, Tønder Municipality, 6270, Denmark"
    },
    {
      "lat": 54.94175753235409,
      "lon": 8.815052025075667,
      "geoinfo": {
        "display_name": "2, Slotsfeltvej, Tønder, Tønder Municipality, Region of Southern Denmark, 6270, Denmark",
        "road": "Slotsfeltvej",
        "house_number": "2",
        "neighbourhood": null,
        "suburb": null,
        "city_district": null,
        "city": "Tønder",
        "state": "Region of Southern Denmark",
        "postcode": "6270",
        "country": "Denmark",
        "country_code": "dk"
      },
      "address": "2, Slotsfeltvej, Tønder, Tønder Municipality, Region of Southern Denmark, 6270, Denmark"
    }
  ],
  "updated_at": "2025-10-19T04:30:51.739315+00:00",
  "_kind": "geo_samples"
}