{
  "country_code": "DK",
  "country": "Denmark",
  "city": "Vejle",
  "geonameid": 2610613,
  "target_addresses": 2,
  "samples": [
    {
      "lat": 55.7154859462414,
      "lon": 9.50911794326998,
      "geoinfo": {
        "display_name": "1, Niels Bentzens Alle, Trædballe, Uhre, Vejle, Vejle Municipality, 7100, Denmark",
        "road": "Niels Bentzens Alle",
        "house_number": "1",
        "neighbourhood": "Trædballe",
        "suburb": "Uhre",
        "city_district": null,
        "city": "Vejle",
        "state": null,
        "postcode": "7100",
        "country": "Denmark",
        "country_code": "dk"
      },
      "address": "1 Niels Bentzens Alle, Vejle, Denmark"
    },
    {
      "lat": 55.706921464277016,
      "lon": 9.56891316516387,
      "geoinfo": {
        "display_name": "Tirsbæk Strandvej, Lille Grundet, Vejle, Vejle Municipality, 7100, Denmark",
        "road": "Tirsbæk Strandvej",
        "house_number": null,
        "neighbourhood": null,
        "suburb": "Lille Grundet",
        "city_district": null,
        "city": "Vejle",
        "state": null,
        "postcode": "7100",
        "country": "Denmark",
        "country_code": "dk"
      },
      "address": "Tirsbæk Strandvej, Vejle, Denmark"
    },
    {
      "lat": 55.72534297090021,
      "lon": 9.491421607955711,
      "geoinfo": {
        "display_name": "20, Idasletten, Uhre, Vejle, Vejle Municipality, 7100, Denmark",
        "road": "Idasletten",
        "house_number": "20",
        "neighbourhood": null,
        "suburb": "Uhre",
        "city_district": null,
        "city": "Vejle",
        "state": null,
        "postcode": "7100",
        "country": "Denmark",
        "country_code": "dk"
      },
      "address": "20, Idasletten, Uhre, Vejle, Vejle Municipality, 7100, Denmark"
    },
    {
      "lat": 55.677238623629165,
      "lon": 9.497597163929964,
      "geoinfo": {
        "display_name": "Ryttervej, Gammel Højen, Vejle, Vejle Municipality, 7100, Denmark",
        "road": "Ryttervej",
        "house_number": null,
        "neighbourhood": null,
        "suburb": null,
        "city_district": null,
        "city": "Vejle",
        "state": null,
        "postcode": "7100",
        "country": "Denmark",
        "country_code": "dk"
      },
      "address": "937, Ryttervej, Gammel Højen, Vejle, Vejle Municipality, 7100, Denmark"
    }
  ],
  "updated_at": "2025-10-19T01:57:54.396826+00:00",
  "_kind": "geo_samples"
}