{
  "country_code": "DK",
  "country": "Denmark",
  "city": "Viby",
  "geonameid": 2610310,
  "target_addresses": 8,
  "samples": [
    {
      "lat": 56.13066260585368,
      "lon": 10.125762972403518,
      "geoinfo": {
        "display_name": "138, Jarlsmindevej, Stavtrup, Aarhus, Aarhus Municipality, Central Denmark Region, 8260, Denmark",
        "road": "Jarlsmindevej",
        "house_number": "138",
        "neighbourhood": null,
        "suburb": "Stavtrup",
        "city_district": null,
        "city": "Aarhus",
        "state": "Central Denmark Region",
        "postcode": "8260",
        "country": "Denmark",
        "country_code": "dk"
      },
      "address": "138 Jarlsmindevej, Viby, Central Denmark Region, Denmark"
    },
    {
      "lat": 56.10590520494332,
      "lon": 10.14808251433547,
      "geoinfo": {
        "display_name": "Christian X's Vej, Rosenhøj, Tranbjerg, Aarhus Municipality, Central Denmark Region, 8310, Denmark",
        "road": "Christian X's Vej",
        "house_number": null,
        "neighbourhood": null,
        "suburb": "Rosenhøj",
        "city_district": null,
        "city": "Tranbjerg",
        "state": "Central Denmark Region",
        "postcode": "8310",
        "country": "Denmark",
        "country_code": "dk"
      },
      "address": "Christian X's Vej, Viby, Central Denmark Region, Denmark"
    },
    {
      "lat": 56.15903686927816,
      "lon": 10.162673263953618,
      "geoinfo": {
        "display_name": "8, C.A. Thyregods Vej, Præstevangen, Åbyhøj, Aarhus, Aarhus Municipality, Central Denmark Region, 8230, Denmark",
        "road": "C.A. Thyregods Vej",
        "house_number": "8",
        "neighbourhood": "Præstevangen",
        "suburb": "Åbyhøj",
        "city_district": null,
        "city": "Aarhus",
        "state": "Central Denmark Region",
        "postcode": "8230",
        "country": "Denmark",
        "country_code": "dk"
      },
      "address": "8, C.A. Thyregods Vej, Præstevangen, Åbyhøj, Aarhus, Aarhus Municipality, Central Denmark Region, 8230, Denmark"
    },
    {
      "lat": 56.14229549371197,
      "lon": 10.152777499125618,
      "geoinfo": {
        "display_name": "23, Klamsagervej, Rugholm, Åbyhøj, Aarhus, Aarhus Municipality, Central Denmark Region, 8230, Denmark",
        "road": "Klamsagervej",
        "house_number": "23",
        "neighbourhood": "Rugholm",
        "suburb": "Åbyhøj",
        "city_district": null,
        "city": "Aarhus",
        "state": "Central Denmark Region",
        "postcode": "8230",
        "country": "Denmark",
        "country_code": "dk"
      },
      "address": "23, Klamsagervej, Viby, 8230 Central Denmark Region, Denmark"
    },
    {
      "lat": 56.13742481468423,
      "lon": 10.147175158505068,
      "geoinfo": {
        "display_name": "Rugholmvej, Rugholm, Viby J., Aarhus, Aarhus Municipality, Central Denmark Region, 8260, Denmark",
        "road": "Rugholmvej",
        "house_number": null,
        "neighbourhood": "Rugholm",
        "suburb": "Viby J.",
        "city_district": null,
        "city": "Aarhus",
        "state": "Central Denmark Region",
        "postcode": "8260",
        "country": "Denmark",
        "country_code": "dk"
      },
      "address": "006, Rugholmvej, Rugholm, Viby J., Aarhus, Aarhus Municipality, Central Denmark Region, 8260, Denmark"
    },
    {
      "lat": 56.13366195186978,
      "lon": 10.13707994224116,
      "geoinfo": {
        "display_name": "Brabrandstien, Haveforeningen Norringholm, Viby J., Aarhus, Aarhus Municipality, Central Denmark Region, 8260, Denmark",
        "road": "Brabrandstien",
        "house_number": null,
        "neighbourhood": null,
        "suburb": "Viby J.",
        "city_district": null,
        "city": "Aarhus",
        "state": "Central Denmark Region",
        "postcode": "8260",
        "country": "Denmark",
        "country_code": "dk"
      },
      "address": "608, Brabrandstien, Haveforeningen Norringholm, Viby J., Aarhus, Aarhus Municipality, Central Denmark Region, 8260, Denmark"
    },
    {
      "lat": 56.137879261479654,
      "lon": 10.13203621161991,
      "geoinfo": {
        "display_name": "Brabrandstien, Stavtrup Stationsby, Stavtrup, Aarhus, Aarhus Municipality, Central Denmark Region, 8220, Denmark",
        "road": "Brabrandstien",
        "house_number": null,
        "neighbourhood": "Stavtrup Stationsby",
        "suburb": "Stavtrup",
        "city_district": null,
        "city": "Aarhus",
        "state": "Central Denmark Region",
        "postcode": "8220",
        "country": "Denmark",
        "country_code": "dk"
      },
      "address": "270, Brabrandstien, Viby, 8220 Central Denmark Region, Denmark"
    },
    {
      "lat": 56.13868577039865,
      "lon": 10.176226005505802,
      "geoinfo": {
        "display_name": "12, Svendsgade, Gammel Kongsvang, Viby J., Aarhus, Aarhus Municipality, Central Denmark Region, 8260, Denmark",
        "road": "Svendsgade",
        "house_number": "12",
        "neighbourhood": null,
        "suburb": "Viby J.",
        "city_district": null,
        "city": "Aarhus",
        "state": "Central Denmark Region",
        "postcode": "8260",
        "country": "Denmark",
        "country_code": "dk"
      },
      "address": "12, Svendsgade, Gammel Kongsvang, Viby J., Aarhus, Aarhus Municipality, Central Denmark Region, 8260, Denmark"
    }
  ],
  "updated_at": "2025-10-19T04:07:11.910981+00:00",
  "_kind": "geo_samples"
}