{
  "country_code": "BE",
  "country": "Belgium",
  "city": "Auderghem",
  "geonameid": 2802960,
  "target_addresses": 3,
  "samples": [
    {
      "lat": 50.81760819840309,
      "lon": 4.4261230631051,
      "geoinfo": {
        "display_name": "288, Boulevard du Souverain - Vorstlaan, Luxor Parc  - Luxorpark, Auderghem - Oudergem, Brussels-Capital, 1160, Belgium",
        "road": "Boulevard du Souverain - Vorstlaan",
        "house_number": "288",
        "neighbourhood": "Luxor Parc  - Luxorpark",
        "suburb": null,
        "city_district": null,
        "city": "Auderghem - Oudergem",
        "state": null,
        "postcode": "1160",
        "country": "Belgium",
        "country_code": "be"
      },
      "address": "288 Boulevard du Souverain - Vorstlaan, Auderghem, Belgium"
    },
    {
      "lat": 50.82334006721831,
      "lon": 4.437945551688056,
      "geoinfo": {
        "display_name": "1, Drève Aurélie Solvay - Aurélie Solvaydreef, Woluwe-Saint-Pierre - Sint-Pieters-Woluwe, Brussels-Capital, 1150, Belgium",
        "road": "Drève Aurélie Solvay - Aurélie Solvaydreef",
        "house_number": "1",
        "neighbourhood": null,
        "suburb": null,
        "city_district": null,
        "city": "Woluwe-Saint-Pierre - Sint-Pieters-Woluwe",
        "state": null,
        "postcode": "1150",
        "country": "Belgium",
        "country_code": "be"
      },
      "address": "1, Drève Aurélie Solvay - Aurélie Solvaydreef, Woluwe-Saint-Pierre - Sint-Pieters-Woluwe, Brussels-Capital, 1150, Belgium"
    },
    {
      "lat": 50.786389003765336,
      "lon": 4.382962081863731,
      "geoinfo": {
        "display_name": "34, Avenue des Châlets - Kasteeltjeslaan, Fort Jaco, Uccle - Ukkel, Brussels-Capital, 1180, Belgium",
        "road": "Avenue des Châlets - Kasteeltjeslaan",
        "house_number": "34",
        "neighbourhood": "Fort Jaco",
        "suburb": null,
        "city_district": null,
        "city": "Uccle - Ukkel",
        "state": null,
        "postcode": "1180",
        "country": "Belgium",
        "country_code": "be"
      },
      "address": "34, Avenue des Châlets - Kasteeltjeslaan, Fort Jaco, Uccle - Ukkel, Brussels-Capital, 1180, Belgium"
    }
  ],
  "updated_at": "2025-10-19T03:22:57.025451+00:00",
  "_kind": "geo_samples"
}