{
  "country_code": "BE",
  "country": "Belgium",
  "city": "Braine-le-Comte",
  "geonameid": 2801150,
  "target_addresses": 3,
  "samples": [
    {
      "lat": 50.595523755591124,
      "lon": 4.117917500994043,
      "geoinfo": {
        "display_name": "Chaussée de Mons, Braine-le-Comte, Soignies, Hainaut, Wallonia, 7090, Belgium",
        "road": "Chaussée de Mons",
        "house_number": null,
        "neighbourhood": null,
        "suburb": null,
        "city_district": "Braine-le-Comte",
        "city": "Braine-le-Comte",
        "state": "Hainaut",
        "postcode": "7090",
        "country": "Belgium",
        "country_code": "be"
      },
      "address": "Chaussée de Mons, Braine-le-Comte, Hainaut, Belgium"
    },
    {
      "lat": 50.605679841663914,
      "lon": 4.152973045361664,
      "geoinfo": {
        "display_name": "Sentier des Prés à la Braine, Coraimont, Braine-le-Comte, Soignies, Hainaut, Wallonia, 7090, Belgium",
        "road": "Sentier des Prés à la Braine",
        "house_number": null,
        "neighbourhood": null,
        "suburb": null,
        "city_district": "Braine-le-Comte",
        "city": "Braine-le-Comte",
        "state": "Hainaut",
        "postcode": "7090",
        "country": "Belgium",
        "country_code": "be"
      },
      "address": "069, Sentier des Prés à la Braine, Coraimont, Braine-le-Comte, Soignies, Hainaut, Wallonia, 7090, Belgium"
    },
    {
      "lat": 50.57276771363744,
      "lon": 4.147405230480837,
      "geoinfo": {
        "display_name": "113A, Chaussée de Braine, Baraque de Planches, Écaussinnes, Écaussinnes-d'Enghien, Écaussinnes, Soignies, Hainaut, Wallonia, 7190, Belgium",
        "road": "Chaussée de Braine",
        "house_number": "113A",
        "neighbourhood": null,
        "suburb": null,
        "city_district": null,
        "city": "Écaussinnes",
        "state": "Hainaut",
        "postcode": "7190",
        "country": "Belgium",
        "country_code": "be"
      },
      "address": "113A, Chaussée de Braine, Baraque de Planches, Écaussinnes, Écaussinnes-d'Enghien, Écaussinnes, Soignies, Hainaut, Wallonia, 7190, Belgium"
    }
  ],
  "updated_at": "2025-10-19T03:22:47.985424+00:00",
  "_kind": "geo_samples"
}