{
  "country_code": "BE",
  "country": "Belgium",
  "city": "Knokke-Heist",
  "geonameid": 2794210,
  "target_addresses": 3,
  "samples": [
    {
      "lat": 51.350182106053374,
      "lon": 3.2593959537904005,
      "geoinfo": {
        "display_name": "Royal Belgium Sailing Club, Zeedijk-Duinbergen, Duinbergen, Heist, Knokke-Heist, Brugge, West Flanders, 8301, Belgium",
        "road": "Zeedijk-Duinbergen",
        "house_number": null,
        "neighbourhood": "Duinbergen",
        "suburb": "Heist",
        "city_district": null,
        "city": "Knokke-Heist",
        "state": "West Flanders",
        "postcode": "8301",
        "country": "Belgium",
        "country_code": "be"
      },
      "address": "Zeedijk-Duinbergen, Knokke-Heist, West Flanders, Belgium"
    },
    {
      "lat": 51.31843342955631,
      "lon": 3.232464809023216,
      "geoinfo": {
        "display_name": "Dudzele, Bruges, Brugge, West Flanders, 8380, Belgium",
        "road": null,
        "house_number": null,
        "neighbourhood": null,
        "suburb": null,
        "city_district": null,
        "city": "Bruges",
        "state": "West Flanders",
        "postcode": "8380",
        "country": "Belgium",
        "country_code": "be"
      },
      "address": "208, Dudzele, Bruges, Brugge, West Flanders, 8380, Belgium"
    },
    {
      "lat": 51.318418966818406,
      "lon": 3.2391959903833785,
      "geoinfo": {
        "display_name": "Vaartdijk, Heist, Ramskapelle, Knokke-Heist, Brugge, West Flanders, 8301, Belgium",
        "road": "Vaartdijk",
        "house_number": null,
        "neighbourhood": null,
        "suburb": "Heist",
        "city_district": null,
        "city": "Knokke-Heist",
        "state": "West Flanders",
        "postcode": "8301",
        "country": "Belgium",
        "country_code": "be"
      },
      "address": "727, Vaartdijk, Heist, Ramskapelle, Knokke-Heist, Brugge, West Flanders, 8301, Belgium"
    }
  ],
  "updated_at": "2025-10-19T03:21:59.995916+00:00",
  "_kind": "geo_samples"
}