{
  "country_code": "LB",
  "country": "Lebanon",
  "city": "Beirut",
  "geonameid": 276781,
  "target_addresses": 7,
  "samples": [
    {
      "lat": 33.87780400211248,
      "lon": 35.497427160295736,
      "geoinfo": {
        "display_name": "Abdel-Basset Ounsi, Malaab, Mazraa, Beirut Governorate, 2052 6703, Lebanon",
        "road": "Abdel-Basset Ounsi",
        "house_number": null,
        "neighbourhood": "Malaab",
        "suburb": null,
        "city_district": null,
        "city": "Malaab",
        "state": "Beirut Governorate",
        "postcode": "2052 6703",
        "country": "Lebanon",
        "country_code": "lb"
      },
      "address": "Abdel-Basset Ounsi, Beirut, Beirut Governorate, Lebanon"
    },
    {
      "lat": 33.88908795324574,
      "lon": 35.527640643238485,
      "geoinfo": {
        "display_name": "Joseph Chader, Karm El Zeitoun, Achrafieh, Ghabi, Achrafieh, Beirut Governorate, 2078, Lebanon",
        "road": "Joseph Chader",
        "house_number": null,
        "neighbourhood": "Karm El Zeitoun",
        "suburb": "Achrafieh",
        "city_district": null,
        "city": "Ghabi",
        "state": "Beirut Governorate",
        "postcode": "2078",
        "country": "Lebanon",
        "country_code": "lb"
      },
      "address": "Joseph Chader, Beirut, Beirut Governorate, Lebanon"
    },
    {
      "lat": 33.878810116886015,
      "lon": 35.45961920763495,
      "geoinfo": {
        "display_name": "Manara, Ras Beirut, Beirut, Beirut Governorate, 2030, Lebanon",
        "road": null,
        "house_number": null,
        "neighbourhood": "Manara",
        "suburb": "Ras Beirut",
        "city_district": null,
        "city": "Beirut",
        "state": "Beirut Governorate",
        "postcode": "2030",
        "country": "Lebanon",
        "country_code": "lb"
      },
      "address": "Manara, Beirut, Beirut Governorate, Lebanon"
    },
    {
      "lat": 33.90332384278334,
      "lon": 35.46696178808647,
      "geoinfo": {
        "display_name": "Corniche Beirut, Ras Beirut, Dar Mreisse, Beirut Governorate, 2030, Lebanon",
        "road": "Corniche Beirut",
        "house_number": null,
        "neighbourhood": "Ras Beirut",
        "suburb": null,
        "city_district": null,
        "city": "Ras Beirut",
        "state": "Beirut Governorate",
        "postcode": "2030",
        "country": "Lebanon",
        "country_code": "lb"
      },
      "address": "Corniche Beirut, Beirut, Beirut Governorate, Lebanon"
    },
    {
      "lat": 33.935520729814236,
      "lon": 35.5136383367312,
      "geoinfo": {
        "display_name": "Port, Marfaa, Port of Beirut, Beirut Governorate, 1100, Lebanon",
        "road": null,
        "house_number": null,
        "neighbourhood": null,
        "suburb": "Port",
        "city_district": null,
        "city": "Marfaa",
        "state": "Beirut Governorate",
        "postcode": "1100",
        "country": "Lebanon",
        "country_code": "lb"
      },
      "address": "Port, Beirut, Beirut Governorate, Lebanon"
    },
    {
      "lat": 33.86592960997122,
      "lon": 35.54423402246735,
      "geoinfo": {
        "display_name": "Street 4, Mkalles, Matn District, Mount Lebanon Governorate, 11072020, Lebanon",
        "road": "Street 4",
        "house_number": null,
        "neighbourhood": null,
        "suburb": null,
        "city_district": null,
        "city": "Mkalles",
        "state": "Mount Lebanon Governorate",
        "postcode": "11072020",
        "country": "Lebanon",
        "country_code": "lb"
      },
      "address": "Street 4, Beirut, Mount Lebanon Governorate, Lebanon"
    },
    {
      "lat": 33.91627371904293,
      "lon": 35.49219248966623,
      "geoinfo": {
        "display_name": "Place de Sa Saintet√© Le Pape, New Sector, Port of Beirut, Beirut Governorate, 2033 9105, Lebanon",
        "road": null,
        "house_number": null,
        "neighbourhood": null,
        "suburb": null,
        "city_district": null,
        "city": "New Sector",
        "state": "Beirut Governorate",
        "postcode": "2033 9105",
        "country": "Lebanon",
        "country_code": "lb"
      },
      "address": "Beirut, Beirut Governorate, Lebanon"
    }
  ],
  "updated_at": "2025-10-16T18:28:55.536721+00:00",
  "_kind": "geo_samples"
}