{
  "country_code": "LB",
  "country": "Lebanon",
  "city": "Habboûch",
  "geonameid": 274874,
  "target_addresses": 7,
  "samples": [
    {
      "lat": 33.42223572742006,
      "lon": 35.50100284676134,
      "geoinfo": {
        "display_name": "Arab Salim, Nabatieh District, Nabatieh Governorate, 1700, Lebanon",
        "road": null,
        "house_number": null,
        "neighbourhood": null,
        "suburb": null,
        "city_district": null,
        "city": "Arab Salim",
        "state": "Nabatieh Governorate",
        "postcode": "1700",
        "country": "Lebanon",
        "country_code": "lb"
      },
      "address": "Habboûch, Nabatieh Governorate, Lebanon"
    },
    {
      "lat": 33.40222723898215,
      "lon": 35.53514475997985,
      "geoinfo": {
        "display_name": "Arqoub, Jezzine District, South Governorate, 6728, Lebanon",
        "road": null,
        "house_number": null,
        "neighbourhood": null,
        "suburb": null,
        "city_district": null,
        "city": "Arqoub",
        "state": "South Governorate",
        "postcode": "6728",
        "country": "Lebanon",
        "country_code": "lb"
      },
      "address": "Habboûch, South Governorate, Lebanon"
    },
    {
      "lat": 33.40054490805776,
      "lon": 35.45228727444448,
      "geoinfo": {
        "display_name": "Kfour, Nabatieh District, Nabatieh Governorate, 1700, Lebanon",
        "road": null,
        "house_number": null,
        "neighbourhood": null,
        "suburb": null,
        "city_district": null,
        "city": "Kfour",
        "state": "Nabatieh Governorate",
        "postcode": "1700",
        "country": "Lebanon",
        "country_code": "lb"
      },
      "address": "047, Habboûch, 1700 Nabatieh Governorate, Lebanon"
    },
    {
      "lat": 33.3844359489089,
      "lon": 35.50634270855382,
      "geoinfo": {
        "display_name": "Kafr Rumman, Nabatieh District, Nabatieh Governorate, 1700, Lebanon",
        "road": null,
        "house_number": null,
        "neighbourhood": null,
        "suburb": null,
        "city_district": null,
        "city": "Kafr Rumman",
        "state": "Nabatieh Governorate",
        "postcode": "1700",
        "country": "Lebanon",
        "country_code": "lb"
      },
      "address": "409, Habboûch, 1700 Nabatieh Governorate, Lebanon"
    },
    {
      "lat": 33.374313474812,
      "lon": 35.46260149703422,
      "geoinfo": {
        "display_name": "Zebdine, Zibdine, Nabatieh District, Nabatieh Governorate, 1700, Lebanon",
        "road": null,
        "house_number": null,
        "neighbourhood": null,
        "suburb": null,
        "city_district": null,
        "city": "Zebdine",
        "state": "Nabatieh Governorate",
        "postcode": "1700",
        "country": "Lebanon",
        "country_code": "lb"
      },
      "address": "971, Habboûch, 1700 Nabatieh Governorate, Lebanon"
    },
    {
      "lat": 33.384638174242966,
      "lon": 35.44032056137196,
      "geoinfo": {
        "display_name": "Toul, Harouf, Nabatieh District, Nabatieh Governorate, 1700, Lebanon",
        "road": null,
        "house_number": null,
        "neighbourhood": null,
        "suburb": null,
        "city_district": null,
        "city": "Toul",
        "state": "Nabatieh Governorate",
        "postcode": "1700",
        "country": "Lebanon",
        "country_code": "lb"
      },
      "address": "980, Habboûch, 1700 Nabatieh Governorate, Lebanon"
    },
    {
      "lat": 33.407640587240785,
      "lon": 35.49073409179129,
      "geoinfo": {
        "display_name": "Habboush, Nabatieh District, Nabatieh Governorate, 1700, Lebanon",
        "road": null,
        "house_number": null,
        "neighbourhood": null,
        "suburb": null,
        "city_district": null,
        "city": "Habboush",
        "state": "Nabatieh Governorate",
        "postcode": "1700",
        "country": "Lebanon",
        "country_code": "lb"
      },
      "address": "795, Habboûch, 1700 Nabatieh Governorate, Lebanon"
    },
    {
      "lat": 33.42642453133943,
      "lon": 35.50001780163182,
      "geoinfo": {
        "display_name": "Arab Salim, Nabatieh District, Nabatieh Governorate, 1700, Lebanon",
        "road": null,
        "house_number": null,
        "neighbourhood": null,
        "suburb": null,
        "city_district": null,
        "city": "Arab Salim",
        "state": "Nabatieh Governorate",
        "postcode": "1700",
        "country": "Lebanon",
        "country_code": "lb"
      },
      "address": "460, Habboûch, 1700 Nabatieh Governorate, Lebanon"
    },
    {
      "lat": 33.42688993092608,
      "lon": 35.498869814619574,
      "geoinfo": {
        "display_name": "Arab Salim, Nabatieh District, Nabatieh Governorate, 1700, Lebanon",
        "road": null,
        "house_number": null,
        "neighbourhood": null,
        "suburb": null,
        "city_district": null,
        "city": "Arab Salim",
        "state": "Nabatieh Governorate",
        "postcode": "1700",
        "country": "Lebanon",
        "country_code": "lb"
      },
      "address": "659, Habboûch, 1700 Nabatieh Governorate, Lebanon"
    }
  ],
  "updated_at": "2025-10-19T04:05:53.181833+00:00",
  "_kind": "geo_samples"
}