{
  "country_code": "LB",
  "country": "Lebanon",
  "city": "Jounieh",
  "geonameid": 273140,
  "target_addresses": 35,
  "samples": [
    {
      "lat": 34.001906873217,
      "lon": 35.60400818342869,
      "geoinfo": {
        "display_name": "Wata Sillam, Keserwan District, Keserwan-Jbeil Governorate, 4606, Lebanon",
        "road": null,
        "house_number": null,
        "neighbourhood": null,
        "suburb": null,
        "city_district": null,
        "city": "Wata Sillam",
        "state": "Keserwan-Jbeil Governorate",
        "postcode": "4606",
        "country": "Lebanon",
        "country_code": "lb"
      },
      "address": "Jounieh, Keserwan-Jbeil Governorate, Lebanon"
    },
    {
      "lat": 33.983789843202594,
      "lon": 35.62685890743493,
      "geoinfo": {
        "display_name": "Sea Road, Kaslik, Sarba, Keserwan District, Keserwan-Jbeil Governorate, 1200, Lebanon",
        "road": "Sea Road",
        "house_number": null,
        "neighbourhood": null,
        "suburb": null,
        "city_district": null,
        "city": "Kaslik",
        "state": "Keserwan-Jbeil Governorate",
        "postcode": "1200",
        "country": "Lebanon",
        "country_code": "lb"
      },
      "address": "Sea Road, Jounieh, Keserwan-Jbeil Governorate, Lebanon"
    },
    {
      "lat": 33.95220438956743,
      "lon": 35.61625385036553,
      "geoinfo": {
        "display_name": "Notre Dame University-Louaize, A8, Zouk Mosbeh, Mazraat Er Ras, Keserwan District, Keserwan-Jbeil Governorate, 4886, Lebanon",
        "road": "A8",
        "house_number": null,
        "neighbourhood": null,
        "suburb": null,
        "city_district": null,
        "city": "Zouk Mosbeh",
        "state": "Keserwan-Jbeil Governorate",
        "postcode": "4886",
        "country": "Lebanon",
        "country_code": "lb"
      },
      "address": "A8, Jounieh, Keserwan-Jbeil Governorate, Lebanon"
    },
    {
      "lat": 33.96936391646771,
      "lon": 35.60143648775987,
      "geoinfo": {
        "display_name": "Zouk Power Plant, Jounieh, Zouk Mikael, Keserwan District, Keserwan-Jbeil Governorate, 1200, Lebanon",
        "road": null,
        "house_number": null,
        "neighbourhood": null,
        "suburb": null,
        "city_district": null,
        "city": "Jounieh",
        "state": "Keserwan-Jbeil Governorate",
        "postcode": "1200",
        "country": "Lebanon",
        "country_code": "lb"
      },
      "address": "Zouk Power Plant, Jounieh, Zouk Mikael, Keserwan District, Keserwan-Jbeil Governorate, 1200, Lebanon"
    },
    {
      "lat": 33.969320942857344,
      "lon": 35.61983039476946,
      "geoinfo": {
        "display_name": "Jounieh, Zouk Mikael, Keserwan District, Keserwan-Jbeil Governorate, 1200, Lebanon",
        "road": null,
        "house_number": null,
        "neighbourhood": null,
        "suburb": null,
        "city_district": null,
        "city": "Jounieh",
        "state": "Keserwan-Jbeil Governorate",
        "postcode": "1200",
        "country": "Lebanon",
        "country_code": "lb"
      },
      "address": "Jounieh, Zouk Mikael, Keserwan District, Keserwan-Jbeil Governorate, 1200, Lebanon"
    },
    {
      "lat": 33.97931325849946,
      "lon": 35.6601479912862,
      "geoinfo": {
        "display_name": "Daraoun, Daraaoun, Keserwan District, Keserwan-Jbeil Governorate, 4707, Lebanon",
        "road": null,
        "house_number": null,
        "neighbourhood": null,
        "suburb": null,
        "city_district": null,
        "city": "Daraoun",
        "state": "Keserwan-Jbeil Governorate",
        "postcode": "4707",
        "country": "Lebanon",
        "country_code": "lb"
      },
      "address": "Jounieh, 47561 Keserwan-Jbeil Governorate, Lebanon"
    },
    {
      "lat": 33.99726050273518,
      "lon": 35.593714262057546,
      "geoinfo": {
        "display_name": "Kaslik, Sarba, Keserwan District, Keserwan-Jbeil Governorate, 1200, Lebanon",
        "road": null,
        "house_number": null,
        "neighbourhood": null,
        "suburb": null,
        "city_district": null,
        "city": "Kaslik",
        "state": "Keserwan-Jbeil Governorate",
        "postcode": "1200",
        "country": "Lebanon",
        "country_code": "lb"
      },
      "address": "Jounieh, 45542 Keserwan-Jbeil Governorate, Lebanon"
    },
    {
      "lat": 33.97313678570437,
      "lon": 35.62978555429763,
      "geoinfo": {
        "display_name": "Ghadir, Keserwan District, Keserwan-Jbeil Governorate, 4886, Lebanon",
        "road": null,
        "house_number": null,
        "neighbourhood": null,
        "suburb": null,
        "city_district": null,
        "city": "Ghadir",
        "state": "Keserwan-Jbeil Governorate",
        "postcode": "4886",
        "country": "Lebanon",
        "country_code": "lb"
      },
      "address": "204, Jounieh, 4886 Keserwan-Jbeil Governorate, Lebanon"
    },
    {
      "lat": 34.008747463718564,
      "lon": 35.61221605036639,
      "geoinfo": {
        "display_name": "Wata Sillam, Keserwan District, Keserwan-Jbeil Governorate, 4606, Lebanon",
        "road": null,
        "house_number": null,
        "neighbourhood": null,
        "suburb": null,
        "city_district": null,
        "city": "Wata Sillam",
        "state": "Keserwan-Jbeil Governorate",
        "postcode": "4606",
        "country": "Lebanon",
        "country_code": "lb"
      },
      "address": "663, Jounieh, 4606 Keserwan-Jbeil Governorate, Lebanon"
    },
    {
      "lat": 34.01051507889038,
      "lon": 35.5908090723953,
      "geoinfo": {
        "display_name": "Wata Sillam, Keserwan District, Keserwan-Jbeil Governorate, 4606, Lebanon",
        "road": null,
        "house_number": null,
        "neighbourhood": null,
        "suburb": null,
        "city_district": null,
        "city": "Wata Sillam",
        "state": "Keserwan-Jbeil Governorate",
        "postcode": "4606",
        "country": "Lebanon",
        "country_code": "lb"
      },
      "address": "569, Jounieh, 4606 Keserwan-Jbeil Governorate, Lebanon"
    },
    {
      "lat": 33.97085007057138,
      "lon": 35.652655122480404,
      "geoinfo": {
        "display_name": "Daraoun, Daraaoun, Keserwan District, Keserwan-Jbeil Governorate, 4707, Lebanon",
        "road": null,
        "house_number": null,
        "neighbourhood": null,
        "suburb": null,
        "city_district": null,
        "city": "Daraoun",
        "state": "Keserwan-Jbeil Governorate",
        "postcode": "4707",
        "country": "Lebanon",
        "country_code": "lb"
      },
      "address": "374, Jounieh, 4707 Keserwan-Jbeil Governorate, Lebanon"
    },
    {
      "lat": 33.98410110460937,
      "lon": 35.63058486248523,
      "geoinfo": {
        "display_name": "Sea Road, Ghadir, Keserwan District, Keserwan-Jbeil Governorate, 1200, Lebanon",
        "road": "Sea Road",
        "house_number": null,
        "neighbourhood": null,
        "suburb": null,
        "city_district": null,
        "city": "Ghadir",
        "state": "Keserwan-Jbeil Governorate",
        "postcode": "1200",
        "country": "Lebanon",
        "country_code": "lb"
      },
      "address": "532, Sea Road, Jounieh, 1200 Keserwan-Jbeil Governorate, Lebanon"
    },
    {
      "lat": 33.96304884516927,
      "lon": 35.62845524451671,
      "geoinfo": {
        "display_name": "Jounieh, Zouk Mikael, Keserwan District, Keserwan-Jbeil Governorate, 1200, Lebanon",
        "road": null,
        "house_number": null,
        "neighbourhood": null,
        "suburb": null,
        "city_district": null,
        "city": "Jounieh",
        "state": "Keserwan-Jbeil Governorate",
        "postcode": "1200",
        "country": "Lebanon",
        "country_code": "lb"
      },
      "address": "944, Jounieh, Zouk Mikael, Keserwan District, Keserwan-Jbeil Governorate, 1200, Lebanon"
    },
    {
      "lat": 34.00173340906985,
      "lon": 35.62444520750088,
      "geoinfo": {
        "display_name": "Wata Sillam, Keserwan District, Keserwan-Jbeil Governorate, 4606, Lebanon",
        "road": null,
        "house_number": null,
        "neighbourhood": null,
        "suburb": null,
        "city_district": null,
        "city": "Wata Sillam",
        "state": "Keserwan-Jbeil Governorate",
        "postcode": "4606",
        "country": "Lebanon",
        "country_code": "lb"
      },
      "address": "652, Jounieh, 4606 Keserwan-Jbeil Governorate, Lebanon"
    },
    {
      "lat": 34.019740944151565,
      "lon": 35.61657720128363,
      "geoinfo": {
        "display_name": "Wata Sillam, Keserwan District, Keserwan-Jbeil Governorate, 4606, Lebanon",
        "road": null,
        "house_number": null,
        "neighbourhood": null,
        "suburb": null,
        "city_district": null,
        "city": "Wata Sillam",
        "state": "Keserwan-Jbeil Governorate",
        "postcode": "4606",
        "country": "Lebanon",
        "country_code": "lb"
      },
      "address": "214, Jounieh, 4606 Keserwan-Jbeil Governorate, Lebanon"
    },
    {
      "lat": 34.00308505031356,
      "lon": 35.580175378232795,
      "geoinfo": {
        "display_name": "Kaslik, Sarba, Keserwan District, Keserwan-Jbeil Governorate, 1200, Lebanon",
        "road": null,
        "house_number": null,
        "neighbourhood": null,
        "suburb": null,
        "city_district": null,
        "city": "Kaslik",
        "state": "Keserwan-Jbeil Governorate",
        "postcode": "1200",
        "country": "Lebanon",
        "country_code": "lb"
      },
      "address": "261, Jounieh, 1200 Keserwan-Jbeil Governorate, Lebanon"
    },
    {
      "lat": 33.97915527637675,
      "lon": 35.58957744157797,
      "geoinfo": {
        "display_name": "Kaslik, Sarba, Keserwan District, Keserwan-Jbeil Governorate, 1200, Lebanon",
        "road": null,
        "house_number": null,
        "neighbourhood": null,
        "suburb": null,
        "city_district": null,
        "city": "Kaslik",
        "state": "Keserwan-Jbeil Governorate",
        "postcode": "1200",
        "country": "Lebanon",
        "country_code": "lb"
      },
      "address": "298, Jounieh, 1200 Keserwan-Jbeil Governorate, Lebanon"
    },
    {
      "lat": 33.970739586779374,
      "lon": 35.627494266910496,
      "geoinfo": {
        "display_name": "Jounieh, Zouk Mikael, Keserwan District, Keserwan-Jbeil Governorate, 1200, Lebanon",
        "road": null,
        "house_number": null,
        "neighbourhood": null,
        "suburb": null,
        "city_district": null,
        "city": "Jounieh",
        "state": "Keserwan-Jbeil Governorate",
        "postcode": "1200",
        "country": "Lebanon",
        "country_code": "lb"
      },
      "address": "716, Jounieh, Zouk Mikael, Keserwan District, Keserwan-Jbeil Governorate, 1200, Lebanon"
    },
    {
      "lat": 34.02295744376089,
      "lon": 35.62232775790084,
      "geoinfo": {
        "display_name": "Wata Sillam, Keserwan District, Keserwan-Jbeil Governorate, 4606, Lebanon",
        "road": null,
        "house_number": null,
        "neighbourhood": null,
        "suburb": null,
        "city_district": null,
        "city": "Wata Sillam",
        "state": "Keserwan-Jbeil Governorate",
        "postcode": "4606",
        "country": "Lebanon",
        "country_code": "lb"
      },
      "address": "010, Jounieh, 4606 Keserwan-Jbeil Governorate, Lebanon"
    },
    {
      "lat": 33.96471348949985,
      "lon": 35.64557300185321,
      "geoinfo": {
        "display_name": "Ain El Rihaneh, Keserwan District, Keserwan-Jbeil Governorate, 4886, Lebanon",
        "road": null,
        "house_number": null,
        "neighbourhood": null,
        "suburb": null,
        "city_district": null,
        "city": "Ain El Rihaneh",
        "state": "Keserwan-Jbeil Governorate",
        "postcode": "4886",
        "country": "Lebanon",
        "country_code": "lb"
      },
      "address": "719, Jounieh, 4886 Keserwan-Jbeil Governorate, Lebanon"
    },
    {
      "lat": 33.97738284484285,
      "lon": 35.64983525588658,
      "geoinfo": {
        "display_name": "Daraoun, Daraaoun, Keserwan District, Keserwan-Jbeil Governorate, 4707, Lebanon",
        "road": null,
        "house_number": null,
        "neighbourhood": null,
        "suburb": null,
        "city_district": null,
        "city": "Daraoun",
        "state": "Keserwan-Jbeil Governorate",
        "postcode": "4707",
        "country": "Lebanon",
        "country_code": "lb"
      },
      "address": "854, Jounieh, 4707 Keserwan-Jbeil Governorate, Lebanon"
    },
    {
      "lat": 33.95771975349537,
      "lon": 35.6233357875733,
      "geoinfo": {
        "display_name": "Zouk Mosbeh, Keserwan District, Keserwan-Jbeil Governorate, 4886, Lebanon",
        "road": null,
        "house_number": null,
        "neighbourhood": null,
        "suburb": null,
        "city_district": null,
        "city": "Zouk Mosbeh",
        "state": "Keserwan-Jbeil Governorate",
        "postcode": "4886",
        "country": "Lebanon",
        "country_code": "lb"
      },
      "address": "875, Jounieh, 4886 Keserwan-Jbeil Governorate, Lebanon"
    },
    {
      "lat": 33.9638009397656,
      "lon": 35.61135586819815,
      "geoinfo": {
        "display_name": "Zouk Mosbeh, Keserwan District, Keserwan-Jbeil Governorate, 4886, Lebanon",
        "road": null,
        "house_number": null,
        "neighbourhood": null,
        "suburb": null,
        "city_district": null,
        "city": "Zouk Mosbeh",
        "state": "Keserwan-Jbeil Governorate",
        "postcode": "4886",
        "country": "Lebanon",
        "country_code": "lb"
      },
      "address": "040, Jounieh, 4886 Keserwan-Jbeil Governorate, Lebanon"
    },
    {
      "lat": 34.00045950090235,
      "lon": 35.58145090625649,
      "geoinfo": {
        "display_name": "Kaslik, Sarba, Keserwan District, Keserwan-Jbeil Governorate, 1200, Lebanon",
        "road": null,
        "house_number": null,
        "neighbourhood": null,
        "suburb": null,
        "city_district": null,
        "city": "Kaslik",
        "state": "Keserwan-Jbeil Governorate",
        "postcode": "1200",
        "country": "Lebanon",
        "country_code": "lb"
      },
      "address": "372, Jounieh, 1200 Keserwan-Jbeil Governorate, Lebanon"
    },
    {
      "lat": 33.989289926725576,
      "lon": 35.630586247470085,
      "geoinfo": {
        "display_name": "Sea Road, Ghadir, Keserwan District, Keserwan-Jbeil Governorate, 1200, Lebanon",
        "road": "Sea Road",
        "house_number": null,
        "neighbourhood": null,
        "suburb": null,
        "city_district": null,
        "city": "Ghadir",
        "state": "Keserwan-Jbeil Governorate",
        "postcode": "1200",
        "country": "Lebanon",
        "country_code": "lb"
      },
      "address": "239, Sea Road, Jounieh, 1200 Keserwan-Jbeil Governorate, Lebanon"
    },
    {
      "lat": 33.95767455465004,
      "lon": 35.61728994549938,
      "geoinfo": {
        "display_name": "Zouk Mosbeh, Keserwan District, Keserwan-Jbeil Governorate, 4886, Lebanon",
        "road": null,
        "house_number": null,
        "neighbourhood": null,
        "suburb": null,
        "city_district": null,
        "city": "Zouk Mosbeh",
        "state": "Keserwan-Jbeil Governorate",
        "postcode": "4886",
        "country": "Lebanon",
        "country_code": "lb"
      },
      "address": "241, Jounieh, 4886 Keserwan-Jbeil Governorate, Lebanon"
    },
    {
      "lat": 34.01546516092918,
      "lon": 35.64590075555299,
      "geoinfo": {
        "display_name": "Sea Highway, Adma, Keserwan District, Keserwan-Jbeil Governorate, 1215, Lebanon",
        "road": "Sea Highway",
        "house_number": null,
        "neighbourhood": null,
        "suburb": null,
        "city_district": null,
        "city": "Adma",
        "state": "Keserwan-Jbeil Governorate",
        "postcode": "1215",
        "country": "Lebanon",
        "country_code": "lb"
      },
      "address": "177, Sea Highway, Jounieh, 1215 Keserwan-Jbeil Governorate, Lebanon"
    }
  ],
  "updated_at": "2025-10-19T05:27:07.672248+00:00",
  "_kind": "geo_samples"
}