{
  "country_code": "LB",
  "country": "Lebanon",
  "city": "Sidon",
  "geonameid": 268064,
  "target_addresses": 7,
  "samples": [
    {
      "lat": 33.557207292215224,
      "lon": 35.39016953870844,
      "geoinfo": {
        "display_name": "Haret Saida, Sidon District, South Governorate, 1600, Lebanon",
        "road": null,
        "house_number": null,
        "neighbourhood": null,
        "suburb": null,
        "city_district": null,
        "city": "Haret Saida",
        "state": "South Governorate",
        "postcode": "1600",
        "country": "Lebanon",
        "country_code": "lb"
      },
      "address": "Sidon, South Governorate, Lebanon"
    },
    {
      "lat": 33.56317050563592,
      "lon": 35.387859544822774,
      "geoinfo": {
        "display_name": "Saida Ed-Dekermane, Aabra, Hlaliyeh Saida, Sidon District, South Governorate, 1600, Lebanon",
        "road": null,
        "house_number": null,
        "neighbourhood": null,
        "suburb": null,
        "city_district": "Saida Ed-Dekermane",
        "city": "Aabra",
        "state": "South Governorate",
        "postcode": "1600",
        "country": "Lebanon",
        "country_code": "lb"
      },
      "address": "Saida Ed-Dekermane, Sidon, South Governorate, Lebanon"
    },
    {
      "lat": 33.597842769897866,
      "lon": 35.38487168365305,
      "geoinfo": {
        "display_name": "Sea Highway, Rumayla, Chouf District, Mount Lebanon Governorate, Lebanon",
        "road": "Sea Highway",
        "house_number": null,
        "neighbourhood": null,
        "suburb": null,
        "city_district": null,
        "city": null,
        "state": "Mount Lebanon Governorate",
        "postcode": null,
        "country": "Lebanon",
        "country_code": "lb"
      },
      "address": "Sea Highway, Sidon, Mount Lebanon Governorate, Lebanon"
    },
    {
      "lat": 33.554243359082484,
      "lon": 35.362152836831555,
      "geoinfo": {
        "display_name": "Sea Road, Saida Ed-Dekermane, Sidon, Sidon District, South Governorate, 1600, Lebanon",
        "road": "Sea Road",
        "house_number": null,
        "neighbourhood": null,
        "suburb": null,
        "city_district": "Saida Ed-Dekermane",
        "city": "Sidon",
        "state": "South Governorate",
        "postcode": "1600",
        "country": "Lebanon",
        "country_code": "lb"
      },
      "address": "Sea Road, Sidon, South Governorate, Lebanon"
    },
    {
      "lat": 33.540602214372605,
      "lon": 35.381125576573886,
      "geoinfo": {
        "display_name": "Ain al-Hilweh, A51, Taamir, Saida Ed-Dekermane, Sidon, Sidon District, South Governorate, 1600, Lebanon",
        "road": "A51",
        "house_number": null,
        "neighbourhood": "Taamir",
        "suburb": null,
        "city_district": "Saida Ed-Dekermane",
        "city": "Sidon",
        "state": "South Governorate",
        "postcode": "1600",
        "country": "Lebanon",
        "country_code": "lb"
      },
      "address": "A51, Sidon, South Governorate, Lebanon"
    },
    {
      "lat": 33.54540687802512,
      "lon": 35.38332183239405,
      "geoinfo": {
        "display_name": "Baraksat, Miyeh w Miyeh, Sidon District, South Governorate, 1600, Lebanon",
        "road": null,
        "house_number": null,
        "neighbourhood": "Baraksat",
        "suburb": null,
        "city_district": null,
        "city": "Miyeh w Miyeh",
        "state": "South Governorate",
        "postcode": "1600",
        "country": "Lebanon",
        "country_code": "lb"
      },
      "address": "Baraksat, Sidon, South Governorate, Lebanon"
    },
    {
      "lat": 33.587225872810066,
      "lon": 35.38931827849297,
      "geoinfo": {
        "display_name": "Saida El Oustani, Sidon, Sidon District, South Governorate, 1600, Lebanon",
        "road": null,
        "house_number": null,
        "neighbourhood": null,
        "suburb": null,
        "city_district": "Saida El Oustani",
        "city": "Sidon",
        "state": "South Governorate",
        "postcode": "1600",
        "country": "Lebanon",
        "country_code": "lb"
      },
      "address": "Saida El Oustani, Sidon, South Governorate, Lebanon"
    },
    {
      "lat": 33.5218126230179,
      "lon": 35.342344914186555,
      "geoinfo": {
        "display_name": "Maamariyeh, Sidon District, South Governorate, Lebanon",
        "road": null,
        "house_number": null,
        "neighbourhood": null,
        "suburb": null,
        "city_district": null,
        "city": "Maamariyeh",
        "state": "South Governorate",
        "postcode": null,
        "country": "Lebanon",
        "country_code": "lb"
      },
      "address": "010, Maamariyeh, Sidon District, 23684 South Governorate, Lebanon"
    },
    {
      "lat": 33.54176454960863,
      "lon": 35.32935169667938,
      "geoinfo": {
        "display_name": "Ghaziyeh, Sidon District, South Governorate, 1600, Lebanon",
        "road": null,
        "house_number": null,
        "neighbourhood": null,
        "suburb": null,
        "city_district": null,
        "city": "Ghaziyeh",
        "state": "South Governorate",
        "postcode": "1600",
        "country": "Lebanon",
        "country_code": "lb"
      },
      "address": "169, Ghaziyeh, Sidon District, South Governorate, 1600, Lebanon"
    },
    {
      "lat": 33.57212140908787,
      "lon": 35.41435675124431,
      "geoinfo": {
        "display_name": "Bqosta, Sidon District, South Governorate, 6613, Lebanon",
        "road": null,
        "house_number": null,
        "neighbourhood": null,
        "suburb": null,
        "city_district": null,
        "city": "Bqosta",
        "state": "South Governorate",
        "postcode": "6613",
        "country": "Lebanon",
        "country_code": "lb"
      },
      "address": "350, Bqosta, Sidon District, South Governorate, 6613, Lebanon"
    },
    {
      "lat": 33.54572054452807,
      "lon": 35.39381828947302,
      "geoinfo": {
        "display_name": "Baraksat, Miyeh w Miyeh, Sidon District, South Governorate, 1600, Lebanon",
        "road": null,
        "house_number": null,
        "neighbourhood": "Baraksat",
        "suburb": null,
        "city_district": null,
        "city": "Miyeh w Miyeh",
        "state": "South Governorate",
        "postcode": "1600",
        "country": "Lebanon",
        "country_code": "lb"
      },
      "address": "524, Baraksat, Miyeh w Miyeh, Sidon District, South Governorate, 1600, Lebanon"
    },
    {
      "lat": 33.57388383856405,
      "lon": 35.37463210172388,
      "geoinfo": {
        "display_name": "Sea Road, Saida El Oustani, Sidon, Sidon District, South Governorate, 1600, Lebanon",
        "road": "Sea Road",
        "house_number": null,
        "neighbourhood": null,
        "suburb": null,
        "city_district": "Saida El Oustani",
        "city": "Sidon",
        "state": "South Governorate",
        "postcode": "1600",
        "country": "Lebanon",
        "country_code": "lb"
      },
      "address": "150, Sea Road, Saida El Oustani, Sidon, Sidon District, South Governorate, 1600, Lebanon"
    },
    {
      "lat": 33.52530008457814,
      "lon": 35.34439104664191,
      "geoinfo": {
        "display_name": "Darb Es Sim, Darb El Sim, Sidon District, South Governorate, 1600, Lebanon",
        "road": null,
        "house_number": null,
        "neighbourhood": null,
        "suburb": null,
        "city_district": null,
        "city": "Darb Es Sim",
        "state": "South Governorate",
        "postcode": "1600",
        "country": "Lebanon",
        "country_code": "lb"
      },
      "address": "478, Darb Es Sim, Darb El Sim, Sidon District, South Governorate, 1600, Lebanon"
    },
    {
      "lat": 33.54541324198887,
      "lon": 35.407720487650074,
      "geoinfo": {
        "display_name": "Jebaa Public Street, Qraiyeh, Ain Ed Delb, Sidon District, South Governorate, 6613, Lebanon",
        "road": "Jebaa Public Street",
        "house_number": null,
        "neighbourhood": null,
        "suburb": null,
        "city_district": null,
        "city": "Qraiyeh",
        "state": "South Governorate",
        "postcode": "6613",
        "country": "Lebanon",
        "country_code": "lb"
      },
      "address": "389, Jebaa Public Street, Qraiyeh, Ain Ed Delb, Sidon District, South Governorate, 6613, Lebanon"
    }
  ],
  "updated_at": "2025-10-19T04:05:31.461270+00:00",
  "_kind": "geo_samples"
}