{
  "country_code": "BG",
  "country": "Bulgaria",
  "city": "Asenovgrad",
  "geonameid": 733618,
  "target_addresses": 2,
  "samples": [
    {
      "lat": 41.98765431456501,
      "lon": 24.86274293143675,
      "geoinfo": {
        "display_name": "Lyaskovo, Asenovgrad, Plovdiv, 4230, Bulgaria",
        "road": null,
        "house_number": null,
        "neighbourhood": null,
        "suburb": null,
        "city_district": null,
        "city": "Lyaskovo",
        "state": "Plovdiv",
        "postcode": "4230",
        "country": "Bulgaria",
        "country_code": "bg"
      },
      "address": "Asenovgrad, Plovdiv, Bulgaria"
    },
    {
      "lat": 42.001693764453876,
      "lon": 24.84375420126295,
      "geoinfo": {
        "display_name": "Горноводенски манастир „Св. Св. Кирик и Юлита”, Св. Кирик - с. Лясково, кв. Горни Воден, Asenovgrad, Plovdiv, 4250, Bulgaria",
        "road": "Св. Кирик - с. Лясково",
        "house_number": null,
        "neighbourhood": null,
        "suburb": "кв. Горни Воден",
        "city_district": null,
        "city": "Asenovgrad",
        "state": "Plovdiv",
        "postcode": "4250",
        "country": "Bulgaria",
        "country_code": "bg"
      },
      "address": "Св. Кирик - с. Лясково, Asenovgrad, Plovdiv, Bulgaria"
    },
    {
      "lat": 42.049424937251885,
      "lon": 24.874013429272964,
      "geoinfo": {
        "display_name": "Katunitsa, Asenovgrad, Plovdiv, 4112, Bulgaria",
        "road": null,
        "house_number": null,
        "neighbourhood": null,
        "suburb": null,
        "city_district": null,
        "city": "Katunitsa",
        "state": "Plovdiv",
        "postcode": "4112",
        "country": "Bulgaria",
        "country_code": "bg"
      },
      "address": "538, Asenovgrad, 4112 Plovdiv, Bulgaria"
    },
    {
      "lat": 41.98478379412793,
      "lon": 24.906487243875166,
      "geoinfo": {
        "display_name": "за Св. Илия, Asenovgrad, Plovdiv, 4230, Bulgaria",
        "road": "за Св. Илия",
        "house_number": null,
        "neighbourhood": null,
        "suburb": null,
        "city_district": null,
        "city": null,
        "state": "Plovdiv",
        "postcode": "4230",
        "country": "Bulgaria",
        "country_code": "bg"
      },
      "address": "450, за Св. Илия, Asenovgrad, Plovdiv, 4230, Bulgaria"
    }
  ],
  "updated_at": "2025-10-19T02:40:34.165723+00:00",
  "_kind": "geo_samples"
}