{
  "country_code": "BG",
  "country": "Bulgaria",
  "city": "Asparuhovo",
  "geonameid": 733606,
  "target_addresses": 2,
  "samples": [
    {
      "lat": 43.1837982424263,
      "lon": 27.88770232527589,
      "geoinfo": {
        "display_name": "Narodni buditeli, кв. Розова долина, Asparuhovo, Varna, Аспарухово, Varna, 9003, Bulgaria",
        "road": "Narodni buditeli",
        "house_number": null,
        "neighbourhood": "кв. Розова долина",
        "suburb": "Asparuhovo",
        "city_district": null,
        "city": "Varna",
        "state": "Varna",
        "postcode": "9003",
        "country": "Bulgaria",
        "country_code": "bg"
      },
      "address": "Narodni buditeli, Asparuhovo, Varna, Bulgaria"
    },
    {
      "lat": 43.18098965010014,
      "lon": 27.889079150598317,
      "geoinfo": {
        "display_name": "Детелин войвода, кв. Розова долина, Asparuhovo, Varna, Аспарухово, Varna, 9003, Bulgaria",
        "road": "Детелин войвода",
        "house_number": null,
        "neighbourhood": "кв. Розова долина",
        "suburb": "Asparuhovo",
        "city_district": null,
        "city": "Varna",
        "state": "Varna",
        "postcode": "9003",
        "country": "Bulgaria",
        "country_code": "bg"
      },
      "address": "Детелин войвода, Asparuhovo, Varna, Bulgaria"
    },
    {
      "lat": 43.199252882334555,
      "lon": 27.880112055260117,
      "geoinfo": {
        "display_name": "Южна промишлена зона, Varna, Аспарухово, Varna, 9003, Bulgaria",
        "road": null,
        "house_number": null,
        "neighbourhood": null,
        "suburb": null,
        "city_district": null,
        "city": "Varna",
        "state": "Varna",
        "postcode": "9003",
        "country": "Bulgaria",
        "country_code": "bg"
      },
      "address": "880, Южна промишлена зона, Varna, Аспарухово, Varna, 9003, Bulgaria"
    },
    {
      "lat": 43.159639856322144,
      "lon": 27.934650474706974,
      "geoinfo": {
        "display_name": "Чигана, Galata, Varna, Аспарухово, Varna, 9021, Bulgaria",
        "road": null,
        "house_number": null,
        "neighbourhood": "Чигана",
        "suburb": "Galata",
        "city_district": null,
        "city": "Varna",
        "state": "Varna",
        "postcode": "9021",
        "country": "Bulgaria",
        "country_code": "bg"
      },
      "address": "790, Чигана, Galata, Varna, Аспарухово, Varna, 9021, Bulgaria"
    }
  ],
  "updated_at": "2025-10-19T02:46:39.948400+00:00",
  "_kind": "geo_samples"
}