{
  "country_code": "BG",
  "country": "Bulgaria",
  "city": "Gabrovo",
  "geonameid": 731549,
  "target_addresses": 2,
  "samples": [
    {
      "lat": 42.870149999077235,
      "lon": 25.387608612874114,
      "geoinfo": {
        "display_name": "Yasenite, Zhaltesh, Gabrovo, 5335, Bulgaria",
        "road": null,
        "house_number": null,
        "neighbourhood": null,
        "suburb": null,
        "city_district": null,
        "city": "Yasenite",
        "state": "Gabrovo",
        "postcode": "5335",
        "country": "Bulgaria",
        "country_code": "bg"
      },
      "address": "Gabrovo, Gabrovo, Bulgaria"
    },
    {
      "lat": 42.84079634842499,
      "lon": 25.307513659678904,
      "geoinfo": {
        "display_name": "КАТ-Габрово, Treti mart blvd., кв. Дядо Дянко, Габрово град, Gabrovo, 5304, Bulgaria",
        "road": "Treti mart blvd.",
        "house_number": null,
        "neighbourhood": "кв. Дядо Дянко",
        "suburb": null,
        "city_district": "Габрово град",
        "city": "Gabrovo",
        "state": "Gabrovo",
        "postcode": "5304",
        "country": "Bulgaria",
        "country_code": "bg"
      },
      "address": "Treti mart blvd., Gabrovo, Gabrovo, Bulgaria"
    },
    {
      "lat": 42.870755759591844,
      "lon": 25.308542011388994,
      "geoinfo": {
        "display_name": "MBAL \"D-r Tota Venkova\", D-r Iliev - Detskia, кв. Боровото, кв. Йонково, Габрово град, Gabrovo, 5306, Bulgaria",
        "road": "D-r Iliev - Detskia",
        "house_number": null,
        "neighbourhood": "кв. Боровото",
        "suburb": "кв. Йонково",
        "city_district": "Габрово град",
        "city": "Gabrovo",
        "state": "Gabrovo",
        "postcode": "5306",
        "country": "Bulgaria",
        "country_code": "bg"
      },
      "address": "131, D-r Iliev - Detskia, Gabrovo, 5306 Gabrovo, Bulgaria"
    },
    {
      "lat": 42.88491059967123,
      "lon": 25.370892858262312,
      "geoinfo": {
        "display_name": "Eastern bypass of Gabrovo, Orlovtsi, Копчелиите, Gabrovo, 5335, Bulgaria",
        "road": "Eastern bypass of Gabrovo",
        "house_number": null,
        "neighbourhood": null,
        "suburb": null,
        "city_district": null,
        "city": "Orlovtsi",
        "state": "Gabrovo",
        "postcode": "5335",
        "country": "Bulgaria",
        "country_code": "bg"
      },
      "address": "830, Eastern bypass of Gabrovo, Orlovtsi, Копчелиите, Gabrovo, 5335, Bulgaria"
    }
  ],
  "updated_at": "2025-10-19T02:58:55.082805+00:00",
  "_kind": "geo_samples"
}