{
  "country_code": "BG",
  "country": "Bulgaria",
  "city": "Gorna Oryahovitsa",
  "geonameid": 731233,
  "target_addresses": 2,
  "samples": [
    {
      "lat": 43.105248780284214,
      "lon": 25.66973203693031,
      "geoinfo": {
        "display_name": "514, Arbanassi, Veliko Tarnovo, 5029, Bulgaria",
        "road": "514",
        "house_number": null,
        "neighbourhood": null,
        "suburb": null,
        "city_district": null,
        "city": "Arbanassi",
        "state": "Veliko Tarnovo",
        "postcode": "5029",
        "country": "Bulgaria",
        "country_code": "bg"
      },
      "address": "514, Gorna Oryahovitsa, Veliko Tarnovo, Bulgaria"
    },
    {
      "lat": 43.09574898170015,
      "lon": 25.71560553388487,
      "geoinfo": {
        "display_name": "Lyaskovets, Liaskovets, Veliko Tarnovo, 5140, Bulgaria",
        "road": null,
        "house_number": null,
        "neighbourhood": null,
        "suburb": null,
        "city_district": null,
        "city": "Lyaskovets",
        "state": "Veliko Tarnovo",
        "postcode": "5140",
        "country": "Bulgaria",
        "country_code": "bg"
      },
      "address": "Gorna Oryahovitsa, Veliko Tarnovo, Bulgaria"
    },
    {
      "lat": 43.082913766609714,
      "lon": 25.7036053422969,
      "geoinfo": {
        "display_name": "4, Sheremetia, Veliko Tarnovo, 5034, Bulgaria",
        "road": "4",
        "house_number": null,
        "neighbourhood": null,
        "suburb": null,
        "city_district": null,
        "city": "Sheremetia",
        "state": "Veliko Tarnovo",
        "postcode": "5034",
        "country": "Bulgaria",
        "country_code": "bg"
      },
      "address": "4, Sheremetia, Veliko Tarnovo, 5034, Bulgaria"
    },
    {
      "lat": 43.12621679043016,
      "lon": 25.711907264143733,
      "geoinfo": {
        "display_name": "кв. Калтинец, Gorna Oryahovitsa, Gorna Oriahovitsa, Veliko Tarnovo, 5140, Bulgaria",
        "road": null,
        "house_number": null,
        "neighbourhood": null,
        "suburb": "кв. Калтинец",
        "city_district": null,
        "city": "Gorna Oryahovitsa",
        "state": "Veliko Tarnovo",
        "postcode": "5140",
        "country": "Bulgaria",
        "country_code": "bg"
      },
      "address": "574, кв. Калтинец, Gorna Oryahovitsa, Gorna Oriahovitsa, Veliko Tarnovo, 5140, Bulgaria"
    }
  ],
  "updated_at": "2025-10-19T01:04:18.040389+00:00",
  "_kind": "geo_samples"
}