{
  "country_code": "BG",
  "country": "Bulgaria",
  "city": "Kardzhali",
  "geonameid": 729794,
  "target_addresses": 2,
  "samples": [
    {
      "lat": 41.64126875293274,
      "lon": 25.3106269241897,
      "geoinfo": {
        "display_name": "Glavatartsi, Kardzhali, 6609, Bulgaria",
        "road": null,
        "house_number": null,
        "neighbourhood": null,
        "suburb": null,
        "city_district": null,
        "city": "Glavatartsi",
        "state": "Kardzhali",
        "postcode": "6609",
        "country": "Bulgaria",
        "country_code": "bg"
      },
      "address": "Kardzhali, Kardzhali, Bulgaria"
    },
    {
      "lat": 41.619377435244644,
      "lon": 25.33191497418315,
      "geoinfo": {
        "display_name": "865, Veselchane, Kardzhali, 6636, Bulgaria",
        "road": "865",
        "house_number": null,
        "neighbourhood": null,
        "suburb": "Veselchane",
        "city_district": null,
        "city": "Kardzhali",
        "state": "Kardzhali",
        "postcode": "6636",
        "country": "Bulgaria",
        "country_code": "bg"
      },
      "address": "865, Kardzhali, Kardzhali, Bulgaria"
    },
    {
      "lat": 41.62068076313925,
      "lon": 25.41093717033181,
      "geoinfo": {
        "display_name": "Ostrovitsa, Kardzhali, 6621, Bulgaria",
        "road": null,
        "house_number": null,
        "neighbourhood": null,
        "suburb": null,
        "city_district": null,
        "city": "Ostrovitsa",
        "state": "Kardzhali",
        "postcode": "6621",
        "country": "Bulgaria",
        "country_code": "bg"
      },
      "address": "226, Ostrovitsa, Kardzhali, 6621, Bulgaria"
    },
    {
      "lat": 41.63922533185883,
      "lon": 25.378674483283444,
      "geoinfo": {
        "display_name": "1, Kapitan Petko voyvoda, Студен кладенец, Kardzhali, 6600, Bulgaria",
        "road": "Kapitan Petko voyvoda",
        "house_number": "1",
        "neighbourhood": "Студен кладенец",
        "suburb": "Студен кладенец",
        "city_district": null,
        "city": "Kardzhali",
        "state": "Kardzhali",
        "postcode": "6600",
        "country": "Bulgaria",
        "country_code": "bg"
      },
      "address": "1, Kapitan Petko voyvoda, Студен кладенец, Kardzhali, 6600, Bulgaria"
    }
  ],
  "updated_at": "2025-10-19T01:09:28.494655+00:00",
  "_kind": "geo_samples"
}