{
  "country_code": "BG",
  "country": "Bulgaria",
  "city": "Pernik",
  "geonameid": 728330,
  "target_addresses": 10,
  "samples": [
    {
      "lat": 42.60891860247663,
      "lon": 23.07721937549249,
      "geoinfo": {
        "display_name": "Yuriy Gagarin, ж.к. Тева, Pernik, 2303, Bulgaria",
        "road": "Yuriy Gagarin",
        "house_number": null,
        "neighbourhood": null,
        "suburb": "ж.к. Тева",
        "city_district": null,
        "city": "Pernik",
        "state": "Pernik",
        "postcode": "2303",
        "country": "Bulgaria",
        "country_code": "bg"
      },
      "address": "Yuriy Gagarin, Pernik, Pernik, Bulgaria"
    },
    {
      "lat": 42.63677875317235,
      "lon": 23.052735899995273,
      "geoinfo": {
        "display_name": "кв. Рудничар, Pernik, 2302, Bulgaria",
        "road": null,
        "house_number": null,
        "neighbourhood": null,
        "suburb": "кв. Рудничар",
        "city_district": null,
        "city": "Pernik",
        "state": "Pernik",
        "postcode": "2302",
        "country": "Bulgaria",
        "country_code": "bg"
      },
      "address": "кв. Рудничар, Pernik, Pernik, Bulgaria"
    },
    {
      "lat": 42.62157191542915,
      "lon": 23.07938502463743,
      "geoinfo": {
        "display_name": "Park Ursa, ж.к. Тева, Pernik, 2303, Bulgaria",
        "road": "Park Ursa",
        "house_number": null,
        "neighbourhood": null,
        "suburb": "ж.к. Тева",
        "city_district": null,
        "city": "Pernik",
        "state": "Pernik",
        "postcode": "2303",
        "country": "Bulgaria",
        "country_code": "bg"
      },
      "address": "Park Ursa, Pernik, 36389 Pernik, Bulgaria"
    },
    {
      "lat": 42.59073403395941,
      "lon": 23.016743058169215,
      "geoinfo": {
        "display_name": "кв. Кристал, Pernik, 2307, Bulgaria",
        "road": null,
        "house_number": null,
        "neighbourhood": null,
        "suburb": "кв. Кристал",
        "city_district": null,
        "city": "Pernik",
        "state": "Pernik",
        "postcode": "2307",
        "country": "Bulgaria",
        "country_code": "bg"
      },
      "address": "кв. Кристал, Pernik, 69846 Pernik, Bulgaria"
    },
    {
      "lat": 42.64107393661706,
      "lon": 23.046115696141108,
      "geoinfo": {
        "display_name": "802, ж.к. Проучване, Pernik, 2302, Bulgaria",
        "road": "802",
        "house_number": null,
        "neighbourhood": null,
        "suburb": "ж.к. Проучване",
        "city_district": null,
        "city": "Pernik",
        "state": "Pernik",
        "postcode": "2302",
        "country": "Bulgaria",
        "country_code": "bg"
      },
      "address": "802, ж.к. Проучване, Pernik, 2302, Bulgaria"
    },
    {
      "lat": 42.64166322520429,
      "lon": 23.04160103387374,
      "geoinfo": {
        "display_name": "802, ж.к. Проучване, Pernik, 2302, Bulgaria",
        "road": "802",
        "house_number": null,
        "neighbourhood": null,
        "suburb": "ж.к. Проучване",
        "city_district": null,
        "city": "Pernik",
        "state": "Pernik",
        "postcode": "2302",
        "country": "Bulgaria",
        "country_code": "bg"
      },
      "address": "802, Pernik, 2302 Pernik, Bulgaria"
    },
    {
      "lat": 42.60501222348867,
      "lon": 23.081727299072544,
      "geoinfo": {
        "display_name": "Завод \"Благой Попов\", кв. Мошино, Pernik, 2303, Bulgaria",
        "road": null,
        "house_number": null,
        "neighbourhood": null,
        "suburb": "кв. Мошино",
        "city_district": null,
        "city": "Pernik",
        "state": "Pernik",
        "postcode": "2303",
        "country": "Bulgaria",
        "country_code": "bg"
      },
      "address": "379, Завод \"Благой Попов\", кв. Мошино, Pernik, 2303, Bulgaria"
    },
    {
      "lat": 42.62628480140646,
      "lon": 23.016118751999034,
      "geoinfo": {
        "display_name": "63, Кошаревска махала, кв. Радина чешма, Pernik, 2300, Bulgaria",
        "road": "63",
        "house_number": null,
        "neighbourhood": "Кошаревска махала",
        "suburb": "кв. Радина чешма",
        "city_district": null,
        "city": "Pernik",
        "state": "Pernik",
        "postcode": "2300",
        "country": "Bulgaria",
        "country_code": "bg"
      },
      "address": "63, Кошаревска махала, кв. Радина чешма, Pernik, 2300, Bulgaria"
    },
    {
      "lat": 42.59727126862878,
      "lon": 22.989849123440813,
      "geoinfo": {
        "display_name": "кв. Бела вода, Pernik, 2305, Bulgaria",
        "road": null,
        "house_number": null,
        "neighbourhood": null,
        "suburb": "кв. Бела вода",
        "city_district": null,
        "city": "Pernik",
        "state": "Pernik",
        "postcode": "2305",
        "country": "Bulgaria",
        "country_code": "bg"
      },
      "address": "367, кв. Бела вода, Pernik, 2305, Bulgaria"
    },
    {
      "lat": 42.631728227935746,
      "lon": 22.995741359179505,
      "geoinfo": {
        "display_name": "Мацова махала, кв. Радина чешма, Pernik, 2300, Bulgaria",
        "road": null,
        "house_number": null,
        "neighbourhood": "Мацова махала",
        "suburb": "кв. Радина чешма",
        "city_district": null,
        "city": "Pernik",
        "state": "Pernik",
        "postcode": "2300",
        "country": "Bulgaria",
        "country_code": "bg"
      },
      "address": "645, Мацова махала, кв. Радина чешма, Pernik, 2300, Bulgaria"
    }
  ],
  "updated_at": "2025-10-19T03:26:47.462928+00:00",
  "_kind": "geo_samples"
}