{
  "country_code": "BG",
  "country": "Bulgaria",
  "city": "Plovdiv",
  "geonameid": 728193,
  "target_addresses": 2,
  "samples": [
    {
      "lat": 42.17740989703399,
      "lon": 24.752865854436788,
      "geoinfo": {
        "display_name": "Polet Str., Разкопаница, Северен, Plovdiv, 4003, Bulgaria",
        "road": "Polet Str.",
        "house_number": null,
        "neighbourhood": null,
        "suburb": "Разкопаница",
        "city_district": null,
        "city": "Plovdiv",
        "state": "Plovdiv",
        "postcode": "4003",
        "country": "Bulgaria",
        "country_code": "bg"
      },
      "address": "Polet Str., Plovdiv, Plovdiv, Bulgaria"
    },
    {
      "lat": 42.166909283370764,
      "lon": 24.797332642095615,
      "geoinfo": {
        "display_name": "Rogoshko shose, Северен, Plovdiv, 4006, Bulgaria",
        "road": "Rogoshko shose",
        "house_number": null,
        "neighbourhood": null,
        "suburb": null,
        "city_district": null,
        "city": "Plovdiv",
        "state": "Plovdiv",
        "postcode": "4006",
        "country": "Bulgaria",
        "country_code": "bg"
      },
      "address": "Rogoshko shose, Plovdiv, Plovdiv, Bulgaria"
    },
    {
      "lat": 42.13124691794515,
      "lon": 24.802008314242638,
      "geoinfo": {
        "display_name": "bul. Tsar Simeon, Тракия, Plovdiv, 4023, Bulgaria",
        "road": "bul. Tsar Simeon",
        "house_number": null,
        "neighbourhood": null,
        "suburb": null,
        "city_district": null,
        "city": "Plovdiv",
        "state": "Plovdiv",
        "postcode": "4023",
        "country": "Bulgaria",
        "country_code": "bg"
      },
      "address": "474, bul. Tsar Simeon, Тракия, Plovdiv, 4023, Bulgaria"
    },
    {
      "lat": 42.15700127325513,
      "lon": 24.746147366717853,
      "geoinfo": {
        "display_name": "Zlatyu Boyadzhiev, Кършияка, Северен, Plovdiv, 4018, Bulgaria",
        "road": "Zlatyu Boyadzhiev",
        "house_number": null,
        "neighbourhood": null,
        "suburb": "Кършияка",
        "city_district": null,
        "city": "Plovdiv",
        "state": "Plovdiv",
        "postcode": "4018",
        "country": "Bulgaria",
        "country_code": "bg"
      },
      "address": "419, Zlatyu Boyadzhiev, Кършияка, Северен, Plovdiv, 4018, Bulgaria"
    }
  ],
  "updated_at": "2025-10-19T01:04:03.915833+00:00",
  "_kind": "geo_samples"
}