{
  "country_code": "BG",
  "country": "Bulgaria",
  "city": "Smolyan",
  "geonameid": 727030,
  "target_addresses": 10,
  "samples": [
    {
      "lat": 41.539365801243996,
      "lon": 24.710002262804082,
      "geoinfo": {
        "display_name": "Peshtera, Smolian, Smolyan, 4700, Bulgaria",
        "road": null,
        "house_number": null,
        "neighbourhood": null,
        "suburb": null,
        "city_district": null,
        "city": "Peshtera",
        "state": "Smolyan",
        "postcode": "4700",
        "country": "Bulgaria",
        "country_code": "bg"
      },
      "address": "Smolyan, Smolyan, Bulgaria"
    },
    {
      "lat": 41.575024860006934,
      "lon": 24.704101351243235,
      "geoinfo": {
        "display_name": "Neviastata, Smolyan, Smolian, Smolyan, 4700, Bulgaria",
        "road": null,
        "house_number": null,
        "neighbourhood": null,
        "suburb": "Neviastata",
        "city_district": null,
        "city": "Smolyan",
        "state": "Smolyan",
        "postcode": "4700",
        "country": "Bulgaria",
        "country_code": "bg"
      },
      "address": "Neviastata, Smolyan, Smolyan, Bulgaria"
    },
    {
      "lat": 41.574417202840884,
      "lon": 24.65576995342052,
      "geoinfo": {
        "display_name": "Sredoka, Smolyan, Smolian, Smolyan, 4700, Bulgaria",
        "road": null,
        "house_number": null,
        "neighbourhood": null,
        "suburb": "Sredoka",
        "city_district": null,
        "city": "Smolyan",
        "state": "Smolyan",
        "postcode": "4700",
        "country": "Bulgaria",
        "country_code": "bg"
      },
      "address": "Sredoka, Smolyan, 17268 Smolyan, Bulgaria"
    },
    {
      "lat": 41.58527210804544,
      "lon": 24.761648674010516,
      "geoinfo": {
        "display_name": "86, Pisanitsa, Smolian, Smolyan, 4702, Bulgaria",
        "road": "86",
        "house_number": null,
        "neighbourhood": null,
        "suburb": null,
        "city_district": null,
        "city": "Pisanitsa",
        "state": "Smolyan",
        "postcode": "4702",
        "country": "Bulgaria",
        "country_code": "bg"
      },
      "address": "86, Smolyan, 44448 Smolyan, Bulgaria"
    },
    {
      "lat": 41.5520507942848,
      "lon": 24.70382794620109,
      "geoinfo": {
        "display_name": "Peshtera, Smolian, Smolyan, 4700, Bulgaria",
        "road": null,
        "house_number": null,
        "neighbourhood": null,
        "suburb": null,
        "city_district": null,
        "city": "Peshtera",
        "state": "Smolyan",
        "postcode": "4700",
        "country": "Bulgaria",
        "country_code": "bg"
      },
      "address": "320, Peshtera, Smolian, Smolyan, 4700, Bulgaria"
    },
    {
      "lat": 41.57121103100535,
      "lon": 24.683451232737603,
      "geoinfo": {
        "display_name": "Orfeevi skali, Stanevska mahala, Smolyan, Smolian, Smolyan, 4700, Bulgaria",
        "road": "Orfeevi skali",
        "house_number": null,
        "neighbourhood": null,
        "suburb": "Stanevska mahala",
        "city_district": null,
        "city": "Smolyan",
        "state": "Smolyan",
        "postcode": "4700",
        "country": "Bulgaria",
        "country_code": "bg"
      },
      "address": "497, Orfeevi skali, Stanevska mahala, Smolyan, Smolian, Smolyan, 4700, Bulgaria"
    },
    {
      "lat": 41.578712447195215,
      "lon": 24.73205148704033,
      "geoinfo": {
        "display_name": "Despot Slav st., qa. Raikovo, Dunevo, Smolian, Smolyan, 4700, Bulgaria",
        "road": "Despot Slav st.",
        "house_number": null,
        "neighbourhood": null,
        "suburb": "qa. Raikovo",
        "city_district": null,
        "city": "Dunevo",
        "state": "Smolyan",
        "postcode": "4700",
        "country": "Bulgaria",
        "country_code": "bg"
      },
      "address": "145, Despot Slav st., qa. Raikovo, Dunevo, Smolian, Smolyan, 4700, Bulgaria"
    },
    {
      "lat": 41.56005004796259,
      "lon": 24.737897506894534,
      "geoinfo": {
        "display_name": "Smolyan, Smolian, Smolyan, 4700, Bulgaria",
        "road": null,
        "house_number": null,
        "neighbourhood": null,
        "suburb": null,
        "city_district": null,
        "city": "Smolyan",
        "state": "Smolyan",
        "postcode": "4700",
        "country": "Bulgaria",
        "country_code": "bg"
      },
      "address": "318, Smolyan, Smolian, Smolyan, 4700, Bulgaria"
    },
    {
      "lat": 41.61156760923931,
      "lon": 24.680010942683932,
      "geoinfo": {
        "display_name": "kv. Ezerovo, Smolyan, Smolian, Smolyan, 4700, Bulgaria",
        "road": null,
        "house_number": null,
        "neighbourhood": null,
        "suburb": "kv. Ezerovo",
        "city_district": null,
        "city": "Smolyan",
        "state": "Smolyan",
        "postcode": "4700",
        "country": "Bulgaria",
        "country_code": "bg"
      },
      "address": "753, kv. Ezerovo, Smolyan, Smolian, Smolyan, 4700, Bulgaria"
    },
    {
      "lat": 41.56067267620595,
      "lon": 24.73805261029035,
      "geoinfo": {
        "display_name": "qa. Raikovo, Smolyan, Smolian, Smolyan, 4700, Bulgaria",
        "road": null,
        "house_number": null,
        "neighbourhood": null,
        "suburb": "qa. Raikovo",
        "city_district": null,
        "city": "Smolyan",
        "state": "Smolyan",
        "postcode": "4700",
        "country": "Bulgaria",
        "country_code": "bg"
      },
      "address": "281, qa. Raikovo, Smolyan, Smolian, Smolyan, 4700, Bulgaria"
    }
  ],
  "updated_at": "2025-10-19T03:26:31.555272+00:00",
  "_kind": "geo_samples"
}