{
  "country_code": "BG",
  "country": "Bulgaria",
  "city": "Svilengrad",
  "geonameid": 726546,
  "target_addresses": 2,
  "samples": [
    {
      "lat": 41.743639690270776,
      "lon": 26.21036501282743,
      "geoinfo": {
        "display_name": "Svilengrad, Haskovo, 6500, Bulgaria",
        "road": null,
        "house_number": null,
        "neighbourhood": null,
        "suburb": null,
        "city_district": null,
        "city": "Svilengrad",
        "state": "Haskovo",
        "postcode": "6500",
        "country": "Bulgaria",
        "country_code": "bg"
      },
      "address": "Svilengrad, Haskovo, Bulgaria"
    },
    {
      "lat": 41.77017371498209,
      "lon": 26.15135574117763,
      "geoinfo": {
        "display_name": "Iglika, Svilengrad, Haskovo, 6517, Bulgaria",
        "road": "Iglika",
        "house_number": null,
        "neighbourhood": null,
        "suburb": null,
        "city_district": null,
        "city": "Svilengrad",
        "state": "Haskovo",
        "postcode": "6517",
        "country": "Bulgaria",
        "country_code": "bg"
      },
      "address": "Iglika, Svilengrad, Haskovo, Bulgaria"
    },
    {
      "lat": 41.80235960472152,
      "lon": 26.164717814707533,
      "geoinfo": {
        "display_name": "Akbaba, Izgrev, Svilengrad, Haskovo, 6500, Bulgaria",
        "road": null,
        "house_number": null,
        "neighbourhood": "Akbaba",
        "suburb": "Izgrev",
        "city_district": null,
        "city": "Svilengrad",
        "state": "Haskovo",
        "postcode": "6500",
        "country": "Bulgaria",
        "country_code": "bg"
      },
      "address": "779, Akbaba, Izgrev, Svilengrad, Haskovo, 6500, Bulgaria"
    },
    {
      "lat": 41.76966721959828,
      "lon": 26.18166452075012,
      "geoinfo": {
        "display_name": "8, Gebran, Svilengrad, Haskovo, 6517, Bulgaria",
        "road": "8",
        "house_number": null,
        "neighbourhood": null,
        "suburb": "Gebran",
        "city_district": null,
        "city": "Svilengrad",
        "state": "Haskovo",
        "postcode": "6517",
        "country": "Bulgaria",
        "country_code": "bg"
      },
      "address": "8, Gebran, Svilengrad, Haskovo, 6517, Bulgaria"
    }
  ],
  "updated_at": "2025-10-19T02:46:09.583462+00:00",
  "_kind": "geo_samples"
}