{
  "country_code": "BG",
  "country": "Bulgaria",
  "city": "Varna",
  "geonameid": 726050,
  "target_addresses": 10,
  "samples": [
    {
      "lat": 43.188295204044024,
      "lon": 27.915951357991702,
      "geoinfo": {
        "display_name": "Вълноломна, Гръцката махала, Centre, Varna, Odessos, Varna, 9001, Bulgaria",
        "road": "Вълноломна",
        "house_number": null,
        "neighbourhood": null,
        "suburb": "Centre",
        "city_district": null,
        "city": "Varna",
        "state": "Varna",
        "postcode": "9001",
        "country": "Bulgaria",
        "country_code": "bg"
      },
      "address": "Вълноломна, Varna, Varna, Bulgaria"
    },
    {
      "lat": 43.18783668558593,
      "lon": 27.882528776742685,
      "geoinfo": {
        "display_name": "Стадион Аспарухово, Крайбрежна алея Аспарухово, ж.к. Дружба, Asparuhovo, Varna, Аспарухово, Varna, 9003, Bulgaria",
        "road": "Крайбрежна алея Аспарухово",
        "house_number": null,
        "neighbourhood": "ж.к. Дружба",
        "suburb": "Asparuhovo",
        "city_district": null,
        "city": "Varna",
        "state": "Varna",
        "postcode": "9003",
        "country": "Bulgaria",
        "country_code": "bg"
      },
      "address": "Крайбрежна алея Аспарухово, Varna, Varna, Bulgaria"
    },
    {
      "lat": 43.23646084000175,
      "lon": 27.863645034716566,
      "geoinfo": {
        "display_name": "бл. 220, кв. Кайсиева градина, Varna, Владислав Варненчик, Varna, 9023, Bulgaria",
        "road": null,
        "house_number": "бл. 220",
        "neighbourhood": null,
        "suburb": "кв. Кайсиева градина",
        "city_district": null,
        "city": "Varna",
        "state": "Varna",
        "postcode": "9023",
        "country": "Bulgaria",
        "country_code": "bg"
      },
      "address": "кв. Кайсиева градина, Varna, 70439 Varna, Bulgaria"
    },
    {
      "lat": 43.239818935308,
      "lon": 27.968780329850944,
      "geoinfo": {
        "display_name": "Tsar Boris III, Дълбокото дере, кв. Виница, Varna, Приморски, Varna, 9022, Bulgaria",
        "road": "Tsar Boris III",
        "house_number": null,
        "neighbourhood": "Дълбокото дере",
        "suburb": "кв. Виница",
        "city_district": null,
        "city": "Varna",
        "state": "Varna",
        "postcode": "9022",
        "country": "Bulgaria",
        "country_code": "bg"
      },
      "address": "Tsar Boris III, Varna, 33188 Varna, Bulgaria"
    },
    {
      "lat": 43.19333869327936,
      "lon": 27.905988947360648,
      "geoinfo": {
        "display_name": "Обръщач КРЗ, Южна промишлена зона, Asparuhovo, Varna, Аспарухово, Varna, 9003, Bulgaria",
        "road": "Обръщач КРЗ",
        "house_number": null,
        "neighbourhood": null,
        "suburb": "Asparuhovo",
        "city_district": null,
        "city": "Varna",
        "state": "Varna",
        "postcode": "9003",
        "country": "Bulgaria",
        "country_code": "bg"
      },
      "address": "778, Обръщач КРЗ, Южна промишлена зона, Asparuhovo, Varna, Аспарухово, Varna, 9003, Bulgaria"
    },
    {
      "lat": 43.23507650169732,
      "lon": 27.894087828274042,
      "geoinfo": {
        "display_name": "бл. 62, ж.к. Възраждане 3, Varna, Младост, Varna, 9025, Bulgaria",
        "road": null,
        "house_number": "бл. 62",
        "neighbourhood": null,
        "suburb": "ж.к. Възраждане 3",
        "city_district": null,
        "city": "Varna",
        "state": "Varna",
        "postcode": "9025",
        "country": "Bulgaria",
        "country_code": "bg"
      },
      "address": "бл. 62, ж.к. Възраждане 3, Varna, Младост, Varna, 9025, Bulgaria"
    },
    {
      "lat": 43.23893243758343,
      "lon": 27.959286684555618,
      "geoinfo": {
        "display_name": "902, Varna, Приморски, Varna, 9022, Bulgaria",
        "road": "902",
        "house_number": null,
        "neighbourhood": null,
        "suburb": null,
        "city_district": null,
        "city": "Varna",
        "state": "Varna",
        "postcode": "9022",
        "country": "Bulgaria",
        "country_code": "bg"
      },
      "address": "902, Varna, Приморски, Varna, 9022, Bulgaria"
    },
    {
      "lat": 43.189730004258024,
      "lon": 27.936992328830666,
      "geoinfo": {
        "display_name": "Galata, Varna, Аспарухово, Varna, 9021, Bulgaria",
        "road": null,
        "house_number": null,
        "neighbourhood": null,
        "suburb": "Galata",
        "city_district": null,
        "city": "Varna",
        "state": "Varna",
        "postcode": "9021",
        "country": "Bulgaria",
        "country_code": "bg"
      },
      "address": "293, Galata, Varna, Аспарухово, Varna, 9021, Bulgaria"
    },
    {
      "lat": 43.22638331341667,
      "lon": 27.86490896915536,
      "geoinfo": {
        "display_name": "Hemus Motorway, кв. Кайсиева градина, Varna, Владислав Варненчик, Varna, 9009, Bulgaria",
        "road": "Hemus Motorway",
        "house_number": null,
        "neighbourhood": null,
        "suburb": "кв. Кайсиева градина",
        "city_district": null,
        "city": "Varna",
        "state": "Varna",
        "postcode": "9009",
        "country": "Bulgaria",
        "country_code": "bg"
      },
      "address": "971, Hemus Motorway, кв. Кайсиева градина, Varna, Владислав Варненчик, Varna, 9009, Bulgaria"
    },
    {
      "lat": 43.234423245030314,
      "lon": 27.873633855068867,
      "geoinfo": {
        "display_name": "КОМИТИ, bul. Tsar Osvoboditel, zh.k. Mladost 1, Varna, Младост, Varna, 9020, Bulgaria",
        "road": "bul. Tsar Osvoboditel",
        "house_number": null,
        "neighbourhood": null,
        "suburb": "zh.k. Mladost 1",
        "city_district": null,
        "city": "Varna",
        "state": "Varna",
        "postcode": "9020",
        "country": "Bulgaria",
        "country_code": "bg"
      },
      "address": "КОМИТИ, bul. Tsar Osvoboditel, zh.k. Mladost 1, Varna, Младост, Varna, 9020, Bulgaria"
    }
  ],
  "updated_at": "2025-10-19T03:26:00.427734+00:00",
  "_kind": "geo_samples"
}