{
  "country_code": "AO",
  "country": "Angola",
  "city": "Caála",
  "geonameid": 3351500,
  "target_addresses": 6,
  "samples": [
    {
      "lat": -12.85379157757678,
      "lon": 15.526302141672653,
      "geoinfo": {
        "display_name": "Cassoco, Calai Brita, Huambo Province, Angola",
        "road": null,
        "house_number": null,
        "neighbourhood": null,
        "suburb": null,
        "city_district": null,
        "city": null,
        "state": "Huambo Province",
        "postcode": null,
        "country": "Angola",
        "country_code": "ao"
      },
      "address": "Caála, Huambo Province, Angola"
    },
    {
      "lat": -12.856317694618141,
      "lon": 15.532399231031208,
      "geoinfo": {
        "display_name": "Monte Mbandjela, EN 260, Calai Brita, Caála, Huambo Province, Angola",
        "road": "EN 260",
        "house_number": null,
        "neighbourhood": null,
        "suburb": null,
        "city_district": null,
        "city": "Caála",
        "state": "Huambo Province",
        "postcode": null,
        "country": "Angola",
        "country_code": "ao"
      },
      "address": "EN 260, Caála, Huambo Province, Angola"
    },
    {
      "lat": -12.821612143801431,
      "lon": 15.531718482459823,
      "geoinfo": {
        "display_name": "Nacandiango, Caála, Huambo Province, Angola",
        "road": null,
        "house_number": null,
        "neighbourhood": null,
        "suburb": null,
        "city_district": null,
        "city": "Caála",
        "state": "Huambo Province",
        "postcode": null,
        "country": "Angola",
        "country_code": "ao"
      },
      "address": "429, Nacandiango, Caála, 78753 Huambo Province, Angola"
    },
    {
      "lat": -12.830678468216199,
      "lon": 15.588600420594446,
      "geoinfo": {
        "display_name": "Cangote, Huambo Province, Angola",
        "road": null,
        "house_number": null,
        "neighbourhood": null,
        "suburb": "Cangote",
        "city_district": null,
        "city": null,
        "state": "Huambo Province",
        "postcode": null,
        "country": "Angola",
        "country_code": "ao"
      },
      "address": "587, Cangote, 81234 Huambo Province, Angola"
    },
    {
      "lat": -12.824029839618621,
      "lon": 15.563869478187188,
      "geoinfo": {
        "display_name": "Lua Cheia, Caála, Huambo Province, Angola",
        "road": null,
        "house_number": null,
        "neighbourhood": null,
        "suburb": null,
        "city_district": null,
        "city": "Caála",
        "state": "Huambo Province",
        "postcode": null,
        "country": "Angola",
        "country_code": "ao"
      },
      "address": "113, Lua Cheia, Caála, 38278 Huambo Province, Angola"
    },
    {
      "lat": -12.852778400566864,
      "lon": 15.558552596798036,
      "geoinfo": {
        "display_name": "Calilongue, Caála, Huambo Province, Angola",
        "road": null,
        "house_number": null,
        "neighbourhood": null,
        "suburb": "Calilongue",
        "city_district": null,
        "city": "Caála",
        "state": "Huambo Province",
        "postcode": null,
        "country": "Angola",
        "country_code": "ao"
      },
      "address": "921, Calilongue, Caála, 99265 Huambo Province, Angola"
    }
  ],
  "updated_at": "2025-10-19T03:11:33.581514+00:00",
  "_kind": "geo_samples"
}