{
  "country_code": "AO",
  "country": "Angola",
  "city": "Londuimbali",
  "geonameid": 3347880,
  "target_addresses": 6,
  "samples": [
    {
      "lat": -12.22254180090449,
      "lon": 15.359416911978025,
      "geoinfo": {
        "display_name": "Huambo Province, Angola",
        "road": null,
        "house_number": null,
        "neighbourhood": null,
        "suburb": null,
        "city_district": null,
        "city": null,
        "state": "Huambo Province",
        "postcode": null,
        "country": "Angola",
        "country_code": "ao"
      },
      "address": "Londuimbali, Huambo Province, Angola"
    },
    {
      "lat": -12.27138149625115,
      "lon": 15.339453285257328,
      "geoinfo": {
        "display_name": "HBO 343-1, Tinguita, Huambo Province, Angola",
        "road": "HBO 343-1",
        "house_number": null,
        "neighbourhood": null,
        "suburb": null,
        "city_district": null,
        "city": null,
        "state": "Huambo Province",
        "postcode": null,
        "country": "Angola",
        "country_code": "ao"
      },
      "address": "HBO 343-1, Londuimbali, Huambo Province, Angola"
    },
    {
      "lat": -12.225354627458122,
      "lon": 15.28061966626438,
      "geoinfo": {
        "display_name": "Chicoco, Huambo Province, Angola",
        "road": null,
        "house_number": null,
        "neighbourhood": null,
        "suburb": null,
        "city_district": null,
        "city": null,
        "state": "Huambo Province",
        "postcode": null,
        "country": "Angola",
        "country_code": "ao"
      },
      "address": "500, Chicoco, 80955 Huambo Province, Angola"
    },
    {
      "lat": -12.24742469455966,
      "lon": 15.28347840936418,
      "geoinfo": {
        "display_name": "Chimbamba, Huambo Province, Angola",
        "road": null,
        "house_number": null,
        "neighbourhood": null,
        "suburb": null,
        "city_district": null,
        "city": null,
        "state": "Huambo Province",
        "postcode": null,
        "country": "Angola",
        "country_code": "ao"
      },
      "address": "014, Chimbamba, 43570 Huambo Province, Angola"
    },
    {
      "lat": -12.256172719418094,
      "lon": 15.323874674704669,
      "geoinfo": {
        "display_name": "HBO 343-1, Caliaca, Londuimbali, Huambo Province, Angola",
        "road": "HBO 343-1",
        "house_number": null,
        "neighbourhood": null,
        "suburb": null,
        "city_district": null,
        "city": "Londuimbali",
        "state": "Huambo Province",
        "postcode": null,
        "country": "Angola",
        "country_code": "ao"
      },
      "address": "HBO 343-1, Caliaca, Londuimbali, Huambo Province, Angola"
    },
    {
      "lat": -12.243079397414343,
      "lon": 15.311554282436735,
      "geoinfo": {
        "display_name": "Caliaca, Londuimbali, Huambo Province, Angola",
        "road": null,
        "house_number": null,
        "neighbourhood": null,
        "suburb": null,
        "city_district": null,
        "city": "Londuimbali",
        "state": "Huambo Province",
        "postcode": null,
        "country": "Angola",
        "country_code": "ao"
      },
      "address": "142, Caliaca, Londuimbali, 29146 Huambo Province, Angola"
    }
  ],
  "updated_at": "2025-10-19T03:10:22.219192+00:00",
  "_kind": "geo_samples"
}