{
  "country_code": "AO",
  "country": "Angola",
  "city": "Negage",
  "geonameid": 2239069,
  "target_addresses": 2,
  "samples": [
    {
      "lat": -7.729105720021704,
      "lon": 15.242233053633614,
      "geoinfo": {
        "display_name": "Cabala, Uíge Province, Angola",
        "road": null,
        "house_number": null,
        "neighbourhood": null,
        "suburb": null,
        "city_district": null,
        "city": null,
        "state": "Uíge Province",
        "postcode": null,
        "country": "Angola",
        "country_code": "ao"
      },
      "address": "Negage, Uíge Province, Angola"
    },
    {
      "lat": -7.730570352452707,
      "lon": 15.247405069498923,
      "geoinfo": {
        "display_name": "Uige-Negage, Caquengue, Quinguangua Mateus, Uíge Province, Angola",
        "road": "Uige-Negage",
        "house_number": null,
        "neighbourhood": null,
        "suburb": null,
        "city_district": null,
        "city": "Quinguangua Mateus",
        "state": "Uíge Province",
        "postcode": null,
        "country": "Angola",
        "country_code": "ao"
      },
      "address": "Uige-Negage, Negage, Uíge Province, Angola"
    },
    {
      "lat": -7.747080732015277,
      "lon": 15.232650701521115,
      "geoinfo": {
        "display_name": "Cabala, Uíge Province, Angola",
        "road": null,
        "house_number": null,
        "neighbourhood": null,
        "suburb": null,
        "city_district": null,
        "city": null,
        "state": "Uíge Province",
        "postcode": null,
        "country": "Angola",
        "country_code": "ao"
      },
      "address": "910, Cabala, 37278 Uíge Province, Angola"
    },
    {
      "lat": -7.751697389354373,
      "lon": 15.284514970821569,
      "geoinfo": {
        "display_name": "Negage, Uíge Province, Angola",
        "road": null,
        "house_number": null,
        "neighbourhood": null,
        "suburb": null,
        "city_district": null,
        "city": "Negage",
        "state": "Uíge Province",
        "postcode": null,
        "country": "Angola",
        "country_code": "ao"
      },
      "address": "192, Negage, 23247 Uíge Province, Angola"
    }
  ],
  "updated_at": "2025-10-19T02:42:58.935294+00:00",
  "_kind": "geo_samples"
}