{
  "country_code": "LT",
  "country": "Lithuania",
  "city": "Alytus",
  "geonameid": 601084,
  "target_addresses": 3,
  "samples": [
    {
      "lat": 54.379515248430366,
      "lon": 23.981058250300002,
      "geoinfo": {
        "display_name": "18, Dvaro g., Likiškėliai, Alytaus seniūnija, Alytus District Municipality, Alytus County, 62442, Lithuania",
        "road": "Dvaro g.",
        "house_number": "18",
        "neighbourhood": null,
        "suburb": null,
        "city_district": null,
        "city": "Likiškėliai",
        "state": "Alytus County",
        "postcode": "62442",
        "country": "Lithuania",
        "country_code": "lt"
      },
      "address": "18 Dvaro g., Alytus, Alytus County, Lithuania"
    },
    {
      "lat": 54.392199923014246,
      "lon": 24.06138306435485,
      "geoinfo": {
        "display_name": "Mažosios Dailidės takas, Alytus I, Alytus, Alytaus miesto savivaldybė, Alytus County, 62166, Lithuania",
        "road": "Mažosios Dailidės takas",
        "house_number": null,
        "neighbourhood": null,
        "suburb": "Alytus I",
        "city_district": null,
        "city": "Alytus",
        "state": "Alytus County",
        "postcode": "62166",
        "country": "Lithuania",
        "country_code": "lt"
      },
      "address": "Mažosios Dailidės takas, Alytus, Alytus County, Lithuania"
    },
    {
      "lat": 54.39992399877717,
      "lon": 24.10607702070979,
      "geoinfo": {
        "display_name": "130, Alytupio g., Alytus, Alovės seniūnija, Alytus District Municipality, Alytus County, 64100, Lithuania",
        "road": "Alytupio g.",
        "house_number": "130",
        "neighbourhood": null,
        "suburb": null,
        "city_district": null,
        "city": "Alytus",
        "state": "Alytus County",
        "postcode": "64100",
        "country": "Lithuania",
        "country_code": "lt"
      },
      "address": "130 Alytupio g., Alytus, Alytus County, Lithuania"
    },
    {
      "lat": 54.371247330864286,
      "lon": 24.054693126610296,
      "geoinfo": {
        "display_name": "Alytus I, Alytus, Alytaus miesto savivaldybė, Alytus County, 62265, Lithuania",
        "road": null,
        "house_number": null,
        "neighbourhood": null,
        "suburb": "Alytus I",
        "city_district": null,
        "city": "Alytus",
        "state": "Alytus County",
        "postcode": "62265",
        "country": "Lithuania",
        "country_code": "lt"
      },
      "address": "733, Alytus I, Alytus, Alytaus miesto savivaldybė, Alytus County, 62265, Lithuania"
    },
    {
      "lat": 54.39217372843542,
      "lon": 24.09408147029135,
      "geoinfo": {
        "display_name": "9, Draugystės g., Alytus, Alovės seniūnija, Alytus District Municipality, Alytus County, 64105, Lithuania",
        "road": "Draugystės g.",
        "house_number": "9",
        "neighbourhood": null,
        "suburb": null,
        "city_district": null,
        "city": "Alytus",
        "state": "Alytus County",
        "postcode": "64105",
        "country": "Lithuania",
        "country_code": "lt"
      },
      "address": "9, Draugystės g., Alytus, Alovės seniūnija, Alytus District Municipality, Alytus County, 64105, Lithuania"
    },
    {
      "lat": 54.36301781682854,
      "lon": 24.003489961362828,
      "geoinfo": {
        "display_name": "46A, Radžiūnų g., Radžiūnai, Alytaus seniūnija, Alytus District Municipality, Alytus County, 63394, Lithuania",
        "road": "Radžiūnų g.",
        "house_number": "46A",
        "neighbourhood": null,
        "suburb": null,
        "city_district": null,
        "city": "Radžiūnai",
        "state": "Alytus County",
        "postcode": "63394",
        "country": "Lithuania",
        "country_code": "lt"
      },
      "address": "46A, Radžiūnų g., Radžiūnai, Alytaus seniūnija, Alytus District Municipality, Alytus County, 63394, Lithuania"
    }
  ],
  "updated_at": "2025-10-19T04:07:29.697320+00:00",
  "_kind": "geo_samples"
}