{
  "country_code": "LT",
  "country": "Lithuania",
  "city": "Antakalnis",
  "geonameid": 601041,
  "target_addresses": 3,
  "samples": [
    {
      "lat": 54.73304963551234,
      "lon": 25.34062556474162,
      "geoinfo": {
        "display_name": "15, Nugalėtojų g., Aukštagiris, Antakalnis Eldership, Vilnius, Vilnius city municipality, Vilnius County, 10105, Lithuania",
        "road": "Nugalėtojų g.",
        "house_number": "15",
        "neighbourhood": null,
        "suburb": "Antakalnis Eldership",
        "city_district": null,
        "city": "Vilnius",
        "state": "Vilnius County",
        "postcode": "10105",
        "country": "Lithuania",
        "country_code": "lt"
      },
      "address": "15 Nugalėtojų g., Antakalnis, Vilnius County, Lithuania"
    },
    {
      "lat": 54.70056982988165,
      "lon": 25.32823809657286,
      "geoinfo": {
        "display_name": "Antakalnis landscape reserve, Filaretų g., Lyglaukiai, Antakalnis Eldership, Vilnius, Vilnius city municipality, Vilnius County, 01215, Lithuania",
        "road": "Filaretų g.",
        "house_number": null,
        "neighbourhood": null,
        "suburb": "Antakalnis Eldership",
        "city_district": null,
        "city": "Vilnius",
        "state": "Vilnius County",
        "postcode": "01215",
        "country": "Lithuania",
        "country_code": "lt"
      },
      "address": "Filaretų g., Antakalnis, Vilnius County, Lithuania"
    },
    {
      "lat": 54.698936528983545,
      "lon": 25.33963383701945,
      "geoinfo": {
        "display_name": "Šilo g., Sapieginė, Antakalnis Eldership, Vilnius, Vilnius city municipality, Vilnius County, 01215, Lithuania",
        "road": "Šilo g.",
        "house_number": null,
        "neighbourhood": null,
        "suburb": "Antakalnis Eldership",
        "city_district": null,
        "city": "Vilnius",
        "state": "Vilnius County",
        "postcode": "01215",
        "country": "Lithuania",
        "country_code": "lt"
      },
      "address": "Šilo g., Antakalnis, Vilnius County, Lithuania"
    }
  ],
  "updated_at": "2025-10-16T18:36:14.282651+00:00",
  "_kind": "geo_samples"
}