{
  "country_code": "LT",
  "country": "Lithuania",
  "city": "Dainava (Kaunas)",
  "geonameid": 6618486,
  "target_addresses": 3,
  "samples": [
    {
      "lat": 54.91355399965516,
      "lon": 23.9653603982036,
      "geoinfo": {
        "display_name": "57A, Taikos pr., Dainava, Dainavos seniūnija, Kaunas, Kauno miesto savivaldybė, Kaunas County, 50432, Lithuania",
        "road": "Taikos pr.",
        "house_number": "57A",
        "neighbourhood": null,
        "suburb": "Dainava",
        "city_district": null,
        "city": "Kaunas",
        "state": "Kaunas County",
        "postcode": "50432",
        "country": "Lithuania",
        "country_code": "lt"
      },
      "address": "57A Taikos pr., Dainava (Kaunas), Kaunas County, Lithuania"
    },
    {
      "lat": 54.91016478217831,
      "lon": 23.97056747747371,
      "geoinfo": {
        "display_name": "78, Taikos pr., Gričiupis, Gričiupio seniūnija, Kaunas, Kauno miesto savivaldybė, Kaunas County, 51296, Lithuania",
        "road": "Taikos pr.",
        "house_number": "78",
        "neighbourhood": null,
        "suburb": "Gričiupis",
        "city_district": null,
        "city": "Kaunas",
        "state": "Kaunas County",
        "postcode": "51296",
        "country": "Lithuania",
        "country_code": "lt"
      },
      "address": "78 Taikos pr., Dainava (Kaunas), Kaunas County, Lithuania"
    },
    {
      "lat": 54.929402657041564,
      "lon": 23.919141106898792,
      "geoinfo": {
        "display_name": "Šiaurės pr., Eiguliai, Eigulių seniūnija, Kaunas, Kauno miesto savivaldybė, Kaunas County, 49327, Lithuania",
        "road": "Šiaurės pr.",
        "house_number": null,
        "neighbourhood": null,
        "suburb": "Eiguliai",
        "city_district": null,
        "city": "Kaunas",
        "state": "Kaunas County",
        "postcode": "49327",
        "country": "Lithuania",
        "country_code": "lt"
      },
      "address": "269, Šiaurės pr., Eiguliai, Eigulių seniūnija, Kaunas, Kauno miesto savivaldybė, Kaunas County, 49327, Lithuania"
    },
    {
      "lat": 54.8735656924756,
      "lon": 23.966125392319896,
      "geoinfo": {
        "display_name": "21B, Vičiūnų g., Panemunė, Panemunės seniūnija, Kaunas, Kauno miesto savivaldybė, Kaunas County, 45325, Lithuania",
        "road": "Vičiūnų g.",
        "house_number": "21B",
        "neighbourhood": null,
        "suburb": "Panemunė",
        "city_district": null,
        "city": "Kaunas",
        "state": "Kaunas County",
        "postcode": "45325",
        "country": "Lithuania",
        "country_code": "lt"
      },
      "address": "21B, Vičiūnų g., Panemunė, Panemunės seniūnija, Kaunas, Kauno miesto savivaldybė, Kaunas County, 45325, Lithuania"
    },
    {
      "lat": 54.88763266044775,
      "lon": 23.945720653007964,
      "geoinfo": {
        "display_name": "12, Medvėgalio g., Aukštieji Šančiai, Šančių seniūnija, Kaunas, Kauno miesto savivaldybė, Kaunas County, 44447, Lithuania",
        "road": "Medvėgalio g.",
        "house_number": "12",
        "neighbourhood": null,
        "suburb": "Aukštieji Šančiai",
        "city_district": null,
        "city": "Kaunas",
        "state": "Kaunas County",
        "postcode": "44447",
        "country": "Lithuania",
        "country_code": "lt"
      },
      "address": "12, Medvėgalio g., Aukštieji Šančiai, Šančių seniūnija, Kaunas, Kauno miesto savivaldybė, Kaunas County, 44447, Lithuania"
    }
  ],
  "updated_at": "2025-10-19T05:46:28.720923+00:00",
  "_kind": "geo_samples"
}