{
  "country_code": "LT",
  "country": "Lithuania",
  "city": "Naujininkai",
  "geonameid": 6955408,
  "target_addresses": 3,
  "samples": [
    {
      "lat": 54.66160015760654,
      "lon": 25.248713550184746,
      "geoinfo": {
        "display_name": "3, Kuršių g., Burbiškės, Naujininkų seniūnija, Vilnius, Vilnius city municipality, Vilnius County, 03154, Lithuania",
        "road": "Kuršių g.",
        "house_number": "3",
        "neighbourhood": null,
        "suburb": "Naujininkų seniūnija",
        "city_district": null,
        "city": "Vilnius",
        "state": "Vilnius County",
        "postcode": "03154",
        "country": "Lithuania",
        "country_code": "lt"
      },
      "address": "3 Kuršių g., Naujininkai, Vilnius County, Lithuania"
    },
    {
      "lat": 54.658310662416646,
      "lon": 25.27601424609385,
      "geoinfo": {
        "display_name": "7, Kaminkelio g., Naujininkai, Naujininkų seniūnija, Vilnius, Vilnius city municipality, Vilnius County, 02182, Lithuania",
        "road": "Kaminkelio g.",
        "house_number": "7",
        "neighbourhood": null,
        "suburb": "Naujininkai",
        "city_district": null,
        "city": "Vilnius",
        "state": "Vilnius County",
        "postcode": "02182",
        "country": "Lithuania",
        "country_code": "lt"
      },
      "address": "7 Kaminkelio g., Naujininkai, Vilnius County, Lithuania"
    },
    {
      "lat": 54.6582840339373,
      "lon": 25.25659537821109,
      "geoinfo": {
        "display_name": "3, Burbiškių g., Burbiškės, Naujininkų seniūnija, Vilnius, Vilnius city municipality, Vilnius County, 02174, Lithuania",
        "road": "Burbiškių g.",
        "house_number": "3",
        "neighbourhood": null,
        "suburb": "Naujininkų seniūnija",
        "city_district": null,
        "city": "Vilnius",
        "state": "Vilnius County",
        "postcode": "02174",
        "country": "Lithuania",
        "country_code": "lt"
      },
      "address": "3 Burbiškių g., Naujininkai, Vilnius County, Lithuania"
    },
    {
      "lat": 54.63885085226997,
      "lon": 25.33758501842517,
      "geoinfo": {
        "display_name": "28, Ąžuolyno g., Nemėžis, Nemėžio seniūnija, Vilniaus rajono savivaldybė, Vilnius County, 13285, Lithuania",
        "road": "Ąžuolyno g.",
        "house_number": "28",
        "neighbourhood": null,
        "suburb": null,
        "city_district": null,
        "city": "Nemėžis",
        "state": "Vilnius County",
        "postcode": "13285",
        "country": "Lithuania",
        "country_code": "lt"
      },
      "address": "28, Ąžuolyno g., Nemėžis, Nemėžio seniūnija, Vilniaus rajono savivaldybė, Vilnius County, 13285, Lithuania"
    },
    {
      "lat": 54.64089973913423,
      "lon": 25.31681602562854,
      "geoinfo": {
        "display_name": "23, Beržuonos g., Kuprioniškės, Rasos eldership, Vilnius, Vilnius city municipality, Vilnius County, 13279, Lithuania",
        "road": "Beržuonos g.",
        "house_number": "23",
        "neighbourhood": null,
        "suburb": "Rasos eldership",
        "city_district": null,
        "city": "Vilnius",
        "state": "Vilnius County",
        "postcode": "13279",
        "country": "Lithuania",
        "country_code": "lt"
      },
      "address": "23, Beržuonos g., Kuprioniškės, Rasos eldership, Vilnius, Vilnius city municipality, Vilnius County, 13279, Lithuania"
    },
    {
      "lat": 54.677133138199494,
      "lon": 25.330026889163612,
      "geoinfo": {
        "display_name": "15B, Belmonto g., Belmontas, Rasos eldership, Vilnius, Vilnius city municipality, Vilnius County, 11345, Lithuania",
        "road": "Belmonto g.",
        "house_number": "15B",
        "neighbourhood": null,
        "suburb": "Rasos eldership",
        "city_district": null,
        "city": "Vilnius",
        "state": "Vilnius County",
        "postcode": "11345",
        "country": "Lithuania",
        "country_code": "lt"
      },
      "address": "15B, Belmonto g., Belmontas, Rasos eldership, Vilnius, Vilnius city municipality, Vilnius County, 11345, Lithuania"
    }
  ],
  "updated_at": "2025-10-19T05:27:24.692641+00:00",
  "_kind": "geo_samples"
}