{
  "country_code": "LT",
  "country": "Lithuania",
  "city": "Naujoji Vilnia",
  "geonameid": 596713,
  "target_addresses": 3,
  "samples": [
    {
      "lat": 54.69606950942922,
      "lon": 25.41070720151061,
      "geoinfo": {
        "display_name": "2, Gluosnių g., Naujoji Vilnia, Naujosios Vilnios seniūnija, Vilnius, Vilnius city municipality, Vilnius County, 11108, Lithuania",
        "road": "Gluosnių g.",
        "house_number": "2",
        "neighbourhood": null,
        "suburb": "Naujoji Vilnia",
        "city_district": null,
        "city": "Vilnius",
        "state": "Vilnius County",
        "postcode": "11108",
        "country": "Lithuania",
        "country_code": "lt"
      },
      "address": "2 Gluosnių g., Naujoji Vilnia, Vilnius County, Lithuania"
    },
    {
      "lat": 54.70859286260734,
      "lon": 25.352808400046918,
      "geoinfo": {
        "display_name": "Iškartų kraštovaizdžio draustinis, Rokantiškių g., Rokantiškės, Antakalnis Eldership, Vilnius, Vilnius city municipality, Vilnius County, 10230, Lithuania",
        "road": "Rokantiškių g.",
        "house_number": null,
        "neighbourhood": null,
        "suburb": "Antakalnis Eldership",
        "city_district": null,
        "city": "Vilnius",
        "state": "Vilnius County",
        "postcode": "10230",
        "country": "Lithuania",
        "country_code": "lt"
      },
      "address": "Rokantiškių g., Naujoji Vilnia, Vilnius County, Lithuania"
    },
    {
      "lat": 54.68183316833177,
      "lon": 25.407836202943013,
      "geoinfo": {
        "display_name": "37, Pergalės g., Naujoji Vilnia, Naujosios Vilnios seniūnija, Vilnius, Vilnius city municipality, Vilnius County, 11202, Lithuania",
        "road": "Pergalės g.",
        "house_number": "37",
        "neighbourhood": null,
        "suburb": "Naujoji Vilnia",
        "city_district": null,
        "city": "Vilnius",
        "state": "Vilnius County",
        "postcode": "11202",
        "country": "Lithuania",
        "country_code": "lt"
      },
      "address": "37 Pergalės g., Naujoji Vilnia, Vilnius County, Lithuania"
    },
    {
      "lat": 54.71546875166968,
      "lon": 25.434756164157893,
      "geoinfo": {
        "display_name": "25, Egliškių g., Egliškės, Mickūnai Eldership, Vilniaus rajono savivaldybė, Vilnius County, 13107, Lithuania",
        "road": "Egliškių g.",
        "house_number": "25",
        "neighbourhood": null,
        "suburb": null,
        "city_district": null,
        "city": "Egliškės",
        "state": "Vilnius County",
        "postcode": "13107",
        "country": "Lithuania",
        "country_code": "lt"
      },
      "address": "25, Egliškių g., Egliškės, Mickūnai Eldership, Vilniaus rajono savivaldybė, Vilnius County, 13107, Lithuania"
    },
    {
      "lat": 54.68935996025261,
      "lon": 25.3666901846884,
      "geoinfo": {
        "display_name": "Pūčkorių pažintinis takas, Kučkuriškės, Naujosios Vilnios seniūnija, Vilnius, Vilnius city municipality, Vilnius County, 11100, Lithuania",
        "road": "Pūčkorių pažintinis takas",
        "house_number": null,
        "neighbourhood": null,
        "suburb": "Naujosios Vilnios seniūnija",
        "city_district": null,
        "city": "Vilnius",
        "state": "Vilnius County",
        "postcode": "11100",
        "country": "Lithuania",
        "country_code": "lt"
      },
      "address": "089, Pūčkorių pažintinis takas, Kučkuriškės, Naujosios Vilnios seniūnija, Vilnius, Vilnius city municipality, Vilnius County, 11100, Lithuania"
    },
    {
      "lat": 54.71610874488769,
      "lon": 25.46729756456062,
      "geoinfo": {
        "display_name": "46, Kairėnų g., Kairėnai, Mickūnai Eldership, Vilniaus rajono savivaldybė, Vilnius County, 11124, Lithuania",
        "road": "Kairėnų g.",
        "house_number": "46",
        "neighbourhood": null,
        "suburb": null,
        "city_district": null,
        "city": "Kairėnai",
        "state": "Vilnius County",
        "postcode": "11124",
        "country": "Lithuania",
        "country_code": "lt"
      },
      "address": "46, Kairėnų g., Kairėnai, Mickūnai Eldership, Vilniaus rajono savivaldybė, Vilnius County, 11124, Lithuania"
    }
  ],
  "updated_at": "2025-10-19T03:45:22.928013+00:00",
  "_kind": "geo_samples"
}