{
  "country_code": "LT",
  "country": "Lithuania",
  "city": "Panevėžys",
  "geonameid": 596128,
  "target_addresses": 3,
  "samples": [
    {
      "lat": 55.70348576593062,
      "lon": 24.325684449140176,
      "geoinfo": {
        "display_name": "19, Žolynų g., Panevėžys, Panevėžio miesto savivaldybė, Panevėžys County, 36280, Lithuania",
        "road": "Žolynų g.",
        "house_number": "19",
        "neighbourhood": null,
        "suburb": null,
        "city_district": null,
        "city": "Panevėžys",
        "state": "Panevėžys County",
        "postcode": "36280",
        "country": "Lithuania",
        "country_code": "lt"
      },
      "address": "19 Žolynų g., Panevėžys, Panevėžys County, Lithuania"
    },
    {
      "lat": 55.745274686125995,
      "lon": 24.425310077693336,
      "geoinfo": {
        "display_name": "51, Tinklų g., Panevėžys, Miežiškių seniūnija, Panevėžio miesto savivaldybė, Panevėžys County, 38181, Lithuania",
        "road": "Tinklų g.",
        "house_number": "51",
        "neighbourhood": null,
        "suburb": null,
        "city_district": null,
        "city": "Panevėžys",
        "state": "Panevėžys County",
        "postcode": "38181",
        "country": "Lithuania",
        "country_code": "lt"
      },
      "address": "51 Tinklų g., Panevėžys, Panevėžys County, Lithuania"
    },
    {
      "lat": 55.723873042750036,
      "lon": 24.429065503128015,
      "geoinfo": {
        "display_name": "61, Savanorių g., Vyčiai, Velžio seniūnija, Panevėžio rajono savivaldybė, Panevėžys County, 38122, Lithuania",
        "road": "Savanorių g.",
        "house_number": "61",
        "neighbourhood": null,
        "suburb": null,
        "city_district": null,
        "city": "Vyčiai",
        "state": "Panevėžys County",
        "postcode": "38122",
        "country": "Lithuania",
        "country_code": "lt"
      },
      "address": "61 Savanorių g., Panevėžys, Panevėžys County, Lithuania"
    },
    {
      "lat": 55.74524354528043,
      "lon": 24.32220381424637,
      "geoinfo": {
        "display_name": "20, Įmonių g., Panevėžys, Panevėžio miesto savivaldybė, Panevėžys County, 37188, Lithuania",
        "road": "Įmonių g.",
        "house_number": "20",
        "neighbourhood": null,
        "suburb": null,
        "city_district": null,
        "city": "Panevėžys",
        "state": "Panevėžys County",
        "postcode": "37188",
        "country": "Lithuania",
        "country_code": "lt"
      },
      "address": "20, Įmonių g., Panevėžys, Panevėžio miesto savivaldybė, Panevėžys County, 37188, Lithuania"
    },
    {
      "lat": 55.75630435700118,
      "lon": 24.30146063421124,
      "geoinfo": {
        "display_name": "8A, Tiekimo g., Panevėžys, Panevėžys eldership, Panevėžio miesto savivaldybė, Panevėžys County, 38395, Lithuania",
        "road": "Tiekimo g.",
        "house_number": "8A",
        "neighbourhood": null,
        "suburb": null,
        "city_district": null,
        "city": "Panevėžys",
        "state": "Panevėžys County",
        "postcode": "38395",
        "country": "Lithuania",
        "country_code": "lt"
      },
      "address": "8A, Tiekimo g., Panevėžys, Panevėžys eldership, Panevėžio miesto savivaldybė, Panevėžys County, 38395, Lithuania"
    },
    {
      "lat": 55.76053051545743,
      "lon": 24.312575186435076,
      "geoinfo": {
        "display_name": "Bliūdžiai, Panevėžys eldership, Panevėžio rajono savivaldybė, Panevėžys County, 35291, Lithuania",
        "road": null,
        "house_number": null,
        "neighbourhood": null,
        "suburb": null,
        "city_district": null,
        "city": "Bliūdžiai",
        "state": "Panevėžys County",
        "postcode": "35291",
        "country": "Lithuania",
        "country_code": "lt"
      },
      "address": "002, Bliūdžiai, Panevėžys eldership, Panevėžio rajono savivaldybė, Panevėžys County, 35291, Lithuania"
    }
  ],
  "updated_at": "2025-10-19T05:26:15.283148+00:00",
  "_kind": "geo_samples"
}