{
  "country_code": "LT",
  "country": "Lithuania",
  "city": "Pašilaičiai",
  "geonameid": 10062599,
  "target_addresses": 3,
  "samples": [
    {
      "lat": 54.73331527358434,
      "lon": 25.220993155270637,
      "geoinfo": {
        "display_name": "25, Gabijos g., Pašilaičiai, Pašilaičių seniūnija, Vilnius, Vilnius city municipality, Vilnius County, 06108, Lithuania",
        "road": "Gabijos g.",
        "house_number": "25",
        "neighbourhood": null,
        "suburb": "Pašilaičiai",
        "city_district": null,
        "city": "Vilnius",
        "state": "Vilnius County",
        "postcode": "06108",
        "country": "Lithuania",
        "country_code": "lt"
      },
      "address": "25 Gabijos g., Pašilaičiai, Vilnius County, Lithuania"
    },
    {
      "lat": 54.72790116508868,
      "lon": 25.222132945265987,
      "geoinfo": {
        "display_name": "37, Medeinos g., Pašilaičiai, Pašilaičių seniūnija, Vilnius, Vilnius city municipality, Vilnius County, 06138, Lithuania",
        "road": "Medeinos g.",
        "house_number": "37",
        "neighbourhood": null,
        "suburb": "Pašilaičiai",
        "city_district": null,
        "city": "Vilnius",
        "state": "Vilnius County",
        "postcode": "06138",
        "country": "Lithuania",
        "country_code": "lt"
      },
      "address": "37 Medeinos g., Pašilaičiai, Vilnius County, Lithuania"
    },
    {
      "lat": 54.737672139112355,
      "lon": 25.21804214544173,
      "geoinfo": {
        "display_name": "2, Girulių g., Perkūnkiemis, Pašilaičių seniūnija, Vilnius, Vilnius city municipality, Vilnius County, 12125, Lithuania",
        "road": "Girulių g.",
        "house_number": "2",
        "neighbourhood": null,
        "suburb": "Pašilaičių seniūnija",
        "city_district": null,
        "city": "Vilnius",
        "state": "Vilnius County",
        "postcode": "12125",
        "country": "Lithuania",
        "country_code": "lt"
      },
      "address": "2 Girulių g., Pašilaičiai, Vilnius County, Lithuania"
    },
    {
      "lat": 54.75784800943121,
      "lon": 25.26547074661994,
      "geoinfo": {
        "display_name": "Jono Kairiūkščio g., Visoriai, Verkių seniūnija, Vilnius, Vilnius city municipality, Vilnius County, 08454, Lithuania",
        "road": "Jono Kairiūkščio g.",
        "house_number": null,
        "neighbourhood": null,
        "suburb": "Verkių seniūnija",
        "city_district": null,
        "city": "Vilnius",
        "state": "Vilnius County",
        "postcode": "08454",
        "country": "Lithuania",
        "country_code": "lt"
      },
      "address": "010, Jono Kairiūkščio g., Visoriai, Verkių seniūnija, Vilnius, Vilnius city municipality, Vilnius County, 08454, Lithuania"
    },
    {
      "lat": 54.756913706459166,
      "lon": 25.25871391345363,
      "geoinfo": {
        "display_name": "27, Bajorų kel., Visoriai, Verkių seniūnija, Vilnius, Vilnius city municipality, Vilnius County, 08467, Lithuania",
        "road": "Bajorų kel.",
        "house_number": "27",
        "neighbourhood": null,
        "suburb": "Verkių seniūnija",
        "city_district": null,
        "city": "Vilnius",
        "state": "Vilnius County",
        "postcode": "08467",
        "country": "Lithuania",
        "country_code": "lt"
      },
      "address": "27, Bajorų kel., Visoriai, Verkių seniūnija, Vilnius, Vilnius city municipality, Vilnius County, 08467, Lithuania"
    },
    {
      "lat": 54.75830435550392,
      "lon": 25.15640300693086,
      "geoinfo": {
        "display_name": "1, Obelų aklg., Saldenė, Avižienių seniūnija, Vilniaus rajono savivaldybė, Vilnius County, 14186, Lithuania",
        "road": "Obelų aklg.",
        "house_number": "1",
        "neighbourhood": null,
        "suburb": null,
        "city_district": null,
        "city": "Saldenė",
        "state": "Vilnius County",
        "postcode": "14186",
        "country": "Lithuania",
        "country_code": "lt"
      },
      "address": "1, Obelų aklg., Saldenė, Avižienių seniūnija, Vilniaus rajono savivaldybė, Vilnius County, 14186, Lithuania"
    }
  ],
  "updated_at": "2025-10-19T05:51:38.528714+00:00",
  "_kind": "geo_samples"
}