{
  "country_code": "LT",
  "country": "Lithuania",
  "city": "Pilaitė",
  "geonameid": 10062600,
  "target_addresses": 16,
  "samples": [
    {
      "lat": 54.70005654460355,
      "lon": 25.199034120499032,
      "geoinfo": {
        "display_name": "36, Astikų g., Senoji Pilaitė, Pilaitės seniūnija, Vilnius, Vilnius city municipality, Vilnius County, 06264, Lithuania",
        "road": "Astikų g.",
        "house_number": "36",
        "neighbourhood": null,
        "suburb": "Pilaitės seniūnija",
        "city_district": null,
        "city": "Vilnius",
        "state": "Vilnius County",
        "postcode": "06264",
        "country": "Lithuania",
        "country_code": "lt"
      },
      "address": "36 Astikų g., Pilaitė, Vilnius County, Lithuania"
    },
    {
      "lat": 54.70390299877962,
      "lon": 25.171042225998654,
      "geoinfo": {
        "display_name": "Temis autoservisas, 15, Gilužio g., Dvarykščiai, Pilaitės seniūnija, Vilnius, Vilnius city municipality, Vilnius County, 06281, Lithuania",
        "road": "Gilužio g.",
        "house_number": "15",
        "neighbourhood": null,
        "suburb": "Pilaitės seniūnija",
        "city_district": null,
        "city": "Vilnius",
        "state": "Vilnius County",
        "postcode": "06281",
        "country": "Lithuania",
        "country_code": "lt"
      },
      "address": "15 Gilužio g., Pilaitė, Vilnius County, Lithuania"
    },
    {
      "lat": 54.71972501251356,
      "lon": 25.167791057355956,
      "geoinfo": {
        "display_name": "41, Šarkuvos g., Varnė, Pilaitės seniūnija, Vilnius, Vilnius city municipality, Vilnius County, 06200, Lithuania",
        "road": "Šarkuvos g.",
        "house_number": "41",
        "neighbourhood": null,
        "suburb": "Pilaitės seniūnija",
        "city_district": null,
        "city": "Vilnius",
        "state": "Vilnius County",
        "postcode": "06200",
        "country": "Lithuania",
        "country_code": "lt"
      },
      "address": "41 Šarkuvos g., Pilaitė, Vilnius County, Lithuania"
    },
    {
      "lat": 54.74173201782348,
      "lon": 25.181981301943523,
      "geoinfo": {
        "display_name": "Buiniškių g., Pašilaičių seniūnija, Vilnius, Vilnius city municipality, Vilnius County, 12146, Lithuania",
        "road": "Buiniškių g.",
        "house_number": null,
        "neighbourhood": null,
        "suburb": "Pašilaičių seniūnija",
        "city_district": null,
        "city": "Vilnius",
        "state": "Vilnius County",
        "postcode": "12146",
        "country": "Lithuania",
        "country_code": "lt"
      },
      "address": "Buiniškių g., Pašilaičių seniūnija, Vilnius, Vilnius city municipality, Vilnius County, 12146, Lithuania"
    },
    {
      "lat": 54.732372288056446,
      "lon": 25.131158436729883,
      "geoinfo": {
        "display_name": "2, Augustai, Zujūnai Eldership, Vilniaus rajono savivaldybė, Vilnius County, 06292, Lithuania",
        "road": null,
        "house_number": "2",
        "neighbourhood": null,
        "suburb": null,
        "city_district": null,
        "city": "Augustai",
        "state": "Vilnius County",
        "postcode": "06292",
        "country": "Lithuania",
        "country_code": "lt"
      },
      "address": "2, Augustai, Zujūnai Eldership, Vilniaus rajono savivaldybė, Vilnius County, 06292, Lithuania"
    },
    {
      "lat": 54.683568381368914,
      "lon": 25.130819821912528,
      "geoinfo": {
        "display_name": "73, Upės g., Smigliai, Zujūnai Eldership, Vilniaus rajono savivaldybė, Vilnius County, 27129, Lithuania",
        "road": "Upės g.",
        "house_number": "73",
        "neighbourhood": null,
        "suburb": null,
        "city_district": null,
        "city": "Smigliai",
        "state": "Vilnius County",
        "postcode": "27129",
        "country": "Lithuania",
        "country_code": "lt"
      },
      "address": "73, Upės g., Smigliai, Zujūnai Eldership, Vilniaus rajono savivaldybė, Vilnius County, 27129, Lithuania"
    },
    {
      "lat": 54.706416038771856,
      "lon": 25.208354927163942,
      "geoinfo": {
        "display_name": "15, Mozūriškių g., Justiniškės, Justiniškių seniūnija, Vilnius, Vilnius city municipality, Vilnius County, 05214, Lithuania",
        "road": "Mozūriškių g.",
        "house_number": "15",
        "neighbourhood": null,
        "suburb": "Justiniškės",
        "city_district": null,
        "city": "Vilnius",
        "state": "Vilnius County",
        "postcode": "05214",
        "country": "Lithuania",
        "country_code": "lt"
      },
      "address": "15, Mozūriškių g., Justiniškės, Justiniškių seniūnija, Vilnius, Vilnius city municipality, Vilnius County, 05214, Lithuania"
    },
    {
      "lat": 54.72279502280122,
      "lon": 25.12886639242747,
      "geoinfo": {
        "display_name": "80, Medžiakalnio g., Papiškės, Zujūnai Eldership, Vilniaus rajono savivaldybė, Vilnius County, 14171, Lithuania",
        "road": "Medžiakalnio g.",
        "house_number": "80",
        "neighbourhood": null,
        "suburb": null,
        "city_district": null,
        "city": "Papiškės",
        "state": "Vilnius County",
        "postcode": "14171",
        "country": "Lithuania",
        "country_code": "lt"
      },
      "address": "80, Medžiakalnio g., Papiškės, Zujūnai Eldership, Vilniaus rajono savivaldybė, Vilnius County, 14171, Lithuania"
    },
    {
      "lat": 54.69549387254889,
      "lon": 25.135269588435428,
      "geoinfo": {
        "display_name": "Vienkiemių g., Pilaitės seniūnija, Vilnius, Zujūnai Eldership, Vilnius city municipality, Vilnius County, 06295, Lithuania",
        "road": "Vienkiemių g.",
        "house_number": null,
        "neighbourhood": null,
        "suburb": "Pilaitės seniūnija",
        "city_district": null,
        "city": "Vilnius",
        "state": "Vilnius County",
        "postcode": "06295",
        "country": "Lithuania",
        "country_code": "lt"
      },
      "address": "584, Vienkiemių g., Pilaitės seniūnija, Vilnius, Zujūnai Eldership, Vilnius city municipality, Vilnius County, 06295, Lithuania"
    },
    {
      "lat": 54.73383305554698,
      "lon": 25.218447215951777,
      "geoinfo": {
        "display_name": "2, Dociškių g., Perkūnkiemis, Pašilaičių seniūnija, Vilnius, Vilnius city municipality, Vilnius County, 06153, Lithuania",
        "road": "Dociškių g.",
        "house_number": "2",
        "neighbourhood": null,
        "suburb": "Pašilaičių seniūnija",
        "city_district": null,
        "city": "Vilnius",
        "state": "Vilnius County",
        "postcode": "06153",
        "country": "Lithuania",
        "country_code": "lt"
      },
      "address": "2, Dociškių g., Perkūnkiemis, Pašilaičių seniūnija, Vilnius, Vilnius city municipality, Vilnius County, 06153, Lithuania"
    },
    {
      "lat": 54.695125736967,
      "lon": 25.182143559763585,
      "geoinfo": {
        "display_name": "Pilaitės seniūnija, Raišiai, Zujūnai Eldership, Vilniaus rajono savivaldybė, Vilnius County, 14169, Lithuania",
        "road": null,
        "house_number": null,
        "neighbourhood": null,
        "suburb": "Pilaitės seniūnija",
        "city_district": null,
        "city": "Raišiai",
        "state": "Vilnius County",
        "postcode": "14169",
        "country": "Lithuania",
        "country_code": "lt"
      },
      "address": "435, Pilaitės seniūnija, Pilaitė, 14169 Vilnius County, Lithuania"
    },
    {
      "lat": 54.698381751429444,
      "lon": 25.112442701378445,
      "geoinfo": {
        "display_name": "89, Knygnešių g., Pilaitės seniūnija, Platiniškės, Zujūnai Eldership, Vilniaus rajono savivaldybė, Vilnius County, 14172, Lithuania",
        "road": "Knygnešių g.",
        "house_number": "89",
        "neighbourhood": null,
        "suburb": "Pilaitės seniūnija",
        "city_district": null,
        "city": "Platiniškės",
        "state": "Vilnius County",
        "postcode": "14172",
        "country": "Lithuania",
        "country_code": "lt"
      },
      "address": "89, Knygnešių g., Pilaitės seniūnija, Platiniškės, Zujūnai Eldership, Vilniaus rajono savivaldybė, Vilnius County, 14172, Lithuania"
    },
    {
      "lat": 54.709875808385654,
      "lon": 25.14136991200731,
      "geoinfo": {
        "display_name": "35, Palvininkų g., Pilaitės seniūnija, Vilnius, Zujūnai Eldership, Vilnius city municipality, Vilnius County, 06295, Lithuania",
        "road": "Palvininkų g.",
        "house_number": "35",
        "neighbourhood": null,
        "suburb": "Pilaitės seniūnija",
        "city_district": null,
        "city": "Vilnius",
        "state": "Vilnius County",
        "postcode": "06295",
        "country": "Lithuania",
        "country_code": "lt"
      },
      "address": "35, Palvininkų g., Pilaitės seniūnija, Vilnius, Zujūnai Eldership, Vilnius city municipality, Vilnius County, 06295, Lithuania"
    },
    {
      "lat": 54.720633144968616,
      "lon": 25.23163971299656,
      "geoinfo": {
        "display_name": "Vilniaus lopšelis-darželis „Saulėgrąža“, 31, Taikos g., Justiniškės, Justiniškių seniūnija, Vilnius, Vilnius city municipality, Vilnius County, 05261, Lithuania",
        "road": "Taikos g.",
        "house_number": "31",
        "neighbourhood": null,
        "suburb": "Justiniškės",
        "city_district": null,
        "city": "Vilnius",
        "state": "Vilnius County",
        "postcode": "05261",
        "country": "Lithuania",
        "country_code": "lt"
      },
      "address": "Vilniaus lopšelis-darželis „Saulėgrąža“, 31, Taikos g., Justiniškės, Justiniškių seniūnija, Vilnius, Vilnius city municipality, Vilnius County, 05261, Lithuania"
    },
    {
      "lat": 54.691623800242056,
      "lon": 25.228429074881465,
      "geoinfo": {
        "display_name": "Kalvų keterų takas, Karoliniškės, Karoliniškės eldership, Vilnius, Vilnius city municipality, Vilnius County, 04330, Lithuania",
        "road": "Kalvų keterų takas",
        "house_number": null,
        "neighbourhood": null,
        "suburb": "Karoliniškės",
        "city_district": null,
        "city": "Vilnius",
        "state": "Vilnius County",
        "postcode": "04330",
        "country": "Lithuania",
        "country_code": "lt"
      },
      "address": "212, Kalvų keterų takas, Karoliniškės, Karoliniškės eldership, Vilnius, Vilnius city municipality, Vilnius County, 04330, Lithuania"
    },
    {
      "lat": 54.71503168855001,
      "lon": 25.11160526407083,
      "geoinfo": {
        "display_name": "135, Adomo Mickevičiaus g., Platiniškės, Zujūnai Eldership, Vilniaus rajono savivaldybė, Vilnius County, 14171, Lithuania",
        "road": "Adomo Mickevičiaus g.",
        "house_number": "135",
        "neighbourhood": null,
        "suburb": null,
        "city_district": null,
        "city": "Platiniškės",
        "state": "Vilnius County",
        "postcode": "14171",
        "country": "Lithuania",
        "country_code": "lt"
      },
      "address": "135, Adomo Mickevičiaus g., Platiniškės, Zujūnai Eldership, Vilniaus rajono savivaldybė, Vilnius County, 14171, Lithuania"
    }
  ],
  "updated_at": "2025-10-19T05:37:25.375771+00:00",
  "_kind": "geo_samples"
}