{
  "country_code": "LT",
  "country": "Lithuania",
  "city": "Taurage",
  "geonameid": 593959,
  "target_addresses": 3,
  "samples": [
    {
      "lat": 55.262917265486244,
      "lon": 22.337632655690058,
      "geoinfo": {
        "display_name": "6, Ramybės g., Bernotiškė, Gaurės seniūnija, Tauragės rajono savivaldybė, Tauragė County, 72347, Lithuania",
        "road": "Ramybės g.",
        "house_number": "6",
        "neighbourhood": null,
        "suburb": null,
        "city_district": null,
        "city": "Bernotiškė",
        "state": "Tauragė County",
        "postcode": "72347",
        "country": "Lithuania",
        "country_code": "lt"
      },
      "address": "6 Ramybės g., Taurage, Tauragė County, Lithuania"
    },
    {
      "lat": 55.22083425507741,
      "lon": 22.238922704413554,
      "geoinfo": {
        "display_name": "1, Dvarelis, Tauragės seniūnija, Tauragės rajono savivaldybė, Tauragė County, 72133, Lithuania",
        "road": null,
        "house_number": "1",
        "neighbourhood": null,
        "suburb": null,
        "city_district": null,
        "city": "Dvarelis",
        "state": "Tauragė County",
        "postcode": "72133",
        "country": "Lithuania",
        "country_code": "lt"
      },
      "address": "Taurage, Tauragė County, Lithuania"
    },
    {
      "lat": 55.260200171137875,
      "lon": 22.2515927793264,
      "geoinfo": {
        "display_name": "4B, Jatkančių g., Jatkančiai, Tauragės seniūnija, Tauragės rajono savivaldybė, Tauragė County, 72105, Lithuania",
        "road": "Jatkančių g.",
        "house_number": "4B",
        "neighbourhood": null,
        "suburb": null,
        "city_district": null,
        "city": "Jatkančiai",
        "state": "Tauragė County",
        "postcode": "72105",
        "country": "Lithuania",
        "country_code": "lt"
      },
      "address": "4B Jatkančių g., Taurage, Tauragė County, Lithuania"
    },
    {
      "lat": 55.25855278265094,
      "lon": 22.330758234791297,
      "geoinfo": {
        "display_name": "1, Vienkiemio g., Joniškė, Tauragės seniūnija, Tauragės rajono savivaldybė, Tauragė County, 72346, Lithuania",
        "road": "Vienkiemio g.",
        "house_number": "1",
        "neighbourhood": null,
        "suburb": null,
        "city_district": null,
        "city": "Joniškė",
        "state": "Tauragė County",
        "postcode": "72346",
        "country": "Lithuania",
        "country_code": "lt"
      },
      "address": "1, Vienkiemio g., Taurage, 72346 Tauragė County, Lithuania"
    },
    {
      "lat": 55.26953397130795,
      "lon": 22.298222712824852,
      "geoinfo": {
        "display_name": "18, Dainos g., Šemetiškiai, Tauragė, Tauragės miesto seniūnija, Tauragės rajono savivaldybė, Tauragė County, 72188, Lithuania",
        "road": "Dainos g.",
        "house_number": "18",
        "neighbourhood": null,
        "suburb": "Šemetiškiai",
        "city_district": null,
        "city": "Tauragė",
        "state": "Tauragė County",
        "postcode": "72188",
        "country": "Lithuania",
        "country_code": "lt"
      },
      "address": "18, Dainos g., Taurage, 72188 Tauragė County, Lithuania"
    },
    {
      "lat": 55.22773906287837,
      "lon": 22.33616146509268,
      "geoinfo": {
        "display_name": "1A, Kraštinė, Tauragės seniūnija, Tauragės rajono savivaldybė, Tauragė County, 72358, Lithuania",
        "road": null,
        "house_number": "1A",
        "neighbourhood": null,
        "suburb": null,
        "city_district": null,
        "city": "Kraštinė",
        "state": "Tauragė County",
        "postcode": "72358",
        "country": "Lithuania",
        "country_code": "lt"
      },
      "address": "1A, Taurage, 72358 Tauragė County, Lithuania"
    }
  ],
  "updated_at": "2025-10-19T05:50:28.735394+00:00",
  "_kind": "geo_samples"
}