{
  "country_code": "LT",
  "country": "Lithuania",
  "city": "Telsiai",
  "geonameid": 593926,
  "target_addresses": 3,
  "samples": [
    {
      "lat": 55.99060816567147,
      "lon": 22.294622526171704,
      "geoinfo": {
        "display_name": "Tryškių g., Degaičiai, Degaičių seniūnija, Telšių rajono savivaldybė, Telšiai County, 88102, Lithuania",
        "road": "Tryškių g.",
        "house_number": null,
        "neighbourhood": null,
        "suburb": null,
        "city_district": null,
        "city": "Degaičiai",
        "state": "Telšiai County",
        "postcode": "88102",
        "country": "Lithuania",
        "country_code": "lt"
      },
      "address": "Tryškių g., Telsiai, Telšiai County, Lithuania"
    },
    {
      "lat": 55.95401226722418,
      "lon": 22.30084121729638,
      "geoinfo": {
        "display_name": "1A, Mastupio g., Rainiai, Viešvėnų seniūnija, Telšių rajono savivaldybė, Telšiai County, 88401, Lithuania",
        "road": "Mastupio g.",
        "house_number": "1A",
        "neighbourhood": null,
        "suburb": null,
        "city_district": null,
        "city": "Rainiai",
        "state": "Telšiai County",
        "postcode": "88401",
        "country": "Lithuania",
        "country_code": "lt"
      },
      "address": "1A Mastupio g., Telsiai, Telšiai County, Lithuania"
    },
    {
      "lat": 55.98196470504579,
      "lon": 22.283137102767963,
      "geoinfo": {
        "display_name": "Dimaičiai, Degaičių seniūnija, Telšių rajono savivaldybė, Telšiai County, 87125, Lithuania",
        "road": null,
        "house_number": null,
        "neighbourhood": null,
        "suburb": null,
        "city_district": null,
        "city": "Dimaičiai",
        "state": "Telšiai County",
        "postcode": "87125",
        "country": "Lithuania",
        "country_code": "lt"
      },
      "address": "Telsiai, Telšiai County, Lithuania"
    },
    {
      "lat": 55.987301947998176,
      "lon": 22.313866289526814,
      "geoinfo": {
        "display_name": "10, Tryškių g., Degaičiai, Degaičių seniūnija, Telšių rajono savivaldybė, Telšiai County, 88103, Lithuania",
        "road": "Tryškių g.",
        "house_number": "10",
        "neighbourhood": null,
        "suburb": null,
        "city_district": null,
        "city": "Degaičiai",
        "state": "Telšiai County",
        "postcode": "88103",
        "country": "Lithuania",
        "country_code": "lt"
      },
      "address": "10, Tryškių g., Telsiai, 88103 Telšiai County, Lithuania"
    },
    {
      "lat": 55.97784028028529,
      "lon": 22.252296353685484,
      "geoinfo": {
        "display_name": "16, Telšės g., Old Town, Telšiai, Telšių miesto seniūnija, Telšių rajono savivaldybė, Telšiai County, 87122, Lithuania",
        "road": "Telšės g.",
        "house_number": "16",
        "neighbourhood": null,
        "suburb": "Old Town",
        "city_district": null,
        "city": "Telšiai",
        "state": "Telšiai County",
        "postcode": "87122",
        "country": "Lithuania",
        "country_code": "lt"
      },
      "address": "16, Telšės g., Telsiai, 87122 Telšiai County, Lithuania"
    },
    {
      "lat": 56.006984484397584,
      "lon": 22.231482652397887,
      "geoinfo": {
        "display_name": "6, Subedžio g., Kalnėnai, Gadūnavo seniūnija, Telšių rajono savivaldybė, Telšiai County, 88437, Lithuania",
        "road": "Subedžio g.",
        "house_number": "6",
        "neighbourhood": null,
        "suburb": null,
        "city_district": null,
        "city": "Kalnėnai",
        "state": "Telšiai County",
        "postcode": "88437",
        "country": "Lithuania",
        "country_code": "lt"
      },
      "address": "6, Subedžio g., Telsiai, 88437 Telšiai County, Lithuania"
    }
  ],
  "updated_at": "2025-10-19T05:45:58.143356+00:00",
  "_kind": "geo_samples"
}