{
  "country_code": "LT",
  "country": "Lithuania",
  "city": "Utena",
  "geonameid": 593672,
  "target_addresses": 3,
  "samples": [
    {
      "lat": 55.521301507648225,
      "lon": 25.584233520831795,
      "geoinfo": {
        "display_name": "Palijoniškio g., Utenos nuotekų valymo įrenginiai, Dauniškis, Utena, Utenos miesto seniūnija, Utenos rajono savivaldybė, Utena County, 28180, Lithuania",
        "road": "Palijoniškio g.",
        "house_number": null,
        "neighbourhood": null,
        "suburb": "Dauniškis",
        "city_district": null,
        "city": "Utena",
        "state": "Utena County",
        "postcode": "28180",
        "country": "Lithuania",
        "country_code": "lt"
      },
      "address": "147, Palijoniškio g., Utenos nuotekų valymo įrenginiai, Dauniškis, Utena, Utenos miesto seniūnija, Utenos rajono savivaldybė, Utena County, 28180, Lithuania"
    },
    {
      "lat": 55.48695977900721,
      "lon": 25.566353542116612,
      "geoinfo": {
        "display_name": "62, Kovo 11-osios g., Šilinė, Utena, Utenos miesto seniūnija, Utenos rajono savivaldybė, Utena County, 28138, Lithuania",
        "road": "Kovo 11-osios g.",
        "house_number": "62",
        "neighbourhood": null,
        "suburb": "Šilinė",
        "city_district": null,
        "city": "Utena",
        "state": "Utena County",
        "postcode": "28138",
        "country": "Lithuania",
        "country_code": "lt"
      },
      "address": "62, Kovo 11-osios g., Šilinė, Utena, Utenos miesto seniūnija, Utenos rajono savivaldybė, Utena County, 28138, Lithuania"
    },
    {
      "lat": 55.47800455778847,
      "lon": 25.626608280275246,
      "geoinfo": {
        "display_name": "Užtvankos g., Nemeikščiai, Utenos seniūnija, Utenos rajono savivaldybė, Utena County, 28123, Lithuania",
        "road": "Užtvankos g.",
        "house_number": null,
        "neighbourhood": null,
        "suburb": null,
        "city_district": null,
        "city": "Nemeikščiai",
        "state": "Utena County",
        "postcode": "28123",
        "country": "Lithuania",
        "country_code": "lt"
      },
      "address": "143, Užtvankos g., Nemeikščiai, Utenos seniūnija, Utenos rajono savivaldybė, Utena County, 28123, Lithuania"
    }
  ],
  "updated_at": "2025-10-19T05:11:15.985224+00:00",
  "_kind": "geo_samples"
}