{
  "country_code": "GP",
  "country": "Guadeloupe",
  "city": "Basse-Terre",
  "geonameid": 3579732,
  "target_addresses": 10,
  "samples": [
    {
      "lat": 15.979794191816003,
      "lon": -61.72550509745724,
      "geoinfo": {
        "display_name": "Petit Paris, le Carmel, Basse-Terre, Guadeloupe, 97100, France",
        "road": null,
        "house_number": null,
        "neighbourhood": null,
        "suburb": null,
        "city_district": null,
        "city": "Basse-Terre",
        "state": "Guadeloupe",
        "postcode": "97100",
        "country": "France",
        "country_code": "fr"
      },
      "address": "024, Basse-Terre, 97100 Guadeloupe, Guadeloupe"
    },
    {
      "lat": 16.023274241148762,
      "lon": -61.76810745688816,
      "geoinfo": {
        "display_name": "Guadeloupe, France",
        "road": null,
        "house_number": null,
        "neighbourhood": null,
        "suburb": null,
        "city_district": null,
        "city": null,
        "state": "Guadeloupe",
        "postcode": null,
        "country": "France",
        "country_code": "fr"
      },
      "address": "784, Basse-Terre, 04187 Guadeloupe, Guadeloupe"
    },
    {
      "lat": 15.987538857996258,
      "lon": -61.73716981665362,
      "geoinfo": {
        "display_name": "Champ D'Arbaud, Circonvallation, Morne à Vaches, Basse-Terre, Guadeloupe, 97100, France",
        "road": null,
        "house_number": null,
        "neighbourhood": null,
        "suburb": null,
        "city_district": null,
        "city": "Basse-Terre",
        "state": "Guadeloupe",
        "postcode": "97100",
        "country": "France",
        "country_code": "fr"
      },
      "address": "205, Basse-Terre, 97100 Guadeloupe, Guadeloupe"
    },
    {
      "lat": 15.99554096709434,
      "lon": -61.75675532514294,
      "geoinfo": {
        "display_name": "Pintade, Basse-Terre, Guadeloupe, 97100, France",
        "road": null,
        "house_number": null,
        "neighbourhood": null,
        "suburb": null,
        "city_district": null,
        "city": "Basse-Terre",
        "state": "Guadeloupe",
        "postcode": "97100",
        "country": "France",
        "country_code": "fr"
      },
      "address": "475, Basse-Terre, 97100 Guadeloupe, Guadeloupe"
    },
    {
      "lat": 15.971627384769748,
      "lon": -61.70337722195262,
      "geoinfo": {
        "display_name": "Sentier du Houëlmont, Bisdary, Riviere-Sens, Gourbeyre, Basse-Terre, Guadeloupe, 97113, France",
        "road": "Sentier du Houëlmont",
        "house_number": null,
        "neighbourhood": null,
        "suburb": null,
        "city_district": null,
        "city": "Gourbeyre",
        "state": "Guadeloupe",
        "postcode": "97113",
        "country": "France",
        "country_code": "fr"
      },
      "address": "289, Sentier du Houëlmont, Basse-Terre, 97113 Guadeloupe, Guadeloupe"
    },
    {
      "lat": 15.969762380365996,
      "lon": -61.72600796416777,
      "geoinfo": {
        "display_name": "Turlet, Gourbeyre, Basse-Terre, Guadeloupe, 97113, France",
        "road": null,
        "house_number": null,
        "neighbourhood": null,
        "suburb": null,
        "city_district": null,
        "city": "Gourbeyre",
        "state": "Guadeloupe",
        "postcode": "97113",
        "country": "France",
        "country_code": "fr"
      },
      "address": "127, Basse-Terre, 97113 Guadeloupe, Guadeloupe"
    },
    {
      "lat": 15.982688848564294,
      "lon": -61.755502487646204,
      "geoinfo": {
        "display_name": "Riviere-Sens, Gourbeyre, Basse-Terre, Guadeloupe, 97113, France",
        "road": null,
        "house_number": null,
        "neighbourhood": null,
        "suburb": null,
        "city_district": null,
        "city": "Gourbeyre",
        "state": "Guadeloupe",
        "postcode": "97113",
        "country": "France",
        "country_code": "fr"
      },
      "address": "714, Basse-Terre, 97113 Guadeloupe, Guadeloupe"
    },
    {
      "lat": 16.00435045297252,
      "lon": -61.69911555749147,
      "geoinfo": {
        "display_name": "Rue Ponteves d'Amirat, Saint-Claude, Basse-Terre, Guadeloupe, 97120, France",
        "road": "Rue Ponteves d'Amirat",
        "house_number": null,
        "neighbourhood": null,
        "suburb": null,
        "city_district": null,
        "city": "Saint-Claude",
        "state": "Guadeloupe",
        "postcode": "97120",
        "country": "France",
        "country_code": "fr"
      },
      "address": "844, Rue Ponteves d'Amirat, Basse-Terre, 97120 Guadeloupe, Guadeloupe"
    },
    {
      "lat": 15.957445970370348,
      "lon": -61.71074579212839,
      "geoinfo": {
        "display_name": "Rue de la Petite Fontaine, Vieux-Fort, Basse-Terre, Guadeloupe, 97141, France",
        "road": "Rue de la Petite Fontaine",
        "house_number": null,
        "neighbourhood": null,
        "suburb": null,
        "city_district": null,
        "city": "Vieux-Fort",
        "state": "Guadeloupe",
        "postcode": "97141",
        "country": "France",
        "country_code": "fr"
      },
      "address": "716, Rue de la Petite Fontaine, Basse-Terre, 97141 Guadeloupe, Guadeloupe"
    },
    {
      "lat": 15.992975844802386,
      "lon": -61.709795926659815,
      "geoinfo": {
        "display_name": "Groupe scolaire Euloge Noglotte, Rue Euloge Noglotte, Blanchet, Riviere-Sens, Gourbeyre, Basse-Terre, Guadeloupe, 97113, France",
        "road": "Rue Euloge Noglotte",
        "house_number": null,
        "neighbourhood": null,
        "suburb": null,
        "city_district": null,
        "city": "Gourbeyre",
        "state": "Guadeloupe",
        "postcode": "97113",
        "country": "France",
        "country_code": "fr"
      },
      "address": "406, Rue Euloge Noglotte, Basse-Terre, 97113 Guadeloupe, Guadeloupe"
    }
  ],
  "updated_at": "2025-10-19T04:05:55.913258+00:00",
  "_kind": "geo_samples"
}