{
  "country_code": "GP",
  "country": "Guadeloupe",
  "city": "Capesterre-Belle-Eau",
  "geonameid": 3579585,
  "target_addresses": 10,
  "samples": [
    {
      "lat": 16.061242436701015,
      "lon": -61.59496088071682,
      "geoinfo": {
        "display_name": "Rue du Bois Brulé, Îlet Pérou, Capesterre-Belle-Eau, Basse-Terre, Guadeloupe, 97130, France",
        "road": "Rue du Bois Brulé",
        "house_number": null,
        "neighbourhood": null,
        "suburb": null,
        "city_district": null,
        "city": "Capesterre-Belle-Eau",
        "state": "Guadeloupe",
        "postcode": "97130",
        "country": "France",
        "country_code": "fr"
      },
      "address": "Rue du Bois Brulé, Capesterre-Belle-Eau, Guadeloupe, Guadeloupe"
    },
    {
      "lat": 16.074188716166745,
      "lon": -61.55528548478165,
      "geoinfo": {
        "display_name": "Rue de Doyon, Doyon, Capesterre-Belle-Eau, Basse-Terre, Guadeloupe, 97130, France",
        "road": "Rue de Doyon",
        "house_number": null,
        "neighbourhood": null,
        "suburb": null,
        "city_district": null,
        "city": "Capesterre-Belle-Eau",
        "state": "Guadeloupe",
        "postcode": "97130",
        "country": "France",
        "country_code": "fr"
      },
      "address": "Rue de Doyon, Capesterre-Belle-Eau, Guadeloupe, Guadeloupe"
    },
    {
      "lat": 16.034193471639398,
      "lon": -61.56586277001141,
      "geoinfo": {
        "display_name": "Rue Bacadère, Capesterre-Belle-Eau, Marquisat, Capesterre-Belle-Eau, Basse-Terre, Guadeloupe, 97130, France",
        "road": "Rue Bacadère",
        "house_number": null,
        "neighbourhood": null,
        "suburb": "Marquisat",
        "city_district": null,
        "city": "Capesterre-Belle-Eau",
        "state": "Guadeloupe",
        "postcode": "97130",
        "country": "France",
        "country_code": "fr"
      },
      "address": "Rue Bacadère, Capesterre-Belle-Eau, Guadeloupe, Guadeloupe"
    },
    {
      "lat": 16.056213763265802,
      "lon": -61.5453540607873,
      "geoinfo": {
        "display_name": "Pointe de la Capesterre, Sarlassone, Capesterre-Belle-Eau, Basse-Terre, Guadeloupe, 97130, France",
        "road": null,
        "house_number": null,
        "neighbourhood": null,
        "suburb": null,
        "city_district": null,
        "city": "Capesterre-Belle-Eau",
        "state": "Guadeloupe",
        "postcode": "97130",
        "country": "France",
        "country_code": "fr"
      },
      "address": "Capesterre-Belle-Eau, Guadeloupe, Guadeloupe"
    },
    {
      "lat": 16.020925296262472,
      "lon": -61.54045678591957,
      "geoinfo": {
        "display_name": "Marquisat, Capesterre-Belle-Eau, Basse-Terre, Guadeloupe, 97130, France",
        "road": null,
        "house_number": null,
        "neighbourhood": null,
        "suburb": "Marquisat",
        "city_district": null,
        "city": "Capesterre-Belle-Eau",
        "state": "Guadeloupe",
        "postcode": "97130",
        "country": "France",
        "country_code": "fr"
      },
      "address": "Marquisat, Capesterre-Belle-Eau, Guadeloupe, Guadeloupe"
    },
    {
      "lat": 16.054227173816525,
      "lon": -61.59135512072835,
      "geoinfo": {
        "display_name": "Rue des Concessions, Fromager, Cacador, Capesterre-Belle-Eau, Basse-Terre, Guadeloupe, 97130, France",
        "road": "Rue des Concessions",
        "house_number": null,
        "neighbourhood": null,
        "suburb": null,
        "city_district": null,
        "city": "Capesterre-Belle-Eau",
        "state": "Guadeloupe",
        "postcode": "97130",
        "country": "France",
        "country_code": "fr"
      },
      "address": "Rue des Concessions, Capesterre-Belle-Eau, Guadeloupe, Guadeloupe"
    },
    {
      "lat": 16.079588842286224,
      "lon": -61.5714536040928,
      "geoinfo": {
        "display_name": "Rue de Carangaise, Caranguaise, Capesterre-Belle-Eau, Basse-Terre, Guadeloupe, 97130, France",
        "road": "Rue de Carangaise",
        "house_number": null,
        "neighbourhood": null,
        "suburb": null,
        "city_district": null,
        "city": "Capesterre-Belle-Eau",
        "state": "Guadeloupe",
        "postcode": "97130",
        "country": "France",
        "country_code": "fr"
      },
      "address": "Rue de Carangaise, Capesterre-Belle-Eau, Guadeloupe, Guadeloupe"
    },
    {
      "lat": 16.031720122330235,
      "lon": -61.57881972539604,
      "geoinfo": {
        "display_name": "Rue du Moulin à Eau, Moulin à Eau, Marquisat, Capesterre-Belle-Eau, Basse-Terre, Guadeloupe, 97130, France",
        "road": "Rue du Moulin à Eau",
        "house_number": null,
        "neighbourhood": null,
        "suburb": "Marquisat",
        "city_district": null,
        "city": "Capesterre-Belle-Eau",
        "state": "Guadeloupe",
        "postcode": "97130",
        "country": "France",
        "country_code": "fr"
      },
      "address": "Rue du Moulin à Eau, Capesterre-Belle-Eau, Guadeloupe, Guadeloupe"
    },
    {
      "lat": 16.074988301420476,
      "lon": -61.5909692932377,
      "geoinfo": {
        "display_name": "Rue de Moravie, Cambrefort, Capesterre-Belle-Eau, Basse-Terre, Guadeloupe, 97130, France",
        "road": "Rue de Moravie",
        "house_number": null,
        "neighbourhood": null,
        "suburb": null,
        "city_district": null,
        "city": "Capesterre-Belle-Eau",
        "state": "Guadeloupe",
        "postcode": "97130",
        "country": "France",
        "country_code": "fr"
      },
      "address": "Rue de Moravie, Capesterre-Belle-Eau, Guadeloupe, Guadeloupe"
    },
    {
      "lat": 16.026065460722073,
      "lon": -61.58697953526973,
      "geoinfo": {
        "display_name": "Habitation Bois Debout, Rue Nouvelle Cité, Fonds Cacao, Marquisat, Capesterre-Belle-Eau, Basse-Terre, Guadeloupe, 97130, France",
        "road": "Rue Nouvelle Cité",
        "house_number": null,
        "neighbourhood": null,
        "suburb": "Marquisat",
        "city_district": null,
        "city": "Capesterre-Belle-Eau",
        "state": "Guadeloupe",
        "postcode": "97130",
        "country": "France",
        "country_code": "fr"
      },
      "address": "Rue Nouvelle Cité, Capesterre-Belle-Eau, Guadeloupe, Guadeloupe"
    },
    {
      "lat": 16.017396637842797,
      "lon": -61.594380645824586,
      "geoinfo": {
        "display_name": "Capesterre-Belle-Eau, Basse-Terre, Guadeloupe, 97130, France",
        "road": null,
        "house_number": null,
        "neighbourhood": null,
        "suburb": null,
        "city_district": null,
        "city": "Capesterre-Belle-Eau",
        "state": "Guadeloupe",
        "postcode": "97130",
        "country": "France",
        "country_code": "fr"
      },
      "address": "860, Capesterre-Belle-Eau, 97130 Guadeloupe, Guadeloupe"
    },
    {
      "lat": 16.074394865392268,
      "lon": -61.52905954944896,
      "geoinfo": {
        "display_name": "Guadeloupe, France",
        "road": null,
        "house_number": null,
        "neighbourhood": null,
        "suburb": null,
        "city_district": null,
        "city": null,
        "state": "Guadeloupe",
        "postcode": null,
        "country": "France",
        "country_code": "fr"
      },
      "address": "292, Capesterre-Belle-Eau, 43234 Guadeloupe, Guadeloupe"
    },
    {
      "lat": 16.07364474422749,
      "lon": -61.59889132065228,
      "geoinfo": {
        "display_name": "Rue de Moravie, Cambrefort, Capesterre-Belle-Eau, Basse-Terre, Guadeloupe, 97130, France",
        "road": "Rue de Moravie",
        "house_number": null,
        "neighbourhood": null,
        "suburb": null,
        "city_district": null,
        "city": "Capesterre-Belle-Eau",
        "state": "Guadeloupe",
        "postcode": "97130",
        "country": "France",
        "country_code": "fr"
      },
      "address": "809, Rue de Moravie, Capesterre-Belle-Eau, 97130 Guadeloupe, Guadeloupe"
    },
    {
      "lat": 16.086080723735087,
      "lon": -61.55859789244477,
      "geoinfo": {
        "display_name": "Poirier, Capesterre-Belle-Eau, Basse-Terre, Guadeloupe, 97130, France",
        "road": null,
        "house_number": null,
        "neighbourhood": null,
        "suburb": null,
        "city_district": null,
        "city": "Capesterre-Belle-Eau",
        "state": "Guadeloupe",
        "postcode": "97130",
        "country": "France",
        "country_code": "fr"
      },
      "address": "215, Capesterre-Belle-Eau, 97130 Guadeloupe, Guadeloupe"
    },
    {
      "lat": 16.081200622579455,
      "lon": -61.57286256124201,
      "geoinfo": {
        "display_name": "Rue de Carangaise, Caranguaise, Capesterre-Belle-Eau, Basse-Terre, Guadeloupe, 97130, France",
        "road": "Rue de Carangaise",
        "house_number": null,
        "neighbourhood": null,
        "suburb": null,
        "city_district": null,
        "city": "Capesterre-Belle-Eau",
        "state": "Guadeloupe",
        "postcode": "97130",
        "country": "France",
        "country_code": "fr"
      },
      "address": "737, Rue de Carangaise, Capesterre-Belle-Eau, 97130 Guadeloupe, Guadeloupe"
    },
    {
      "lat": 16.02362327012016,
      "lon": -61.5429928414051,
      "geoinfo": {
        "display_name": "Marquisat, Capesterre-Belle-Eau, Basse-Terre, Guadeloupe, 97130, France",
        "road": null,
        "house_number": null,
        "neighbourhood": null,
        "suburb": "Marquisat",
        "city_district": null,
        "city": "Capesterre-Belle-Eau",
        "state": "Guadeloupe",
        "postcode": "97130",
        "country": "France",
        "country_code": "fr"
      },
      "address": "959, Marquisat, Capesterre-Belle-Eau, 97130 Guadeloupe, Guadeloupe"
    },
    {
      "lat": 16.02725182817708,
      "lon": -61.52644877979921,
      "geoinfo": {
        "display_name": "Guadeloupe, France",
        "road": null,
        "house_number": null,
        "neighbourhood": null,
        "suburb": null,
        "city_district": null,
        "city": null,
        "state": "Guadeloupe",
        "postcode": null,
        "country": "France",
        "country_code": "fr"
      },
      "address": "184, Capesterre-Belle-Eau, 11821 Guadeloupe, Guadeloupe"
    },
    {
      "lat": 16.03908993168497,
      "lon": -61.57061080871539,
      "geoinfo": {
        "display_name": "Rue Lacaze Pouncou, Capesterre-Belle-Eau, Marquisat, Capesterre-Belle-Eau, Basse-Terre, Guadeloupe, 97130, France",
        "road": "Rue Lacaze Pouncou",
        "house_number": null,
        "neighbourhood": null,
        "suburb": "Marquisat",
        "city_district": null,
        "city": "Capesterre-Belle-Eau",
        "state": "Guadeloupe",
        "postcode": "97130",
        "country": "France",
        "country_code": "fr"
      },
      "address": "919, Rue Lacaze Pouncou, Capesterre-Belle-Eau, 97130 Guadeloupe, Guadeloupe"
    },
    {
      "lat": 16.03067481732629,
      "lon": -61.59308261888001,
      "geoinfo": {
        "display_name": "Rue Maxime Navy, Fonds Cacao, Routhiers, Capesterre-Belle-Eau, Basse-Terre, Guadeloupe, 97130, France",
        "road": "Rue Maxime Navy",
        "house_number": null,
        "neighbourhood": null,
        "suburb": null,
        "city_district": null,
        "city": "Capesterre-Belle-Eau",
        "state": "Guadeloupe",
        "postcode": "97130",
        "country": "France",
        "country_code": "fr"
      },
      "address": "465, Rue Maxime Navy, Capesterre-Belle-Eau, 97130 Guadeloupe, Guadeloupe"
    },
    {
      "lat": 16.065724113676577,
      "lon": -61.577213782142465,
      "geoinfo": {
        "display_name": "Cambrefort, Capesterre-Belle-Eau, Basse-Terre, Guadeloupe, 97130, France",
        "road": null,
        "house_number": null,
        "neighbourhood": null,
        "suburb": null,
        "city_district": null,
        "city": "Capesterre-Belle-Eau",
        "state": "Guadeloupe",
        "postcode": "97130",
        "country": "France",
        "country_code": "fr"
      },
      "address": "572, Capesterre-Belle-Eau, 97130 Guadeloupe, Guadeloupe"
    }
  ],
  "updated_at": "2025-10-19T04:36:53.101606+00:00",
  "_kind": "geo_samples"
}