{
  "country_code": "GP",
  "country": "Guadeloupe",
  "city": "Pointe-à-Pitre",
  "geonameid": 3578599,
  "target_addresses": 10,
  "samples": [
    {
      "lat": 16.213222750143075,
      "lon": -61.54856586066617,
      "geoinfo": {
        "display_name": "Pointe-à-Pitre, Guadeloupe, 97110, France",
        "road": null,
        "house_number": null,
        "neighbourhood": null,
        "suburb": null,
        "city_district": null,
        "city": "Pointe-à-Pitre",
        "state": "Guadeloupe",
        "postcode": "97110",
        "country": "France",
        "country_code": "fr"
      },
      "address": "Pointe-à-Pitre, Guadeloupe, Guadeloupe"
    },
    {
      "lat": 16.236705894912642,
      "lon": -61.53361873745518,
      "geoinfo": {
        "display_name": "Rue Lethiere, Centre-Ville, Pointe-à-Pitre, Guadeloupe, 97110, France",
        "road": "Rue Lethiere",
        "house_number": null,
        "neighbourhood": null,
        "suburb": "Centre-Ville",
        "city_district": null,
        "city": "Pointe-à-Pitre",
        "state": "Guadeloupe",
        "postcode": "97110",
        "country": "France",
        "country_code": "fr"
      },
      "address": "Rue Lethiere, Pointe-à-Pitre, Guadeloupe, Guadeloupe"
    },
    {
      "lat": 16.260042755455896,
      "lon": -61.57070255649371,
      "geoinfo": {
        "display_name": "Route de l'Alliance, Fond Sarrail, Baie-Mahault, Basse-Terre, Guadeloupe, 97122, France",
        "road": "Route de l'Alliance",
        "house_number": null,
        "neighbourhood": null,
        "suburb": null,
        "city_district": null,
        "city": "Baie-Mahault",
        "state": "Guadeloupe",
        "postcode": "97122",
        "country": "France",
        "country_code": "fr"
      },
      "address": "Route de l'Alliance, Pointe-à-Pitre, Guadeloupe, Guadeloupe"
    },
    {
      "lat": 16.271226764876147,
      "lon": -61.52630704819878,
      "geoinfo": {
        "display_name": "Départs, Les Abymes, Pointe-à-Pitre, Guadeloupe, 97139, France",
        "road": "Départs",
        "house_number": null,
        "neighbourhood": null,
        "suburb": null,
        "city_district": null,
        "city": "Les Abymes",
        "state": "Guadeloupe",
        "postcode": "97139",
        "country": "France",
        "country_code": "fr"
      },
      "address": "Départs, Pointe-à-Pitre, Guadeloupe, Guadeloupe"
    },
    {
      "lat": 16.23057336049499,
      "lon": -61.52063843974398,
      "geoinfo": {
        "display_name": "Rue Thimoté Gendrey, Chauffours, Les Abymes, Pointe-à-Pitre, Guadeloupe, 97157, France",
        "road": "Rue Thimoté Gendrey",
        "house_number": null,
        "neighbourhood": null,
        "suburb": null,
        "city_district": null,
        "city": "Les Abymes",
        "state": "Guadeloupe",
        "postcode": "97157",
        "country": "France",
        "country_code": "fr"
      },
      "address": "Rue Thimoté Gendrey, Pointe-à-Pitre, Guadeloupe, Guadeloupe"
    },
    {
      "lat": 16.204088494225502,
      "lon": -61.50928228943797,
      "geoinfo": {
        "display_name": "Route des Hôtels, Montauban, Le Gosier, Pointe-à-Pitre, Guadeloupe, 97190, France",
        "road": "Route des Hôtels",
        "house_number": null,
        "neighbourhood": null,
        "suburb": null,
        "city_district": null,
        "city": "Le Gosier",
        "state": "Guadeloupe",
        "postcode": "97190",
        "country": "France",
        "country_code": "fr"
      },
      "address": "Route des Hôtels, Pointe-à-Pitre, Guadeloupe, Guadeloupe"
    },
    {
      "lat": 16.252296255136105,
      "lon": -61.53338342914559,
      "geoinfo": {
        "display_name": "Boulevard de la Concorde, Cour Capou, Les Abymes, Pointe-à-Pitre, Guadeloupe, 97183, France",
        "road": "Boulevard de la Concorde",
        "house_number": null,
        "neighbourhood": "Cour Capou",
        "suburb": null,
        "city_district": null,
        "city": "Les Abymes",
        "state": "Guadeloupe",
        "postcode": "97183",
        "country": "France",
        "country_code": "fr"
      },
      "address": "Boulevard de la Concorde, Pointe-à-Pitre, Guadeloupe, Guadeloupe"
    },
    {
      "lat": 16.227438757596417,
      "lon": -61.5609599483015,
      "geoinfo": {
        "display_name": "Rue de la Chapelle, Zone Industrielle et Commerciale de Houëlbourg-Jarry, Baie-Mahault, Basse-Terre, Guadeloupe, 97122, France",
        "road": "Rue de la Chapelle",
        "house_number": null,
        "neighbourhood": null,
        "suburb": null,
        "city_district": null,
        "city": "Baie-Mahault",
        "state": "Guadeloupe",
        "postcode": "97122",
        "country": "France",
        "country_code": "fr"
      },
      "address": "Rue de la Chapelle, Pointe-à-Pitre, Guadeloupe, Guadeloupe"
    },
    {
      "lat": 16.24491968680226,
      "lon": -61.50565878983911,
      "geoinfo": {
        "display_name": "Rue Bazile Calixte, Les Abymes, Pointe-à-Pitre, Guadeloupe, 97101, France",
        "road": "Rue Bazile Calixte",
        "house_number": null,
        "neighbourhood": null,
        "suburb": null,
        "city_district": null,
        "city": "Les Abymes",
        "state": "Guadeloupe",
        "postcode": "97101",
        "country": "France",
        "country_code": "fr"
      },
      "address": "Rue Bazile Calixte, Pointe-à-Pitre, Guadeloupe, Guadeloupe"
    },
    {
      "lat": 16.214454642692633,
      "lon": -61.546055947631935,
      "geoinfo": {
        "display_name": "Chapelle, Rue du Fort l'Union, la Marina, Pointe-à-Pitre, Guadeloupe, 97110, France",
        "road": "Rue du Fort l'Union",
        "house_number": null,
        "neighbourhood": null,
        "suburb": null,
        "city_district": null,
        "city": "Pointe-à-Pitre",
        "state": "Guadeloupe",
        "postcode": "97110",
        "country": "France",
        "country_code": "fr"
      },
      "address": "Rue du Fort l'Union, Pointe-à-Pitre, Guadeloupe, Guadeloupe"
    },
    {
      "lat": 16.21576551664839,
      "lon": -61.54343436484621,
      "geoinfo": {
        "display_name": "Rue du Fort l'Union, la Marina, Pointe-à-Pitre, Guadeloupe, 97110, France",
        "road": "Rue du Fort l'Union",
        "house_number": null,
        "neighbourhood": null,
        "suburb": null,
        "city_district": null,
        "city": "Pointe-à-Pitre",
        "state": "Guadeloupe",
        "postcode": "97110",
        "country": "France",
        "country_code": "fr"
      },
      "address": "397, Rue du Fort l'Union, Pointe-à-Pitre, 97110 Guadeloupe, Guadeloupe"
    },
    {
      "lat": 16.21981527184421,
      "lon": -61.505957906365715,
      "geoinfo": {
        "display_name": "Route de Mathurin, Poucet, Le Gosier, Pointe-à-Pitre, Guadeloupe, 97190, France",
        "road": "Route de Mathurin",
        "house_number": null,
        "neighbourhood": null,
        "suburb": null,
        "city_district": null,
        "city": "Le Gosier",
        "state": "Guadeloupe",
        "postcode": "97190",
        "country": "France",
        "country_code": "fr"
      },
      "address": "482, Route de Mathurin, Pointe-à-Pitre, 97190 Guadeloupe, Guadeloupe"
    },
    {
      "lat": 16.22564671894557,
      "lon": -61.575715230393136,
      "geoinfo": {
        "display_name": "Arnouville, Petit-Bourg, Basse-Terre, Guadeloupe, 97170, France",
        "road": null,
        "house_number": null,
        "neighbourhood": null,
        "suburb": null,
        "city_district": null,
        "city": "Petit-Bourg",
        "state": "Guadeloupe",
        "postcode": "97170",
        "country": "France",
        "country_code": "fr"
      },
      "address": "549, Pointe-à-Pitre, 97170 Guadeloupe, Guadeloupe"
    },
    {
      "lat": 16.242304112538637,
      "lon": -61.510552095642,
      "geoinfo": {
        "display_name": "Les Abymes, Pointe-à-Pitre, Guadeloupe, 97101, France",
        "road": null,
        "house_number": null,
        "neighbourhood": null,
        "suburb": null,
        "city_district": null,
        "city": "Les Abymes",
        "state": "Guadeloupe",
        "postcode": "97101",
        "country": "France",
        "country_code": "fr"
      },
      "address": "293, Pointe-à-Pitre, 97101 Guadeloupe, Guadeloupe"
    },
    {
      "lat": 16.255233384309395,
      "lon": -61.51151997244338,
      "geoinfo": {
        "display_name": "Rue des Lataniers, Petit-Pérou, Les Abymes, Pointe-à-Pitre, Guadeloupe, 97139, France",
        "road": "Rue des Lataniers",
        "house_number": null,
        "neighbourhood": null,
        "suburb": null,
        "city_district": null,
        "city": "Les Abymes",
        "state": "Guadeloupe",
        "postcode": "97139",
        "country": "France",
        "country_code": "fr"
      },
      "address": "143, Rue des Lataniers, Pointe-à-Pitre, 97139 Guadeloupe, Guadeloupe"
    },
    {
      "lat": 16.242412512189727,
      "lon": -61.55511506704781,
      "geoinfo": {
        "display_name": "Zone Industrielle et Commerciale de Houëlbourg-Jarry, Baie-Mahault, Basse-Terre, Guadeloupe, 97122, France",
        "road": null,
        "house_number": null,
        "neighbourhood": null,
        "suburb": null,
        "city_district": null,
        "city": "Baie-Mahault",
        "state": "Guadeloupe",
        "postcode": "97122",
        "country": "France",
        "country_code": "fr"
      },
      "address": "221, Pointe-à-Pitre, 97122 Guadeloupe, Guadeloupe"
    },
    {
      "lat": 16.2048949294159,
      "lon": -61.50400020313886,
      "geoinfo": {
        "display_name": "Station balnéaire Pointe de la Verdure, Impasse des Hôtels, Montauban, Le Gosier, Pointe-à-Pitre, Guadeloupe, 97190, France",
        "road": "Impasse des Hôtels",
        "house_number": null,
        "neighbourhood": null,
        "suburb": null,
        "city_district": null,
        "city": "Le Gosier",
        "state": "Guadeloupe",
        "postcode": "97190",
        "country": "France",
        "country_code": "fr"
      },
      "address": "043, Impasse des Hôtels, Pointe-à-Pitre, 97190 Guadeloupe, Guadeloupe"
    },
    {
      "lat": 16.20960421834513,
      "lon": -61.55491187163726,
      "geoinfo": {
        "display_name": "Pointe-à-Pitre, Guadeloupe, 97110, France",
        "road": null,
        "house_number": null,
        "neighbourhood": null,
        "suburb": null,
        "city_district": null,
        "city": "Pointe-à-Pitre",
        "state": "Guadeloupe",
        "postcode": "97110",
        "country": "France",
        "country_code": "fr"
      },
      "address": "545, Pointe-à-Pitre, 97110 Guadeloupe, Guadeloupe"
    },
    {
      "lat": 16.272451863046587,
      "lon": -61.551152923392266,
      "geoinfo": {
        "display_name": "Baie-Mahault, Basse-Terre, Guadeloupe, 97122, France",
        "road": null,
        "house_number": null,
        "neighbourhood": null,
        "suburb": null,
        "city_district": null,
        "city": "Baie-Mahault",
        "state": "Guadeloupe",
        "postcode": "97122",
        "country": "France",
        "country_code": "fr"
      },
      "address": "778, Pointe-à-Pitre, 97122 Guadeloupe, Guadeloupe"
    },
    {
      "lat": 16.267556884255487,
      "lon": -61.52750602772499,
      "geoinfo": {
        "display_name": "Pointe-à-Pitre International Airport, Rue Sylvere Fifi, Parc d’activités La Providence, Dothémare, Les Abymes, Pointe-à-Pitre, Guadeloupe, 97139, France",
        "road": "Rue Sylvere Fifi",
        "house_number": null,
        "neighbourhood": null,
        "suburb": null,
        "city_district": null,
        "city": "Les Abymes",
        "state": "Guadeloupe",
        "postcode": "97139",
        "country": "France",
        "country_code": "fr"
      },
      "address": "345, Rue Sylvere Fifi, Pointe-à-Pitre, 97139 Guadeloupe, Guadeloupe"
    }
  ],
  "updated_at": "2025-10-19T04:33:40.806276+00:00",
  "_kind": "geo_samples"
}