{
  "country_code": "GP",
  "country": "Guadeloupe",
  "city": "Sainte-Rose",
  "geonameid": 3578447,
  "target_addresses": 10,
  "samples": [
    {
      "lat": 16.29560845130778,
      "lon": -61.679237847632784,
      "geoinfo": {
        "display_name": "Belle Plaine, la Boucan, Sainte-Rose, Basse-Terre, Guadeloupe, 97115, France",
        "road": null,
        "house_number": null,
        "neighbourhood": null,
        "suburb": null,
        "city_district": null,
        "city": "Sainte-Rose",
        "state": "Guadeloupe",
        "postcode": "97115",
        "country": "France",
        "country_code": "fr"
      },
      "address": "Sainte-Rose, Guadeloupe, Guadeloupe"
    },
    {
      "lat": 16.34161495457879,
      "lon": -61.67508059557866,
      "geoinfo": {
        "display_name": "Cité Charles Gabriel, Sainte-Rose, Basse-Terre, Guadeloupe, 97115, France",
        "road": null,
        "house_number": null,
        "neighbourhood": "Cité Charles Gabriel",
        "suburb": null,
        "city_district": null,
        "city": "Sainte-Rose",
        "state": "Guadeloupe",
        "postcode": "97115",
        "country": "France",
        "country_code": "fr"
      },
      "address": "Cité Charles Gabriel, Sainte-Rose, Guadeloupe, Guadeloupe"
    },
    {
      "lat": 16.33643532040328,
      "lon": -61.69787690122459,
      "geoinfo": {
        "display_name": "Boulevard Saint-Charles, Sainte-Rose, Basse-Terre, Guadeloupe, 97115, France",
        "road": "Boulevard Saint-Charles",
        "house_number": null,
        "neighbourhood": null,
        "suburb": null,
        "city_district": null,
        "city": "Sainte-Rose",
        "state": "Guadeloupe",
        "postcode": "97115",
        "country": "France",
        "country_code": "fr"
      },
      "address": "Boulevard Saint-Charles, Sainte-Rose, Guadeloupe, Guadeloupe"
    },
    {
      "lat": 16.313211677207082,
      "lon": -61.68594728549099,
      "geoinfo": {
        "display_name": "Distillerie Reimonenq (Musée du Rhum), Chemin de Bellevue, Sainte-Rose, Saint Val, Sainte-Rose, Basse-Terre, Guadeloupe, 97115, France",
        "road": "Chemin de Bellevue",
        "house_number": null,
        "neighbourhood": null,
        "suburb": null,
        "city_district": null,
        "city": "Sainte-Rose",
        "state": "Guadeloupe",
        "postcode": "97115",
        "country": "France",
        "country_code": "fr"
      },
      "address": "Chemin de Bellevue, Sainte-Rose, Guadeloupe, Guadeloupe"
    },
    {
      "lat": 16.35212605348279,
      "lon": -61.720460001493976,
      "geoinfo": {
        "display_name": "N 2, Vinty, Sainte-Rose, Basse-Terre, Guadeloupe, 97115, France",
        "road": "N 2",
        "house_number": null,
        "neighbourhood": null,
        "suburb": null,
        "city_district": null,
        "city": "Sainte-Rose",
        "state": "Guadeloupe",
        "postcode": "97115",
        "country": "France",
        "country_code": "fr"
      },
      "address": "N 2, Sainte-Rose, Guadeloupe, Guadeloupe"
    },
    {
      "lat": 16.32370751017948,
      "lon": -61.74195688317337,
      "geoinfo": {
        "display_name": "Trace des Alizés Nord, Sainte-Rose, Basse-Terre, Guadeloupe, 97115, France",
        "road": "Trace des Alizés Nord",
        "house_number": null,
        "neighbourhood": null,
        "suburb": null,
        "city_district": null,
        "city": "Sainte-Rose",
        "state": "Guadeloupe",
        "postcode": "97115",
        "country": "France",
        "country_code": "fr"
      },
      "address": "Trace des Alizés Nord, Sainte-Rose, Guadeloupe, Guadeloupe"
    },
    {
      "lat": 16.31445713964215,
      "lon": -61.72321250684323,
      "geoinfo": {
        "display_name": "Résidence Montagne Saint-Sauveur - SofaÏa, Sofaïa, Sainte-Rose, Basse-Terre, Guadeloupe, 97115, France",
        "road": "Résidence Montagne Saint-Sauveur - SofaÏa",
        "house_number": null,
        "neighbourhood": null,
        "suburb": null,
        "city_district": null,
        "city": "Sainte-Rose",
        "state": "Guadeloupe",
        "postcode": "97115",
        "country": "France",
        "country_code": "fr"
      },
      "address": "Résidence Montagne Saint-Sauveur - SofaÏa, Sainte-Rose, Guadeloupe, Guadeloupe"
    },
    {
      "lat": 16.31502055985164,
      "lon": -61.70610188386507,
      "geoinfo": {
        "display_name": "Chemin café, Sainte-Rose, Basse-Terre, Guadeloupe, 97115, France",
        "road": "Chemin café",
        "house_number": null,
        "neighbourhood": null,
        "suburb": null,
        "city_district": null,
        "city": "Sainte-Rose",
        "state": "Guadeloupe",
        "postcode": "97115",
        "country": "France",
        "country_code": "fr"
      },
      "address": "Chemin café, Sainte-Rose, Guadeloupe, Guadeloupe"
    },
    {
      "lat": 16.29894512764118,
      "lon": -61.72444906550743,
      "geoinfo": {
        "display_name": "Route de Sofaïa, Sofaïa, Sainte-Rose, Basse-Terre, Guadeloupe, 97115, France",
        "road": "Route de Sofaïa",
        "house_number": null,
        "neighbourhood": null,
        "suburb": null,
        "city_district": null,
        "city": "Sainte-Rose",
        "state": "Guadeloupe",
        "postcode": "97115",
        "country": "France",
        "country_code": "fr"
      },
      "address": "Route de Sofaïa, Sainte-Rose, Guadeloupe, Guadeloupe"
    },
    {
      "lat": 16.347719404748005,
      "lon": -61.7013563845216,
      "geoinfo": {
        "display_name": "Pointe de Trou à Meynal, Guadeloupe, France",
        "road": null,
        "house_number": null,
        "neighbourhood": null,
        "suburb": null,
        "city_district": null,
        "city": null,
        "state": "Guadeloupe",
        "postcode": null,
        "country": "France",
        "country_code": "fr"
      },
      "address": "290, Sainte-Rose, 41472 Guadeloupe, Guadeloupe"
    },
    {
      "lat": 16.343334139257195,
      "lon": -61.67448995331436,
      "geoinfo": {
        "display_name": "Guadeloupe, France",
        "road": null,
        "house_number": null,
        "neighbourhood": null,
        "suburb": null,
        "city_district": null,
        "city": null,
        "state": "Guadeloupe",
        "postcode": null,
        "country": "France",
        "country_code": "fr"
      },
      "address": "816, Sainte-Rose, 47334 Guadeloupe, Guadeloupe"
    },
    {
      "lat": 16.372439486328524,
      "lon": -61.702072463508685,
      "geoinfo": {
        "display_name": "Guadeloupe, France",
        "road": null,
        "house_number": null,
        "neighbourhood": null,
        "suburb": null,
        "city_district": null,
        "city": null,
        "state": "Guadeloupe",
        "postcode": null,
        "country": "France",
        "country_code": "fr"
      },
      "address": "207, Sainte-Rose, 76825 Guadeloupe, Guadeloupe"
    },
    {
      "lat": 16.326665915968547,
      "lon": -61.718825658015945,
      "geoinfo": {
        "display_name": "Sainte-Rose, Basse-Terre, Guadeloupe, 97115, France",
        "road": null,
        "house_number": null,
        "neighbourhood": null,
        "suburb": null,
        "city_district": null,
        "city": "Sainte-Rose",
        "state": "Guadeloupe",
        "postcode": "97115",
        "country": "France",
        "country_code": "fr"
      },
      "address": "160, Sainte-Rose, 97115 Guadeloupe, Guadeloupe"
    },
    {
      "lat": 16.312062186961857,
      "lon": -61.67550405530533,
      "geoinfo": {
        "display_name": "N 2, Sainte-Rose, Viard, Sainte-Rose, Basse-Terre, Guadeloupe, 97115, France",
        "road": "N 2",
        "house_number": null,
        "neighbourhood": null,
        "suburb": null,
        "city_district": null,
        "city": "Sainte-Rose",
        "state": "Guadeloupe",
        "postcode": "97115",
        "country": "France",
        "country_code": "fr"
      },
      "address": "N 2, Sainte-Rose, 97115 Guadeloupe, Guadeloupe"
    },
    {
      "lat": 16.31436588880309,
      "lon": -61.664645442217676,
      "geoinfo": {
        "display_name": "Laurette, Sainte-Rose, Basse-Terre, Guadeloupe, 97115, France",
        "road": null,
        "house_number": null,
        "neighbourhood": null,
        "suburb": null,
        "city_district": null,
        "city": "Sainte-Rose",
        "state": "Guadeloupe",
        "postcode": "97115",
        "country": "France",
        "country_code": "fr"
      },
      "address": "521, Sainte-Rose, 97115 Guadeloupe, Guadeloupe"
    },
    {
      "lat": 16.373382525542848,
      "lon": -61.711095459719395,
      "geoinfo": {
        "display_name": "Guadeloupe, France",
        "road": null,
        "house_number": null,
        "neighbourhood": null,
        "suburb": null,
        "city_district": null,
        "city": null,
        "state": "Guadeloupe",
        "postcode": null,
        "country": "France",
        "country_code": "fr"
      },
      "address": "390, Sainte-Rose, 01923 Guadeloupe, Guadeloupe"
    },
    {
      "lat": 16.366262111435802,
      "lon": -61.70007239056358,
      "geoinfo": {
        "display_name": "Guadeloupe, France",
        "road": null,
        "house_number": null,
        "neighbourhood": null,
        "suburb": null,
        "city_district": null,
        "city": null,
        "state": "Guadeloupe",
        "postcode": null,
        "country": "France",
        "country_code": "fr"
      },
      "address": "715, Sainte-Rose, 48780 Guadeloupe, Guadeloupe"
    },
    {
      "lat": 16.32200475110465,
      "lon": -61.667236452198445,
      "geoinfo": {
        "display_name": "Viard, Sainte-Rose, Basse-Terre, Guadeloupe, 97115, France",
        "road": null,
        "house_number": null,
        "neighbourhood": null,
        "suburb": null,
        "city_district": null,
        "city": "Sainte-Rose",
        "state": "Guadeloupe",
        "postcode": "97115",
        "country": "France",
        "country_code": "fr"
      },
      "address": "251, Sainte-Rose, 97115 Guadeloupe, Guadeloupe"
    },
    {
      "lat": 16.308133137906747,
      "lon": -61.698322634059025,
      "geoinfo": {
        "display_name": "Sainte-Rose, Basse-Terre, Guadeloupe, 97115, France",
        "road": null,
        "house_number": null,
        "neighbourhood": null,
        "suburb": null,
        "city_district": null,
        "city": "Sainte-Rose",
        "state": "Guadeloupe",
        "postcode": "97115",
        "country": "France",
        "country_code": "fr"
      },
      "address": "711, Sainte-Rose, 97115 Guadeloupe, Guadeloupe"
    }
  ],
  "updated_at": "2025-10-19T05:42:42.519236+00:00",
  "_kind": "geo_samples"
}