{
  "country_code": "TL",
  "country": "Timor Leste",
  "city": "Baukau",
  "geonameid": 1649539,
  "target_addresses": 12,
  "samples": [
    {
      "lat": -8.498824422673822,
      "lon": 126.49259697309968,
      "geoinfo": {
        "display_name": "Baucau, East Timor",
        "road": null,
        "house_number": null,
        "neighbourhood": null,
        "suburb": null,
        "city_district": null,
        "city": null,
        "state": "Baucau",
        "postcode": null,
        "country": "East Timor",
        "country_code": "tl"
      },
      "address": "Baukau, Baucau, Timor Leste"
    },
    {
      "lat": -8.497727424586117,
      "lon": 126.44790826775949,
      "geoinfo": {
        "display_name": "Estrada Viqueque - Baucau, Afacaimau, Afagua, Baucau, East Timor",
        "road": "Estrada Viqueque - Baucau",
        "house_number": null,
        "neighbourhood": null,
        "suburb": null,
        "city_district": null,
        "city": "Afagua",
        "state": "Baucau",
        "postcode": null,
        "country": "East Timor",
        "country_code": "tl"
      },
      "address": "Estrada Viqueque - Baucau, Baukau, Baucau, Timor Leste"
    },
    {
      "lat": -8.47162977257708,
      "lon": 126.49121097919323,
      "geoinfo": {
        "display_name": "Estrada Baucau - Lautém, Casmutu, Baucau, East Timor",
        "road": "Estrada Baucau - Lautém",
        "house_number": null,
        "neighbourhood": null,
        "suburb": null,
        "city_district": null,
        "city": "Baucau",
        "state": "Baucau",
        "postcode": null,
        "country": "East Timor",
        "country_code": "tl"
      },
      "address": "Estrada Baucau - Lautém, Baukau, Baucau, Timor Leste"
    },
    {
      "lat": -8.466093602511462,
      "lon": 126.41997586446871,
      "geoinfo": {
        "display_name": "Estrada Mantuto - Baucau, Lequliwatu, Baucau, East Timor",
        "road": "Estrada Mantuto - Baucau",
        "house_number": null,
        "neighbourhood": null,
        "suburb": null,
        "city_district": null,
        "city": null,
        "state": "Baucau",
        "postcode": null,
        "country": "East Timor",
        "country_code": "tl"
      },
      "address": "Estrada Mantuto - Baucau, Baukau, Baucau, Timor Leste"
    },
    {
      "lat": -8.472920998391912,
      "lon": 126.4550204890167,
      "geoinfo": {
        "display_name": "Mega Life, Rua Vila Antiga, Betulale, Baucau, East Timor",
        "road": "Rua Vila Antiga",
        "house_number": null,
        "neighbourhood": null,
        "suburb": null,
        "city_district": null,
        "city": "Baucau",
        "state": "Baucau",
        "postcode": null,
        "country": "East Timor",
        "country_code": "tl"
      },
      "address": "Rua Vila Antiga, Baukau, Baucau, Timor Leste"
    },
    {
      "lat": -8.43286843181551,
      "lon": 126.46847096470333,
      "geoinfo": {
        "display_name": "Uatabo, Baucau, East Timor",
        "road": null,
        "house_number": null,
        "neighbourhood": null,
        "suburb": null,
        "city_district": null,
        "city": "Baucau",
        "state": "Baucau",
        "postcode": null,
        "country": "East Timor",
        "country_code": "tl"
      },
      "address": "211, Baukau, 76918 Baucau, Timor Leste"
    },
    {
      "lat": -8.447962749487512,
      "lon": 126.44781670631829,
      "geoinfo": {
        "display_name": "Uatabo, Baucau, East Timor",
        "road": null,
        "house_number": null,
        "neighbourhood": null,
        "suburb": null,
        "city_district": null,
        "city": "Baucau",
        "state": "Baucau",
        "postcode": null,
        "country": "East Timor",
        "country_code": "tl"
      },
      "address": "698, Baukau, 91226 Baucau, Timor Leste"
    },
    {
      "lat": -8.490783398062222,
      "lon": 126.45365236108705,
      "geoinfo": {
        "display_name": "Cailara, Aldeia Loidua, Baucau, East Timor",
        "road": null,
        "house_number": null,
        "neighbourhood": null,
        "suburb": null,
        "city_district": null,
        "city": "Aldeia Loidua",
        "state": "Baucau",
        "postcode": null,
        "country": "East Timor",
        "country_code": "tl"
      },
      "address": "819, Baukau, 18703 Baucau, Timor Leste"
    },
    {
      "lat": -8.456479197239975,
      "lon": 126.45682078198392,
      "geoinfo": {
        "display_name": "Portuguese building in ruins, Estrada Baucau - Lautém, Casmutu, Baucau, East Timor",
        "road": "Estrada Baucau - Lautém",
        "house_number": null,
        "neighbourhood": null,
        "suburb": null,
        "city_district": null,
        "city": "Baucau",
        "state": "Baucau",
        "postcode": null,
        "country": "East Timor",
        "country_code": "tl"
      },
      "address": "321, Estrada Baucau - Lautém, Baukau, 39610 Baucau, Timor Leste"
    },
    {
      "lat": -8.455280131461054,
      "lon": 126.42459766548792,
      "geoinfo": {
        "display_name": "Haurobu, Baucau, East Timor",
        "road": null,
        "house_number": null,
        "neighbourhood": null,
        "suburb": null,
        "city_district": null,
        "city": null,
        "state": "Baucau",
        "postcode": null,
        "country": "East Timor",
        "country_code": "tl"
      },
      "address": "983, Baukau, 84112 Baucau, Timor Leste"
    },
    {
      "lat": -8.434880188599022,
      "lon": 126.46322083101819,
      "geoinfo": {
        "display_name": "Uatabo, Baucau, East Timor",
        "road": null,
        "house_number": null,
        "neighbourhood": null,
        "suburb": null,
        "city_district": null,
        "city": "Baucau",
        "state": "Baucau",
        "postcode": null,
        "country": "East Timor",
        "country_code": "tl"
      },
      "address": "254, Baukau, 17340 Baucau, Timor Leste"
    },
    {
      "lat": -8.493481837216917,
      "lon": 126.45708797419007,
      "geoinfo": {
        "display_name": "Loidua, Aldeia Loidua, Baucau, East Timor",
        "road": null,
        "house_number": null,
        "neighbourhood": null,
        "suburb": null,
        "city_district": null,
        "city": "Aldeia Loidua",
        "state": "Baucau",
        "postcode": null,
        "country": "East Timor",
        "country_code": "tl"
      },
      "address": "570, Baukau, 35242 Baucau, Timor Leste"
    },
    {
      "lat": -8.487889531557686,
      "lon": 126.49948485294782,
      "geoinfo": {
        "display_name": "Lauiboronai, Baucau, East Timor",
        "road": null,
        "house_number": null,
        "neighbourhood": null,
        "suburb": null,
        "city_district": null,
        "city": null,
        "state": "Baucau",
        "postcode": null,
        "country": "East Timor",
        "country_code": "tl"
      },
      "address": "273, Baukau, 58812 Baucau, Timor Leste"
    },
    {
      "lat": -8.434261196107345,
      "lon": 126.44478843704852,
      "geoinfo": {
        "display_name": "Baucau, East Timor",
        "road": null,
        "house_number": null,
        "neighbourhood": null,
        "suburb": null,
        "city_district": null,
        "city": null,
        "state": "Baucau",
        "postcode": null,
        "country": "East Timor",
        "country_code": "tl"
      },
      "address": "037, Baukau, 51416 Baucau, Timor Leste"
    },
    {
      "lat": -8.48377623319758,
      "lon": 126.45705606326261,
      "geoinfo": {
        "display_name": "Lutumut, Baucau, East Timor",
        "road": null,
        "house_number": null,
        "neighbourhood": null,
        "suburb": null,
        "city_district": null,
        "city": "Baucau",
        "state": "Baucau",
        "postcode": null,
        "country": "East Timor",
        "country_code": "tl"
      },
      "address": "219, Baukau, 91216 Baucau, Timor Leste"
    },
    {
      "lat": -8.505332433156013,
      "lon": 126.45823203754432,
      "geoinfo": {
        "display_name": "Loidua, Aldeia Loidua, Baucau, East Timor",
        "road": null,
        "house_number": null,
        "neighbourhood": null,
        "suburb": null,
        "city_district": null,
        "city": "Aldeia Loidua",
        "state": "Baucau",
        "postcode": null,
        "country": "East Timor",
        "country_code": "tl"
      },
      "address": "387, Baukau, 85617 Baucau, Timor Leste"
    },
    {
      "lat": -8.434452219934268,
      "lon": 126.4482418100392,
      "geoinfo": {
        "display_name": "Baucau, East Timor",
        "road": null,
        "house_number": null,
        "neighbourhood": null,
        "suburb": null,
        "city_district": null,
        "city": null,
        "state": "Baucau",
        "postcode": null,
        "country": "East Timor",
        "country_code": "tl"
      },
      "address": "502, Baukau, 40876 Baucau, Timor Leste"
    }
  ],
  "updated_at": "2025-10-19T07:14:32.403511+00:00",
  "_kind": "geo_samples"
}