{
  "country_code": "TL",
  "country": "Timor Leste",
  "city": "Likisá",
  "geonameid": 1637730,
  "target_addresses": 34,
  "samples": [
    {
      "lat": -8.570617003242253,
      "lon": 125.3716612717603,
      "geoinfo": {
        "display_name": "Estrada Díli - Liquicá, Pisukaraik, Lauhata, Bazartete, Liquiçá, East Timor",
        "road": "Estrada Díli - Liquicá",
        "house_number": null,
        "neighbourhood": null,
        "suburb": null,
        "city_district": null,
        "city": "Lauhata",
        "state": "Liquiçá",
        "postcode": null,
        "country": "East Timor",
        "country_code": "tl"
      },
      "address": "Estrada Díli - Liquicá, Likisá, Liquiçá, Timor Leste"
    },
    {
      "lat": -8.567631923810767,
      "lon": 125.3305704090636,
      "geoinfo": {
        "display_name": "Dato, Liquiçá, East Timor",
        "road": null,
        "house_number": null,
        "neighbourhood": null,
        "suburb": null,
        "city_district": null,
        "city": "Dato",
        "state": "Liquiçá",
        "postcode": null,
        "country": "East Timor",
        "country_code": "tl"
      },
      "address": "Likisá, Liquiçá, Timor Leste"
    },
    {
      "lat": -8.575704551164431,
      "lon": 125.32906645577725,
      "geoinfo": {
        "display_name": "Leopa, Dato, Liquiçá, East Timor",
        "road": null,
        "house_number": null,
        "neighbourhood": null,
        "suburb": null,
        "city_district": null,
        "city": "Dato",
        "state": "Liquiçá",
        "postcode": null,
        "country": "East Timor",
        "country_code": "tl"
      },
      "address": "618, Likisá, 53085 Liquiçá, Timor Leste"
    },
    {
      "lat": -8.622189614860922,
      "lon": 125.32653460122623,
      "geoinfo": {
        "display_name": "Manacolohata, Liquiçá, East Timor",
        "road": null,
        "house_number": null,
        "neighbourhood": null,
        "suburb": null,
        "city_district": null,
        "city": null,
        "state": "Liquiçá",
        "postcode": null,
        "country": "East Timor",
        "country_code": "tl"
      },
      "address": "216, Likisá, 00308 Liquiçá, Timor Leste"
    },
    {
      "lat": -8.6047453690234,
      "lon": 125.36082640961871,
      "geoinfo": {
        "display_name": "Pisukaraik, Lauhata, Bazartete, Liquiçá, East Timor",
        "road": null,
        "house_number": null,
        "neighbourhood": null,
        "suburb": null,
        "city_district": null,
        "city": "Lauhata",
        "state": "Liquiçá",
        "postcode": null,
        "country": "East Timor",
        "country_code": "tl"
      },
      "address": "751, Likisá, 33290 Liquiçá, Timor Leste"
    },
    {
      "lat": -8.577635473773995,
      "lon": 125.31276049749715,
      "geoinfo": {
        "display_name": "Kelapa, Liquiçá, East Timor",
        "road": null,
        "house_number": null,
        "neighbourhood": null,
        "suburb": null,
        "city_district": null,
        "city": null,
        "state": "Liquiçá",
        "postcode": null,
        "country": "East Timor",
        "country_code": "tl"
      },
      "address": "814, Likisá, 26935 Liquiçá, Timor Leste"
    },
    {
      "lat": -8.57950486647226,
      "lon": 125.31663111653396,
      "geoinfo": {
        "display_name": "Kelapa, Liquiçá, East Timor",
        "road": null,
        "house_number": null,
        "neighbourhood": null,
        "suburb": null,
        "city_district": null,
        "city": null,
        "state": "Liquiçá",
        "postcode": null,
        "country": "East Timor",
        "country_code": "tl"
      },
      "address": "764, Likisá, 30012 Liquiçá, Timor Leste"
    },
    {
      "lat": -8.615063762071765,
      "lon": 125.32722064546091,
      "geoinfo": {
        "display_name": "Kotalara, Dato, Liquiçá, East Timor",
        "road": null,
        "house_number": null,
        "neighbourhood": null,
        "suburb": null,
        "city_district": null,
        "city": "Dato",
        "state": "Liquiçá",
        "postcode": null,
        "country": "East Timor",
        "country_code": "tl"
      },
      "address": "142, Likisá, 94250 Liquiçá, Timor Leste"
    },
    {
      "lat": -8.588536489550739,
      "lon": 125.31052520691077,
      "geoinfo": {
        "display_name": "Kelapa, Dato, Liquiçá, East Timor",
        "road": null,
        "house_number": null,
        "neighbourhood": null,
        "suburb": null,
        "city_district": null,
        "city": "Dato",
        "state": "Liquiçá",
        "postcode": null,
        "country": "East Timor",
        "country_code": "tl"
      },
      "address": "035, Likisá, 34957 Liquiçá, Timor Leste"
    },
    {
      "lat": -8.602014969663443,
      "lon": 125.33462778730353,
      "geoinfo": {
        "display_name": "Kotalara, Dato, Liquiçá, East Timor",
        "road": null,
        "house_number": null,
        "neighbourhood": null,
        "suburb": null,
        "city_district": null,
        "city": "Dato",
        "state": "Liquiçá",
        "postcode": null,
        "country": "East Timor",
        "country_code": "tl"
      },
      "address": "805, Likisá, 37796 Liquiçá, Timor Leste"
    },
    {
      "lat": -8.613961495518636,
      "lon": 125.36494691343806,
      "geoinfo": {
        "display_name": "Kamalehou, Liquiçá, Bazartete, Liquiçá, East Timor",
        "road": null,
        "house_number": null,
        "neighbourhood": null,
        "suburb": null,
        "city_district": null,
        "city": "Liquiçá",
        "state": "Liquiçá",
        "postcode": null,
        "country": "East Timor",
        "country_code": "tl"
      },
      "address": "501, Likisá, 06620 Liquiçá, Timor Leste"
    },
    {
      "lat": -8.57363921852957,
      "lon": 125.36576998571384,
      "geoinfo": {
        "display_name": "Pisukaraik, Lauhata, Bazartete, Liquiçá, East Timor",
        "road": null,
        "house_number": null,
        "neighbourhood": null,
        "suburb": null,
        "city_district": null,
        "city": "Lauhata",
        "state": "Liquiçá",
        "postcode": null,
        "country": "East Timor",
        "country_code": "tl"
      },
      "address": "004, Likisá, 63737 Liquiçá, Timor Leste"
    },
    {
      "lat": -8.618675172765288,
      "lon": 125.3549035965228,
      "geoinfo": {
        "display_name": "Kailelilema, Liquiçá, Bazartete, Liquiçá, East Timor",
        "road": null,
        "house_number": null,
        "neighbourhood": null,
        "suburb": null,
        "city_district": null,
        "city": "Liquiçá",
        "state": "Liquiçá",
        "postcode": null,
        "country": "East Timor",
        "country_code": "tl"
      },
      "address": "323, Likisá, 14286 Liquiçá, Timor Leste"
    },
    {
      "lat": -8.56747431612057,
      "lon": 125.32679638401103,
      "geoinfo": {
        "display_name": "Dato, Liquiçá, East Timor",
        "road": null,
        "house_number": null,
        "neighbourhood": null,
        "suburb": null,
        "city_district": null,
        "city": "Dato",
        "state": "Liquiçá",
        "postcode": null,
        "country": "East Timor",
        "country_code": "tl"
      },
      "address": "473, Likisá, 19646 Liquiçá, Timor Leste"
    },
    {
      "lat": -8.577633845466817,
      "lon": 125.37162598214526,
      "geoinfo": {
        "display_name": "Estrada Díli - Liquicá, Pisukaraik, Lauhata, Bazartete, Liquiçá, East Timor",
        "road": "Estrada Díli - Liquicá",
        "house_number": null,
        "neighbourhood": null,
        "suburb": null,
        "city_district": null,
        "city": "Lauhata",
        "state": "Liquiçá",
        "postcode": null,
        "country": "East Timor",
        "country_code": "tl"
      },
      "address": "474, Estrada Díli - Liquicá, Likisá, 12139 Liquiçá, Timor Leste"
    },
    {
      "lat": -8.599885180404263,
      "lon": 125.36173166156566,
      "geoinfo": {
        "display_name": "Pisukaraik, Lauhata, Bazartete, Liquiçá, East Timor",
        "road": null,
        "house_number": null,
        "neighbourhood": null,
        "suburb": null,
        "city_district": null,
        "city": "Lauhata",
        "state": "Liquiçá",
        "postcode": null,
        "country": "East Timor",
        "country_code": "tl"
      },
      "address": "200, Likisá, 40259 Liquiçá, Timor Leste"
    },
    {
      "lat": -8.595508666693735,
      "lon": 125.34703601678258,
      "geoinfo": {
        "display_name": "Nartutu, Liquiçá, Bazartete, Liquiçá, East Timor",
        "road": null,
        "house_number": null,
        "neighbourhood": null,
        "suburb": null,
        "city_district": null,
        "city": "Liquiçá",
        "state": "Liquiçá",
        "postcode": null,
        "country": "East Timor",
        "country_code": "tl"
      },
      "address": "698, Likisá, 65280 Liquiçá, Timor Leste"
    },
    {
      "lat": -8.62659656660565,
      "lon": 125.34628336316457,
      "geoinfo": {
        "display_name": "Hekar, Liquiçá, East Timor",
        "road": null,
        "house_number": null,
        "neighbourhood": null,
        "suburb": null,
        "city_district": null,
        "city": null,
        "state": "Liquiçá",
        "postcode": null,
        "country": "East Timor",
        "country_code": "tl"
      },
      "address": "437, Likisá, 83063 Liquiçá, Timor Leste"
    },
    {
      "lat": -8.550317424075502,
      "lon": 125.32093496378887,
      "geoinfo": {
        "display_name": "Liquiçá, Bazartete, Liquiçá, East Timor",
        "road": null,
        "house_number": null,
        "neighbourhood": null,
        "suburb": null,
        "city_district": null,
        "city": "Liquiçá",
        "state": "Liquiçá",
        "postcode": null,
        "country": "East Timor",
        "country_code": "tl"
      },
      "address": "685, Likisá, 21975 Liquiçá, Timor Leste"
    },
    {
      "lat": -8.574672361488979,
      "lon": 125.34387558817374,
      "geoinfo": {
        "display_name": "Pisulete, Liquiçá, Bazartete, Liquiçá, East Timor",
        "road": null,
        "house_number": null,
        "neighbourhood": null,
        "suburb": null,
        "city_district": null,
        "city": "Liquiçá",
        "state": "Liquiçá",
        "postcode": null,
        "country": "East Timor",
        "country_code": "tl"
      },
      "address": "490, Likisá, 83630 Liquiçá, Timor Leste"
    },
    {
      "lat": -8.561195886967653,
      "lon": 125.36424261097402,
      "geoinfo": {
        "display_name": "Pisukaraik, Liquiçá, Bazartete, Liquiçá, East Timor",
        "road": null,
        "house_number": null,
        "neighbourhood": null,
        "suburb": null,
        "city_district": null,
        "city": "Liquiçá",
        "state": "Liquiçá",
        "postcode": null,
        "country": "East Timor",
        "country_code": "tl"
      },
      "address": "072, Likisá, 47610 Liquiçá, Timor Leste"
    },
    {
      "lat": -8.585920595482792,
      "lon": 125.3522968488964,
      "geoinfo": {
        "display_name": "Pisulete, Liquiçá, Bazartete, Liquiçá, East Timor",
        "road": null,
        "house_number": null,
        "neighbourhood": null,
        "suburb": null,
        "city_district": null,
        "city": "Liquiçá",
        "state": "Liquiçá",
        "postcode": null,
        "country": "East Timor",
        "country_code": "tl"
      },
      "address": "287, Likisá, 42389 Liquiçá, Timor Leste"
    },
    {
      "lat": -8.617546846779687,
      "lon": 125.35810217435301,
      "geoinfo": {
        "display_name": "Kamalehou, Liquiçá, Bazartete, Liquiçá, East Timor",
        "road": null,
        "house_number": null,
        "neighbourhood": null,
        "suburb": null,
        "city_district": null,
        "city": "Liquiçá",
        "state": "Liquiçá",
        "postcode": null,
        "country": "East Timor",
        "country_code": "tl"
      },
      "address": "284, Likisá, 42734 Liquiçá, Timor Leste"
    },
    {
      "lat": -8.603489204003695,
      "lon": 125.35261879274788,
      "geoinfo": {
        "display_name": "Kamalehou, Liquiçá, Bazartete, Liquiçá, East Timor",
        "road": null,
        "house_number": null,
        "neighbourhood": null,
        "suburb": null,
        "city_district": null,
        "city": "Liquiçá",
        "state": "Liquiçá",
        "postcode": null,
        "country": "East Timor",
        "country_code": "tl"
      },
      "address": "470, Likisá, 48103 Liquiçá, Timor Leste"
    },
    {
      "lat": -8.612638853255175,
      "lon": 125.30751070488635,
      "geoinfo": {
        "display_name": "Laklolema, Liquiçá, East Timor",
        "road": null,
        "house_number": null,
        "neighbourhood": null,
        "suburb": null,
        "city_district": null,
        "city": null,
        "state": "Liquiçá",
        "postcode": null,
        "country": "East Timor",
        "country_code": "tl"
      },
      "address": "756, Likisá, 81784 Liquiçá, Timor Leste"
    },
    {
      "lat": -8.553431990500311,
      "lon": 125.33074537017636,
      "geoinfo": {
        "display_name": "Lauhata, Bazartete, Liquiçá, East Timor",
        "road": null,
        "house_number": null,
        "neighbourhood": null,
        "suburb": null,
        "city_district": null,
        "city": "Lauhata",
        "state": "Liquiçá",
        "postcode": null,
        "country": "East Timor",
        "country_code": "tl"
      },
      "address": "424, Likisá, 68442 Liquiçá, Timor Leste"
    },
    {
      "lat": -8.600622542543876,
      "lon": 125.32318249019195,
      "geoinfo": {
        "display_name": "Kotalara, Dato, Liquiçá, East Timor",
        "road": null,
        "house_number": null,
        "neighbourhood": null,
        "suburb": null,
        "city_district": null,
        "city": "Dato",
        "state": "Liquiçá",
        "postcode": null,
        "country": "East Timor",
        "country_code": "tl"
      },
      "address": "187, Likisá, 84653 Liquiçá, Timor Leste"
    },
    {
      "lat": -8.58296473294181,
      "lon": 125.32783854718626,
      "geoinfo": {
        "display_name": "Leopa, Dato, Liquiçá, East Timor",
        "road": null,
        "house_number": null,
        "neighbourhood": null,
        "suburb": null,
        "city_district": null,
        "city": "Dato",
        "state": "Liquiçá",
        "postcode": null,
        "country": "East Timor",
        "country_code": "tl"
      },
      "address": "387, Likisá, 35160 Liquiçá, Timor Leste"
    },
    {
      "lat": -8.592729460468675,
      "lon": 125.37495881678446,
      "geoinfo": {
        "display_name": "Pissucaraik, Liquiçá, Bazartete, Liquiçá, East Timor",
        "road": null,
        "house_number": null,
        "neighbourhood": null,
        "suburb": null,
        "city_district": null,
        "city": "Liquiçá",
        "state": "Liquiçá",
        "postcode": null,
        "country": "East Timor",
        "country_code": "tl"
      },
      "address": "367, Likisá, 58704 Liquiçá, Timor Leste"
    },
    {
      "lat": -8.585622211728262,
      "lon": 125.36655017116259,
      "geoinfo": {
        "display_name": "Pisukaraik, Liquiçá, Bazartete, Liquiçá, East Timor",
        "road": null,
        "house_number": null,
        "neighbourhood": null,
        "suburb": null,
        "city_district": null,
        "city": "Liquiçá",
        "state": "Liquiçá",
        "postcode": null,
        "country": "East Timor",
        "country_code": "tl"
      },
      "address": "403, Likisá, 22850 Liquiçá, Timor Leste"
    },
    {
      "lat": -8.613387592274895,
      "lon": 125.32208809063722,
      "geoinfo": {
        "display_name": "Kotalara, Dato, Liquiçá, East Timor",
        "road": null,
        "house_number": null,
        "neighbourhood": null,
        "suburb": null,
        "city_district": null,
        "city": "Dato",
        "state": "Liquiçá",
        "postcode": null,
        "country": "East Timor",
        "country_code": "tl"
      },
      "address": "235, Likisá, 14402 Liquiçá, Timor Leste"
    },
    {
      "lat": -8.621541311689224,
      "lon": 125.34006311722645,
      "geoinfo": {
        "display_name": "Hekar, Liquiçá, East Timor",
        "road": null,
        "house_number": null,
        "neighbourhood": null,
        "suburb": null,
        "city_district": null,
        "city": null,
        "state": "Liquiçá",
        "postcode": null,
        "country": "East Timor",
        "country_code": "tl"
      },
      "address": "405, Likisá, 70222 Liquiçá, Timor Leste"
    },
    {
      "lat": -8.581731419512248,
      "lon": 125.3446900790836,
      "geoinfo": {
        "display_name": "Pisulete, Liquiçá, Bazartete, Liquiçá, East Timor",
        "road": null,
        "house_number": null,
        "neighbourhood": null,
        "suburb": null,
        "city_district": null,
        "city": "Liquiçá",
        "state": "Liquiçá",
        "postcode": null,
        "country": "East Timor",
        "country_code": "tl"
      },
      "address": "981, Likisá, 70731 Liquiçá, Timor Leste"
    },
    {
      "lat": -8.603703161962269,
      "lon": 125.3630547637551,
      "geoinfo": {
        "display_name": "Pisukaraik, Lauhata, Bazartete, Liquiçá, East Timor",
        "road": null,
        "house_number": null,
        "neighbourhood": null,
        "suburb": null,
        "city_district": null,
        "city": "Lauhata",
        "state": "Liquiçá",
        "postcode": null,
        "country": "East Timor",
        "country_code": "tl"
      },
      "address": "507, Likisá, 77097 Liquiçá, Timor Leste"
    }
  ],
  "updated_at": "2025-10-19T06:29:07.122059+00:00",
  "_kind": "geo_samples"
}