{
  "country_code": "TL",
  "country": "Timor Leste",
  "city": "Suai",
  "geonameid": 1626459,
  "target_addresses": 12,
  "samples": [
    {
      "lat": -9.302366159136527,
      "lon": 125.24082125372303,
      "geoinfo": {
        "display_name": "Suai–Zumalai Highway, Lookeu, Suai, Cova Lima, East Timor",
        "road": "Suai–Zumalai Highway",
        "house_number": null,
        "neighbourhood": null,
        "suburb": null,
        "city_district": null,
        "city": "Suai",
        "state": "Cova Lima",
        "postcode": null,
        "country": "East Timor",
        "country_code": "tl"
      },
      "address": "Suai–Zumalai Highway, Suai, Cova Lima, Timor Leste"
    },
    {
      "lat": -9.329712471698842,
      "lon": 125.24605608520866,
      "geoinfo": {
        "display_name": "Talioan, Suai, Cova Lima, East Timor",
        "road": null,
        "house_number": null,
        "neighbourhood": null,
        "suburb": null,
        "city_district": null,
        "city": "Suai",
        "state": "Cova Lima",
        "postcode": null,
        "country": "East Timor",
        "country_code": "tl"
      },
      "address": "Suai, Cova Lima, Timor Leste"
    },
    {
      "lat": -9.31121900395034,
      "lon": 125.29546021265645,
      "geoinfo": {
        "display_name": "Avenida Cezar Maulaka, Sanfuk, Camenaça, Suai, Cova Lima, East Timor",
        "road": "Avenida Cezar Maulaka",
        "house_number": null,
        "neighbourhood": null,
        "suburb": null,
        "city_district": null,
        "city": "Camenaça",
        "state": "Cova Lima",
        "postcode": null,
        "country": "East Timor",
        "country_code": "tl"
      },
      "address": "Avenida Cezar Maulaka, Suai, Cova Lima, Timor Leste"
    },
    {
      "lat": -9.338931152365896,
      "lon": 125.27297166774356,
      "geoinfo": {
        "display_name": "Jardim de Infância & Escola Primária de Suai Loro, Avenida Camanaça, Uma Naruk, Futuisin, Camenaça, Suai, Cova Lima, East Timor",
        "road": "Avenida Camanaça",
        "house_number": null,
        "neighbourhood": null,
        "suburb": null,
        "city_district": null,
        "city": "Camenaça",
        "state": "Cova Lima",
        "postcode": null,
        "country": "East Timor",
        "country_code": "tl"
      },
      "address": "Avenida Camanaça, Suai, Cova Lima, Timor Leste"
    },
    {
      "lat": -9.33404987839979,
      "lon": 125.2199955054699,
      "geoinfo": {
        "display_name": "Avenida Pe. Tarsisius Dewanto, Lakonakbesik, Suai, Cova Lima, East Timor",
        "road": "Avenida Pe. Tarsisius Dewanto",
        "house_number": null,
        "neighbourhood": null,
        "suburb": null,
        "city_district": null,
        "city": null,
        "state": "Cova Lima",
        "postcode": null,
        "country": "East Timor",
        "country_code": "tl"
      },
      "address": "Avenida Pe. Tarsisius Dewanto, Suai, Cova Lima, Timor Leste"
    },
    {
      "lat": -9.334252963922067,
      "lon": 125.22510529296295,
      "geoinfo": {
        "display_name": "Esocola EBF Debos, Avenida Pe. Tarsisius Dewanto, Busakukun, Suai, Cova Lima, East Timor",
        "road": "Avenida Pe. Tarsisius Dewanto",
        "house_number": null,
        "neighbourhood": null,
        "suburb": null,
        "city_district": null,
        "city": "Suai",
        "state": "Cova Lima",
        "postcode": null,
        "country": "East Timor",
        "country_code": "tl"
      },
      "address": "282, Avenida Pe. Tarsisius Dewanto, Suai, 49240 Cova Lima, Timor Leste"
    },
    {
      "lat": -9.280894535929251,
      "lon": 125.23067178168597,
      "geoinfo": {
        "display_name": "Baulela, Ogues, Maucatar, Cova Lima, East Timor",
        "road": null,
        "house_number": null,
        "neighbourhood": null,
        "suburb": null,
        "city_district": null,
        "city": "Ogues",
        "state": "Cova Lima",
        "postcode": null,
        "country": "East Timor",
        "country_code": "tl"
      },
      "address": "981, Suai, 11273 Cova Lima, Timor Leste"
    },
    {
      "lat": -9.28260749856986,
      "lon": 125.24798873539248,
      "geoinfo": {
        "display_name": "Maior, Matai, Maucatar, Cova Lima, East Timor",
        "road": null,
        "house_number": null,
        "neighbourhood": null,
        "suburb": null,
        "city_district": null,
        "city": "Matai",
        "state": "Cova Lima",
        "postcode": null,
        "country": "East Timor",
        "country_code": "tl"
      },
      "address": "462, Suai, 74530 Cova Lima, Timor Leste"
    },
    {
      "lat": -9.298699683929652,
      "lon": 125.22256236630814,
      "geoinfo": {
        "display_name": "Baulela, Fohorua, Maucatar, Cova Lima, East Timor",
        "road": null,
        "house_number": null,
        "neighbourhood": null,
        "suburb": null,
        "city_district": null,
        "city": "Fohorua",
        "state": "Cova Lima",
        "postcode": null,
        "country": "East Timor",
        "country_code": "tl"
      },
      "address": "968, Suai, 45166 Cova Lima, Timor Leste"
    },
    {
      "lat": -9.29533706194551,
      "lon": 125.22949833754382,
      "geoinfo": {
        "display_name": "Baulela, Fohorua, Suai, Cova Lima, East Timor",
        "road": null,
        "house_number": null,
        "neighbourhood": null,
        "suburb": null,
        "city_district": null,
        "city": "Fohorua",
        "state": "Cova Lima",
        "postcode": null,
        "country": "East Timor",
        "country_code": "tl"
      },
      "address": "387, Suai, 85763 Cova Lima, Timor Leste"
    },
    {
      "lat": -9.325677981513433,
      "lon": 125.24392893673254,
      "geoinfo": {
        "display_name": "Talioan, Suai, Cova Lima, East Timor",
        "road": null,
        "house_number": null,
        "neighbourhood": null,
        "suburb": null,
        "city_district": null,
        "city": "Suai",
        "state": "Cova Lima",
        "postcode": null,
        "country": "East Timor",
        "country_code": "tl"
      },
      "address": "457, Suai, 71956 Cova Lima, Timor Leste"
    },
    {
      "lat": -9.32590945773506,
      "lon": 125.25222709657474,
      "geoinfo": {
        "display_name": "Talioan, Suai, Cova Lima, East Timor",
        "road": null,
        "house_number": null,
        "neighbourhood": null,
        "suburb": null,
        "city_district": null,
        "city": "Suai",
        "state": "Cova Lima",
        "postcode": null,
        "country": "East Timor",
        "country_code": "tl"
      },
      "address": "811, Suai, 09180 Cova Lima, Timor Leste"
    },
    {
      "lat": -9.303098113702083,
      "lon": 125.24996913219435,
      "geoinfo": {
        "display_name": "Legore, Suai, Cova Lima, East Timor",
        "road": null,
        "house_number": null,
        "neighbourhood": null,
        "suburb": null,
        "city_district": null,
        "city": "Suai",
        "state": "Cova Lima",
        "postcode": null,
        "country": "East Timor",
        "country_code": "tl"
      },
      "address": "648, Suai, 38014 Cova Lima, Timor Leste"
    },
    {
      "lat": -9.290757465387696,
      "lon": 125.24504363439502,
      "geoinfo": {
        "display_name": "Maior, Matai, Maucatar, Cova Lima, East Timor",
        "road": null,
        "house_number": null,
        "neighbourhood": null,
        "suburb": null,
        "city_district": null,
        "city": "Matai",
        "state": "Cova Lima",
        "postcode": null,
        "country": "East Timor",
        "country_code": "tl"
      },
      "address": "538, Suai, 97021 Cova Lima, Timor Leste"
    },
    {
      "lat": -9.32156683530419,
      "lon": 125.29458294320085,
      "geoinfo": {
        "display_name": "Futuisin, Camenaça, Suai, Cova Lima, East Timor",
        "road": null,
        "house_number": null,
        "neighbourhood": null,
        "suburb": null,
        "city_district": null,
        "city": "Camenaça",
        "state": "Cova Lima",
        "postcode": null,
        "country": "East Timor",
        "country_code": "tl"
      },
      "address": "075, Suai, 57624 Cova Lima, Timor Leste"
    },
    {
      "lat": -9.306994445232721,
      "lon": 125.27068290769354,
      "geoinfo": {
        "display_name": "Kiar, Matai, Maucatar, Cova Lima, East Timor",
        "road": null,
        "house_number": null,
        "neighbourhood": null,
        "suburb": null,
        "city_district": null,
        "city": "Matai",
        "state": "Cova Lima",
        "postcode": null,
        "country": "East Timor",
        "country_code": "tl"
      },
      "address": "592, Suai, 38331 Cova Lima, Timor Leste"
    },
    {
      "lat": -9.320396584354052,
      "lon": 125.28312731099761,
      "geoinfo": {
        "display_name": "Avenida Camanaça, Uma Naruk, Futuisin, Camenaça, Suai, Cova Lima, East Timor",
        "road": "Avenida Camanaça",
        "house_number": null,
        "neighbourhood": null,
        "suburb": null,
        "city_district": null,
        "city": "Camenaça",
        "state": "Cova Lima",
        "postcode": null,
        "country": "East Timor",
        "country_code": "tl"
      },
      "address": "573, Avenida Camanaça, Suai, 21558 Cova Lima, Timor Leste"
    }
  ],
  "updated_at": "2025-10-19T07:13:58.183425+00:00",
  "_kind": "geo_samples"
}