{
  "country_code": "TL",
  "country": "Timor Leste",
  "city": "Venilale",
  "geonameid": 1943235,
  "target_addresses": 12,
  "samples": [
    {
      "lat": -8.616654332386563,
      "lon": 126.35991228432597,
      "geoinfo": {
        "display_name": "Vemasse, Baucau, East Timor",
        "road": null,
        "house_number": null,
        "neighbourhood": null,
        "suburb": null,
        "city_district": null,
        "city": null,
        "state": "Baucau",
        "postcode": null,
        "country": "East Timor",
        "country_code": "tl"
      },
      "address": "Venilale, Baucau, Timor Leste"
    },
    {
      "lat": -8.612964509607652,
      "lon": 126.38623105333276,
      "geoinfo": {
        "display_name": "Estrada Viqueque - Baucau, Afacaimau, Afagua, Venilale, Baucau, East Timor",
        "road": "Estrada Viqueque - Baucau",
        "house_number": null,
        "neighbourhood": null,
        "suburb": null,
        "city_district": null,
        "city": "Afagua",
        "state": "Baucau",
        "postcode": null,
        "country": "East Timor",
        "country_code": "tl"
      },
      "address": "Estrada Viqueque - Baucau, Venilale, Baucau, Timor Leste"
    },
    {
      "lat": -8.670465794977137,
      "lon": 126.3427215017552,
      "geoinfo": {
        "display_name": "Ossu, Viqueque, East Timor",
        "road": null,
        "house_number": null,
        "neighbourhood": null,
        "suburb": null,
        "city_district": null,
        "city": null,
        "state": "Viqueque",
        "postcode": null,
        "country": "East Timor",
        "country_code": "tl"
      },
      "address": "Venilale, Viqueque, Timor Leste"
    },
    {
      "lat": -8.685031410180107,
      "lon": 126.37439031067532,
      "geoinfo": {
        "display_name": "Estrada Viqueque - Baucau, Liamida, Ossu, Viqueque, East Timor",
        "road": "Estrada Viqueque - Baucau",
        "house_number": null,
        "neighbourhood": null,
        "suburb": null,
        "city_district": null,
        "city": "Ossu",
        "state": "Viqueque",
        "postcode": null,
        "country": "East Timor",
        "country_code": "tl"
      },
      "address": "Estrada Viqueque - Baucau, Venilale, Viqueque, Timor Leste"
    },
    {
      "lat": -8.660674234696236,
      "lon": 126.36877640617442,
      "geoinfo": {
        "display_name": "Estrada Viqueque - Baucau, Uatolia, Venilale, Baucau, East Timor",
        "road": "Estrada Viqueque - Baucau",
        "house_number": null,
        "neighbourhood": null,
        "suburb": null,
        "city_district": null,
        "city": "Venilale",
        "state": "Baucau",
        "postcode": null,
        "country": "East Timor",
        "country_code": "tl"
      },
      "address": "880, Estrada Viqueque - Baucau, Venilale, 00756 Baucau, Timor Leste"
    },
    {
      "lat": -8.633309002797827,
      "lon": 126.40106908359022,
      "geoinfo": {
        "display_name": "Caubai, Venilale, Baucau, East Timor",
        "road": null,
        "house_number": null,
        "neighbourhood": null,
        "suburb": null,
        "city_district": null,
        "city": "Venilale",
        "state": "Baucau",
        "postcode": null,
        "country": "East Timor",
        "country_code": "tl"
      },
      "address": "639, Venilale, 81241 Baucau, Timor Leste"
    },
    {
      "lat": -8.638094082735181,
      "lon": 126.37387484278167,
      "geoinfo": {
        "display_name": "Baru, Venilale, Baucau, East Timor",
        "road": null,
        "house_number": null,
        "neighbourhood": null,
        "suburb": null,
        "city_district": null,
        "city": "Venilale",
        "state": "Baucau",
        "postcode": null,
        "country": "East Timor",
        "country_code": "tl"
      },
      "address": "287, Venilale, 05630 Baucau, Timor Leste"
    },
    {
      "lat": -8.607424359206998,
      "lon": 126.3660451306136,
      "geoinfo": {
        "display_name": "Vemasse, Baucau, East Timor",
        "road": null,
        "house_number": null,
        "neighbourhood": null,
        "suburb": null,
        "city_district": null,
        "city": null,
        "state": "Baucau",
        "postcode": null,
        "country": "East Timor",
        "country_code": "tl"
      },
      "address": "085, Venilale, 56030 Baucau, Timor Leste"
    },
    {
      "lat": -8.65084248374596,
      "lon": 126.40253375026668,
      "geoinfo": {
        "display_name": "Caubai, Venilale, Baucau, East Timor",
        "road": null,
        "house_number": null,
        "neighbourhood": null,
        "suburb": null,
        "city_district": null,
        "city": "Venilale",
        "state": "Baucau",
        "postcode": null,
        "country": "East Timor",
        "country_code": "tl"
      },
      "address": "560, Venilale, 21288 Baucau, Timor Leste"
    },
    {
      "lat": -8.608400816910859,
      "lon": 126.37870414707363,
      "geoinfo": {
        "display_name": "Lia-Oli, Venilale, Baucau, East Timor",
        "road": null,
        "house_number": null,
        "neighbourhood": null,
        "suburb": null,
        "city_district": null,
        "city": null,
        "state": "Baucau",
        "postcode": null,
        "country": "East Timor",
        "country_code": "tl"
      },
      "address": "862, Venilale, 74927 Baucau, Timor Leste"
    },
    {
      "lat": -8.667441396510569,
      "lon": 126.34920210161907,
      "geoinfo": {
        "display_name": "Venilale, Baucau, East Timor",
        "road": null,
        "house_number": null,
        "neighbourhood": null,
        "suburb": null,
        "city_district": null,
        "city": null,
        "state": "Baucau",
        "postcode": null,
        "country": "East Timor",
        "country_code": "tl"
      },
      "address": "942, Venilale, 55618 Baucau, Timor Leste"
    },
    {
      "lat": -8.616902971030589,
      "lon": 126.36606441943847,
      "geoinfo": {
        "display_name": "Venilale, Baucau, East Timor",
        "road": null,
        "house_number": null,
        "neighbourhood": null,
        "suburb": null,
        "city_district": null,
        "city": null,
        "state": "Baucau",
        "postcode": null,
        "country": "East Timor",
        "country_code": "tl"
      },
      "address": "866, Venilale, 68368 Baucau, Timor Leste"
    },
    {
      "lat": -8.638165495288389,
      "lon": 126.38913839649139,
      "geoinfo": {
        "display_name": "Uma-Anaico, Venilale, Baucau, East Timor",
        "road": null,
        "house_number": null,
        "neighbourhood": null,
        "suburb": null,
        "city_district": null,
        "city": "Venilale",
        "state": "Baucau",
        "postcode": null,
        "country": "East Timor",
        "country_code": "tl"
      },
      "address": "315, Venilale, 79366 Baucau, Timor Leste"
    },
    {
      "lat": -8.644188116263166,
      "lon": 126.35810266064628,
      "geoinfo": {
        "display_name": "Osso Uaque, Venilale, Baucau, East Timor",
        "road": null,
        "house_number": null,
        "neighbourhood": null,
        "suburb": null,
        "city_district": null,
        "city": "Venilale",
        "state": "Baucau",
        "postcode": null,
        "country": "East Timor",
        "country_code": "tl"
      },
      "address": "384, Venilale, 37443 Baucau, Timor Leste"
    },
    {
      "lat": -8.61336275436045,
      "lon": 126.36498553387794,
      "geoinfo": {
        "display_name": "Venilale, Baucau, East Timor",
        "road": null,
        "house_number": null,
        "neighbourhood": null,
        "suburb": null,
        "city_district": null,
        "city": null,
        "state": "Baucau",
        "postcode": null,
        "country": "East Timor",
        "country_code": "tl"
      },
      "address": "258, Venilale, 46999 Baucau, Timor Leste"
    },
    {
      "lat": -8.635399760997263,
      "lon": 126.36818374688765,
      "geoinfo": {
        "display_name": "Uatolia, Venilale, Baucau, East Timor",
        "road": null,
        "house_number": null,
        "neighbourhood": null,
        "suburb": null,
        "city_district": null,
        "city": "Venilale",
        "state": "Baucau",
        "postcode": null,
        "country": "East Timor",
        "country_code": "tl"
      },
      "address": "813, Venilale, 87837 Baucau, Timor Leste"
    }
  ],
  "updated_at": "2025-10-19T07:16:53.467602+00:00",
  "_kind": "geo_samples"
}