{
  "country_code": "CU",
  "country": "Cuba",
  "city": "Media Luna",
  "geonameid": 3547260,
  "target_addresses": 4,
  "samples": [
    {
      "lat": 20.161395604452288,
      "lon": -77.42219536443795,
      "geoinfo": {
        "display_name": "Carretera Manzanillo - Niquero, Media Luna, Granma, Cuba",
        "road": "Carretera Manzanillo - Niquero",
        "house_number": null,
        "neighbourhood": null,
        "suburb": null,
        "city_district": null,
        "city": "Media Luna",
        "state": "Granma",
        "postcode": null,
        "country": "Cuba",
        "country_code": "cu"
      },
      "address": "Carretera Manzanillo - Niquero, Media Luna, Granma, Cuba"
    },
    {
      "lat": 20.119399583500922,
      "lon": -77.42967539917383,
      "geoinfo": {
        "display_name": "Vicana Abajo, Media Luna, Granma, Cuba",
        "road": null,
        "house_number": null,
        "neighbourhood": null,
        "suburb": null,
        "city_district": null,
        "city": "Media Luna",
        "state": "Granma",
        "postcode": null,
        "country": "Cuba",
        "country_code": "cu"
      },
      "address": "771, Vicana Abajo, Media Luna, 11180 Granma, Cuba"
    },
    {
      "lat": 20.158003007629667,
      "lon": -77.44243912908463,
      "geoinfo": {
        "display_name": "Carretera de la Playa de Media Luna, Media Luna, Granma, Cuba",
        "road": "Carretera de la Playa de Media Luna",
        "house_number": null,
        "neighbourhood": null,
        "suburb": null,
        "city_district": null,
        "city": "Media Luna",
        "state": "Granma",
        "postcode": null,
        "country": "Cuba",
        "country_code": "cu"
      },
      "address": "824, Carretera de la Playa de Media Luna, Media Luna, 39746 Granma, Cuba"
    },
    {
      "lat": 20.128694200557963,
      "lon": -77.42638106362598,
      "geoinfo": {
        "display_name": "Bongo, Vicana Abajo, Media Luna, Granma, Cuba",
        "road": null,
        "house_number": null,
        "neighbourhood": "Bongo",
        "suburb": null,
        "city_district": null,
        "city": "Media Luna",
        "state": "Granma",
        "postcode": null,
        "country": "Cuba",
        "country_code": "cu"
      },
      "address": "929, Bongo, Media Luna, 10905 Granma, Cuba"
    }
  ],
  "updated_at": "2025-10-19T03:52:41.554624+00:00",
  "_kind": "geo_samples"
}