{
  "country_code": "CU",
  "country": "Cuba",
  "city": "San Cristobal",
  "geonameid": 3540680,
  "target_addresses": 4,
  "samples": [
    {
      "lat": 22.675980859412853,
      "lon": -83.06921953352402,
      "geoinfo": {
        "display_name": "Las Lágrimas, San Cristóbal, Artemisa, 22800, Cuba",
        "road": null,
        "house_number": null,
        "neighbourhood": null,
        "suburb": null,
        "city_district": null,
        "city": "San Cristóbal",
        "state": "Artemisa",
        "postcode": "22800",
        "country": "Cuba",
        "country_code": "cu"
      },
      "address": "San Cristobal, Artemisa, Cuba"
    },
    {
      "lat": 22.719333167847438,
      "lon": -83.09578895449611,
      "geoinfo": {
        "display_name": "Modesto Serrano, San Cristóbal, Artemisa, 22800, Cuba",
        "road": null,
        "house_number": null,
        "neighbourhood": null,
        "suburb": null,
        "city_district": null,
        "city": "San Cristóbal",
        "state": "Artemisa",
        "postcode": "22800",
        "country": "Cuba",
        "country_code": "cu"
      },
      "address": "095, Modesto Serrano, San Cristóbal, Artemisa, 22800, Cuba"
    },
    {
      "lat": 22.727879716109506,
      "lon": -83.05330601840083,
      "geoinfo": {
        "display_name": "El Modelo, San Cristóbal, Artemisa, 22800, Cuba",
        "road": null,
        "house_number": null,
        "neighbourhood": null,
        "suburb": null,
        "city_district": null,
        "city": "San Cristóbal",
        "state": "Artemisa",
        "postcode": "22800",
        "country": "Cuba",
        "country_code": "cu"
      },
      "address": "385, El Modelo, San Cristóbal, Artemisa, 22800, Cuba"
    },
    {
      "lat": 22.705841687483595,
      "lon": -83.01196316381096,
      "geoinfo": {
        "display_name": "Las Tecas, San Cristóbal, Artemisa, 22800, Cuba",
        "road": null,
        "house_number": null,
        "neighbourhood": null,
        "suburb": null,
        "city_district": null,
        "city": "San Cristóbal",
        "state": "Artemisa",
        "postcode": "22800",
        "country": "Cuba",
        "country_code": "cu"
      },
      "address": "976, Las Tecas, San Cristóbal, Artemisa, 22800, Cuba"
    }
  ],
  "updated_at": "2025-10-19T03:52:15.533242+00:00",
  "_kind": "geo_samples"
}