{
  "country_code": "KH",
  "country": "Cambodia",
  "city": "Koh Kong",
  "geonameid": 1830468,
  "target_addresses": 4,
  "samples": [
    {
      "lat": 11.58689235672778,
      "lon": 102.96809827584445,
      "geoinfo": {
        "display_name": "Phum Stoeng Veng, Khemara Phoumin, Koh Kong, Cambodia",
        "road": null,
        "house_number": null,
        "neighbourhood": null,
        "suburb": null,
        "city_district": null,
        "city": "Khemara Phoumin",
        "state": "Koh Kong",
        "postcode": null,
        "country": "Cambodia",
        "country_code": "kh"
      },
      "address": "Koh Kong, Koh Kong, Cambodia"
    },
    {
      "lat": 11.617581416772639,
      "lon": 103.00005021104765,
      "geoinfo": {
        "display_name": "National Road 10, Khemara Phoumin, Koh Kong, Cambodia",
        "road": "National Road 10",
        "house_number": null,
        "neighbourhood": null,
        "suburb": null,
        "city_district": null,
        "city": "Khemara Phoumin",
        "state": "Koh Kong",
        "postcode": null,
        "country": "Cambodia",
        "country_code": "kh"
      },
      "address": "National Road 10, Koh Kong, Koh Kong, Cambodia"
    },
    {
      "lat": 11.61946972588429,
      "lon": 102.98825539342664,
      "geoinfo": {
        "display_name": "Koh Kong bus station, 10, Khemara Phoumin, Koh Kong, Cambodia",
        "road": "10",
        "house_number": null,
        "neighbourhood": null,
        "suburb": null,
        "city_district": null,
        "city": "Khemara Phoumin",
        "state": "Koh Kong",
        "postcode": null,
        "country": "Cambodia",
        "country_code": "kh"
      },
      "address": "10, Koh Kong, Koh Kong, Cambodia"
    },
    {
      "lat": 11.637279631677874,
      "lon": 102.97509010191719,
      "geoinfo": {
        "display_name": "Mondol Seima, Koh Kong, Cambodia",
        "road": null,
        "house_number": null,
        "neighbourhood": null,
        "suburb": null,
        "city_district": null,
        "city": "Mondol Seima",
        "state": "Koh Kong",
        "postcode": null,
        "country": "Cambodia",
        "country_code": "kh"
      },
      "address": "962, Mondol Seima, 88360 Koh Kong, Cambodia"
    },
    {
      "lat": 11.642482725673007,
      "lon": 102.96252817907154,
      "geoinfo": {
        "display_name": "Mondol Seima, Koh Kong, Cambodia",
        "road": null,
        "house_number": null,
        "neighbourhood": null,
        "suburb": null,
        "city_district": null,
        "city": "Mondol Seima",
        "state": "Koh Kong",
        "postcode": null,
        "country": "Cambodia",
        "country_code": "kh"
      },
      "address": "395, Mondol Seima, 87845 Koh Kong, Cambodia"
    },
    {
      "lat": 11.576479208496202,
      "lon": 102.96164713215686,
      "geoinfo": {
        "display_name": "Phum Boeung Khun Chhang, Koh Kong, Cambodia",
        "road": null,
        "house_number": null,
        "neighbourhood": null,
        "suburb": null,
        "city_district": null,
        "city": "Phum Boeung Khun Chhang",
        "state": "Koh Kong",
        "postcode": null,
        "country": "Cambodia",
        "country_code": "kh"
      },
      "address": "885, Phum Boeung Khun Chhang, 85909 Koh Kong, Cambodia"
    },
    {
      "lat": 11.586417050239904,
      "lon": 102.98778643973307,
      "geoinfo": {
        "display_name": "Phum Stoeng Veng, Khemara Phoumin, Koh Kong, Cambodia",
        "road": null,
        "house_number": null,
        "neighbourhood": null,
        "suburb": null,
        "city_district": null,
        "city": "Khemara Phoumin",
        "state": "Koh Kong",
        "postcode": null,
        "country": "Cambodia",
        "country_code": "kh"
      },
      "address": "995, Phum Stoeng Veng, Khemara Phoumin, 25982 Koh Kong, Cambodia"
    }
  ],
  "updated_at": "2025-10-19T05:10:59.670221+00:00",
  "_kind": "geo_samples"
}