{
  "country_code": "KH",
  "country": "Cambodia",
  "city": "Kratié",
  "geonameid": 1830564,
  "target_addresses": 4,
  "samples": [
    {
      "lat": 12.457884840977417,
      "lon": 105.99038154244127,
      "geoinfo": {
        "display_name": "Roha, Prek Prasab, Kratie, Cambodia",
        "road": null,
        "house_number": null,
        "neighbourhood": null,
        "suburb": null,
        "city_district": null,
        "city": "Prek Prasab",
        "state": "Kratie",
        "postcode": null,
        "country": "Cambodia",
        "country_code": "kh"
      },
      "address": "Kratié, Kratie, Cambodia"
    },
    {
      "lat": 12.499641808417717,
      "lon": 106.00360150632777,
      "geoinfo": {
        "display_name": "Nature Cafe, 306, Kratié, Kracheh, Kratie, Cambodia",
        "road": "306",
        "house_number": null,
        "neighbourhood": null,
        "suburb": null,
        "city_district": null,
        "city": "Kratié",
        "state": "Kratie",
        "postcode": null,
        "country": "Cambodia",
        "country_code": "kh"
      },
      "address": "306, Kratié, Kratie, Cambodia"
    },
    {
      "lat": 12.471229309055602,
      "lon": 106.02841109584087,
      "geoinfo": {
        "display_name": "Street Market, Kratié, Kracheh, Kratie, Cambodia",
        "road": "Street Market",
        "house_number": null,
        "neighbourhood": null,
        "suburb": null,
        "city_district": null,
        "city": "Kratié",
        "state": "Kratie",
        "postcode": null,
        "country": "Cambodia",
        "country_code": "kh"
      },
      "address": "Street Market, Kratié, Kratie, Cambodia"
    },
    {
      "lat": 12.492951578207872,
      "lon": 106.00660379542103,
      "geoinfo": {
        "display_name": "Boat to Koh Trong @ (wet_season), Kratié, Kracheh, Kratie, Cambodia",
        "road": "Boat to Koh Trong @ (wet_season)",
        "house_number": null,
        "neighbourhood": null,
        "suburb": null,
        "city_district": null,
        "city": "Kratié",
        "state": "Kratie",
        "postcode": null,
        "country": "Cambodia",
        "country_code": "kh"
      },
      "address": "Boat to Koh Trong @ (wet_season), Kratié, Kratie, Cambodia"
    },
    {
      "lat": 12.483590294989142,
      "lon": 106.02800967075908,
      "geoinfo": {
        "display_name": "360 degree Viewpoint, Rue N° 10, Kratié, Kracheh, Kratie, Cambodia",
        "road": "Rue N° 10",
        "house_number": null,
        "neighbourhood": null,
        "suburb": null,
        "city_district": null,
        "city": "Kratié",
        "state": "Kratie",
        "postcode": null,
        "country": "Cambodia",
        "country_code": "kh"
      },
      "address": "360 degree Viewpoint, Rue N° 10, Kratié, Kracheh, Kratie, Cambodia"
    },
    {
      "lat": 12.504308594194756,
      "lon": 105.98993994940024,
      "geoinfo": {
        "display_name": "Shadowed bench with view on the Mekong, 306, Kracheh, Kratie, Cambodia",
        "road": "306",
        "house_number": null,
        "neighbourhood": null,
        "suburb": null,
        "city_district": null,
        "city": null,
        "state": "Kratie",
        "postcode": null,
        "country": "Cambodia",
        "country_code": "kh"
      },
      "address": "306, Kratié, 92492 Kratie, Cambodia"
    },
    {
      "lat": 12.530157094120673,
      "lon": 106.0248830847555,
      "geoinfo": {
        "display_name": "Kratié, Kracheh, Kratie, Cambodia",
        "road": null,
        "house_number": null,
        "neighbourhood": null,
        "suburb": null,
        "city_district": null,
        "city": "Kratié",
        "state": "Kratie",
        "postcode": null,
        "country": "Cambodia",
        "country_code": "kh"
      },
      "address": "945, Kratié, Kracheh, 40784 Kratie, Cambodia"
    },
    {
      "lat": 12.465801719970521,
      "lon": 106.0343358630484,
      "geoinfo": {
        "display_name": "Kratié, Kracheh, Kratie, Cambodia",
        "road": null,
        "house_number": null,
        "neighbourhood": null,
        "suburb": null,
        "city_district": null,
        "city": "Kratié",
        "state": "Kratie",
        "postcode": null,
        "country": "Cambodia",
        "country_code": "kh"
      },
      "address": "113, Kratié, Kracheh, 64917 Kratie, Cambodia"
    }
  ],
  "updated_at": "2025-10-19T03:55:33.597960+00:00",
  "_kind": "geo_samples"
}