{
  "country_code": "KH",
  "country": "Cambodia",
  "city": "Svay Rieng",
  "geonameid": 1821993,
  "target_addresses": 4,
  "samples": [
    {
      "lat": 11.095579935938835,
      "lon": 105.80858737862458,
      "geoinfo": {
        "display_name": "Sangkat Pou Ta Hao, Sangkhoar Quarter, Svay Rieng, Cambodia",
        "road": null,
        "house_number": null,
        "neighbourhood": null,
        "suburb": "Sangkhoar Quarter",
        "city_district": null,
        "city": null,
        "state": "Svay Rieng",
        "postcode": null,
        "country": "Cambodia",
        "country_code": "kh"
      },
      "address": "Sangkhoar Quarter, Svay Rieng, Svay Rieng, Cambodia"
    },
    {
      "lat": 11.051552228886427,
      "lon": 105.81509692657525,
      "geoinfo": {
        "display_name": "334, Basak Commune, Svay Chrum, Svay Rieng, Cambodia",
        "road": "334",
        "house_number": null,
        "neighbourhood": null,
        "suburb": null,
        "city_district": null,
        "city": "Basak Commune",
        "state": "Svay Rieng",
        "postcode": null,
        "country": "Cambodia",
        "country_code": "kh"
      },
      "address": "334, Svay Rieng, Svay Rieng, Cambodia"
    },
    {
      "lat": 11.06663379684101,
      "lon": 105.82147944826944,
      "geoinfo": {
        "display_name": "Svay Toea Quarter, Svay Rieng, Cambodia",
        "road": null,
        "house_number": null,
        "neighbourhood": null,
        "suburb": "Svay Toea Quarter",
        "city_district": null,
        "city": null,
        "state": "Svay Rieng",
        "postcode": null,
        "country": "Cambodia",
        "country_code": "kh"
      },
      "address": "Svay Toea Quarter, Svay Rieng, Svay Rieng, Cambodia"
    },
    {
      "lat": 11.112156468913723,
      "lon": 105.80328962879238,
      "geoinfo": {
        "display_name": "Chek Quarter, Svay Rieng, Cambodia",
        "road": null,
        "house_number": null,
        "neighbourhood": null,
        "suburb": "Chek Quarter",
        "city_district": null,
        "city": null,
        "state": "Svay Rieng",
        "postcode": null,
        "country": "Cambodia",
        "country_code": "kh"
      },
      "address": "Chek Quarter, Svay Rieng, Svay Rieng, Cambodia"
    },
    {
      "lat": 11.059165453251998,
      "lon": 105.83027575237689,
      "geoinfo": {
        "display_name": "Koy Trabaek Quarter, Svay Rieng, Cambodia",
        "road": null,
        "house_number": null,
        "neighbourhood": null,
        "suburb": "Koy Trabaek Quarter",
        "city_district": null,
        "city": null,
        "state": "Svay Rieng",
        "postcode": null,
        "country": "Cambodia",
        "country_code": "kh"
      },
      "address": "036, Koy Trabaek Quarter, 21311 Svay Rieng, Cambodia"
    },
    {
      "lat": 11.10181624782056,
      "lon": 105.81063000548818,
      "geoinfo": {
        "display_name": "Sangkhoar Quarter, Svay Rieng, Cambodia",
        "road": null,
        "house_number": null,
        "neighbourhood": null,
        "suburb": "Sangkhoar Quarter",
        "city_district": null,
        "city": "Svay Rieng",
        "state": "Svay Rieng",
        "postcode": null,
        "country": "Cambodia",
        "country_code": "kh"
      },
      "address": "716, Sangkhoar Quarter, 01875 Svay Rieng, Cambodia"
    },
    {
      "lat": 11.112531690979242,
      "lon": 105.79630510778127,
      "geoinfo": {
        "display_name": "Chek Quarter, Svay Rieng, Cambodia",
        "road": null,
        "house_number": null,
        "neighbourhood": null,
        "suburb": "Chek Quarter",
        "city_district": null,
        "city": null,
        "state": "Svay Rieng",
        "postcode": null,
        "country": "Cambodia",
        "country_code": "kh"
      },
      "address": "892, Chek Quarter, 66230 Svay Rieng, Cambodia"
    },
    {
      "lat": 11.081586156839405,
      "lon": 105.82227182152322,
      "geoinfo": {
        "display_name": "Sangkat Pou Ta Hao, Sangkhoar Quarter, Svay Rieng, Cambodia",
        "road": null,
        "house_number": null,
        "neighbourhood": null,
        "suburb": "Sangkhoar Quarter",
        "city_district": null,
        "city": null,
        "state": "Svay Rieng",
        "postcode": null,
        "country": "Cambodia",
        "country_code": "kh"
      },
      "address": "973, Sangkhoar Quarter, Svay Rieng, 76899 Svay Rieng, Cambodia"
    }
  ],
  "updated_at": "2025-10-19T03:28:32.333686+00:00",
  "_kind": "geo_samples"
}