{
  "country_code": "KH",
  "country": "Cambodia",
  "city": "Ta Khmau",
  "geonameid": 1821935,
  "target_addresses": 4,
  "samples": [
    {
      "lat": 11.441008294250018,
      "lon": 104.95131739912685,
      "geoinfo": {
        "display_name": "Krong Ta Khmau, Kandal, 121208, Cambodia",
        "road": null,
        "house_number": null,
        "neighbourhood": null,
        "suburb": null,
        "city_district": null,
        "city": "Krong Ta Khmau",
        "state": "Kandal",
        "postcode": "121208",
        "country": "Cambodia",
        "country_code": "kh"
      },
      "address": "Ta Khmau, Kandal, Cambodia"
    },
    {
      "lat": 11.448326418473533,
      "lon": 104.95422652232587,
      "geoinfo": {
        "display_name": "Prime Minister Bodyguard Headquarters, National Road 21, Krong Ta Khmau, Kandal, 121208, Cambodia",
        "road": "National Road 21",
        "house_number": null,
        "neighbourhood": null,
        "suburb": null,
        "city_district": null,
        "city": "Krong Ta Khmau",
        "state": "Kandal",
        "postcode": "121208",
        "country": "Cambodia",
        "country_code": "kh"
      },
      "address": "National Road 21, Ta Khmau, Kandal, Cambodia"
    },
    {
      "lat": 11.50722586213457,
      "lon": 104.97781855514174,
      "geoinfo": {
        "display_name": "Phum Champuh K'aek, Sangkat Prek Aeng, Khan Chbar Ampov, Phnom Penh, 121206, Cambodia",
        "road": null,
        "house_number": null,
        "neighbourhood": null,
        "suburb": null,
        "city_district": null,
        "city": "Khan Chbar Ampov",
        "state": "Phnom Penh",
        "postcode": "121206",
        "country": "Cambodia",
        "country_code": "kh"
      },
      "address": "Ta Khmau, Phnom Penh, Cambodia"
    },
    {
      "lat": 11.462713427239148,
      "lon": 104.96710349867526,
      "geoinfo": {
        "display_name": "National Road 21A, Krong Ta Khmau, Kandal, 121208, Cambodia",
        "road": "National Road 21A",
        "house_number": null,
        "neighbourhood": null,
        "suburb": null,
        "city_district": null,
        "city": "Krong Ta Khmau",
        "state": "Kandal",
        "postcode": "121208",
        "country": "Cambodia",
        "country_code": "kh"
      },
      "address": "National Road 21A, Ta Khmau, Kandal, Cambodia"
    },
    {
      "lat": 11.457125875356345,
      "lon": 104.98233086666363,
      "geoinfo": {
        "display_name": "Krong Ta Khmau, Kandal, 121208, Cambodia",
        "road": null,
        "house_number": null,
        "neighbourhood": null,
        "suburb": null,
        "city_district": null,
        "city": "Krong Ta Khmau",
        "state": "Kandal",
        "postcode": "121208",
        "country": "Cambodia",
        "country_code": "kh"
      },
      "address": "523, Krong Ta Khmau, Kandal, 121208, Cambodia"
    },
    {
      "lat": 11.478724276951649,
      "lon": 104.93387984631529,
      "geoinfo": {
        "display_name": "Krong Ta Khmau, Kandal, 120602, Cambodia",
        "road": null,
        "house_number": null,
        "neighbourhood": null,
        "suburb": null,
        "city_district": null,
        "city": "Krong Ta Khmau",
        "state": "Kandal",
        "postcode": "120602",
        "country": "Cambodia",
        "country_code": "kh"
      },
      "address": "796, Krong Ta Khmau, Kandal, 120602, Cambodia"
    },
    {
      "lat": 11.463026496073308,
      "lon": 104.96336915013312,
      "geoinfo": {
        "display_name": "Krong Ta Khmau, Kandal, 121208, Cambodia",
        "road": null,
        "house_number": null,
        "neighbourhood": null,
        "suburb": null,
        "city_district": null,
        "city": "Krong Ta Khmau",
        "state": "Kandal",
        "postcode": "121208",
        "country": "Cambodia",
        "country_code": "kh"
      },
      "address": "539, Krong Ta Khmau, Kandal, 121208, Cambodia"
    },
    {
      "lat": 11.47050345577198,
      "lon": 104.94703175579616,
      "geoinfo": {
        "display_name": "Krong Ta Khmau, Kandal, 121208, Cambodia",
        "road": null,
        "house_number": null,
        "neighbourhood": null,
        "suburb": null,
        "city_district": null,
        "city": "Krong Ta Khmau",
        "state": "Kandal",
        "postcode": "121208",
        "country": "Cambodia",
        "country_code": "kh"
      },
      "address": "966, Krong Ta Khmau, Kandal, 121208, Cambodia"
    }
  ],
  "updated_at": "2025-10-19T05:34:48.771453+00:00",
  "_kind": "geo_samples"
}