{
  "country_code": "MA",
  "country": "Morocco",
  "city": "Fès al Bali",
  "geonameid": 2548880,
  "target_addresses": 3,
  "samples": [
    {
      "lat": 34.061630663671885,
      "lon": -4.9682618452426,
      "geoinfo": {
        "display_name": "Oued Zitoun, Arrondissement de Fès-Médina مقاطعة فاس المدينة, Fez, Pachalik du Fes باشوية فاس, Fez Prefecture, Fez-Meknes, 30200, Morocco",
        "road": null,
        "house_number": null,
        "neighbourhood": "Oued Zitoun",
        "suburb": "Arrondissement de Fès-Médina مقاطعة فاس المدينة",
        "city_district": null,
        "city": "Fez",
        "state": null,
        "postcode": "30200",
        "country": "Morocco",
        "country_code": "ma"
      },
      "address": "Oued Zitoun, Arrondissement de Fès-Médina مقاطعة فاس المدينة, Fez, Pachalik du Fes باشوية فاس, Fez Prefecture, Fez-Meknes, 30200, Morocco"
    },
    {
      "lat": 34.07664217051642,
      "lon": -4.964727617649039,
      "geoinfo": {
        "display_name": "Ain Bou Ali آيت بو علي, caïdat de Ain Bou Ali, cercle d'Oulad Jemaa Lemta, Province Moulay Yacoub, Fez-Meknes, 30204, Morocco",
        "road": null,
        "house_number": null,
        "neighbourhood": null,
        "suburb": null,
        "city_district": null,
        "city": "Ain Bou Ali آيت بو علي",
        "state": null,
        "postcode": "30204",
        "country": "Morocco",
        "country_code": "ma"
      },
      "address": "500, Ain Bou Ali آيت بو علي, caïdat de Ain Bou Ali, cercle d'Oulad Jemaa Lemta, Province Moulay Yacoub, Fez-Meknes, 30204, Morocco"
    },
    {
      "lat": 34.10235368300476,
      "lon": -4.919493504472757,
      "geoinfo": {
        "display_name": "Lalla Zarah, Ain Bou Ali آيت بو علي, caïdat de Ain Bou Ali, cercle d'Oulad Jemaa Lemta, Province Moulay Yacoub, Fez-Meknes, Morocco",
        "road": null,
        "house_number": null,
        "neighbourhood": null,
        "suburb": null,
        "city_district": null,
        "city": "Ain Bou Ali آيت بو علي",
        "state": null,
        "postcode": null,
        "country": "Morocco",
        "country_code": "ma"
      },
      "address": "373, Lalla Zarah, Ain Bou Ali آيت بو علي, caïdat de Ain Bou Ali, cercle d'Oulad Jemaa Lemta, Province Moulay Yacoub, 76358 Fez-Meknes, Morocco"
    }
  ],
  "updated_at": "2025-10-19T05:40:27.040406+00:00",
  "_kind": "geo_samples"
}