{
  "country_code": "MA",
  "country": "Morocco",
  "city": "Méchouar-Kasba",
  "geonameid": 12718680,
  "target_addresses": 3,
  "samples": [
    {
      "lat": 31.574433662934506,
      "lon": -8.02712080200072,
      "geoinfo": {
        "display_name": "Tassoultante, caïdat de Tasoultante, cercle de Saada, Marrakesh Prefecture, Marrakech-Safi, 40054, Morocco",
        "road": null,
        "house_number": null,
        "neighbourhood": null,
        "suburb": null,
        "city_district": null,
        "city": "Tassoultante",
        "state": null,
        "postcode": "40054",
        "country": "Morocco",
        "country_code": "ma"
      },
      "address": "Méchouar-Kasba, Morocco"
    },
    {
      "lat": 31.63419589444937,
      "lon": -8.018215783763184,
      "geoinfo": {
        "display_name": "Boulevard Mohammed Zerktouni, Guéliz ⴳⵉⵍⵉⵣ گليز, Arrondissement de Gueliz مقاطعة كليز, Marrakesh, Pachalik de Marrakech, Marrakesh Prefecture, Marrakech-Safi, 40010, Morocco",
        "road": "Boulevard Mohammed Zerktouni",
        "house_number": null,
        "neighbourhood": null,
        "suburb": "Guéliz ⴳⵉⵍⵉⵣ گليز",
        "city_district": null,
        "city": "Marrakesh",
        "state": null,
        "postcode": "40010",
        "country": "Morocco",
        "country_code": "ma"
      },
      "address": "229, Boulevard Mohammed Zerktouni, Guéliz ⴳⵉⵍⵉⵣ گليز, Arrondissement de Gueliz مقاطعة كليز, Marrakesh, Pachalik de Marrakech, Marrakesh Prefecture, Marrakech-Safi, 40010, Morocco"
    },
    {
      "lat": 31.617458338106196,
      "lon": -8.017113004365918,
      "geoinfo": {
        "display_name": "Route de la Piscine, L'Hivernage, Arrondissement de Gueliz مقاطعة كليز, Marrakesh, Pachalik de Marrakech, Marrakesh Prefecture, Marrakech-Safi, 40020, Morocco",
        "road": "Route de la Piscine",
        "house_number": null,
        "neighbourhood": "L'Hivernage",
        "suburb": "Arrondissement de Gueliz مقاطعة كليز",
        "city_district": null,
        "city": "Marrakesh",
        "state": null,
        "postcode": "40020",
        "country": "Morocco",
        "country_code": "ma"
      },
      "address": "583, Route de la Piscine, L'Hivernage, Arrondissement de Gueliz مقاطعة كليز, Marrakesh, Pachalik de Marrakech, Marrakesh Prefecture, Marrakech-Safi, 40020, Morocco"
    }
  ],
  "updated_at": "2025-10-19T05:40:44.805440+00:00",
  "_kind": "geo_samples"
}