{
  "country_code": "BJ",
  "country": "Benin",
  "city": "Adjarra",
  "geonameid": 2395870,
  "target_addresses": 10,
  "samples": [
    {
      "lat": 6.558667033480442,
      "lon": 2.6689084806556727,
      "geoinfo": {
        "display_name": "Sakpago, Gbégodo, Avrankou, Ouémé Department, Benin",
        "road": null,
        "house_number": null,
        "neighbourhood": null,
        "suburb": null,
        "city_district": null,
        "city": "Avrankou",
        "state": "Ouémé Department",
        "postcode": null,
        "country": "Benin",
        "country_code": "bj"
      },
      "address": "Adjarra, Ouémé Department, Benin"
    },
    {
      "lat": 6.503249569892836,
      "lon": 2.6770204072529746,
      "geoinfo": {
        "display_name": "RN 36, Mèdédjonou-Gbéhadji, Anagbo, Mèdédjonou, Adjarra, Ouémé Department, Benin",
        "road": "RN 36",
        "house_number": null,
        "neighbourhood": null,
        "suburb": null,
        "city_district": null,
        "city": "Mèdédjonou",
        "state": "Ouémé Department",
        "postcode": null,
        "country": "Benin",
        "country_code": "bj"
      },
      "address": "RN 36, Adjarra, Ouémé Department, Benin"
    },
    {
      "lat": 6.499968991531288,
      "lon": 2.6926064695987653,
      "geoinfo": {
        "display_name": "Mèdédjonou-Gbéhadji, Mèdédjonou, Adjarra, Ouémé Department, Benin",
        "road": null,
        "house_number": null,
        "neighbourhood": null,
        "suburb": null,
        "city_district": null,
        "city": "Mèdédjonou",
        "state": "Ouémé Department",
        "postcode": null,
        "country": "Benin",
        "country_code": "bj"
      },
      "address": "Adjarra, 65190 Ouémé Department, Benin"
    },
    {
      "lat": 6.518443805128975,
      "lon": 2.6718076610247787,
      "geoinfo": {
        "display_name": "Adjinan, Adjarra, Ouémé Department, Benin",
        "road": null,
        "house_number": null,
        "neighbourhood": null,
        "suburb": null,
        "city_district": null,
        "city": "Adjarra",
        "state": "Ouémé Department",
        "postcode": null,
        "country": "Benin",
        "country_code": "bj"
      },
      "address": "Adjarra, 32818 Ouémé Department, Benin"
    },
    {
      "lat": 6.52667859066424,
      "lon": 2.710028904117623,
      "geoinfo": {
        "display_name": "Djégou-Nagot, Avrankou, Ouémé Department, Benin",
        "road": null,
        "house_number": null,
        "neighbourhood": null,
        "suburb": null,
        "city_district": null,
        "city": "Avrankou",
        "state": "Ouémé Department",
        "postcode": null,
        "country": "Benin",
        "country_code": "bj"
      },
      "address": "700, Djégou-Nagot, Avrankou, 50098 Ouémé Department, Benin"
    },
    {
      "lat": 6.552580945326361,
      "lon": 2.6719179373903423,
      "geoinfo": {
        "display_name": "Agbokou, Gbégodo, Avrankou, Ouémé Department, Benin",
        "road": null,
        "house_number": null,
        "neighbourhood": null,
        "suburb": null,
        "city_district": null,
        "city": "Avrankou",
        "state": "Ouémé Department",
        "postcode": null,
        "country": "Benin",
        "country_code": "bj"
      },
      "address": "408, Agbokou, Gbégodo, Avrankou, 78804 Ouémé Department, Benin"
    },
    {
      "lat": 6.57606954650498,
      "lon": 2.6833831698288684,
      "geoinfo": {
        "display_name": "Houngon-Djinon, Gbozounmè, Avrankou, Ouémé Department, Benin",
        "road": null,
        "house_number": null,
        "neighbourhood": null,
        "suburb": null,
        "city_district": null,
        "city": "Gbozounmè",
        "state": "Ouémé Department",
        "postcode": null,
        "country": "Benin",
        "country_code": "bj"
      },
      "address": "676, Houngon-Djinon, Gbozounmè, Avrankou, 05138 Ouémé Department, Benin"
    },
    {
      "lat": 6.546241523199637,
      "lon": 2.7054233239136134,
      "geoinfo": {
        "display_name": "Dan, Avrankou, Ouémé Department, Benin",
        "road": null,
        "house_number": null,
        "neighbourhood": null,
        "suburb": null,
        "city_district": null,
        "city": "Avrankou",
        "state": "Ouémé Department",
        "postcode": null,
        "country": "Benin",
        "country_code": "bj"
      },
      "address": "849, Adjarra, 69681 Ouémé Department, Benin"
    },
    {
      "lat": 6.564954991434278,
      "lon": 2.6885064689738343,
      "geoinfo": {
        "display_name": "Houngon-Djinon, Gbozounmè, Avrankou, Ouémé Department, Benin",
        "road": null,
        "house_number": null,
        "neighbourhood": null,
        "suburb": null,
        "city_district": null,
        "city": "Gbozounmè",
        "state": "Ouémé Department",
        "postcode": null,
        "country": "Benin",
        "country_code": "bj"
      },
      "address": "849, Houngon-Djinon, Gbozounmè, Avrankou, 00934 Ouémé Department, Benin"
    },
    {
      "lat": 6.570169614665087,
      "lon": 2.663153060637361,
      "geoinfo": {
        "display_name": "Dangbodji, Avrankou, Ouémé Department, Benin",
        "road": null,
        "house_number": null,
        "neighbourhood": null,
        "suburb": null,
        "city_district": null,
        "city": "Avrankou",
        "state": "Ouémé Department",
        "postcode": null,
        "country": "Benin",
        "country_code": "bj"
      },
      "address": "230, Dangbodji, Avrankou, 02326 Ouémé Department, Benin"
    }
  ],
  "updated_at": "2025-10-19T03:30:33.945345+00:00",
  "_kind": "geo_samples"
}