{
  "country_code": "BJ",
  "country": "Benin",
  "city": "Banikoara",
  "geonameid": 2395317,
  "target_addresses": 2,
  "samples": [
    {
      "lat": 11.261250415335997,
      "lon": 2.4286174721116933,
      "geoinfo": {
        "display_name": "Banworou Bansou, Banikoara, Alibori Department, Benin",
        "road": null,
        "house_number": null,
        "neighbourhood": null,
        "suburb": null,
        "city_district": null,
        "city": "Banikoara",
        "state": "Alibori Department",
        "postcode": null,
        "country": "Benin",
        "country_code": "bj"
      },
      "address": "Banikoara, Alibori Department, Benin"
    },
    {
      "lat": 11.3030171776171,
      "lon": 2.466254905055574,
      "geoinfo": {
        "display_name": "Goguérou, Bakani, Simpérou, Banikoara, Alibori Department, Benin",
        "road": null,
        "house_number": null,
        "neighbourhood": "Goguérou",
        "suburb": null,
        "city_district": null,
        "city": "Simpérou",
        "state": "Alibori Department",
        "postcode": null,
        "country": "Benin",
        "country_code": "bj"
      },
      "address": "Goguérou, Banikoara, Alibori Department, Benin"
    },
    {
      "lat": 11.30341588410878,
      "lon": 2.4620728827060243,
      "geoinfo": {
        "display_name": "Goguérou, Bakani, Simpérou, Banikoara, Alibori Department, Benin",
        "road": null,
        "house_number": null,
        "neighbourhood": "Goguérou",
        "suburb": null,
        "city_district": null,
        "city": "Simpérou",
        "state": "Alibori Department",
        "postcode": null,
        "country": "Benin",
        "country_code": "bj"
      },
      "address": "821, Goguérou, Banikoara, 96268 Alibori Department, Benin"
    },
    {
      "lat": 11.257105711226231,
      "lon": 2.453495093316739,
      "geoinfo": {
        "display_name": "Samanga, Banikoara, Alibori Department, Benin",
        "road": null,
        "house_number": null,
        "neighbourhood": null,
        "suburb": null,
        "city_district": null,
        "city": "Samanga",
        "state": "Alibori Department",
        "postcode": null,
        "country": "Benin",
        "country_code": "bj"
      },
      "address": "567, Samanga, Banikoara, 73524 Alibori Department, Benin"
    }
  ],
  "updated_at": "2025-10-19T02:41:38.561904+00:00",
  "_kind": "geo_samples"
}