{
  "country_code": "BJ",
  "country": "Benin",
  "city": "Cobly",
  "geonameid": 10339095,
  "target_addresses": 2,
  "samples": [
    {
      "lat": 10.535297625531443,
      "lon": 0.9898811450872341,
      "geoinfo": {
        "display_name": "Ouyanou 1, Cobli, Atakora Department, Benin",
        "road": null,
        "house_number": null,
        "neighbourhood": null,
        "suburb": null,
        "city_district": null,
        "city": null,
        "state": "Atakora Department",
        "postcode": null,
        "country": "Benin",
        "country_code": "bj"
      },
      "address": "Cobly, Atakora Department, Benin"
    },
    {
      "lat": 10.450145022803934,
      "lon": 1.0137638005891514,
      "geoinfo": {
        "display_name": "RN 12 bis, Zongo, Kèmaakè, Cobli, Atakora Department, Benin",
        "road": "RN 12 bis",
        "house_number": null,
        "neighbourhood": "Zongo",
        "suburb": null,
        "city_district": null,
        "city": "Cobli",
        "state": "Atakora Department",
        "postcode": null,
        "country": "Benin",
        "country_code": "bj"
      },
      "address": "RN 12 bis, Cobly, Atakora Department, Benin"
    },
    {
      "lat": 10.469905433389883,
      "lon": 0.9910363363391559,
      "geoinfo": {
        "display_name": "Didani, Dissari, Cobli, Atakora Department, Benin",
        "road": null,
        "house_number": null,
        "neighbourhood": null,
        "suburb": null,
        "city_district": null,
        "city": "Dissari",
        "state": "Atakora Department",
        "postcode": null,
        "country": "Benin",
        "country_code": "bj"
      },
      "address": "832, Cobly, 05542 Atakora Department, Benin"
    },
    {
      "lat": 10.501867976324961,
      "lon": 1.0353688408803778,
      "geoinfo": {
        "display_name": "Yidi, Boutipangou, Tanda, Cobli, Atakora Department, Benin",
        "road": null,
        "house_number": null,
        "neighbourhood": null,
        "suburb": null,
        "city_district": null,
        "city": "Tanda",
        "state": "Atakora Department",
        "postcode": null,
        "country": "Benin",
        "country_code": "bj"
      },
      "address": "804, Cobly, 21401 Atakora Department, Benin"
    }
  ],
  "updated_at": "2025-10-19T02:41:17.217842+00:00",
  "_kind": "geo_samples"
}