{
  "country_code": "BJ",
  "country": "Benin",
  "city": "Djakotomé",
  "geonameid": 2394597,
  "target_addresses": 2,
  "samples": [
    {
      "lat": 6.870693551224749,
      "lon": 1.7208533642206905,
      "geoinfo": {
        "display_name": "Gbognonhoué, Davilahoué, Loko-Atoui, Djakotomey, Kouffo Department, Benin",
        "road": null,
        "house_number": null,
        "neighbourhood": null,
        "suburb": null,
        "city_district": null,
        "city": "Loko-Atoui",
        "state": "Kouffo Department",
        "postcode": null,
        "country": "Benin",
        "country_code": "bj"
      },
      "address": "Djakotomé, Kouffo Department, Benin"
    },
    {
      "lat": 6.892949059173971,
      "lon": 1.6859158331203654,
      "geoinfo": {
        "display_name": "RN 2, Dodohoué, Adjintimey, Djakotomey, Kouffo Department, Benin",
        "road": "RN 2",
        "house_number": null,
        "neighbourhood": null,
        "suburb": null,
        "city_district": null,
        "city": "Adjintimey",
        "state": "Kouffo Department",
        "postcode": null,
        "country": "Benin",
        "country_code": "bj"
      },
      "address": "RN 2, Djakotomé, Kouffo Department, Benin"
    },
    {
      "lat": 6.890889599219424,
      "lon": 1.7424074910887548,
      "geoinfo": {
        "display_name": "Kpoglahoué, Kansouhoué, Djakotomey, Kouffo Department, Benin",
        "road": null,
        "house_number": null,
        "neighbourhood": null,
        "suburb": null,
        "city_district": null,
        "city": "Kansouhoué",
        "state": "Kouffo Department",
        "postcode": null,
        "country": "Benin",
        "country_code": "bj"
      },
      "address": "570, Djakotomé, 87386 Kouffo Department, Benin"
    },
    {
      "lat": 6.916620606572098,
      "lon": 1.7259491480413909,
      "geoinfo": {
        "display_name": "Kadahoué, Etonhoué, Djakotomey, Kouffo Department, Benin",
        "road": null,
        "house_number": null,
        "neighbourhood": null,
        "suburb": null,
        "city_district": null,
        "city": "Etonhoué",
        "state": "Kouffo Department",
        "postcode": null,
        "country": "Benin",
        "country_code": "bj"
      },
      "address": "359, Djakotomé, 49412 Kouffo Department, Benin"
    }
  ],
  "updated_at": "2025-10-19T02:41:28.817709+00:00",
  "_kind": "geo_samples"
}