{
  "country_code": "BJ",
  "country": "Benin",
  "city": "Kandi",
  "geonameid": 2393693,
  "target_addresses": 2,
  "samples": [
    {
      "lat": 11.135268733339311,
      "lon": 2.933104862685288,
      "geoinfo": {
        "display_name": "Kéféri-Hinkanté, Kandi 3, Kandi, Alibori Department, Benin",
        "road": null,
        "house_number": null,
        "neighbourhood": null,
        "suburb": "Kandi 3",
        "city_district": null,
        "city": "Kandi",
        "state": "Alibori Department",
        "postcode": null,
        "country": "Benin",
        "country_code": "bj"
      },
      "address": "Kandi 3, Kandi, Alibori Department, Benin"
    },
    {
      "lat": 11.114930575500287,
      "lon": 2.9530740902406185,
      "geoinfo": {
        "display_name": "Alékparé, Kandi 2, Kandi, Alibori Department, Benin",
        "road": null,
        "house_number": null,
        "neighbourhood": "Alékparé",
        "suburb": "Kandi 2",
        "city_district": null,
        "city": "Kandi",
        "state": "Alibori Department",
        "postcode": null,
        "country": "Benin",
        "country_code": "bj"
      },
      "address": "Alékparé, Kandi, Alibori Department, Benin"
    },
    {
      "lat": 11.123051314551331,
      "lon": 2.926470110812939,
      "geoinfo": {
        "display_name": "RNIE 2, Yiroussé, Kandi, Alibori Department, Benin",
        "road": "RNIE 2",
        "house_number": null,
        "neighbourhood": "Yiroussé",
        "suburb": null,
        "city_district": null,
        "city": "Kandi",
        "state": "Alibori Department",
        "postcode": null,
        "country": "Benin",
        "country_code": "bj"
      },
      "address": "RNIE 2, Yiroussé, Kandi, 31728 Alibori Department, Benin"
    },
    {
      "lat": 11.11132260326196,
      "lon": 2.913325360589069,
      "geoinfo": {
        "display_name": "Kandi, Alibori Department, Benin",
        "road": null,
        "house_number": null,
        "neighbourhood": null,
        "suburb": null,
        "city_district": null,
        "city": "Kandi",
        "state": "Alibori Department",
        "postcode": null,
        "country": "Benin",
        "country_code": "bj"
      },
      "address": "790, Kandi, 54904 Alibori Department, Benin"
    }
  ],
  "updated_at": "2025-10-19T01:05:36.393780+00:00",
  "_kind": "geo_samples"
}