{
  "country_code": "BJ",
  "country": "Benin",
  "city": "Pobé",
  "geonameid": 2392108,
  "target_addresses": 2,
  "samples": [
    {
      "lat": 6.990747452777931,
      "lon": 2.676036565203325,
      "geoinfo": {
        "display_name": "Pobè, Plateau Department, Benin",
        "road": null,
        "house_number": null,
        "neighbourhood": null,
        "suburb": null,
        "city_district": null,
        "city": "Pobè",
        "state": "Plateau Department",
        "postcode": null,
        "country": "Benin",
        "country_code": "bj"
      },
      "address": "Pobé, Plateau Department, Benin"
    },
    {
      "lat": 6.979730051973331,
      "lon": 2.6657536843143133,
      "geoinfo": {
        "display_name": "Pobè, Plateau Department, Benin",
        "road": null,
        "house_number": null,
        "neighbourhood": null,
        "suburb": null,
        "city_district": null,
        "city": "Pobè",
        "state": "Plateau Department",
        "postcode": null,
        "country": "Benin",
        "country_code": "bj"
      },
      "address": "090, Pobé, 40400 Plateau Department, Benin"
    },
    {
      "lat": 6.994966800511667,
      "lon": 2.6257359788144323,
      "geoinfo": {
        "display_name": "Itchèdè, Adja-Ouèrè, Plateau Department, Benin",
        "road": null,
        "house_number": null,
        "neighbourhood": null,
        "suburb": null,
        "city_district": null,
        "city": "Itchèdè",
        "state": "Plateau Department",
        "postcode": null,
        "country": "Benin",
        "country_code": "bj"
      },
      "address": "810, Pobé, 29865 Plateau Department, Benin"
    }
  ],
  "updated_at": "2025-10-19T02:42:32.605267+00:00",
  "_kind": "geo_samples"
}