{
  "country_code": "BJ",
  "country": "Benin",
  "city": "Zé",
  "geonameid": 2390740,
  "target_addresses": 10,
  "samples": [
    {
      "lat": 6.7979501983320345,
      "lon": 2.3352341956759077,
      "geoinfo": {
        "display_name": "Adotémè, Houédota-Djoko, Zè, Atlantique Department, Benin",
        "road": null,
        "house_number": null,
        "neighbourhood": null,
        "suburb": null,
        "city_district": null,
        "city": "Houédota-Djoko",
        "state": "Atlantique Department",
        "postcode": null,
        "country": "Benin",
        "country_code": "bj"
      },
      "address": "Zé, Atlantique Department, Benin"
    },
    {
      "lat": 6.745472566981434,
      "lon": 2.296582418289836,
      "geoinfo": {
        "display_name": "RN 31, Houéhouzamè, Sèdjè-Zounmey-Aga, Zè, Atlantique Department, Benin",
        "road": "RN 31",
        "house_number": null,
        "neighbourhood": null,
        "suburb": null,
        "city_district": null,
        "city": "Sèdjè-Zounmey-Aga",
        "state": "Atlantique Department",
        "postcode": null,
        "country": "Benin",
        "country_code": "bj"
      },
      "address": "RN 31, Zé, Atlantique Department, Benin"
    },
    {
      "lat": 6.739900383187814,
      "lon": 2.292847854003135,
      "geoinfo": {
        "display_name": "RN 31, Zè, Atlantique Department, Benin",
        "road": "RN 31",
        "house_number": null,
        "neighbourhood": null,
        "suburb": null,
        "city_district": null,
        "city": "Zè",
        "state": "Atlantique Department",
        "postcode": null,
        "country": "Benin",
        "country_code": "bj"
      },
      "address": "RN 31, Zé, 96430 Atlantique Department, Benin"
    },
    {
      "lat": 6.746351755779104,
      "lon": 2.309133468050062,
      "geoinfo": {
        "display_name": "Gangodjamè, Zè, Atlantique Department, Benin",
        "road": null,
        "house_number": null,
        "neighbourhood": null,
        "suburb": null,
        "city_district": null,
        "city": null,
        "state": "Atlantique Department",
        "postcode": null,
        "country": "Benin",
        "country_code": "bj"
      },
      "address": "Zé, 14546 Atlantique Department, Benin"
    },
    {
      "lat": 6.758650502400174,
      "lon": 2.337600635176629,
      "geoinfo": {
        "display_name": "Akpodji, Houédota-Djoko, Zè, Atlantique Department, Benin",
        "road": null,
        "house_number": null,
        "neighbourhood": null,
        "suburb": null,
        "city_district": null,
        "city": "Houédota-Djoko",
        "state": "Atlantique Department",
        "postcode": null,
        "country": "Benin",
        "country_code": "bj"
      },
      "address": "070, Zé, 49138 Atlantique Department, Benin"
    },
    {
      "lat": 6.789841919902751,
      "lon": 2.3304977407871523,
      "geoinfo": {
        "display_name": "Nanfissotomè, Mangassa, Zè, Atlantique Department, Benin",
        "road": null,
        "house_number": null,
        "neighbourhood": null,
        "suburb": null,
        "city_district": null,
        "city": "Mangassa",
        "state": "Atlantique Department",
        "postcode": null,
        "country": "Benin",
        "country_code": "bj"
      },
      "address": "159, Zé, 37936 Atlantique Department, Benin"
    },
    {
      "lat": 6.8053514449340655,
      "lon": 2.2818948174546745,
      "geoinfo": {
        "display_name": "Tôtchi, Aifa, Zè, Atlantique Department, Benin",
        "road": null,
        "house_number": null,
        "neighbourhood": null,
        "suburb": null,
        "city_district": null,
        "city": "Aifa",
        "state": "Atlantique Department",
        "postcode": null,
        "country": "Benin",
        "country_code": "bj"
      },
      "address": "208, Zé, 72058 Atlantique Department, Benin"
    },
    {
      "lat": 6.787446683039797,
      "lon": 2.3291307260047933,
      "geoinfo": {
        "display_name": "Affossotomè, Mangassa, Zè, Atlantique Department, Benin",
        "road": null,
        "house_number": null,
        "neighbourhood": null,
        "suburb": null,
        "city_district": null,
        "city": "Mangassa",
        "state": "Atlantique Department",
        "postcode": null,
        "country": "Benin",
        "country_code": "bj"
      },
      "address": "427, Zé, 67503 Atlantique Department, Benin"
    },
    {
      "lat": 6.807329698119581,
      "lon": 2.266342920142143,
      "geoinfo": {
        "display_name": "Damè-Centre, Toffo, Atlantique Department, Benin",
        "road": null,
        "house_number": null,
        "neighbourhood": null,
        "suburb": null,
        "city_district": null,
        "city": "Damè-Centre",
        "state": "Atlantique Department",
        "postcode": null,
        "country": "Benin",
        "country_code": "bj"
      },
      "address": "969, Zé, 57546 Atlantique Department, Benin"
    },
    {
      "lat": 6.776154860699527,
      "lon": 2.321014030335109,
      "geoinfo": {
        "display_name": "RN 32 bis, Agbodjèdo, Hèkanmè, Zè, Atlantique Department, Benin",
        "road": "RN 32 bis",
        "house_number": null,
        "neighbourhood": null,
        "suburb": null,
        "city_district": null,
        "city": "Hèkanmè",
        "state": "Atlantique Department",
        "postcode": null,
        "country": "Benin",
        "country_code": "bj"
      },
      "address": "RN 32 bis, Zé, 29504 Atlantique Department, Benin"
    }
  ],
  "updated_at": "2025-10-19T03:29:40.882484+00:00",
  "_kind": "geo_samples"
}