{
  "country_code": "FK",
  "country": "Falkland Islands",
  "city": "Stanley",
  "geonameid": 3426691,
  "target_addresses": 100,
  "samples": [
    {
      "lat": -51.693425064153004,
      "lon": -57.81958024886818,
      "geoinfo": {
        "display_name": "FIPASS, Airport Road, Stanley, Falkland Islands",
        "road": "Airport Road",
        "house_number": null,
        "neighbourhood": null,
        "suburb": "Stanley",
        "city_district": null,
        "city": "Stanley",
        "state": null,
        "postcode": null,
        "country": "Falkland Islands",
        "country_code": "fk"
      },
      "address": "Airport Road, Stanley, Falkland Islands"
    },
    {
      "lat": -51.71469442487822,
      "lon": -57.82776598220436,
      "geoinfo": {
        "display_name": "Horse Point, Stanley Common, Falkland Islands",
        "road": null,
        "house_number": null,
        "neighbourhood": null,
        "suburb": "Stanley Common",
        "city_district": null,
        "city": null,
        "state": null,
        "postcode": null,
        "country": "Falkland Islands",
        "country_code": "fk"
      },
      "address": "Stanley Common, Stanley, Falkland Islands"
    },
    {
      "lat": -51.67825757122477,
      "lon": -57.84294734904861,
      "geoinfo": {
        "display_name": "Stanley, Falkland Islands",
        "road": null,
        "house_number": null,
        "neighbourhood": null,
        "suburb": "Stanley",
        "city_district": null,
        "city": null,
        "state": null,
        "postcode": null,
        "country": "Falkland Islands",
        "country_code": "fk"
      },
      "address": "Stanley, Stanley, Falkland Islands"
    },
    {
      "lat": -51.71744962888009,
      "lon": -57.84136609984275,
      "geoinfo": {
        "display_name": "Kiel Canal Road, Stanley Common, Stanley, Falkland Islands",
        "road": "Kiel Canal Road",
        "house_number": null,
        "neighbourhood": null,
        "suburb": "Stanley Common",
        "city_district": null,
        "city": "Stanley",
        "state": null,
        "postcode": null,
        "country": "Falkland Islands",
        "country_code": "fk"
      },
      "address": "Kiel Canal Road, Stanley, Falkland Islands"
    },
    {
      "lat": -51.716956687699096,
      "lon": -57.850701449302655,
      "geoinfo": {
        "display_name": "Teaberry Way, Stanley Common, Stanley, Falkland Islands",
        "road": "Teaberry Way",
        "house_number": null,
        "neighbourhood": null,
        "suburb": "Stanley Common",
        "city_district": null,
        "city": "Stanley",
        "state": null,
        "postcode": null,
        "country": "Falkland Islands",
        "country_code": "fk"
      },
      "address": "Teaberry Way, Stanley, Falkland Islands"
    },
    {
      "lat": -51.69232987031095,
      "lon": -57.84955960317604,
      "geoinfo": {
        "display_name": "11, Ross Road East, Stanley, FIQQ 1ZZ, Falkland Islands",
        "road": "Ross Road East",
        "house_number": "11",
        "neighbourhood": null,
        "suburb": "Stanley",
        "city_district": null,
        "city": "Stanley",
        "state": null,
        "postcode": "FIQQ 1ZZ",
        "country": "Falkland Islands",
        "country_code": "fk"
      },
      "address": "11 Ross Road East, Stanley, Falkland Islands"
    },
    {
      "lat": -51.68886606381972,
      "lon": -57.87572364922909,
      "geoinfo": {
        "display_name": "Solar System Sculpture, Ross Road West, Stanley, Falkland Islands",
        "road": "Ross Road West",
        "house_number": null,
        "neighbourhood": null,
        "suburb": "Stanley",
        "city_district": null,
        "city": "Stanley",
        "state": null,
        "postcode": null,
        "country": "Falkland Islands",
        "country_code": "fk"
      },
      "address": "Ross Road West, Stanley, Falkland Islands"
    },
    {
      "lat": -51.692162973425475,
      "lon": -57.875317188054716,
      "geoinfo": {
        "display_name": "Haskard Rise, Stanley, Falkland Islands",
        "road": "Haskard Rise",
        "house_number": null,
        "neighbourhood": null,
        "suburb": "Stanley",
        "city_district": null,
        "city": "Stanley",
        "state": null,
        "postcode": null,
        "country": "Falkland Islands",
        "country_code": "fk"
      },
      "address": "Haskard Rise, Stanley, Falkland Islands"
    },
    {
      "lat": -51.73739150880193,
      "lon": -57.86594773398151,
      "geoinfo": {
        "display_name": "Falkland Islands",
        "road": null,
        "house_number": null,
        "neighbourhood": null,
        "suburb": null,
        "city_district": null,
        "city": null,
        "state": null,
        "postcode": null,
        "country": "Falkland Islands",
        "country_code": "fk"
      },
      "address": "Stanley, Falkland Islands"
    },
    {
      "lat": -51.7069510170903,
      "lon": -57.918087212657795,
      "geoinfo": {
        "display_name": "Stanley Road, Stanley Common, Falkland Islands",
        "road": "Stanley Road",
        "house_number": null,
        "neighbourhood": null,
        "suburb": "Stanley Common",
        "city_district": null,
        "city": null,
        "state": null,
        "postcode": null,
        "country": "Falkland Islands",
        "country_code": "fk"
      },
      "address": "Stanley Road, Stanley, Falkland Islands"
    },
    {
      "lat": -51.69613433797459,
      "lon": -57.85631738806141,
      "geoinfo": {
        "display_name": "Callaghan Road, Stanley, Falkland Islands",
        "road": "Callaghan Road",
        "house_number": null,
        "neighbourhood": null,
        "suburb": "Stanley",
        "city_district": null,
        "city": "Stanley",
        "state": null,
        "postcode": null,
        "country": "Falkland Islands",
        "country_code": "fk"
      },
      "address": "Callaghan Road, Stanley, Falkland Islands"
    },
    {
      "lat": -51.69316907457741,
      "lon": -57.857589469973846,
      "geoinfo": {
        "display_name": "Waverley House, John Street, Stanley, Falkland Islands",
        "road": "John Street",
        "house_number": null,
        "neighbourhood": null,
        "suburb": "Stanley",
        "city_district": null,
        "city": "Stanley",
        "state": null,
        "postcode": null,
        "country": "Falkland Islands",
        "country_code": "fk"
      },
      "address": "John Street, Stanley, Falkland Islands"
    },
    {
      "lat": -51.678246798017504,
      "lon": -57.91004698872099,
      "geoinfo": {
        "display_name": "Moody Brook Road, Stanley, Falkland Islands",
        "road": "Moody Brook Road",
        "house_number": null,
        "neighbourhood": null,
        "suburb": "Stanley",
        "city_district": null,
        "city": "Stanley",
        "state": null,
        "postcode": null,
        "country": "Falkland Islands",
        "country_code": "fk"
      },
      "address": "Moody Brook Road, Stanley, Falkland Islands"
    },
    {
      "lat": -51.69088623706939,
      "lon": -57.85377830518493,
      "geoinfo": {
        "display_name": "East Jetty, Crozier Place, Stanley, Falkland Islands",
        "road": "Crozier Place",
        "house_number": null,
        "neighbourhood": null,
        "suburb": "Stanley",
        "city_district": null,
        "city": "Stanley",
        "state": null,
        "postcode": null,
        "country": "Falkland Islands",
        "country_code": "fk"
      },
      "address": "Crozier Place, Stanley, Falkland Islands"
    },
    {
      "lat": -51.703176437706205,
      "lon": -57.833347124737244,
      "geoinfo": {
        "display_name": "Stanley Bypass, Stanley, Falkland Islands",
        "road": "Stanley Bypass",
        "house_number": null,
        "neighbourhood": null,
        "suburb": "Stanley",
        "city_district": null,
        "city": "Stanley",
        "state": null,
        "postcode": null,
        "country": "Falkland Islands",
        "country_code": "fk"
      },
      "address": "Stanley Bypass, Stanley, Falkland Islands"
    },
    {
      "lat": -51.686380583858124,
      "lon": -57.8456982971065,
      "geoinfo": {
        "display_name": "The Camber Dock, Ross Road East, Stanley, Falkland Islands",
        "road": "Ross Road East",
        "house_number": null,
        "neighbourhood": null,
        "suburb": "Stanley",
        "city_district": null,
        "city": "Stanley",
        "state": null,
        "postcode": null,
        "country": "Falkland Islands",
        "country_code": "fk"
      },
      "address": "Ross Road East, Stanley, Falkland Islands"
    },
    {
      "lat": -51.68929238879593,
      "lon": -57.85663309271739,
      "geoinfo": {
        "display_name": "Charles Cooper, Ross Road, Stanley, Falkland Islands",
        "road": "Ross Road",
        "house_number": null,
        "neighbourhood": null,
        "suburb": "Stanley",
        "city_district": null,
        "city": "Stanley",
        "state": null,
        "postcode": null,
        "country": "Falkland Islands",
        "country_code": "fk"
      },
      "address": "Ross Road, Stanley, Falkland Islands"
    },
    {
      "lat": -51.697838843374385,
      "lon": -57.88972959364049,
      "geoinfo": {
        "display_name": "Rick Jolly Way, Stanley, Falkland Islands",
        "road": "Rick Jolly Way",
        "house_number": null,
        "neighbourhood": null,
        "suburb": "Stanley",
        "city_district": null,
        "city": "Stanley",
        "state": null,
        "postcode": null,
        "country": "Falkland Islands",
        "country_code": "fk"
      },
      "address": "Rick Jolly Way, Stanley, Falkland Islands"
    },
    {
      "lat": -51.693368762145575,
      "lon": -57.8608720946917,
      "geoinfo": {
        "display_name": "Fitzroy Road, Stanley, Falkland Islands",
        "road": "Fitzroy Road",
        "house_number": null,
        "neighbourhood": null,
        "suburb": "Stanley",
        "city_district": null,
        "city": "Stanley",
        "state": null,
        "postcode": null,
        "country": "Falkland Islands",
        "country_code": "fk"
      },
      "address": "Fitzroy Road, Stanley, Falkland Islands"
    },
    {
      "lat": -51.67828727095861,
      "lon": -57.81484276757416,
      "geoinfo": {
        "display_name": "Boxer Bridge, Stanley Common, Stanley, Falkland Islands",
        "road": "Boxer Bridge",
        "house_number": null,
        "neighbourhood": null,
        "suburb": "Stanley Common",
        "city_district": null,
        "city": "Stanley",
        "state": null,
        "postcode": null,
        "country": "Falkland Islands",
        "country_code": "fk"
      },
      "address": "Boxer Bridge, Stanley, Falkland Islands"
    },
    {
      "lat": -51.69319576957053,
      "lon": -57.8900110650756,
      "geoinfo": {
        "display_name": "Diamond Jubilee Road, Stanley, Falkland Islands",
        "road": "Diamond Jubilee Road",
        "house_number": null,
        "neighbourhood": null,
        "suburb": "Stanley",
        "city_district": null,
        "city": "Stanley",
        "state": null,
        "postcode": null,
        "country": "Falkland Islands",
        "country_code": "fk"
      },
      "address": "Diamond Jubilee Road, Stanley, Falkland Islands"
    },
    {
      "lat": -51.696354909661586,
      "lon": -57.88088225717861,
      "geoinfo": {
        "display_name": "Rex Hunt Road, Stanley, Falkland Islands",
        "road": "Rex Hunt Road",
        "house_number": null,
        "neighbourhood": null,
        "suburb": "Stanley",
        "city_district": null,
        "city": "Stanley",
        "state": null,
        "postcode": null,
        "country": "Falkland Islands",
        "country_code": "fk"
      },
      "address": "Rex Hunt Road, Stanley, Falkland Islands"
    },
    {
      "lat": -51.69954144428317,
      "lon": -57.85917160699324,
      "geoinfo": {
        "display_name": "Strawberry Street, Stanley, Falkland Islands",
        "road": "Strawberry Street",
        "house_number": null,
        "neighbourhood": null,
        "suburb": "Stanley",
        "city_district": null,
        "city": "Stanley",
        "state": null,
        "postcode": null,
        "country": "Falkland Islands",
        "country_code": "fk"
      },
      "address": "Strawberry Street, Stanley, Falkland Islands"
    },
    {
      "lat": -51.68112020489567,
      "lon": -57.919066333829605,
      "geoinfo": {
        "display_name": "Murrel Road, Murrell, Stanley Common, Falkland Islands",
        "road": "Murrel Road",
        "house_number": null,
        "neighbourhood": null,
        "suburb": "Stanley Common",
        "city_district": null,
        "city": null,
        "state": null,
        "postcode": null,
        "country": "Falkland Islands",
        "country_code": "fk"
      },
      "address": "Murrel Road, Stanley, Falkland Islands"
    },
    {
      "lat": -51.702058461717634,
      "lon": -57.8512250414089,
      "geoinfo": {
        "display_name": "Eliza Cove Road, Stanley, Falkland Islands",
        "road": "Eliza Cove Road",
        "house_number": null,
        "neighbourhood": null,
        "suburb": "Stanley",
        "city_district": null,
        "city": "Stanley",
        "state": null,
        "postcode": null,
        "country": "Falkland Islands",
        "country_code": "fk"
      },
      "address": "Eliza Cove Road, Stanley, Falkland Islands"
    },
    {
      "lat": -51.69309585223453,
      "lon": -57.87360420668579,
      "geoinfo": {
        "display_name": "Sapper Hill Road, Stanley, Falkland Islands",
        "road": "Sapper Hill Road",
        "house_number": null,
        "neighbourhood": null,
        "suburb": "Stanley",
        "city_district": null,
        "city": "Stanley",
        "state": null,
        "postcode": null,
        "country": "Falkland Islands",
        "country_code": "fk"
      },
      "address": "Sapper Hill Road, Stanley, Falkland Islands"
    },
    {
      "lat": -51.695313282224014,
      "lon": -57.85301104773994,
      "geoinfo": {
        "display_name": "Davis Street East, Stanley, Falkland Islands",
        "road": "Davis Street East",
        "house_number": null,
        "neighbourhood": null,
        "suburb": "Stanley",
        "city_district": null,
        "city": "Stanley",
        "state": null,
        "postcode": null,
        "country": "Falkland Islands",
        "country_code": "fk"
      },
      "address": "Davis Street East, Stanley, Falkland Islands"
    },
    {
      "lat": -51.69166169332468,
      "lon": -57.8650427513765,
      "geoinfo": {
        "display_name": "3, Ross Road, Stanley, Falkland Islands",
        "road": "Ross Road",
        "house_number": "3",
        "neighbourhood": null,
        "suburb": "Stanley",
        "city_district": null,
        "city": "Stanley",
        "state": null,
        "postcode": null,
        "country": "Falkland Islands",
        "country_code": "fk"
      },
      "address": "3 Ross Road, Stanley, Falkland Islands"
    },
    {
      "lat": -51.695472700149224,
      "lon": -57.884505321234684,
      "geoinfo": {
        "display_name": "Sandy Woodward Road, Stanley, Falkland Islands",
        "road": "Sandy Woodward Road",
        "house_number": null,
        "neighbourhood": null,
        "suburb": "Stanley",
        "city_district": null,
        "city": "Stanley",
        "state": null,
        "postcode": null,
        "country": "Falkland Islands",
        "country_code": "fk"
      },
      "address": "Sandy Woodward Road, Stanley, Falkland Islands"
    },
    {
      "lat": -51.695360292171515,
      "lon": -57.835592018779565,
      "geoinfo": {
        "display_name": "Anderson Drive, Stanley, Falkland Islands",
        "road": "Anderson Drive",
        "house_number": null,
        "neighbourhood": null,
        "suburb": "Stanley",
        "city_district": null,
        "city": "Stanley",
        "state": null,
        "postcode": null,
        "country": "Falkland Islands",
        "country_code": "fk"
      },
      "address": "Anderson Drive, Stanley, Falkland Islands"
    },
    {
      "lat": -51.694508396321126,
      "lon": -57.83250273306867,
      "geoinfo": {
        "display_name": "49, Ross Road East, Stanley, FIQQ 1ZZ, Falkland Islands",
        "road": "Ross Road East",
        "house_number": "49",
        "neighbourhood": null,
        "suburb": "Stanley",
        "city_district": null,
        "city": "Stanley",
        "state": null,
        "postcode": "FIQQ 1ZZ",
        "country": "Falkland Islands",
        "country_code": "fk"
      },
      "address": "49 Ross Road East, Stanley, Falkland Islands"
    },
    {
      "lat": -51.696303229684126,
      "lon": -57.8980891229811,
      "geoinfo": {
        "display_name": "Prince Philip Street, Stanley, Falkland Islands",
        "road": "Prince Philip Street",
        "house_number": null,
        "neighbourhood": null,
        "suburb": "Stanley",
        "city_district": null,
        "city": "Stanley",
        "state": null,
        "postcode": null,
        "country": "Falkland Islands",
        "country_code": "fk"
      },
      "address": "Prince Philip Street, Stanley, Falkland Islands"
    },
    {
      "lat": -51.69163987304,
      "lon": -57.87683062688194,
      "geoinfo": {
        "display_name": "Racecourse Road, Stanley, Falkland Islands",
        "road": "Racecourse Road",
        "house_number": null,
        "neighbourhood": null,
        "suburb": "Stanley",
        "city_district": null,
        "city": "Stanley",
        "state": null,
        "postcode": null,
        "country": "Falkland Islands",
        "country_code": "fk"
      },
      "address": "Racecourse Road, Stanley, Falkland Islands"
    },
    {
      "lat": -51.694205238076634,
      "lon": -57.862425859663084,
      "geoinfo": {
        "display_name": "Villiers Street, Stanley, Falkland Islands",
        "road": "Villiers Street",
        "house_number": null,
        "neighbourhood": null,
        "suburb": "Stanley",
        "city_district": null,
        "city": "Stanley",
        "state": null,
        "postcode": null,
        "country": "Falkland Islands",
        "country_code": "fk"
      },
      "address": "Villiers Street, Stanley, Falkland Islands"
    },
    {
      "lat": -51.691450072760894,
      "lon": -57.87971956510133,
      "geoinfo": {
        "display_name": "Jeremy Moore Avenue, Stanley, Falkland Islands",
        "road": "Jeremy Moore Avenue",
        "house_number": null,
        "neighbourhood": null,
        "suburb": "Stanley",
        "city_district": null,
        "city": "Stanley",
        "state": null,
        "postcode": null,
        "country": "Falkland Islands",
        "country_code": "fk"
      },
      "address": "Jeremy Moore Avenue, Stanley, Falkland Islands"
    },
    {
      "lat": -51.69711744278736,
      "lon": -57.85076694777692,
      "geoinfo": {
        "display_name": "Fieldhouse Close, Stanley, Falkland Islands",
        "road": "Fieldhouse Close",
        "house_number": null,
        "neighbourhood": null,
        "suburb": "Stanley",
        "city_district": null,
        "city": "Stanley",
        "state": null,
        "postcode": null,
        "country": "Falkland Islands",
        "country_code": "fk"
      },
      "address": "Fieldhouse Close, Stanley, Falkland Islands"
    },
    {
      "lat": -51.70082827916899,
      "lon": -57.84625813687421,
      "geoinfo": {
        "display_name": "Bill Roberts Way, Stanley, Falkland Islands",
        "road": "Bill Roberts Way",
        "house_number": null,
        "neighbourhood": null,
        "suburb": "Stanley",
        "city_district": null,
        "city": "Stanley",
        "state": null,
        "postcode": null,
        "country": "Falkland Islands",
        "country_code": "fk"
      },
      "address": "Bill Roberts Way, Stanley, Falkland Islands"
    },
    {
      "lat": -51.69068708983977,
      "lon": -57.89601632871479,
      "geoinfo": {
        "display_name": "47-49, Pale Maiden Cresent, Stanley, Falkland Islands",
        "road": "Pale Maiden Cresent",
        "house_number": "47-49",
        "neighbourhood": null,
        "suburb": "Stanley",
        "city_district": null,
        "city": "Stanley",
        "state": null,
        "postcode": null,
        "country": "Falkland Islands",
        "country_code": "fk"
      },
      "address": "47-49 Pale Maiden Cresent, Stanley, Falkland Islands"
    },
    {
      "lat": -51.69667327649885,
      "lon": -57.84469142013559,
      "geoinfo": {
        "display_name": "Snake Hill, Stanley, Falkland Islands",
        "road": "Snake Hill",
        "house_number": null,
        "neighbourhood": null,
        "suburb": "Stanley",
        "city_district": null,
        "city": "Stanley",
        "state": null,
        "postcode": null,
        "country": "Falkland Islands",
        "country_code": "fk"
      },
      "address": "Snake Hill, Stanley, Falkland Islands"
    },
    {
      "lat": -51.69316767854351,
      "lon": -57.86840842045296,
      "geoinfo": {
        "display_name": "Moody Street, Stanley, Falkland Islands",
        "road": "Moody Street",
        "house_number": null,
        "neighbourhood": null,
        "suburb": "Stanley",
        "city_district": null,
        "city": "Stanley",
        "state": null,
        "postcode": null,
        "country": "Falkland Islands",
        "country_code": "fk"
      },
      "address": "Moody Street, Stanley, Falkland Islands"
    },
    {
      "lat": -51.69434826074919,
      "lon": -57.832780833486915,
      "geoinfo": {
        "display_name": "47, Ross Road East, Stanley, FIQQ 1ZZ, Falkland Islands",
        "road": "Ross Road East",
        "house_number": "47",
        "neighbourhood": null,
        "suburb": "Stanley",
        "city_district": null,
        "city": "Stanley",
        "state": null,
        "postcode": "FIQQ 1ZZ",
        "country": "Falkland Islands",
        "country_code": "fk"
      },
      "address": "47 Ross Road East, Stanley, Falkland Islands"
    }
  ],
  "updated_at": "2025-10-16T14:20:12.107560+00:00",
  "_kind": "geo_samples"
}