{
  "country_code": "AD",
  "country": "Andorra",
  "city": "Andorra la Vella",
  "geonameid": 3041563,
  "target_addresses": 50,
  "samples": [
    {
      "lat": 42.474045904373256,
      "lon": 1.5343953382515576,
      "geoinfo": {
        "display_name": "Calm de Claror, Sant Julia de Loria, AD600, Andorra",
        "road": null,
        "house_number": null,
        "neighbourhood": null,
        "suburb": null,
        "city_district": null,
        "city": null,
        "state": null,
        "postcode": "AD600",
        "country": "Andorra",
        "country_code": "ad"
      },
      "address": "Andorra la Vella, Andorra"
    },
    {
      "lat": 42.47520241097936,
      "lon": 1.4942480679774017,
      "geoinfo": {
        "display_name": "Sant Martí, carretera General 1, Sant Julià de Lòria, Sant Julia de Loria, AD600, Andorra",
        "road": "carretera General 1",
        "house_number": null,
        "neighbourhood": null,
        "suburb": null,
        "city_district": null,
        "city": "Sant Julià de Lòria",
        "state": null,
        "postcode": "AD600",
        "country": "Andorra",
        "country_code": "ad"
      },
      "address": "carretera General 1, Andorra la Vella, Andorra"
    },
    {
      "lat": 42.489842590600986,
      "lon": 1.471258795661849,
      "geoinfo": {
        "display_name": "CS-610, Aixàs, Bixessarri, Sant Julia de Loria, AD600, Andorra",
        "road": "CS-610",
        "house_number": null,
        "neighbourhood": null,
        "suburb": null,
        "city_district": null,
        "city": "Bixessarri",
        "state": null,
        "postcode": "AD600",
        "country": "Andorra",
        "country_code": "ad"
      },
      "address": "CS-610, Andorra la Vella, Andorra"
    },
    {
      "lat": 42.53872972249283,
      "lon": 1.480006017908711,
      "geoinfo": {
        "display_name": "Macarulla, CG-4, Super Pal, Pal, La Massana, AD400, Andorra",
        "road": "CG-4",
        "house_number": null,
        "neighbourhood": null,
        "suburb": null,
        "city_district": null,
        "city": "La Massana",
        "state": null,
        "postcode": "AD400",
        "country": "Andorra",
        "country_code": "ad"
      },
      "address": "CG-4, Andorra la Vella, Andorra"
    },
    {
      "lat": 42.5158996288319,
      "lon": 1.561259505165437,
      "geoinfo": {
        "display_name": "Carretera d'Engolasters, Les Cases del Vilar, Engolasters, Escaldes-Engordany, AD700, Andorra",
        "road": "Carretera d'Engolasters",
        "house_number": null,
        "neighbourhood": null,
        "suburb": null,
        "city_district": null,
        "city": "Engolasters",
        "state": null,
        "postcode": "AD700",
        "country": "Andorra",
        "country_code": "ad"
      },
      "address": "Carretera d'Engolasters, Andorra la Vella, Andorra"
    },
    {
      "lat": 42.537111914087625,
      "lon": 1.4829633079707953,
      "geoinfo": {
        "display_name": "CS-420, Pal, La Massana, AD400, Andorra",
        "road": "CS-420",
        "house_number": null,
        "neighbourhood": null,
        "suburb": null,
        "city_district": null,
        "city": "La Massana",
        "state": null,
        "postcode": "AD400",
        "country": "Andorra",
        "country_code": "ad"
      },
      "address": "CS-420, Andorra la Vella, Andorra"
    },
    {
      "lat": 42.507872367652745,
      "lon": 1.4840395007290164,
      "geoinfo": {
        "display_name": "Cabana del Cortà, Accés via ferrada de Sant Vicenç d'Enclar, Santa Coloma, Andorra la Vella, AD500, Andorra",
        "road": "Accés via ferrada de Sant Vicenç d'Enclar",
        "house_number": null,
        "neighbourhood": null,
        "suburb": null,
        "city_district": null,
        "city": "Santa Coloma",
        "state": null,
        "postcode": "AD500",
        "country": "Andorra",
        "country_code": "ad"
      },
      "address": "Accés via ferrada de Sant Vicenç d'Enclar, Andorra la Vella, Andorra"
    },
    {
      "lat": 42.50016257343099,
      "lon": 1.5389061604886392,
      "geoinfo": {
        "display_name": "Carretera de la Comella, les Escaldes, Escaldes-Engordany, AD700, Andorra",
        "road": "Carretera de la Comella",
        "house_number": null,
        "neighbourhood": null,
        "suburb": null,
        "city_district": null,
        "city": "les Escaldes",
        "state": null,
        "postcode": "AD700",
        "country": "Andorra",
        "country_code": "ad"
      },
      "address": "Carretera de la Comella, Andorra la Vella, Andorra"
    },
    {
      "lat": 42.48683387911763,
      "lon": 1.4894744460104055,
      "geoinfo": {
        "display_name": "Carrer Tossalet i Vinyols, la Margineda, Andorra la Vella, AD500, Andorra",
        "road": "Carrer Tossalet i Vinyols",
        "house_number": null,
        "neighbourhood": null,
        "suburb": null,
        "city_district": null,
        "city": "la Margineda",
        "state": null,
        "postcode": "AD500",
        "country": "Andorra",
        "country_code": "ad"
      },
      "address": "Carrer Tossalet i Vinyols, Andorra la Vella, Andorra"
    },
    {
      "lat": 42.52383874109438,
      "lon": 1.56766121977989,
      "geoinfo": {
        "display_name": "CG-2, Vila, Encamp, AD200, Andorra",
        "road": "CG-2",
        "house_number": null,
        "neighbourhood": null,
        "suburb": null,
        "city_district": null,
        "city": "Encamp",
        "state": null,
        "postcode": "AD200",
        "country": "Andorra",
        "country_code": "ad"
      },
      "address": "CG-2, Andorra la Vella, Andorra"
    },
    {
      "lat": 42.51245608952536,
      "lon": 1.517693106995796,
      "geoinfo": {
        "display_name": "Passeig del Rec del Solà, Centre històric, Andorra la Vella, AD500, Andorra",
        "road": "Passeig del Rec del Solà",
        "house_number": null,
        "neighbourhood": "Centre històric",
        "suburb": null,
        "city_district": null,
        "city": "Andorra la Vella",
        "state": null,
        "postcode": "AD500",
        "country": "Andorra",
        "country_code": "ad"
      },
      "address": "Passeig del Rec del Solà, Andorra la Vella, Andorra"
    },
    {
      "lat": 42.48111440436981,
      "lon": 1.4932864530054828,
      "geoinfo": {
        "display_name": "Pont de la Margineda, la Margineda, Andorra la Vella, AD500, Andorra",
        "road": "Pont de la Margineda",
        "house_number": null,
        "neighbourhood": null,
        "suburb": null,
        "city_district": null,
        "city": "la Margineda",
        "state": null,
        "postcode": "AD500",
        "country": "Andorra",
        "country_code": "ad"
      },
      "address": "Pont de la Margineda, Andorra la Vella, Andorra"
    },
    {
      "lat": 42.50279387674653,
      "lon": 1.49563557824112,
      "geoinfo": {
        "display_name": "Carrer dels Barrers, Santa Coloma, Andorra la Vella, AD500, Andorra",
        "road": "Carrer dels Barrers",
        "house_number": null,
        "neighbourhood": null,
        "suburb": null,
        "city_district": null,
        "city": "Santa Coloma",
        "state": null,
        "postcode": "AD500",
        "country": "Andorra",
        "country_code": "ad"
      },
      "address": "Carrer dels Barrers, Andorra la Vella, Andorra"
    },
    {
      "lat": 42.46704830918407,
      "lon": 1.514019417250961,
      "geoinfo": {
        "display_name": "Mare de Déu de les Neus, CS-120, Llumeneres, Sant Julia de Loria, AD600, Andorra",
        "road": "CS-120",
        "house_number": null,
        "neighbourhood": null,
        "suburb": null,
        "city_district": null,
        "city": "Llumeneres",
        "state": null,
        "postcode": "AD600",
        "country": "Andorra",
        "country_code": "ad"
      },
      "address": "CS-120, Andorra la Vella, Andorra"
    },
    {
      "lat": 42.507920827312134,
      "lon": 1.5202803131646776,
      "geoinfo": {
        "display_name": "Consciència, 15, Carrer de l'Alzinaret, Centre històric, Andorra la Vella, AD500, Andorra",
        "road": "Carrer de l'Alzinaret",
        "house_number": "15",
        "neighbourhood": "Centre històric",
        "suburb": null,
        "city_district": null,
        "city": "Andorra la Vella",
        "state": null,
        "postcode": "AD500",
        "country": "Andorra",
        "country_code": "ad"
      },
      "address": "15 Carrer de l'Alzinaret, Andorra la Vella, Andorra"
    },
    {
      "lat": 42.515736439143424,
      "lon": 1.523490262782885,
      "geoinfo": {
        "display_name": "Túnel del Pont Pla, Centre històric, Andorra la Vella, AD500, Andorra",
        "road": "Túnel del Pont Pla",
        "house_number": null,
        "neighbourhood": "Centre històric",
        "suburb": null,
        "city_district": null,
        "city": "Andorra la Vella",
        "state": null,
        "postcode": "AD500",
        "country": "Andorra",
        "country_code": "ad"
      },
      "address": "Túnel del Pont Pla, Andorra la Vella, Andorra"
    },
    {
      "lat": 42.479452611286725,
      "lon": 1.5343190989536208,
      "geoinfo": {
        "display_name": "Collada de la Caülla, Carretera de Cal Rosselló, La Comella, Andorra la Vella, AD500, Andorra",
        "road": "Carretera de Cal Rosselló",
        "house_number": null,
        "neighbourhood": null,
        "suburb": null,
        "city_district": null,
        "city": "Andorra la Vella",
        "state": null,
        "postcode": "AD500",
        "country": "Andorra",
        "country_code": "ad"
      },
      "address": "Carretera de Cal Rosselló, Andorra la Vella, Andorra"
    },
    {
      "lat": 42.50327596046778,
      "lon": 1.516053400771829,
      "geoinfo": {
        "display_name": "Camí Vell, Centre històric, Andorra la Vella, AD500, Andorra",
        "road": "Camí Vell",
        "house_number": null,
        "neighbourhood": "Centre històric",
        "suburb": null,
        "city_district": null,
        "city": "Andorra la Vella",
        "state": null,
        "postcode": "AD500",
        "country": "Andorra",
        "country_code": "ad"
      },
      "address": "Camí Vell, Andorra la Vella, Andorra"
    },
    {
      "lat": 42.47981595141397,
      "lon": 1.4945254319597228,
      "geoinfo": {
        "display_name": "Font de l'Àrtic, Carretera General, la Margineda, Andorra la Vella, AD500, Andorra",
        "road": "Carretera General",
        "house_number": null,
        "neighbourhood": null,
        "suburb": null,
        "city_district": null,
        "city": "la Margineda",
        "state": null,
        "postcode": "AD500",
        "country": "Andorra",
        "country_code": "ad"
      },
      "address": "Carretera General, Andorra la Vella, Andorra"
    },
    {
      "lat": 42.5221168655995,
      "lon": 1.5034185691006585,
      "geoinfo": {
        "display_name": "Camí Pic de Carroi, La Massana, Andorra la Vella, AD500, Andorra",
        "road": "Camí Pic de Carroi",
        "house_number": null,
        "neighbourhood": null,
        "suburb": null,
        "city_district": null,
        "city": "La Massana",
        "state": null,
        "postcode": "AD500",
        "country": "Andorra",
        "country_code": "ad"
      },
      "address": "Camí Pic de Carroi, Andorra la Vella, Andorra"
    },
    {
      "lat": 42.51861399899353,
      "lon": 1.5224095467253944,
      "geoinfo": {
        "display_name": "Rec del Solà, Andorra la Vella, AD500, Andorra",
        "road": "Rec del Solà",
        "house_number": null,
        "neighbourhood": null,
        "suburb": null,
        "city_district": null,
        "city": "Andorra la Vella",
        "state": null,
        "postcode": "AD500",
        "country": "Andorra",
        "country_code": "ad"
      },
      "address": "Rec del Solà, Andorra la Vella, Andorra"
    },
    {
      "lat": 42.51303338486395,
      "lon": 1.5291483067147278,
      "geoinfo": {
        "display_name": "Carrer Roc dels Pouets, Centre històric, Andorra la Vella, AD500, Andorra",
        "road": "Carrer Roc dels Pouets",
        "house_number": null,
        "neighbourhood": "Centre històric",
        "suburb": null,
        "city_district": null,
        "city": "Andorra la Vella",
        "state": null,
        "postcode": "AD500",
        "country": "Andorra",
        "country_code": "ad"
      },
      "address": "Carrer Roc dels Pouets, Andorra la Vella, Andorra"
    },
    {
      "lat": 42.50978325668047,
      "lon": 1.511820634228194,
      "geoinfo": {
        "display_name": "Font de Ferrús, Passeig del Rec del Solà, Centre històric, Andorra la Vella, AD500, Andorra",
        "road": "Passeig del Rec del Solà",
        "house_number": null,
        "neighbourhood": "Centre històric",
        "suburb": null,
        "city_district": null,
        "city": "Andorra la Vella",
        "state": null,
        "postcode": "AD500",
        "country": "Andorra",
        "country_code": "ad"
      },
      "address": "970, Passeig del Rec del Solà, AD500 Andorra la Vella, Andorra"
    },
    {
      "lat": 42.50288835221095,
      "lon": 1.5728063632192983,
      "geoinfo": {
        "display_name": "Pont d'Entremesaigües, Entremesaigües, les Escaldes, Escaldes-Engordany, AD700, Andorra",
        "road": "Pont d'Entremesaigües",
        "house_number": null,
        "neighbourhood": null,
        "suburb": null,
        "city_district": null,
        "city": "les Escaldes",
        "state": null,
        "postcode": "AD700",
        "country": "Andorra",
        "country_code": "ad"
      },
      "address": "885, Pont d'Entremesaigües, Entremesaigües, les Escaldes, Escaldes-Engordany, AD700, Andorra"
    },
    {
      "lat": 42.521123636149476,
      "lon": 1.5092786134117653,
      "geoinfo": {
        "display_name": "Camí Pic de Carroi, La Massana, Andorra la Vella, AD500, Andorra",
        "road": "Camí Pic de Carroi",
        "house_number": null,
        "neighbourhood": null,
        "suburb": null,
        "city_district": null,
        "city": "La Massana",
        "state": null,
        "postcode": "AD500",
        "country": "Andorra",
        "country_code": "ad"
      },
      "address": "385, Camí Pic de Carroi, La Massana, Andorra la Vella, AD500, Andorra"
    },
    {
      "lat": 42.469608456102115,
      "lon": 1.5008041370714795,
      "geoinfo": {
        "display_name": "Carretera de Certers - Nagol, Nagol, Sant Julia de Loria, AD600, Andorra",
        "road": "Carretera de Certers - Nagol",
        "house_number": null,
        "neighbourhood": null,
        "suburb": null,
        "city_district": null,
        "city": "Nagol",
        "state": null,
        "postcode": "AD600",
        "country": "Andorra",
        "country_code": "ad"
      },
      "address": "018, Carretera de Certers - Nagol, Nagol, Sant Julia de Loria, AD600, Andorra"
    },
    {
      "lat": 42.518664100870694,
      "lon": 1.507049954087571,
      "geoinfo": {
        "display_name": "Camí Pic de Carroi, La Massana, Andorra la Vella, AD500, Andorra",
        "road": "Camí Pic de Carroi",
        "house_number": null,
        "neighbourhood": null,
        "suburb": null,
        "city_district": null,
        "city": "La Massana",
        "state": null,
        "postcode": "AD500",
        "country": "Andorra",
        "country_code": "ad"
      },
      "address": "137, Camí Pic de Carroi, La Massana, Andorra la Vella, AD500, Andorra"
    },
    {
      "lat": 42.4910724787411,
      "lon": 1.5324139333261613,
      "geoinfo": {
        "display_name": "Carretera de la Comella, Centre històric, La Comella, Andorra la Vella, AD500, Andorra",
        "road": "Carretera de la Comella",
        "house_number": null,
        "neighbourhood": "Centre històric",
        "suburb": null,
        "city_district": null,
        "city": "Andorra la Vella",
        "state": null,
        "postcode": "AD500",
        "country": "Andorra",
        "country_code": "ad"
      },
      "address": "308, Carretera de la Comella, Centre històric, La Comella, Andorra la Vella, AD500, Andorra"
    },
    {
      "lat": 42.48402056685986,
      "lon": 1.4943599257168203,
      "geoinfo": {
        "display_name": "CG-1, la Margineda, Andorra la Vella, AD600, Andorra",
        "road": "CG-1",
        "house_number": null,
        "neighbourhood": null,
        "suburb": null,
        "city_district": null,
        "city": "la Margineda",
        "state": null,
        "postcode": "AD600",
        "country": "Andorra",
        "country_code": "ad"
      },
      "address": "CG-1, la Margineda, Andorra la Vella, AD600, Andorra"
    },
    {
      "lat": 42.53264525379115,
      "lon": 1.5562966845681416,
      "geoinfo": {
        "display_name": "Carretera de Vila-Beixalis, Vila, Encamp, AD200, Andorra",
        "road": "Carretera de Vila-Beixalis",
        "house_number": null,
        "neighbourhood": null,
        "suburb": null,
        "city_district": null,
        "city": "Encamp",
        "state": null,
        "postcode": "AD200",
        "country": "Andorra",
        "country_code": "ad"
      },
      "address": "661, Carretera de Vila-Beixalis, Vila, Encamp, AD200, Andorra"
    },
    {
      "lat": 42.49191305037124,
      "lon": 1.4920496994427968,
      "geoinfo": {
        "display_name": "Carrer de les Escoles, Santa Coloma, Andorra la Vella, AD500, Andorra",
        "road": "Carrer de les Escoles",
        "house_number": null,
        "neighbourhood": null,
        "suburb": null,
        "city_district": null,
        "city": "Santa Coloma",
        "state": null,
        "postcode": "AD500",
        "country": "Andorra",
        "country_code": "ad"
      },
      "address": "923, Carrer de les Escoles, Santa Coloma, Andorra la Vella, AD500, Andorra"
    },
    {
      "lat": 42.48920042484296,
      "lon": 1.5616976751383345,
      "geoinfo": {
        "display_name": "Solà dels Sulls, les Escaldes, Escaldes-Engordany, AD700, Andorra",
        "road": null,
        "house_number": null,
        "neighbourhood": null,
        "suburb": null,
        "city_district": null,
        "city": "les Escaldes",
        "state": null,
        "postcode": "AD700",
        "country": "Andorra",
        "country_code": "ad"
      },
      "address": "788, Solà dels Sulls, les Escaldes, Escaldes-Engordany, AD700, Andorra"
    },
    {
      "lat": 42.49245836248737,
      "lon": 1.5686984499606529,
      "geoinfo": {
        "display_name": "Pont d'Entremesaigües, Entremesaigües, les Escaldes, Escaldes-Engordany, AD700, Andorra",
        "road": "Pont d'Entremesaigües",
        "house_number": null,
        "neighbourhood": null,
        "suburb": null,
        "city_district": null,
        "city": "les Escaldes",
        "state": null,
        "postcode": "AD700",
        "country": "Andorra",
        "country_code": "ad"
      },
      "address": "583, Pont d'Entremesaigües, Entremesaigües, les Escaldes, Escaldes-Engordany, AD700, Andorra"
    },
    {
      "lat": 42.485911247369124,
      "lon": 1.4746883128326873,
      "geoinfo": {
        "display_name": "Aixás, Aixàs, Bixessarri, Sant Julia de Loria, AD600, Andorra",
        "road": null,
        "house_number": null,
        "neighbourhood": null,
        "suburb": null,
        "city_district": null,
        "city": "Bixessarri",
        "state": null,
        "postcode": "AD600",
        "country": "Andorra",
        "country_code": "ad"
      },
      "address": "138, Aixás, Aixàs, Bixessarri, Sant Julia de Loria, AD600, Andorra"
    },
    {
      "lat": 42.500843554571055,
      "lon": 1.514652211267996,
      "geoinfo": {
        "display_name": "Càmping Valira, Camí Vell, Centre històric, Andorra la Vella, AD500, Andorra",
        "road": "Camí Vell",
        "house_number": null,
        "neighbourhood": "Centre històric",
        "suburb": null,
        "city_district": null,
        "city": "Andorra la Vella",
        "state": null,
        "postcode": "AD500",
        "country": "Andorra",
        "country_code": "ad"
      },
      "address": "350, Camí Vell, AD500 Andorra la Vella, Andorra"
    },
    {
      "lat": 42.508686657453254,
      "lon": 1.496138704745025,
      "geoinfo": {
        "display_name": "Camí Pic de Carroi, La Massana, Andorra la Vella, AD500, Andorra",
        "road": "Camí Pic de Carroi",
        "house_number": null,
        "neighbourhood": null,
        "suburb": null,
        "city_district": null,
        "city": "La Massana",
        "state": null,
        "postcode": "AD500",
        "country": "Andorra",
        "country_code": "ad"
      },
      "address": "445, Camí Pic de Carroi, La Massana, Andorra la Vella, AD500, Andorra"
    },
    {
      "lat": 42.49629679275785,
      "lon": 1.5325341960960848,
      "geoinfo": {
        "display_name": "Carretera de la Comella, Centre històric, La Comella, Andorra la Vella, AD500, Andorra",
        "road": "Carretera de la Comella",
        "house_number": null,
        "neighbourhood": "Centre històric",
        "suburb": null,
        "city_district": null,
        "city": "Andorra la Vella",
        "state": null,
        "postcode": "AD500",
        "country": "Andorra",
        "country_code": "ad"
      },
      "address": "665, Carretera de la Comella, Centre històric, La Comella, Andorra la Vella, AD500, Andorra"
    },
    {
      "lat": 42.48409689073665,
      "lon": 1.5258873766035488,
      "geoinfo": {
        "display_name": "Terregalls, La Comella, Andorra la Vella, AD500, Andorra",
        "road": null,
        "house_number": null,
        "neighbourhood": null,
        "suburb": null,
        "city_district": null,
        "city": "Andorra la Vella",
        "state": null,
        "postcode": "AD500",
        "country": "Andorra",
        "country_code": "ad"
      },
      "address": "275, Terregalls, La Comella, Andorra la Vella, AD500, Andorra"
    },
    {
      "lat": 42.52008442513288,
      "lon": 1.5268753411095932,
      "geoinfo": {
        "display_name": "Carretera dels Vilars, Els Vilars, les Escaldes, Escaldes-Engordany, AD700, Andorra",
        "road": "Carretera dels Vilars",
        "house_number": null,
        "neighbourhood": null,
        "suburb": null,
        "city_district": null,
        "city": "les Escaldes",
        "state": null,
        "postcode": "AD700",
        "country": "Andorra",
        "country_code": "ad"
      },
      "address": "567, Carretera dels Vilars, Els Vilars, les Escaldes, Escaldes-Engordany, AD700, Andorra"
    },
    {
      "lat": 42.50895485672924,
      "lon": 1.4846295886851955,
      "geoinfo": {
        "display_name": "Cabana del Cortà, Accés via ferrada de Sant Vicenç d'Enclar, Santa Coloma, Andorra la Vella, AD500, Andorra",
        "road": "Accés via ferrada de Sant Vicenç d'Enclar",
        "house_number": null,
        "neighbourhood": null,
        "suburb": null,
        "city_district": null,
        "city": "Santa Coloma",
        "state": null,
        "postcode": "AD500",
        "country": "Andorra",
        "country_code": "ad"
      },
      "address": "284, Accés via ferrada de Sant Vicenç d'Enclar, AD500 Andorra la Vella, Andorra"
    },
    {
      "lat": 42.535848440510314,
      "lon": 1.540716169178021,
      "geoinfo": {
        "display_name": "Carretera de Beixalis, Cortal del Capdevila, La Massana, AD400, Andorra",
        "road": "Carretera de Beixalis",
        "house_number": null,
        "neighbourhood": null,
        "suburb": null,
        "city_district": null,
        "city": "La Massana",
        "state": null,
        "postcode": "AD400",
        "country": "Andorra",
        "country_code": "ad"
      },
      "address": "945, Carretera de Beixalis, Cortal del Capdevila, La Massana, AD400, Andorra"
    },
    {
      "lat": 42.46838258773582,
      "lon": 1.5431959240443534,
      "geoinfo": {
        "display_name": "Furgoneta VW T1, Carretera de la Rabassa, Aixirivall, Sant Julia de Loria, AD600, Andorra",
        "road": "Carretera de la Rabassa",
        "house_number": null,
        "neighbourhood": null,
        "suburb": null,
        "city_district": null,
        "city": "Aixirivall",
        "state": null,
        "postcode": "AD600",
        "country": "Andorra",
        "country_code": "ad"
      },
      "address": "Furgoneta VW T1, Carretera de la Rabassa, Aixirivall, Sant Julia de Loria, AD600, Andorra"
    },
    {
      "lat": 42.5008476369869,
      "lon": 1.4738091789529513,
      "geoinfo": {
        "display_name": "Roques Negres, Andorra la Vella, AD500, Andorra",
        "road": null,
        "house_number": null,
        "neighbourhood": null,
        "suburb": null,
        "city_district": null,
        "city": null,
        "state": null,
        "postcode": "AD500",
        "country": "Andorra",
        "country_code": "ad"
      },
      "address": "052, Roques Negres, Andorra la Vella, AD500, Andorra"
    },
    {
      "lat": 42.519667937369164,
      "lon": 1.4687570856479872,
      "geoinfo": {
        "display_name": "Camí de la Collada Montaner, La Massana, AD400, Andorra",
        "road": "Camí de la Collada Montaner",
        "house_number": null,
        "neighbourhood": null,
        "suburb": null,
        "city_district": null,
        "city": "La Massana",
        "state": null,
        "postcode": "AD400",
        "country": "Andorra",
        "country_code": "ad"
      },
      "address": "442, Camí de la Collada Montaner, La Massana, AD400, Andorra"
    },
    {
      "lat": 42.50092088997172,
      "lon": 1.5226621124530542,
      "geoinfo": {
        "display_name": "Avenc Canya del Moro, Rec de l'Obac, Centre històric, La Comella, Andorra la Vella, AD500, Andorra",
        "road": "Rec de l'Obac",
        "house_number": null,
        "neighbourhood": "Centre històric",
        "suburb": null,
        "city_district": null,
        "city": "Andorra la Vella",
        "state": null,
        "postcode": "AD500",
        "country": "Andorra",
        "country_code": "ad"
      },
      "address": "583, Rec de l'Obac, AD500 Andorra la Vella, Andorra"
    },
    {
      "lat": 42.509034729173266,
      "lon": 1.5320431165575221,
      "geoinfo": {
        "display_name": "Centre Comercial Leclerc, Carrer Josep Rossell i Calva, Andorra la Vella, AD500, Andorra",
        "road": "Carrer Josep Rossell i Calva",
        "house_number": null,
        "neighbourhood": null,
        "suburb": null,
        "city_district": null,
        "city": "Andorra la Vella",
        "state": null,
        "postcode": "AD500",
        "country": "Andorra",
        "country_code": "ad"
      },
      "address": "421, Carrer Josep Rossell i Calva, AD500 Andorra la Vella, Andorra"
    },
    {
      "lat": 42.53326430291778,
      "lon": 1.5186238191064838,
      "geoinfo": {
        "display_name": "Carretera de Sispony, Sispony, La Massana, AD400, Andorra",
        "road": "Carretera de Sispony",
        "house_number": null,
        "neighbourhood": null,
        "suburb": null,
        "city_district": null,
        "city": "La Massana",
        "state": null,
        "postcode": "AD400",
        "country": "Andorra",
        "country_code": "ad"
      },
      "address": "657, Carretera de Sispony, Sispony, La Massana, AD400, Andorra"
    },
    {
      "lat": 42.50223625888824,
      "lon": 1.5187259236813417,
      "geoinfo": {
        "display_name": "Carretera de la Comella, Centre històric, Andorra la Vella, AD500, Andorra",
        "road": "Carretera de la Comella",
        "house_number": null,
        "neighbourhood": "Centre històric",
        "suburb": null,
        "city_district": null,
        "city": "Andorra la Vella",
        "state": null,
        "postcode": "AD500",
        "country": "Andorra",
        "country_code": "ad"
      },
      "address": "995, Carretera de la Comella, Centre històric, Andorra la Vella, AD500, Andorra"
    },
    {
      "lat": 42.525675326635984,
      "lon": 1.5431386897425243,
      "geoinfo": {
        "display_name": "Camí de Padern, Cortal de Bringuer, La Massana, AD400, Andorra",
        "road": "Camí de Padern",
        "house_number": null,
        "neighbourhood": null,
        "suburb": null,
        "city_district": null,
        "city": "La Massana",
        "state": null,
        "postcode": "AD400",
        "country": "Andorra",
        "country_code": "ad"
      },
      "address": "667, Camí de Padern, Cortal de Bringuer, La Massana, AD400, Andorra"
    },
    {
      "lat": 42.510908031016875,
      "lon": 1.562721080037443,
      "geoinfo": {
        "display_name": "Carretera d'Engolasters, Les Cases del Vilar, Engolasters, Escaldes-Engordany, AD700, Andorra",
        "road": "Carretera d'Engolasters",
        "house_number": null,
        "neighbourhood": null,
        "suburb": null,
        "city_district": null,
        "city": "Engolasters",
        "state": null,
        "postcode": "AD700",
        "country": "Andorra",
        "country_code": "ad"
      },
      "address": "462, Carretera d'Engolasters, Les Cases del Vilar, Engolasters, Escaldes-Engordany, AD700, Andorra"
    },
    {
      "lat": 42.47941569954751,
      "lon": 1.556676172757169,
      "geoinfo": {
        "display_name": "Costa de Perafita, Escaldes-Engordany, AD700, Andorra",
        "road": null,
        "house_number": null,
        "neighbourhood": null,
        "suburb": null,
        "city_district": null,
        "city": null,
        "state": null,
        "postcode": "AD700",
        "country": "Andorra",
        "country_code": "ad"
      },
      "address": "286, Costa de Perafita, Escaldes-Engordany, AD700, Andorra"
    },
    {
      "lat": 42.49483210055582,
      "lon": 1.4818056217414248,
      "geoinfo": {
        "display_name": "Roques Negres, Andorra la Vella, AD500, Andorra",
        "road": null,
        "house_number": null,
        "neighbourhood": null,
        "suburb": null,
        "city_district": null,
        "city": null,
        "state": null,
        "postcode": "AD500",
        "country": "Andorra",
        "country_code": "ad"
      },
      "address": "271, Roques Negres, Andorra la Vella, AD500, Andorra"
    },
    {
      "lat": 42.47791239662126,
      "lon": 1.5101160891305334,
      "geoinfo": {
        "display_name": "Urbanització Certés, Certers, Sant Julia de Loria, AD600, Andorra",
        "road": "Urbanització Certés",
        "house_number": null,
        "neighbourhood": null,
        "suburb": null,
        "city_district": null,
        "city": "Certers",
        "state": null,
        "postcode": "AD600",
        "country": "Andorra",
        "country_code": "ad"
      },
      "address": "792, Urbanització Certés, Certers, Sant Julia de Loria, AD600, Andorra"
    },
    {
      "lat": 42.466559752968465,
      "lon": 1.5022653116670124,
      "geoinfo": {
        "display_name": "Camí de la Solana, Aixirivall, Sant Julia de Loria, AD600, Andorra",
        "road": "Camí de la Solana",
        "house_number": null,
        "neighbourhood": null,
        "suburb": null,
        "city_district": null,
        "city": "Aixirivall",
        "state": null,
        "postcode": "AD600",
        "country": "Andorra",
        "country_code": "ad"
      },
      "address": "682, Camí de la Solana, Aixirivall, Sant Julia de Loria, AD600, Andorra"
    },
    {
      "lat": 42.497296090351426,
      "lon": 1.505693667260057,
      "geoinfo": {
        "display_name": "Avinguda d'Enclar, Santa Coloma, Andorra la Vella, AD500, Andorra",
        "road": "Avinguda d'Enclar",
        "house_number": null,
        "neighbourhood": null,
        "suburb": null,
        "city_district": null,
        "city": "Santa Coloma",
        "state": null,
        "postcode": "AD500",
        "country": "Andorra",
        "country_code": "ad"
      },
      "address": "162, Avinguda d'Enclar, Santa Coloma, Andorra la Vella, AD500, Andorra"
    },
    {
      "lat": 42.483820465616716,
      "lon": 1.5644569245748583,
      "geoinfo": {
        "display_name": "Costa de Perafita, Escaldes-Engordany, AD700, Andorra",
        "road": null,
        "house_number": null,
        "neighbourhood": null,
        "suburb": null,
        "city_district": null,
        "city": null,
        "state": null,
        "postcode": "AD700",
        "country": "Andorra",
        "country_code": "ad"
      },
      "address": "433, Costa de Perafita, Escaldes-Engordany, AD700, Andorra"
    },
    {
      "lat": 42.50191124260306,
      "lon": 1.5364382719110719,
      "geoinfo": {
        "display_name": "Carretera de la Comella, les Escaldes, Andorra la Vella, AD700, Andorra",
        "road": "Carretera de la Comella",
        "house_number": null,
        "neighbourhood": null,
        "suburb": null,
        "city_district": null,
        "city": "les Escaldes",
        "state": null,
        "postcode": "AD700",
        "country": "Andorra",
        "country_code": "ad"
      },
      "address": "478, Carretera de la Comella, les Escaldes, Andorra la Vella, AD700, Andorra"
    },
    {
      "lat": 42.48028502478349,
      "lon": 1.5034402553201696,
      "geoinfo": {
        "display_name": "Urbanització Certés, Certers, Sant Julia de Loria, AD600, Andorra",
        "road": "Urbanització Certés",
        "house_number": null,
        "neighbourhood": null,
        "suburb": null,
        "city_district": null,
        "city": "Certers",
        "state": null,
        "postcode": "AD600",
        "country": "Andorra",
        "country_code": "ad"
      },
      "address": "068, Urbanització Certés, Certers, Sant Julia de Loria, AD600, Andorra"
    },
    {
      "lat": 42.495902576968994,
      "lon": 1.530152173091813,
      "geoinfo": {
        "display_name": "Urbanització Comella Parc, La Comella, Andorra la Vella, AD500, Andorra",
        "road": "Urbanització Comella Parc",
        "house_number": null,
        "neighbourhood": null,
        "suburb": null,
        "city_district": null,
        "city": "Andorra la Vella",
        "state": null,
        "postcode": "AD500",
        "country": "Andorra",
        "country_code": "ad"
      },
      "address": "679, Urbanització Comella Parc, La Comella, Andorra la Vella, AD500, Andorra"
    },
    {
      "lat": 42.529409033549825,
      "lon": 1.5009782934110825,
      "geoinfo": {
        "display_name": "Camí Pic de Carroi, La Massana, AD400, Andorra",
        "road": "Camí Pic de Carroi",
        "house_number": null,
        "neighbourhood": null,
        "suburb": null,
        "city_district": null,
        "city": "La Massana",
        "state": null,
        "postcode": "AD400",
        "country": "Andorra",
        "country_code": "ad"
      },
      "address": "818, Camí Pic de Carroi, La Massana, AD400, Andorra"
    },
    {
      "lat": 42.48988466100077,
      "lon": 1.4805567297093574,
      "geoinfo": {
        "display_name": "la Margineda, Andorra la Vella, AD500, Andorra",
        "road": null,
        "house_number": null,
        "neighbourhood": null,
        "suburb": null,
        "city_district": null,
        "city": "la Margineda",
        "state": null,
        "postcode": "AD500",
        "country": "Andorra",
        "country_code": "ad"
      },
      "address": "715, la Margineda, Andorra la Vella, AD500, Andorra"
    }
  ],
  "updated_at": "2025-10-19T00:46:35.696267+00:00",
  "_kind": "geo_samples"
}