{
  "country_code": "SZ",
  "country": "Eswatini",
  "city": "Lobamba",
  "geonameid": 935048,
  "target_addresses": 34,
  "samples": [
    {
      "lat": -26.444391007614797,
      "lon": 31.21807014726786,
      "geoinfo": {
        "display_name": "Lobamba, Inkhundla Lobamba, Hhohho Region, Eswatini",
        "road": null,
        "house_number": null,
        "neighbourhood": null,
        "suburb": null,
        "city_district": null,
        "city": "Lobamba",
        "state": "Hhohho Region",
        "postcode": null,
        "country": "Eswatini",
        "country_code": "sz"
      },
      "address": "Lobamba, Hhohho Region, Eswatini"
    },
    {
      "lat": -26.476956904188746,
      "lon": 31.174497450407646,
      "geoinfo": {
        "display_name": "Hippo Trail, Inkhundla Lobamba Lomdzala, Manzini Region, Eswatini",
        "road": "Hippo Trail",
        "house_number": null,
        "neighbourhood": null,
        "suburb": null,
        "city_district": null,
        "city": null,
        "state": "Manzini Region",
        "postcode": null,
        "country": "Eswatini",
        "country_code": "sz"
      },
      "address": "Hippo Trail, Lobamba, Manzini Region, Eswatini"
    },
    {
      "lat": -26.44664277565479,
      "lon": 31.159697475188445,
      "geoinfo": {
        "display_name": "Swazi Cultural Village, Ridge Trail, Inkhundla Lobamba Lomdzala, Manzini Region, Eswatini",
        "road": "Ridge Trail",
        "house_number": null,
        "neighbourhood": null,
        "suburb": null,
        "city_district": null,
        "city": null,
        "state": "Manzini Region",
        "postcode": null,
        "country": "Eswatini",
        "country_code": "sz"
      },
      "address": "Ridge Trail, Lobamba, Manzini Region, Eswatini"
    },
    {
      "lat": -26.45882277282131,
      "lon": 31.151957621659946,
      "geoinfo": {
        "display_name": "Inkhundla Mhlambanyatsi, Manzini Region, Eswatini",
        "road": null,
        "house_number": null,
        "neighbourhood": null,
        "suburb": null,
        "city_district": null,
        "city": null,
        "state": "Manzini Region",
        "postcode": null,
        "country": "Eswatini",
        "country_code": "sz"
      },
      "address": "Lobamba, Manzini Region, Eswatini"
    },
    {
      "lat": -26.4448406327637,
      "lon": 31.225414734841348,
      "geoinfo": {
        "display_name": "MR3, Inkhundla Lobamba, Hhohho Region, Eswatini",
        "road": "MR3",
        "house_number": null,
        "neighbourhood": null,
        "suburb": null,
        "city_district": null,
        "city": null,
        "state": "Hhohho Region",
        "postcode": null,
        "country": "Eswatini",
        "country_code": "sz"
      },
      "address": "MR3, Lobamba, Hhohho Region, Eswatini"
    },
    {
      "lat": -26.496330226812738,
      "lon": 31.232160636192376,
      "geoinfo": {
        "display_name": "MR103, Inkhundla Lobamba Lomdzala, Manzini Region, Eswatini",
        "road": "MR103",
        "house_number": null,
        "neighbourhood": null,
        "suburb": null,
        "city_district": null,
        "city": null,
        "state": "Manzini Region",
        "postcode": null,
        "country": "Eswatini",
        "country_code": "sz"
      },
      "address": "MR103, Lobamba, Manzini Region, Eswatini"
    },
    {
      "lat": -26.42384277617047,
      "lon": 31.193155988889192,
      "geoinfo": {
        "display_name": "Mphumalanga Close, Ezulwini, Inkhundla Lobamba, Hhohho Region, Eswatini",
        "road": "Mphumalanga Close",
        "house_number": null,
        "neighbourhood": null,
        "suburb": null,
        "city_district": null,
        "city": "Ezulwini",
        "state": "Hhohho Region",
        "postcode": null,
        "country": "Eswatini",
        "country_code": "sz"
      },
      "address": "Mphumalanga Close, Lobamba, Hhohho Region, Eswatini"
    },
    {
      "lat": -26.43318102997191,
      "lon": 31.16706214106396,
      "geoinfo": {
        "display_name": "Dr Steven's Drive, Ezulwini, Inkhundla Lobamba, Hhohho Region, Eswatini",
        "road": "Dr Steven's Drive",
        "house_number": null,
        "neighbourhood": null,
        "suburb": null,
        "city_district": null,
        "city": "Ezulwini",
        "state": "Hhohho Region",
        "postcode": null,
        "country": "Eswatini",
        "country_code": "sz"
      },
      "address": "Dr Steven's Drive, Lobamba, Hhohho Region, Eswatini"
    },
    {
      "lat": -26.507083186333617,
      "lon": 31.210519932191723,
      "geoinfo": {
        "display_name": "MR27, Malkerns, Inkhundla Lobamba Lomdzala, Manzini Region, Eswatini",
        "road": "MR27",
        "house_number": null,
        "neighbourhood": null,
        "suburb": null,
        "city_district": null,
        "city": "Malkerns",
        "state": "Manzini Region",
        "postcode": null,
        "country": "Eswatini",
        "country_code": "sz"
      },
      "address": "MR27, Lobamba, Manzini Region, Eswatini"
    },
    {
      "lat": -26.44033002709319,
      "lon": 31.206653721623745,
      "geoinfo": {
        "display_name": "D38, Lobamba, Inkhundla Lobamba, Hhohho Region, Eswatini",
        "road": "D38",
        "house_number": null,
        "neighbourhood": null,
        "suburb": null,
        "city_district": null,
        "city": "Lobamba",
        "state": "Hhohho Region",
        "postcode": null,
        "country": "Eswatini",
        "country_code": "sz"
      },
      "address": "D38, Lobamba, Hhohho Region, Eswatini"
    },
    {
      "lat": -26.470356805819723,
      "lon": 31.18535472796386,
      "geoinfo": {
        "display_name": "Reilly's Rock Hilltop Lodge, Summit Trail, Inkhundla Lobamba Lomdzala, Manzini Region, Eswatini",
        "road": "Summit Trail",
        "house_number": null,
        "neighbourhood": null,
        "suburb": null,
        "city_district": null,
        "city": null,
        "state": "Manzini Region",
        "postcode": null,
        "country": "Eswatini",
        "country_code": "sz"
      },
      "address": "Summit Trail, Lobamba, Manzini Region, Eswatini"
    },
    {
      "lat": -26.4409041908153,
      "lon": 31.185941189827886,
      "geoinfo": {
        "display_name": "Mantenga Drive, Lobamba, Inkhundla Lobamba, Hhohho Region, Eswatini",
        "road": "Mantenga Drive",
        "house_number": null,
        "neighbourhood": null,
        "suburb": null,
        "city_district": null,
        "city": "Lobamba",
        "state": "Hhohho Region",
        "postcode": null,
        "country": "Eswatini",
        "country_code": "sz"
      },
      "address": "Mantenga Drive, Lobamba, Hhohho Region, Eswatini"
    },
    {
      "lat": -26.443466623159882,
      "lon": 31.19507286590828,
      "geoinfo": {
        "display_name": "MR103, Lobamba, Inkhundla Lobamba, Hhohho Region, Eswatini",
        "road": "MR103",
        "house_number": null,
        "neighbourhood": null,
        "suburb": null,
        "city_district": null,
        "city": "Lobamba",
        "state": "Hhohho Region",
        "postcode": null,
        "country": "Eswatini",
        "country_code": "sz"
      },
      "address": "MR103, Lobamba, Hhohho Region, Eswatini"
    },
    {
      "lat": -26.49063061943511,
      "lon": 31.201636154595963,
      "geoinfo": {
        "display_name": "D55, Lobamba, Inkhundla Lobamba, Hhohho Region, Eswatini",
        "road": "D55",
        "house_number": null,
        "neighbourhood": null,
        "suburb": null,
        "city_district": null,
        "city": "Lobamba",
        "state": "Hhohho Region",
        "postcode": null,
        "country": "Eswatini",
        "country_code": "sz"
      },
      "address": "D55, Lobamba, Hhohho Region, Eswatini"
    },
    {
      "lat": -26.445659952849343,
      "lon": 31.228827235604705,
      "geoinfo": {
        "display_name": "MR3, Inkhundla Lobamba, Hhohho Region, Eswatini",
        "road": "MR3",
        "house_number": null,
        "neighbourhood": null,
        "suburb": null,
        "city_district": null,
        "city": null,
        "state": "Hhohho Region",
        "postcode": null,
        "country": "Eswatini",
        "country_code": "sz"
      },
      "address": "MR3, Inkhundla Lobamba, 11348 Hhohho Region, Eswatini"
    },
    {
      "lat": -26.50672670340725,
      "lon": 31.19118546947903,
      "geoinfo": {
        "display_name": "Malkerns, Inkhundla Lobamba Lomdzala, Manzini Region, Eswatini",
        "road": null,
        "house_number": null,
        "neighbourhood": null,
        "suburb": null,
        "city_district": null,
        "city": "Malkerns",
        "state": "Manzini Region",
        "postcode": null,
        "country": "Eswatini",
        "country_code": "sz"
      },
      "address": "140, Malkerns, Inkhundla Lobamba Lomdzala, 30684 Manzini Region, Eswatini"
    },
    {
      "lat": -26.466106410022118,
      "lon": 31.203187089073293,
      "geoinfo": {
        "display_name": "Ludzidzini, Lobamba, Inkhundla Lobamba, Hhohho Region, Eswatini",
        "road": null,
        "house_number": null,
        "neighbourhood": null,
        "suburb": null,
        "city_district": null,
        "city": "Lobamba",
        "state": "Hhohho Region",
        "postcode": null,
        "country": "Eswatini",
        "country_code": "sz"
      },
      "address": "554, Ludzidzini, Lobamba, Inkhundla Lobamba, 90045 Hhohho Region, Eswatini"
    },
    {
      "lat": -26.463887413220547,
      "lon": 31.210853967517927,
      "geoinfo": {
        "display_name": "Lobamba, Inkhundla Lobamba, Hhohho Region, Eswatini",
        "road": null,
        "house_number": null,
        "neighbourhood": null,
        "suburb": null,
        "city_district": null,
        "city": "Lobamba",
        "state": "Hhohho Region",
        "postcode": null,
        "country": "Eswatini",
        "country_code": "sz"
      },
      "address": "808, Lobamba, Inkhundla Lobamba, 01106 Hhohho Region, Eswatini"
    },
    {
      "lat": -26.50557985426816,
      "lon": 31.201142913141073,
      "geoinfo": {
        "display_name": "Malkerns, Inkhundla Lobamba Lomdzala, Manzini Region, Eswatini",
        "road": null,
        "house_number": null,
        "neighbourhood": null,
        "suburb": null,
        "city_district": null,
        "city": "Malkerns",
        "state": "Manzini Region",
        "postcode": null,
        "country": "Eswatini",
        "country_code": "sz"
      },
      "address": "730, Malkerns, Inkhundla Lobamba Lomdzala, 29963 Manzini Region, Eswatini"
    },
    {
      "lat": -26.47505551873171,
      "lon": 31.20949684171534,
      "geoinfo": {
        "display_name": "Inkhundla Lobamba, Hhohho Region, Eswatini",
        "road": null,
        "house_number": null,
        "neighbourhood": null,
        "suburb": null,
        "city_district": null,
        "city": null,
        "state": "Hhohho Region",
        "postcode": null,
        "country": "Eswatini",
        "country_code": "sz"
      },
      "address": "537, Lobamba, 14554 Hhohho Region, Eswatini"
    },
    {
      "lat": -26.46539097078022,
      "lon": 31.21157981443112,
      "geoinfo": {
        "display_name": "Lobamba, Inkhundla Lobamba, Hhohho Region, Eswatini",
        "road": null,
        "house_number": null,
        "neighbourhood": null,
        "suburb": null,
        "city_district": null,
        "city": "Lobamba",
        "state": "Hhohho Region",
        "postcode": null,
        "country": "Eswatini",
        "country_code": "sz"
      },
      "address": "923, Lobamba, Inkhundla Lobamba, 80271 Hhohho Region, Eswatini"
    },
    {
      "lat": -26.43840781989426,
      "lon": 31.233037976164738,
      "geoinfo": {
        "display_name": "Lobamba, Inkhundla Lobamba, Hhohho Region, Eswatini",
        "road": null,
        "house_number": null,
        "neighbourhood": null,
        "suburb": null,
        "city_district": null,
        "city": "Lobamba",
        "state": "Hhohho Region",
        "postcode": null,
        "country": "Eswatini",
        "country_code": "sz"
      },
      "address": "833, Lobamba, Inkhundla Lobamba, 52741 Hhohho Region, Eswatini"
    },
    {
      "lat": -26.484540604255503,
      "lon": 31.184769253855375,
      "geoinfo": {
        "display_name": "Hippo Trail, Inkhundla Lobamba Lomdzala, Manzini Region, Eswatini",
        "road": "Hippo Trail",
        "house_number": null,
        "neighbourhood": null,
        "suburb": null,
        "city_district": null,
        "city": null,
        "state": "Manzini Region",
        "postcode": null,
        "country": "Eswatini",
        "country_code": "sz"
      },
      "address": "437, Hippo Trail, Inkhundla Lobamba Lomdzala, 06007 Manzini Region, Eswatini"
    },
    {
      "lat": -26.48879275134455,
      "lon": 31.182400523133154,
      "geoinfo": {
        "display_name": "Hippo Trail, Inkhundla Lobamba Lomdzala, Manzini Region, Eswatini",
        "road": "Hippo Trail",
        "house_number": null,
        "neighbourhood": null,
        "suburb": null,
        "city_district": null,
        "city": null,
        "state": "Manzini Region",
        "postcode": null,
        "country": "Eswatini",
        "country_code": "sz"
      },
      "address": "337, Hippo Trail, Inkhundla Lobamba Lomdzala, 71547 Manzini Region, Eswatini"
    },
    {
      "lat": -26.479950791335874,
      "lon": 31.201588558132197,
      "geoinfo": {
        "display_name": "Inkhundla Lobamba, Hhohho Region, Eswatini",
        "road": null,
        "house_number": null,
        "neighbourhood": null,
        "suburb": null,
        "city_district": null,
        "city": null,
        "state": "Hhohho Region",
        "postcode": null,
        "country": "Eswatini",
        "country_code": "sz"
      },
      "address": "764, Lobamba, 25986 Hhohho Region, Eswatini"
    },
    {
      "lat": -26.44940213124449,
      "lon": 31.245058941171898,
      "geoinfo": {
        "display_name": "Inkhundla Lobamba, Hhohho Region, Eswatini",
        "road": null,
        "house_number": null,
        "neighbourhood": null,
        "suburb": null,
        "city_district": null,
        "city": null,
        "state": "Hhohho Region",
        "postcode": null,
        "country": "Eswatini",
        "country_code": "sz"
      },
      "address": "908, Lobamba, 30244 Hhohho Region, Eswatini"
    },
    {
      "lat": -26.453420253950036,
      "lon": 31.229447434386145,
      "geoinfo": {
        "display_name": "Lobamba, Inkhundla Lobamba, Hhohho Region, Eswatini",
        "road": null,
        "house_number": null,
        "neighbourhood": null,
        "suburb": null,
        "city_district": null,
        "city": "Lobamba",
        "state": "Hhohho Region",
        "postcode": null,
        "country": "Eswatini",
        "country_code": "sz"
      },
      "address": "586, Lobamba, Inkhundla Lobamba, 58712 Hhohho Region, Eswatini"
    },
    {
      "lat": -26.456293560915178,
      "lon": 31.222334797362805,
      "geoinfo": {
        "display_name": "Lobamba, Inkhundla Lobamba, Hhohho Region, Eswatini",
        "road": null,
        "house_number": null,
        "neighbourhood": null,
        "suburb": null,
        "city_district": null,
        "city": "Lobamba",
        "state": "Hhohho Region",
        "postcode": null,
        "country": "Eswatini",
        "country_code": "sz"
      },
      "address": "580, Lobamba, Inkhundla Lobamba, 13986 Hhohho Region, Eswatini"
    },
    {
      "lat": -26.47594545510437,
      "lon": 31.165010988347948,
      "geoinfo": {
        "display_name": "Malkerns, Inkhundla Lobamba Lomdzala, Manzini Region, Eswatini",
        "road": null,
        "house_number": null,
        "neighbourhood": null,
        "suburb": null,
        "city_district": null,
        "city": "Malkerns",
        "state": "Manzini Region",
        "postcode": null,
        "country": "Eswatini",
        "country_code": "sz"
      },
      "address": "585, Malkerns, Inkhundla Lobamba Lomdzala, 31992 Manzini Region, Eswatini"
    },
    {
      "lat": -26.457611672985266,
      "lon": 31.1732419309547,
      "geoinfo": {
        "display_name": "Summit Trail, Inkhundla Lobamba Lomdzala, Manzini Region, Eswatini",
        "road": "Summit Trail",
        "house_number": null,
        "neighbourhood": null,
        "suburb": null,
        "city_district": null,
        "city": null,
        "state": "Manzini Region",
        "postcode": null,
        "country": "Eswatini",
        "country_code": "sz"
      },
      "address": "861, Summit Trail, Inkhundla Lobamba Lomdzala, 85890 Manzini Region, Eswatini"
    },
    {
      "lat": -26.445045233033117,
      "lon": 31.168843214817315,
      "geoinfo": {
        "display_name": "Mantenga Drive, Lobamba, Inkhundla Lobamba, Hhohho Region, Eswatini",
        "road": "Mantenga Drive",
        "house_number": null,
        "neighbourhood": null,
        "suburb": null,
        "city_district": null,
        "city": "Lobamba",
        "state": "Hhohho Region",
        "postcode": null,
        "country": "Eswatini",
        "country_code": "sz"
      },
      "address": "043, Mantenga Drive, Lobamba, Inkhundla Lobamba, 37508 Hhohho Region, Eswatini"
    },
    {
      "lat": -26.503051934495655,
      "lon": 31.17742858275737,
      "geoinfo": {
        "display_name": "Malkerns, Inkhundla Lobamba Lomdzala, Manzini Region, Eswatini",
        "road": null,
        "house_number": null,
        "neighbourhood": null,
        "suburb": null,
        "city_district": null,
        "city": "Malkerns",
        "state": "Manzini Region",
        "postcode": null,
        "country": "Eswatini",
        "country_code": "sz"
      },
      "address": "247, Malkerns, Inkhundla Lobamba Lomdzala, 16620 Manzini Region, Eswatini"
    },
    {
      "lat": -26.45560514683647,
      "lon": 31.233861644446385,
      "geoinfo": {
        "display_name": "MR3, Inkhundla Lobamba, Hhohho Region, Eswatini",
        "road": "MR3",
        "house_number": null,
        "neighbourhood": null,
        "suburb": null,
        "city_district": null,
        "city": null,
        "state": "Hhohho Region",
        "postcode": null,
        "country": "Eswatini",
        "country_code": "sz"
      },
      "address": "MR3, Inkhundla Lobamba, 84133 Hhohho Region, Eswatini"
    },
    {
      "lat": -26.435661273578553,
      "lon": 31.195314618265932,
      "geoinfo": {
        "display_name": "Lobamba, Inkhundla Lobamba, Hhohho Region, Eswatini",
        "road": null,
        "house_number": null,
        "neighbourhood": null,
        "suburb": null,
        "city_district": null,
        "city": "Lobamba",
        "state": "Hhohho Region",
        "postcode": null,
        "country": "Eswatini",
        "country_code": "sz"
      },
      "address": "630, Lobamba, Inkhundla Lobamba, 96784 Hhohho Region, Eswatini"
    },
    {
      "lat": -26.432310642370975,
      "lon": 31.178713122030985,
      "geoinfo": {
        "display_name": "Lobamba, Inkhundla Lobamba, Hhohho Region, Eswatini",
        "road": null,
        "house_number": null,
        "neighbourhood": null,
        "suburb": null,
        "city_district": null,
        "city": "Lobamba",
        "state": "Hhohho Region",
        "postcode": null,
        "country": "Eswatini",
        "country_code": "sz"
      },
      "address": "618, Lobamba, Inkhundla Lobamba, 32532 Hhohho Region, Eswatini"
    },
    {
      "lat": -26.470405104381403,
      "lon": 31.210999253950714,
      "geoinfo": {
        "display_name": "Lobamba, Inkhundla Lobamba, Hhohho Region, Eswatini",
        "road": null,
        "house_number": null,
        "neighbourhood": null,
        "suburb": null,
        "city_district": null,
        "city": "Lobamba",
        "state": "Hhohho Region",
        "postcode": null,
        "country": "Eswatini",
        "country_code": "sz"
      },
      "address": "878, Lobamba, Inkhundla Lobamba, 09161 Hhohho Region, Eswatini"
    },
    {
      "lat": -26.466117385567866,
      "lon": 31.201847163331763,
      "geoinfo": {
        "display_name": "Ludzidzini, Lobamba, Inkhundla Lobamba, Hhohho Region, Eswatini",
        "road": null,
        "house_number": null,
        "neighbourhood": null,
        "suburb": null,
        "city_district": null,
        "city": "Lobamba",
        "state": "Hhohho Region",
        "postcode": null,
        "country": "Eswatini",
        "country_code": "sz"
      },
      "address": "793, Ludzidzini, Lobamba, Inkhundla Lobamba, 84598 Hhohho Region, Eswatini"
    },
    {
      "lat": -26.46591960819994,
      "lon": 31.235778943255855,
      "geoinfo": {
        "display_name": "Lobamba, Inkhundla Lobamba, Hhohho Region, Eswatini",
        "road": null,
        "house_number": null,
        "neighbourhood": null,
        "suburb": null,
        "city_district": null,
        "city": "Lobamba",
        "state": "Hhohho Region",
        "postcode": null,
        "country": "Eswatini",
        "country_code": "sz"
      },
      "address": "159, Lobamba, Inkhundla Lobamba, 80469 Hhohho Region, Eswatini"
    },
    {
      "lat": -26.435305924320232,
      "lon": 31.172990628488783,
      "geoinfo": {
        "display_name": "Inkhundla Lobamba, Hhohho Region, Eswatini",
        "road": null,
        "house_number": null,
        "neighbourhood": null,
        "suburb": null,
        "city_district": null,
        "city": null,
        "state": "Hhohho Region",
        "postcode": null,
        "country": "Eswatini",
        "country_code": "sz"
      },
      "address": "308, Lobamba, 49468 Hhohho Region, Eswatini"
    }
  ],
  "updated_at": "2025-10-19T06:44:00.979495+00:00",
  "_kind": "geo_samples"
}