{
  "country_code": "SZ",
  "country": "Eswatini",
  "city": "Manzini",
  "geonameid": 934995,
  "target_addresses": 34,
  "samples": [
    {
      "lat": -26.48468572470247,
      "lon": 31.388482518054325,
      "geoinfo": {
        "display_name": "MR3, Manzini, Inkhundla Manzini, Manzini Region, M100, Eswatini",
        "road": "MR3",
        "house_number": null,
        "neighbourhood": null,
        "suburb": null,
        "city_district": null,
        "city": "Manzini",
        "state": "Manzini Region",
        "postcode": "M100",
        "country": "Eswatini",
        "country_code": "sz"
      },
      "address": "MR3, Manzini, Manzini Region, Eswatini"
    },
    {
      "lat": -26.487114237981107,
      "lon": 31.384016964002956,
      "geoinfo": {
        "display_name": "Manzini, Inkhundla Manzini, Manzini Region, M100, Eswatini",
        "road": null,
        "house_number": null,
        "neighbourhood": null,
        "suburb": null,
        "city_district": null,
        "city": "Manzini",
        "state": "Manzini Region",
        "postcode": "M100",
        "country": "Eswatini",
        "country_code": "sz"
      },
      "address": "Manzini, Manzini Region, Eswatini"
    },
    {
      "lat": -26.495632044957258,
      "lon": 31.381248635069404,
      "geoinfo": {
        "display_name": "Spar Store, Ngwane Street, Manzini, Inkhundla Manzini, Manzini Region, M100, Eswatini",
        "road": "Ngwane Street",
        "house_number": null,
        "neighbourhood": null,
        "suburb": null,
        "city_district": null,
        "city": "Manzini",
        "state": "Manzini Region",
        "postcode": "M100",
        "country": "Eswatini",
        "country_code": "sz"
      },
      "address": "Ngwane Street, Manzini, Manzini Region, Eswatini"
    },
    {
      "lat": -26.50081065659099,
      "lon": 31.377975479035893,
      "geoinfo": {
        "display_name": "Sandlane Street, Manzini, Inkhundla Manzini, Manzini Region, M100, Eswatini",
        "road": "Sandlane Street",
        "house_number": null,
        "neighbourhood": null,
        "suburb": null,
        "city_district": null,
        "city": "Manzini",
        "state": "Manzini Region",
        "postcode": "M100",
        "country": "Eswatini",
        "country_code": "sz"
      },
      "address": "Sandlane Street, Manzini, Manzini Region, Eswatini"
    },
    {
      "lat": -26.519908932416723,
      "lon": 31.351742407440753,
      "geoinfo": {
        "display_name": "MR9, Inkhundla Manzini, Manzini Region, Eswatini",
        "road": "MR9",
        "house_number": null,
        "neighbourhood": null,
        "suburb": null,
        "city_district": null,
        "city": null,
        "state": "Manzini Region",
        "postcode": null,
        "country": "Eswatini",
        "country_code": "sz"
      },
      "address": "MR9, Manzini, Manzini Region, Eswatini"
    },
    {
      "lat": -26.50899188791014,
      "lon": 31.37762407199919,
      "geoinfo": {
        "display_name": "Southern Distributor, Manzini, Inkhundla Manzini, Manzini Region, M100, Eswatini",
        "road": "Southern Distributor",
        "house_number": null,
        "neighbourhood": null,
        "suburb": null,
        "city_district": null,
        "city": "Manzini",
        "state": "Manzini Region",
        "postcode": "M100",
        "country": "Eswatini",
        "country_code": "sz"
      },
      "address": "Southern Distributor, Manzini, Manzini Region, Eswatini"
    },
    {
      "lat": -26.49889602062323,
      "lon": 31.37565683294307,
      "geoinfo": {
        "display_name": "Manzini Market, Mancishane Street, Manzini, Inkhundla Manzini, Manzini Region, M100, Eswatini",
        "road": "Mancishane Street",
        "house_number": null,
        "neighbourhood": null,
        "suburb": null,
        "city_district": null,
        "city": "Manzini",
        "state": "Manzini Region",
        "postcode": "M100",
        "country": "Eswatini",
        "country_code": "sz"
      },
      "address": "Mancishane Street, Manzini, Manzini Region, Eswatini"
    },
    {
      "lat": -26.542427419473814,
      "lon": 31.387539828081604,
      "geoinfo": {
        "display_name": "D98, Inkhundla Mthongwaneni, Manzini Region, Eswatini",
        "road": "D98",
        "house_number": null,
        "neighbourhood": null,
        "suburb": null,
        "city_district": null,
        "city": null,
        "state": "Manzini Region",
        "postcode": null,
        "country": "Eswatini",
        "country_code": "sz"
      },
      "address": "D98, Manzini, Manzini Region, Eswatini"
    },
    {
      "lat": -26.47623493958422,
      "lon": 31.34790230338691,
      "geoinfo": {
        "display_name": "D93, Inkhundla Ekukhanyeni, Manzini Region, M100, Eswatini",
        "road": "D93",
        "house_number": null,
        "neighbourhood": null,
        "suburb": null,
        "city_district": null,
        "city": null,
        "state": "Manzini Region",
        "postcode": "M100",
        "country": "Eswatini",
        "country_code": "sz"
      },
      "address": "D93, Manzini, Manzini Region, Eswatini"
    },
    {
      "lat": -26.493613983392457,
      "lon": 31.398013713256137,
      "geoinfo": {
        "display_name": "Manzini Golf Course, Inhlangwane Street, Manzini, Inkhundla Manzini, Manzini Region, M100, Eswatini",
        "road": "Inhlangwane Street",
        "house_number": null,
        "neighbourhood": null,
        "suburb": null,
        "city_district": null,
        "city": "Manzini",
        "state": "Manzini Region",
        "postcode": "M100",
        "country": "Eswatini",
        "country_code": "sz"
      },
      "address": "Inhlangwane Street, Manzini, Manzini Region, Eswatini"
    },
    {
      "lat": -26.525238548700433,
      "lon": 31.38504457632714,
      "geoinfo": {
        "display_name": "Manzini, Inkhundla Manzini, Manzini Region, M100, Eswatini",
        "road": null,
        "house_number": null,
        "neighbourhood": null,
        "suburb": null,
        "city_district": null,
        "city": "Manzini",
        "state": "Manzini Region",
        "postcode": "M100",
        "country": "Eswatini",
        "country_code": "sz"
      },
      "address": "626, Manzini, Inkhundla Manzini, Manzini Region, M100, Eswatini"
    },
    {
      "lat": -26.516164189329494,
      "lon": 31.369783750663352,
      "geoinfo": {
        "display_name": "Manzini, Inkhundla Manzini, Manzini Region, M100, Eswatini",
        "road": null,
        "house_number": null,
        "neighbourhood": null,
        "suburb": null,
        "city_district": null,
        "city": "Manzini",
        "state": "Manzini Region",
        "postcode": "M100",
        "country": "Eswatini",
        "country_code": "sz"
      },
      "address": "959, Manzini, Inkhundla Manzini, Manzini Region, M100, Eswatini"
    },
    {
      "lat": -26.47205364442976,
      "lon": 31.348726380063226,
      "geoinfo": {
        "display_name": "Inkhundla Ekukhanyeni, Manzini Region, M100, Eswatini",
        "road": null,
        "house_number": null,
        "neighbourhood": null,
        "suburb": null,
        "city_district": null,
        "city": null,
        "state": "Manzini Region",
        "postcode": "M100",
        "country": "Eswatini",
        "country_code": "sz"
      },
      "address": "365, Manzini, M100 Manzini Region, Eswatini"
    },
    {
      "lat": -26.510624699420116,
      "lon": 31.36697366109723,
      "geoinfo": {
        "display_name": "Manzini, Inkhundla Manzini, Manzini Region, M100, Eswatini",
        "road": null,
        "house_number": null,
        "neighbourhood": null,
        "suburb": null,
        "city_district": null,
        "city": "Manzini",
        "state": "Manzini Region",
        "postcode": "M100",
        "country": "Eswatini",
        "country_code": "sz"
      },
      "address": "161, Manzini, Inkhundla Manzini, Manzini Region, M100, Eswatini"
    },
    {
      "lat": -26.491734479024604,
      "lon": 31.42740250835702,
      "geoinfo": {
        "display_name": "Inkhundla Mthongwaneni, Manzini Region, M100, Eswatini",
        "road": null,
        "house_number": null,
        "neighbourhood": null,
        "suburb": null,
        "city_district": null,
        "city": null,
        "state": "Manzini Region",
        "postcode": "M100",
        "country": "Eswatini",
        "country_code": "sz"
      },
      "address": "300, Manzini, M100 Manzini Region, Eswatini"
    },
    {
      "lat": -26.486322751915026,
      "lon": 31.406028427550883,
      "geoinfo": {
        "display_name": "Manzini, Inkhundla Manzini, Manzini Region, M100, Eswatini",
        "road": null,
        "house_number": null,
        "neighbourhood": null,
        "suburb": null,
        "city_district": null,
        "city": "Manzini",
        "state": "Manzini Region",
        "postcode": "M100",
        "country": "Eswatini",
        "country_code": "sz"
      },
      "address": "205, Manzini, Inkhundla Manzini, Manzini Region, M100, Eswatini"
    },
    {
      "lat": -26.534401359668557,
      "lon": 31.372143633936993,
      "geoinfo": {
        "display_name": "Manzini, Inkhundla Manzini, Manzini Region, M100, Eswatini",
        "road": null,
        "house_number": null,
        "neighbourhood": null,
        "suburb": null,
        "city_district": null,
        "city": "Manzini",
        "state": "Manzini Region",
        "postcode": "M100",
        "country": "Eswatini",
        "country_code": "sz"
      },
      "address": "737, Manzini, Inkhundla Manzini, Manzini Region, M100, Eswatini"
    },
    {
      "lat": -26.526481054423755,
      "lon": 31.37466285430593,
      "geoinfo": {
        "display_name": "Manzini, Inkhundla Manzini, Manzini Region, M100, Eswatini",
        "road": null,
        "house_number": null,
        "neighbourhood": null,
        "suburb": null,
        "city_district": null,
        "city": "Manzini",
        "state": "Manzini Region",
        "postcode": "M100",
        "country": "Eswatini",
        "country_code": "sz"
      },
      "address": "297, Manzini, Inkhundla Manzini, Manzini Region, M100, Eswatini"
    },
    {
      "lat": -26.504973133338744,
      "lon": 31.392896577788118,
      "geoinfo": {
        "display_name": "Manzini, Inkhundla Manzini, Manzini Region, M100, Eswatini",
        "road": null,
        "house_number": null,
        "neighbourhood": null,
        "suburb": null,
        "city_district": null,
        "city": "Manzini",
        "state": "Manzini Region",
        "postcode": "M100",
        "country": "Eswatini",
        "country_code": "sz"
      },
      "address": "047, Manzini, Inkhundla Manzini, Manzini Region, M100, Eswatini"
    },
    {
      "lat": -26.479230271692586,
      "lon": 31.345959481893793,
      "geoinfo": {
        "display_name": "Manzini, Inkhundla Manzini, Manzini Region, M100, Eswatini",
        "road": null,
        "house_number": null,
        "neighbourhood": null,
        "suburb": null,
        "city_district": null,
        "city": "Manzini",
        "state": "Manzini Region",
        "postcode": "M100",
        "country": "Eswatini",
        "country_code": "sz"
      },
      "address": "662, Manzini, Inkhundla Manzini, Manzini Region, M100, Eswatini"
    },
    {
      "lat": -26.533752314383282,
      "lon": 31.394277718893896,
      "geoinfo": {
        "display_name": "Inkhundla Mthongwaneni, Manzini Region, M100, Eswatini",
        "road": null,
        "house_number": null,
        "neighbourhood": null,
        "suburb": null,
        "city_district": null,
        "city": null,
        "state": "Manzini Region",
        "postcode": "M100",
        "country": "Eswatini",
        "country_code": "sz"
      },
      "address": "606, Manzini, M100 Manzini Region, Eswatini"
    },
    {
      "lat": -26.521721488660265,
      "lon": 31.35792693302888,
      "geoinfo": {
        "display_name": "MR9, Inkhundla Manzini, Manzini Region, Eswatini",
        "road": "MR9",
        "house_number": null,
        "neighbourhood": null,
        "suburb": null,
        "city_district": null,
        "city": null,
        "state": "Manzini Region",
        "postcode": null,
        "country": "Eswatini",
        "country_code": "sz"
      },
      "address": "MR9, Inkhundla Manzini, 56626 Manzini Region, Eswatini"
    },
    {
      "lat": -26.522906273369134,
      "lon": 31.38996294704875,
      "geoinfo": {
        "display_name": "Inkhundla Mthongwaneni, Manzini Region, M100, Eswatini",
        "road": null,
        "house_number": null,
        "neighbourhood": null,
        "suburb": null,
        "city_district": null,
        "city": null,
        "state": "Manzini Region",
        "postcode": "M100",
        "country": "Eswatini",
        "country_code": "sz"
      },
      "address": "193, Manzini, M100 Manzini Region, Eswatini"
    },
    {
      "lat": -26.499807022796965,
      "lon": 31.364213010572744,
      "geoinfo": {
        "display_name": "Southern Africa Nazarene University, MR3, Manzini, Inkhundla Manzini, Manzini Region, M100, Eswatini",
        "road": "MR3",
        "house_number": null,
        "neighbourhood": null,
        "suburb": null,
        "city_district": null,
        "city": "Manzini",
        "state": "Manzini Region",
        "postcode": "M100",
        "country": "Eswatini",
        "country_code": "sz"
      },
      "address": "Southern Africa Nazarene University, MR3, Manzini, Inkhundla Manzini, Manzini Region, M100, Eswatini"
    },
    {
      "lat": -26.461681511904153,
      "lon": 31.3549964684286,
      "geoinfo": {
        "display_name": "Inkhundla Ekukhanyeni, Manzini Region, M100, Eswatini",
        "road": null,
        "house_number": null,
        "neighbourhood": null,
        "suburb": null,
        "city_district": null,
        "city": null,
        "state": "Manzini Region",
        "postcode": "M100",
        "country": "Eswatini",
        "country_code": "sz"
      },
      "address": "989, Manzini, M100 Manzini Region, Eswatini"
    },
    {
      "lat": -26.505153008953723,
      "lon": 31.36340351772895,
      "geoinfo": {
        "display_name": "Manzini, Inkhundla Manzini, Manzini Region, M100, Eswatini",
        "road": null,
        "house_number": null,
        "neighbourhood": null,
        "suburb": null,
        "city_district": null,
        "city": "Manzini",
        "state": "Manzini Region",
        "postcode": "M100",
        "country": "Eswatini",
        "country_code": "sz"
      },
      "address": "715, Manzini, Inkhundla Manzini, Manzini Region, M100, Eswatini"
    },
    {
      "lat": -26.540054255700394,
      "lon": 31.38947152567976,
      "geoinfo": {
        "display_name": "Inkhundla Mthongwaneni, Manzini Region, M100, Eswatini",
        "road": null,
        "house_number": null,
        "neighbourhood": null,
        "suburb": null,
        "city_district": null,
        "city": null,
        "state": "Manzini Region",
        "postcode": "M100",
        "country": "Eswatini",
        "country_code": "sz"
      },
      "address": "034, Manzini, M100 Manzini Region, Eswatini"
    },
    {
      "lat": -26.476100293483167,
      "lon": 31.399843477311077,
      "geoinfo": {
        "display_name": "Manzini, Inkhundla Manzini, Manzini Region, M100, Eswatini",
        "road": null,
        "house_number": null,
        "neighbourhood": null,
        "suburb": null,
        "city_district": null,
        "city": "Manzini",
        "state": "Manzini Region",
        "postcode": "M100",
        "country": "Eswatini",
        "country_code": "sz"
      },
      "address": "958, Manzini, Inkhundla Manzini, Manzini Region, M100, Eswatini"
    },
    {
      "lat": -26.529539250575137,
      "lon": 31.34848599550458,
      "geoinfo": {
        "display_name": "Inkhundla Nhlambeni, Manzini Region, M202, Eswatini",
        "road": null,
        "house_number": null,
        "neighbourhood": null,
        "suburb": null,
        "city_district": null,
        "city": null,
        "state": "Manzini Region",
        "postcode": "M202",
        "country": "Eswatini",
        "country_code": "sz"
      },
      "address": "521, Manzini, M202 Manzini Region, Eswatini"
    },
    {
      "lat": -26.48044908610573,
      "lon": 31.342993925752868,
      "geoinfo": {
        "display_name": "Manzini, Inkhundla Manzini, Manzini Region, M100, Eswatini",
        "road": null,
        "house_number": null,
        "neighbourhood": null,
        "suburb": null,
        "city_district": null,
        "city": "Manzini",
        "state": "Manzini Region",
        "postcode": "M100",
        "country": "Eswatini",
        "country_code": "sz"
      },
      "address": "959, Manzini, M100 Manzini Region, Eswatini"
    },
    {
      "lat": -26.463203671162624,
      "lon": 31.373691711230087,
      "geoinfo": {
        "display_name": "Inkhundla Ekukhanyeni, Manzini Region, M100, Eswatini",
        "road": null,
        "house_number": null,
        "neighbourhood": null,
        "suburb": null,
        "city_district": null,
        "city": null,
        "state": "Manzini Region",
        "postcode": "M100",
        "country": "Eswatini",
        "country_code": "sz"
      },
      "address": "968, Manzini, M100 Manzini Region, Eswatini"
    },
    {
      "lat": -26.47179806015222,
      "lon": 31.393722818800274,
      "geoinfo": {
        "display_name": "Inkhundla Ekukhanyeni, Manzini Region, M100, Eswatini",
        "road": null,
        "house_number": null,
        "neighbourhood": null,
        "suburb": null,
        "city_district": null,
        "city": null,
        "state": "Manzini Region",
        "postcode": "M100",
        "country": "Eswatini",
        "country_code": "sz"
      },
      "address": "891, Manzini, M100 Manzini Region, Eswatini"
    },
    {
      "lat": -26.526813103277853,
      "lon": 31.39125138244322,
      "geoinfo": {
        "display_name": "Inkhundla Mthongwaneni, Manzini Region, M100, Eswatini",
        "road": null,
        "house_number": null,
        "neighbourhood": null,
        "suburb": null,
        "city_district": null,
        "city": null,
        "state": "Manzini Region",
        "postcode": "M100",
        "country": "Eswatini",
        "country_code": "sz"
      },
      "address": "219, Manzini, M100 Manzini Region, Eswatini"
    },
    {
      "lat": -26.533588794031893,
      "lon": 31.35614575868928,
      "geoinfo": {
        "display_name": "Inkhundla Nhlambeni, Manzini Region, M202, Eswatini",
        "road": null,
        "house_number": null,
        "neighbourhood": null,
        "suburb": null,
        "city_district": null,
        "city": null,
        "state": "Manzini Region",
        "postcode": "M202",
        "country": "Eswatini",
        "country_code": "sz"
      },
      "address": "412, Manzini, M202 Manzini Region, Eswatini"
    },
    {
      "lat": -26.478134404876766,
      "lon": 31.379123256974747,
      "geoinfo": {
        "display_name": "Inkhundla Ekukhanyeni, Manzini Region, M100, Eswatini",
        "road": null,
        "house_number": null,
        "neighbourhood": null,
        "suburb": null,
        "city_district": null,
        "city": null,
        "state": "Manzini Region",
        "postcode": "M100",
        "country": "Eswatini",
        "country_code": "sz"
      },
      "address": "593, Manzini, M100 Manzini Region, Eswatini"
    },
    {
      "lat": -26.539058309279604,
      "lon": 31.370289008688992,
      "geoinfo": {
        "display_name": "Manzini, Inkhundla Manzini, Manzini Region, M100, Eswatini",
        "road": null,
        "house_number": null,
        "neighbourhood": null,
        "suburb": null,
        "city_district": null,
        "city": "Manzini",
        "state": "Manzini Region",
        "postcode": "M100",
        "country": "Eswatini",
        "country_code": "sz"
      },
      "address": "160, Manzini, Inkhundla Manzini, Manzini Region, M100, Eswatini"
    },
    {
      "lat": -26.47379621386811,
      "lon": 31.38757456504908,
      "geoinfo": {
        "display_name": "Inkhundla Ekukhanyeni, Manzini Region, M100, Eswatini",
        "road": null,
        "house_number": null,
        "neighbourhood": null,
        "suburb": null,
        "city_district": null,
        "city": null,
        "state": "Manzini Region",
        "postcode": "M100",
        "country": "Eswatini",
        "country_code": "sz"
      },
      "address": "048, Manzini, M100 Manzini Region, Eswatini"
    },
    {
      "lat": -26.52082191856852,
      "lon": 31.358622798057112,
      "geoinfo": {
        "display_name": "Manzini, Inkhundla Manzini, Manzini Region, M100, Eswatini",
        "road": null,
        "house_number": null,
        "neighbourhood": null,
        "suburb": null,
        "city_district": null,
        "city": "Manzini",
        "state": "Manzini Region",
        "postcode": "M100",
        "country": "Eswatini",
        "country_code": "sz"
      },
      "address": "945, Manzini, Inkhundla Manzini, Manzini Region, M100, Eswatini"
    },
    {
      "lat": -26.493612727650188,
      "lon": 31.379391569009975,
      "geoinfo": {
        "display_name": "Mo√ßambique Hotel, Ngwane Street, Manzini, Inkhundla Manzini, Manzini Region, M100, Eswatini",
        "road": "Ngwane Street",
        "house_number": null,
        "neighbourhood": null,
        "suburb": null,
        "city_district": null,
        "city": "Manzini",
        "state": "Manzini Region",
        "postcode": "M100",
        "country": "Eswatini",
        "country_code": "sz"
      },
      "address": "606, Ngwane Street, Manzini, M100 Manzini Region, Eswatini"
    },
    {
      "lat": -26.504962297408362,
      "lon": 31.3438309436084,
      "geoinfo": {
        "display_name": "Inkhundla Kwaluseni, Manzini Region, M202, Eswatini",
        "road": null,
        "house_number": null,
        "neighbourhood": null,
        "suburb": null,
        "city_district": null,
        "city": null,
        "state": "Manzini Region",
        "postcode": "M202",
        "country": "Eswatini",
        "country_code": "sz"
      },
      "address": "461, Manzini, M202 Manzini Region, Eswatini"
    },
    {
      "lat": -26.486608186172454,
      "lon": 31.345005851958682,
      "geoinfo": {
        "display_name": "Manzini, Inkhundla Manzini, Manzini Region, M100, Eswatini",
        "road": null,
        "house_number": null,
        "neighbourhood": null,
        "suburb": null,
        "city_district": null,
        "city": "Manzini",
        "state": "Manzini Region",
        "postcode": "M100",
        "country": "Eswatini",
        "country_code": "sz"
      },
      "address": "858, Manzini, Inkhundla Manzini, Manzini Region, M100, Eswatini"
    },
    {
      "lat": -26.50321699552044,
      "lon": 31.36572032573599,
      "geoinfo": {
        "display_name": "Manzini, Inkhundla Manzini, Manzini Region, M100, Eswatini",
        "road": null,
        "house_number": null,
        "neighbourhood": null,
        "suburb": null,
        "city_district": null,
        "city": "Manzini",
        "state": "Manzini Region",
        "postcode": "M100",
        "country": "Eswatini",
        "country_code": "sz"
      },
      "address": "694, Manzini, Inkhundla Manzini, Manzini Region, M100, Eswatini"
    },
    {
      "lat": -26.4793775304331,
      "lon": 31.393089106418042,
      "geoinfo": {
        "display_name": "Manzini, Inkhundla Manzini, Manzini Region, M100, Eswatini",
        "road": null,
        "house_number": null,
        "neighbourhood": null,
        "suburb": null,
        "city_district": null,
        "city": "Manzini",
        "state": "Manzini Region",
        "postcode": "M100",
        "country": "Eswatini",
        "country_code": "sz"
      },
      "address": "547, Manzini, Inkhundla Manzini, Manzini Region, M100, Eswatini"
    },
    {
      "lat": -26.54303960865627,
      "lon": 31.379537388705643,
      "geoinfo": {
        "display_name": "Manzini, Inkhundla Manzini, Manzini Region, M100, Eswatini",
        "road": null,
        "house_number": null,
        "neighbourhood": null,
        "suburb": null,
        "city_district": null,
        "city": "Manzini",
        "state": "Manzini Region",
        "postcode": "M100",
        "country": "Eswatini",
        "country_code": "sz"
      },
      "address": "265, Manzini, Inkhundla Manzini, Manzini Region, M100, Eswatini"
    }
  ],
  "updated_at": "2025-10-19T07:12:21.012224+00:00",
  "_kind": "geo_samples"
}