{
  "country_code": "DJ",
  "country": "Djibouti",
  "city": "Djibouti",
  "geonameid": 223817,
  "target_addresses": 17,
  "samples": [
    {
      "lat": 11.603149735922608,
      "lon": 43.14077592403296,
      "geoinfo": {
        "display_name": "Rue de Venise شارع فينيسيا, Place Lagarde ساحة لاغارد, La Plaine, Djibouti",
        "road": "Rue de Venise شارع فينيسيا",
        "house_number": null,
        "neighbourhood": "Place Lagarde ساحة لاغارد",
        "suburb": "La Plaine",
        "city_district": null,
        "city": "Djibouti",
        "state": null,
        "postcode": null,
        "country": "Djibouti",
        "country_code": "dj"
      },
      "address": "Rue de Venise شارع فينيسيا, Djibouti, Djibouti"
    },
    {
      "lat": 11.582552460042288,
      "lon": 43.15463717492074,
      "geoinfo": {
        "display_name": "Avenue Gamal Abdel Nasser شارع جمال عبد الناصر, Boulaos بولاوس, Quartier 5 / حارة 5, Djibouti",
        "road": "Avenue Gamal Abdel Nasser شارع جمال عبد الناصر",
        "house_number": null,
        "neighbourhood": "Boulaos بولاوس",
        "suburb": "Quartier 5 / حارة 5",
        "city_district": null,
        "city": "Djibouti",
        "state": null,
        "postcode": null,
        "country": "Djibouti",
        "country_code": "dj"
      },
      "address": "Avenue Gamal Abdel Nasser شارع جمال عبد الناصر, Djibouti, Djibouti"
    },
    {
      "lat": 11.606963515984082,
      "lon": 43.13981692421416,
      "geoinfo": {
        "display_name": "Le Plateau du Marabout الهضبة المرابط, Djibouti",
        "road": null,
        "house_number": null,
        "neighbourhood": null,
        "suburb": "Le Plateau du Marabout الهضبة المرابط",
        "city_district": null,
        "city": "Djibouti",
        "state": null,
        "postcode": null,
        "country": "Djibouti",
        "country_code": "dj"
      },
      "address": "Le Plateau du Marabout الهضبة المرابط, Djibouti, Djibouti"
    },
    {
      "lat": 11.569236982152674,
      "lon": 43.11579762602548,
      "geoinfo": {
        "display_name": "Avenue Ugass Hassan Xersi, Place Centrale de Hayableh الساحة المركزية هيابلي, Cité Barwaqo حي برواقو, Balbala بلبالا, Djibouti",
        "road": "Avenue Ugass Hassan Xersi",
        "house_number": null,
        "neighbourhood": "Place Centrale de Hayableh الساحة المركزية هيابلي",
        "suburb": "Cité Barwaqo حي برواقو",
        "city_district": null,
        "city": "Djibouti",
        "state": null,
        "postcode": null,
        "country": "Djibouti",
        "country_code": "dj"
      },
      "address": "Avenue Ugass Hassan Xersi, Djibouti, Djibouti"
    },
    {
      "lat": 11.57027708386761,
      "lon": 43.15615838283359,
      "geoinfo": {
        "display_name": "Boulaos بولاوس, Zone Industrielle Sud المنطقة الصناعية جنوب, Djibouti",
        "road": null,
        "house_number": null,
        "neighbourhood": "Boulaos بولاوس",
        "suburb": "Zone Industrielle Sud المنطقة الصناعية جنوب",
        "city_district": null,
        "city": "Djibouti",
        "state": null,
        "postcode": null,
        "country": "Djibouti",
        "country_code": "dj"
      },
      "address": "Boulaos بولاوس, Djibouti, Djibouti"
    },
    {
      "lat": 11.595983089612838,
      "lon": 43.15467654215293,
      "geoinfo": {
        "display_name": "Route de la Siesta طريق القيلولة, Place de Tokyo ساحة طوكيو, La Plaine, Djibouti",
        "road": "Route de la Siesta طريق القيلولة",
        "house_number": null,
        "neighbourhood": "Place de Tokyo ساحة طوكيو",
        "suburb": "La Plaine",
        "city_district": null,
        "city": "Djibouti",
        "state": null,
        "postcode": null,
        "country": "Djibouti",
        "country_code": "dj"
      },
      "address": "Route de la Siesta طريق القيلولة, Djibouti, Djibouti"
    },
    {
      "lat": 11.621018653909408,
      "lon": 43.17694658154739,
      "geoinfo": {
        "display_name": "Le Plateau du Serpent الهضبة الأفعى, Djibouti",
        "road": null,
        "house_number": null,
        "neighbourhood": null,
        "suburb": "Le Plateau du Serpent الهضبة الأفعى",
        "city_district": null,
        "city": "Djibouti",
        "state": null,
        "postcode": null,
        "country": "Djibouti",
        "country_code": "dj"
      },
      "address": "Le Plateau du Serpent الهضبة الأفعى, Djibouti, Djibouti"
    },
    {
      "lat": 11.554773518783328,
      "lon": 43.12389794987036,
      "geoinfo": {
        "display_name": "Route nationale 1, Ancienne Balbala بالبالا القديمة, Hayy ash-Shaikh Uthman, Balbala بلبالا, Djibouti",
        "road": "Route nationale 1",
        "house_number": null,
        "neighbourhood": null,
        "suburb": "Hayy ash-Shaikh Uthman",
        "city_district": null,
        "city": "Djibouti",
        "state": null,
        "postcode": null,
        "country": "Djibouti",
        "country_code": "dj"
      },
      "address": "Route nationale 1, Djibouti, Djibouti"
    },
    {
      "lat": 11.601431501007959,
      "lon": 43.111275542670654,
      "geoinfo": {
        "display_name": "Cité Barwaqo حي برواقو, Balbala بلبالا, Djibouti",
        "road": null,
        "house_number": null,
        "neighbourhood": null,
        "suburb": "Cité Barwaqo حي برواقو",
        "city_district": null,
        "city": "Djibouti",
        "state": null,
        "postcode": null,
        "country": "Djibouti",
        "country_code": "dj"
      },
      "address": "Cité Barwaqo حي برواقو, Djibouti, Djibouti"
    },
    {
      "lat": 11.588756387231387,
      "lon": 43.1080450527574,
      "geoinfo": {
        "display_name": "Doraleh Container Terminal, Djibouti",
        "road": null,
        "house_number": null,
        "neighbourhood": null,
        "suburb": null,
        "city_district": null,
        "city": "Djibouti",
        "state": null,
        "postcode": null,
        "country": "Djibouti",
        "country_code": "dj"
      },
      "address": "Djibouti, Djibouti"
    },
    {
      "lat": 11.61715304758472,
      "lon": 43.14103220006353,
      "geoinfo": {
        "display_name": "Rue de Mohamed Doura شارع محمد دورا, Place de Tokyo ساحة طوكيو, Le Plateau du Marabout الهضبة المرابط, Djibouti",
        "road": "Rue de Mohamed Doura شارع محمد دورا",
        "house_number": null,
        "neighbourhood": "Place de Tokyo ساحة طوكيو",
        "suburb": "Le Plateau du Marabout الهضبة المرابط",
        "city_district": null,
        "city": "Djibouti",
        "state": null,
        "postcode": null,
        "country": "Djibouti",
        "country_code": "dj"
      },
      "address": "Rue de Mohamed Doura شارع محمد دورا, Djibouti, Djibouti"
    },
    {
      "lat": 11.622709887032844,
      "lon": 43.14939198898198,
      "geoinfo": {
        "display_name": "Îlot du Héron جزيرة هيرون, Djibouti",
        "road": null,
        "house_number": null,
        "neighbourhood": null,
        "suburb": "Îlot du Héron جزيرة هيرون",
        "city_district": null,
        "city": "Djibouti",
        "state": null,
        "postcode": null,
        "country": "Djibouti",
        "country_code": "dj"
      },
      "address": "Îlot du Héron جزيرة هيرون, Djibouti, Djibouti"
    },
    {
      "lat": 11.591233443128791,
      "lon": 43.12575182236973,
      "geoinfo": {
        "display_name": "Djibouti Free Zone logistics center, Quartier 7 / حارة 7, Djibouti",
        "road": null,
        "house_number": null,
        "neighbourhood": "Djibouti Free Zone logistics center",
        "suburb": "Quartier 7 / حارة 7",
        "city_district": null,
        "city": "Djibouti",
        "state": null,
        "postcode": null,
        "country": "Djibouti",
        "country_code": "dj"
      },
      "address": "Djibouti Free Zone logistics center, Djibouti, Djibouti"
    },
    {
      "lat": 11.594516808055822,
      "lon": 43.14386503826646,
      "geoinfo": {
        "display_name": "Place Lagarde ساحة لاغارد, Einguela 1 / إينغيلا 1, Djibouti",
        "road": null,
        "house_number": null,
        "neighbourhood": "Place Lagarde ساحة لاغارد",
        "suburb": "Einguela 1 / إينغيلا 1",
        "city_district": null,
        "city": "Djibouti",
        "state": null,
        "postcode": null,
        "country": "Djibouti",
        "country_code": "dj"
      },
      "address": "Place Lagarde ساحة لاغارد, Djibouti, Djibouti"
    },
    {
      "lat": 11.575706098210915,
      "lon": 43.104561762001744,
      "geoinfo": {
        "display_name": "National Road 3, Hayabley هيابلي, Balbala بلبالا, Djibouti",
        "road": "National Road 3",
        "house_number": null,
        "neighbourhood": null,
        "suburb": "Hayabley هيابلي",
        "city_district": null,
        "city": "Djibouti",
        "state": null,
        "postcode": null,
        "country": "Djibouti",
        "country_code": "dj"
      },
      "address": "National Road 3, Djibouti, Djibouti"
    },
    {
      "lat": 11.554452291392634,
      "lon": 43.14846156848073,
      "geoinfo": {
        "display_name": "Lotissement de l'Aérogare حي المحطة المطار, Djibouti",
        "road": null,
        "house_number": null,
        "neighbourhood": "Lotissement de l'Aérogare حي المحطة المطار",
        "suburb": null,
        "city_district": null,
        "city": "Djibouti",
        "state": null,
        "postcode": null,
        "country": "Djibouti",
        "country_code": "dj"
      },
      "address": "Lotissement de l'Aérogare حي المحطة المطار, Djibouti, Djibouti"
    },
    {
      "lat": 11.578985617602044,
      "lon": 43.104622818961204,
      "geoinfo": {
        "display_name": "Route Nationale 3 / الطريق الوطني رقم 3, Hayabley هيابلي, Balbala بلبالا, Djibouti",
        "road": "Route Nationale 3 / الطريق الوطني رقم 3",
        "house_number": null,
        "neighbourhood": null,
        "suburb": "Hayabley هيابلي",
        "city_district": null,
        "city": "Djibouti",
        "state": null,
        "postcode": null,
        "country": "Djibouti",
        "country_code": "dj"
      },
      "address": "Route Nationale 3 / الطريق الوطني رقم 3, Djibouti, Djibouti"
    },
    {
      "lat": 11.611777093742958,
      "lon": 43.15733976676194,
      "geoinfo": {
        "display_name": "Avenue Mohammad Ahmad Issa شارع محمد دليتا شيشم, Place de Tokyo ساحة طوكيو, Le Plateau du Serpent الهضبة الأفعى, Djibouti",
        "road": "Avenue Mohammad Ahmad Issa شارع محمد دليتا شيشم",
        "house_number": null,
        "neighbourhood": "Place de Tokyo ساحة طوكيو",
        "suburb": "Le Plateau du Serpent الهضبة الأفعى",
        "city_district": null,
        "city": "Djibouti",
        "state": null,
        "postcode": null,
        "country": "Djibouti",
        "country_code": "dj"
      },
      "address": "084, Avenue Mohammad Ahmad Issa شارع محمد دليتا شيشم, 49764 Djibouti, Djibouti"
    },
    {
      "lat": 11.624642318242737,
      "lon": 43.12430338410154,
      "geoinfo": {
        "display_name": "Îlot du Héron جزيرة هيرون, Djibouti",
        "road": null,
        "house_number": null,
        "neighbourhood": null,
        "suburb": "Îlot du Héron جزيرة هيرون",
        "city_district": null,
        "city": "Djibouti",
        "state": null,
        "postcode": null,
        "country": "Djibouti",
        "country_code": "dj"
      },
      "address": "271, Îlot du Héron جزيرة هيرون, 82834 Djibouti, Djibouti"
    },
    {
      "lat": 11.578325453126471,
      "lon": 43.165277199019016,
      "geoinfo": {
        "display_name": "Zone Industrielle Sud المنطقة الصناعية جنوب, Djibouti",
        "road": null,
        "house_number": null,
        "neighbourhood": null,
        "suburb": "Zone Industrielle Sud المنطقة الصناعية جنوب",
        "city_district": null,
        "city": "Djibouti",
        "state": null,
        "postcode": null,
        "country": "Djibouti",
        "country_code": "dj"
      },
      "address": "689, Zone Industrielle Sud المنطقة الصناعية جنوب, 17647 Djibouti, Djibouti"
    },
    {
      "lat": 11.558764207829347,
      "lon": 43.12887918106332,
      "geoinfo": {
        "display_name": "Hayy ash-Shaikh Uthman, Balbala بلبالا, Djibouti",
        "road": null,
        "house_number": null,
        "neighbourhood": null,
        "suburb": "Hayy ash-Shaikh Uthman",
        "city_district": null,
        "city": "Djibouti",
        "state": null,
        "postcode": null,
        "country": "Djibouti",
        "country_code": "dj"
      },
      "address": "346, Hayy ash-Shaikh Uthman, 20828 Djibouti, Djibouti"
    },
    {
      "lat": 11.58057764651559,
      "lon": 43.15972164787623,
      "geoinfo": {
        "display_name": "Boulaos بولاوس, Zone Industrielle Sud المنطقة الصناعية جنوب, Djibouti",
        "road": null,
        "house_number": null,
        "neighbourhood": "Boulaos بولاوس",
        "suburb": "Zone Industrielle Sud المنطقة الصناعية جنوب",
        "city_district": null,
        "city": "Djibouti",
        "state": null,
        "postcode": null,
        "country": "Djibouti",
        "country_code": "dj"
      },
      "address": "299, Boulaos بولاوس, 57591 Djibouti, Djibouti"
    },
    {
      "lat": 11.572527589319106,
      "lon": 43.150520272408414,
      "geoinfo": {
        "display_name": "Gabode 2 / غابود 2, Cité Stade ملعب المدينة, Djibouti",
        "road": null,
        "house_number": null,
        "neighbourhood": null,
        "suburb": "Cité Stade ملعب المدينة",
        "city_district": null,
        "city": "Djibouti",
        "state": null,
        "postcode": null,
        "country": "Djibouti",
        "country_code": "dj"
      },
      "address": "045, Cité Stade ملعب المدينة, 88984 Djibouti, Djibouti"
    },
    {
      "lat": 11.56095233342933,
      "lon": 43.14770355859642,
      "geoinfo": {
        "display_name": "Rue Nelson Mandela شارع نيلسون مانديلا, Lotissement de l'Aérogare حي المحطة المطار, Cité Gabode حي غابود, Djibouti",
        "road": "Rue Nelson Mandela شارع نيلسون مانديلا",
        "house_number": null,
        "neighbourhood": "Lotissement de l'Aérogare حي المحطة المطار",
        "suburb": "Cité Gabode حي غابود",
        "city_district": null,
        "city": "Djibouti",
        "state": null,
        "postcode": null,
        "country": "Djibouti",
        "country_code": "dj"
      },
      "address": "486, Rue Nelson Mandela شارع نيلسون مانديلا, 33073 Djibouti, Djibouti"
    },
    {
      "lat": 11.594963890484289,
      "lon": 43.18444812582784,
      "geoinfo": {
        "display_name": "Le Plateau du Serpent الهضبة الأفعى, Djibouti",
        "road": null,
        "house_number": null,
        "neighbourhood": null,
        "suburb": "Le Plateau du Serpent الهضبة الأفعى",
        "city_district": null,
        "city": "Djibouti",
        "state": null,
        "postcode": null,
        "country": "Djibouti",
        "country_code": "dj"
      },
      "address": "289, Le Plateau du Serpent الهضبة الأفعى, 90886 Djibouti, Djibouti"
    },
    {
      "lat": 11.568621989504882,
      "lon": 43.12047658532237,
      "geoinfo": {
        "display_name": "National Road 3, Hayabley هيابلي, Balbala بلبالا, Djibouti",
        "road": "National Road 3",
        "house_number": null,
        "neighbourhood": null,
        "suburb": "Hayabley هيابلي",
        "city_district": null,
        "city": "Djibouti",
        "state": null,
        "postcode": null,
        "country": "Djibouti",
        "country_code": "dj"
      },
      "address": "National Road 3, 95134 Djibouti, Djibouti"
    },
    {
      "lat": 11.601441441232977,
      "lon": 43.12620174520971,
      "geoinfo": {
        "display_name": "Einguela 1 / إينغيلا 1, Djibouti",
        "road": null,
        "house_number": null,
        "neighbourhood": null,
        "suburb": "Einguela 1 / إينغيلا 1",
        "city_district": null,
        "city": "Djibouti",
        "state": null,
        "postcode": null,
        "country": "Djibouti",
        "country_code": "dj"
      },
      "address": "Einguela 1 / إينغيلا 1, Djibouti, Djibouti"
    },
    {
      "lat": 11.574474689109765,
      "lon": 43.109186454978456,
      "geoinfo": {
        "display_name": "Cité Barwaqo حي برواقو, Balbala بلبالا, Djibouti",
        "road": null,
        "house_number": null,
        "neighbourhood": null,
        "suburb": "Cité Barwaqo حي برواقو",
        "city_district": null,
        "city": "Djibouti",
        "state": null,
        "postcode": null,
        "country": "Djibouti",
        "country_code": "dj"
      },
      "address": "416, Cité Barwaqo حي برواقو, 73404 Djibouti, Djibouti"
    },
    {
      "lat": 11.603039207623878,
      "lon": 43.13679448410689,
      "geoinfo": {
        "display_name": "Place Lagarde ساحة لاغارد, Einguela 1 / إينغيلا 1, Djibouti",
        "road": null,
        "house_number": null,
        "neighbourhood": "Place Lagarde ساحة لاغارد",
        "suburb": "Einguela 1 / إينغيلا 1",
        "city_district": null,
        "city": "Djibouti",
        "state": null,
        "postcode": null,
        "country": "Djibouti",
        "country_code": "dj"
      },
      "address": "181, Place Lagarde ساحة لاغارد, 16738 Djibouti, Djibouti"
    },
    {
      "lat": 11.591439660932096,
      "lon": 43.16240373258973,
      "geoinfo": {
        "display_name": "Boulaos بولاوس, Quartier 5 / حارة 5, Djibouti",
        "road": null,
        "house_number": null,
        "neighbourhood": "Boulaos بولاوس",
        "suburb": "Quartier 5 / حارة 5",
        "city_district": null,
        "city": "Djibouti",
        "state": null,
        "postcode": null,
        "country": "Djibouti",
        "country_code": "dj"
      },
      "address": "108, Boulaos بولاوس, 59549 Djibouti, Djibouti"
    },
    {
      "lat": 11.564022800882277,
      "lon": 43.14358346046988,
      "geoinfo": {
        "display_name": "Lotissement de l'Aérogare حي المحطة المطار, Cité Gabode حي غابود, Djibouti",
        "road": null,
        "house_number": null,
        "neighbourhood": "Lotissement de l'Aérogare حي المحطة المطار",
        "suburb": "Cité Gabode حي غابود",
        "city_district": null,
        "city": "Djibouti",
        "state": null,
        "postcode": null,
        "country": "Djibouti",
        "country_code": "dj"
      },
      "address": "294, Lotissement de l'Aérogare حي المحطة المطار, 68000 Djibouti, Djibouti"
    },
    {
      "lat": 11.57445547833923,
      "lon": 43.17631663990165,
      "geoinfo": {
        "display_name": "Zone Industrielle Sud المنطقة الصناعية جنوب, Djibouti",
        "road": null,
        "house_number": null,
        "neighbourhood": null,
        "suburb": "Zone Industrielle Sud المنطقة الصناعية جنوب",
        "city_district": null,
        "city": "Djibouti",
        "state": null,
        "postcode": null,
        "country": "Djibouti",
        "country_code": "dj"
      },
      "address": "255, Zone Industrielle Sud المنطقة الصناعية جنوب, 65086 Djibouti, Djibouti"
    },
    {
      "lat": 11.573283069879906,
      "lon": 43.15775433602077,
      "geoinfo": {
        "display_name": "Lotissement du Stade حي الملعب, Zone Industrielle Sud المنطقة الصناعية جنوب, Djibouti",
        "road": null,
        "house_number": null,
        "neighbourhood": "Lotissement du Stade حي الملعب",
        "suburb": "Zone Industrielle Sud المنطقة الصناعية جنوب",
        "city_district": null,
        "city": "Djibouti",
        "state": null,
        "postcode": null,
        "country": "Djibouti",
        "country_code": "dj"
      },
      "address": "376, Lotissement du Stade حي الملعب, 60618 Djibouti, Djibouti"
    },
    {
      "lat": 11.555737267442282,
      "lon": 43.14718465948982,
      "geoinfo": {
        "display_name": "Lotissement de l'Aérogare حي المحطة المطار, Djibouti",
        "road": null,
        "house_number": null,
        "neighbourhood": "Lotissement de l'Aérogare حي المحطة المطار",
        "suburb": null,
        "city_district": null,
        "city": "Djibouti",
        "state": null,
        "postcode": null,
        "country": "Djibouti",
        "country_code": "dj"
      },
      "address": "655, Lotissement de l'Aérogare حي المحطة المطار, 95582 Djibouti, Djibouti"
    }
  ],
  "updated_at": "2025-10-19T04:29:10.467796+00:00",
  "_kind": "geo_samples"
}