{
  "country_code": "DJ",
  "country": "Djibouti",
  "city": "Tadjoura",
  "geonameid": 220782,
  "target_addresses": 17,
  "samples": [
    {
      "lat": 11.815845298819305,
      "lon": 42.90640909794906,
      "geoinfo": {
        "display_name": "Tadjoura, Tadjourah, Djibouti",
        "road": null,
        "house_number": null,
        "neighbourhood": null,
        "suburb": null,
        "city_district": null,
        "city": null,
        "state": "Tadjourah",
        "postcode": null,
        "country": "Djibouti",
        "country_code": "dj"
      },
      "address": "735, Tadjoura, 63274 Tadjourah, Djibouti"
    },
    {
      "lat": 11.75260329091514,
      "lon": 42.86320470124919,
      "geoinfo": {
        "display_name": "Tadjoura, Tadjourah, Djibouti",
        "road": null,
        "house_number": null,
        "neighbourhood": null,
        "suburb": null,
        "city_district": null,
        "city": "Tadjoura",
        "state": "Tadjourah",
        "postcode": null,
        "country": "Djibouti",
        "country_code": "dj"
      },
      "address": "636, Tadjoura, 48947 Tadjourah, Djibouti"
    },
    {
      "lat": 11.766747054515127,
      "lon": 42.9075958939982,
      "geoinfo": {
        "display_name": "Tadjoura, Tadjourah, Djibouti",
        "road": null,
        "house_number": null,
        "neighbourhood": null,
        "suburb": null,
        "city_district": null,
        "city": "Tadjoura",
        "state": "Tadjourah",
        "postcode": null,
        "country": "Djibouti",
        "country_code": "dj"
      },
      "address": "296, Tadjoura, 45106 Tadjourah, Djibouti"
    },
    {
      "lat": 11.78410687126485,
      "lon": 42.88819089853531,
      "geoinfo": {
        "display_name": "Stade, Route Nationale الطراق الوطني 14, Tadjourah تجرة, Saharito الصحراء, Tadjoura, Tadjourah, Djibouti",
        "road": "Route Nationale الطراق الوطني 14",
        "house_number": null,
        "neighbourhood": null,
        "suburb": null,
        "city_district": null,
        "city": "Tadjoura",
        "state": "Tadjourah",
        "postcode": null,
        "country": "Djibouti",
        "country_code": "dj"
      },
      "address": "Route Nationale الطراق الوطني 14, Tadjoura, 32551 Tadjourah, Djibouti"
    },
    {
      "lat": 11.767293069136572,
      "lon": 42.9037943845912,
      "geoinfo": {
        "display_name": "Tadjoura, Tadjourah, Djibouti",
        "road": null,
        "house_number": null,
        "neighbourhood": null,
        "suburb": null,
        "city_district": null,
        "city": "Tadjoura",
        "state": "Tadjourah",
        "postcode": null,
        "country": "Djibouti",
        "country_code": "dj"
      },
      "address": "385, Tadjoura, 67290 Tadjourah, Djibouti"
    },
    {
      "lat": 11.745419530829647,
      "lon": 42.870998293648,
      "geoinfo": {
        "display_name": "Tadjoura, Tadjourah, Djibouti",
        "road": null,
        "house_number": null,
        "neighbourhood": null,
        "suburb": null,
        "city_district": null,
        "city": "Tadjoura",
        "state": "Tadjourah",
        "postcode": null,
        "country": "Djibouti",
        "country_code": "dj"
      },
      "address": "588, Tadjoura, 65301 Tadjourah, Djibouti"
    },
    {
      "lat": 11.830471772718447,
      "lon": 42.87912439117439,
      "geoinfo": {
        "display_name": "Tadjoura, Tadjourah, Djibouti",
        "road": null,
        "house_number": null,
        "neighbourhood": null,
        "suburb": null,
        "city_district": null,
        "city": "Tadjoura",
        "state": "Tadjourah",
        "postcode": null,
        "country": "Djibouti",
        "country_code": "dj"
      },
      "address": "404, Tadjoura, 50220 Tadjourah, Djibouti"
    },
    {
      "lat": 11.776513124346799,
      "lon": 42.83838168524791,
      "geoinfo": {
        "display_name": "Route Nationale الطراق الوطني 9, Ambabbo, Tadjoura, Tadjourah, Djibouti",
        "road": "Route Nationale الطراق الوطني 9",
        "house_number": null,
        "neighbourhood": null,
        "suburb": null,
        "city_district": null,
        "city": "Ambabbo",
        "state": "Tadjourah",
        "postcode": null,
        "country": "Djibouti",
        "country_code": "dj"
      },
      "address": "Route Nationale الطراق الوطني 9, Ambabbo, Tadjoura, 61921 Tadjourah, Djibouti"
    },
    {
      "lat": 11.786621727166565,
      "lon": 42.881723003120726,
      "geoinfo": {
        "display_name": "Tadjourah تجرة, Élamo إلامو, Tadjoura, Tadjourah, Djibouti",
        "road": null,
        "house_number": null,
        "neighbourhood": null,
        "suburb": null,
        "city_district": null,
        "city": "Tadjoura",
        "state": "Tadjourah",
        "postcode": null,
        "country": "Djibouti",
        "country_code": "dj"
      },
      "address": "242, Tadjoura, 26822 Tadjourah, Djibouti"
    },
    {
      "lat": 11.768553301569835,
      "lon": 42.88965450759678,
      "geoinfo": {
        "display_name": "Galato جالاتو, Tadjoura, Tadjourah, Djibouti",
        "road": null,
        "house_number": null,
        "neighbourhood": null,
        "suburb": null,
        "city_district": null,
        "city": "Tadjoura",
        "state": "Tadjourah",
        "postcode": null,
        "country": "Djibouti",
        "country_code": "dj"
      },
      "address": "754, Galato جالاتو, Tadjoura, 16577 Tadjourah, Djibouti"
    },
    {
      "lat": 11.826430980122355,
      "lon": 42.880286397361694,
      "geoinfo": {
        "display_name": "Tadjoura, Tadjourah, Djibouti",
        "road": null,
        "house_number": null,
        "neighbourhood": null,
        "suburb": null,
        "city_district": null,
        "city": "Tadjoura",
        "state": "Tadjourah",
        "postcode": null,
        "country": "Djibouti",
        "country_code": "dj"
      },
      "address": "487, Tadjoura, 31773 Tadjourah, Djibouti"
    },
    {
      "lat": 11.757826553566414,
      "lon": 42.897890702774085,
      "geoinfo": {
        "display_name": "Tadjoura, Tadjourah, Djibouti",
        "road": null,
        "house_number": null,
        "neighbourhood": null,
        "suburb": null,
        "city_district": null,
        "city": "Tadjoura",
        "state": "Tadjourah",
        "postcode": null,
        "country": "Djibouti",
        "country_code": "dj"
      },
      "address": "544, Tadjoura, 48600 Tadjourah, Djibouti"
    },
    {
      "lat": 11.78431197486394,
      "lon": 42.86141897671872,
      "geoinfo": {
        "display_name": "Route Nationale الطراق الوطني 9, Tadjourah تجرة, Galato جالاتو, Tadjoura, Tadjourah, Djibouti",
        "road": "Route Nationale الطراق الوطني 9",
        "house_number": null,
        "neighbourhood": null,
        "suburb": null,
        "city_district": null,
        "city": "Tadjoura",
        "state": "Tadjourah",
        "postcode": null,
        "country": "Djibouti",
        "country_code": "dj"
      },
      "address": "Route Nationale الطراق الوطني 9, Tadjoura, 52651 Tadjourah, Djibouti"
    },
    {
      "lat": 11.821745825873727,
      "lon": 42.878597126685065,
      "geoinfo": {
        "display_name": "Tadjoura, Tadjourah, Djibouti",
        "road": null,
        "house_number": null,
        "neighbourhood": null,
        "suburb": null,
        "city_district": null,
        "city": "Tadjoura",
        "state": "Tadjourah",
        "postcode": null,
        "country": "Djibouti",
        "country_code": "dj"
      },
      "address": "238, Tadjoura, 51712 Tadjourah, Djibouti"
    },
    {
      "lat": 11.747301288515736,
      "lon": 42.86276217212312,
      "geoinfo": {
        "display_name": "Tadjoura, Tadjourah, Djibouti",
        "road": null,
        "house_number": null,
        "neighbourhood": null,
        "suburb": null,
        "city_district": null,
        "city": "Tadjoura",
        "state": "Tadjourah",
        "postcode": null,
        "country": "Djibouti",
        "country_code": "dj"
      },
      "address": "486, Tadjoura, 10425 Tadjourah, Djibouti"
    },
    {
      "lat": 11.76642974432411,
      "lon": 42.90421115798152,
      "geoinfo": {
        "display_name": "Tadjoura, Tadjourah, Djibouti",
        "road": null,
        "house_number": null,
        "neighbourhood": null,
        "suburb": null,
        "city_district": null,
        "city": "Tadjoura",
        "state": "Tadjourah",
        "postcode": null,
        "country": "Djibouti",
        "country_code": "dj"
      },
      "address": "351, Tadjoura, 25074 Tadjourah, Djibouti"
    },
    {
      "lat": 11.802072056351939,
      "lon": 42.91553832507078,
      "geoinfo": {
        "display_name": "Tadjoura, Tadjourah, Djibouti",
        "road": null,
        "house_number": null,
        "neighbourhood": null,
        "suburb": null,
        "city_district": null,
        "city": "Tadjoura",
        "state": "Tadjourah",
        "postcode": null,
        "country": "Djibouti",
        "country_code": "dj"
      },
      "address": "313, Tadjoura, 46434 Tadjourah, Djibouti"
    }
  ],
  "updated_at": "2025-10-19T03:41:14.489969+00:00",
  "_kind": "geo_samples"
}