{
  "country_code": "KR",
  "country": "South Korea",
  "city": "Gunpo",
  "geonameid": 1842030,
  "target_addresses": 4,
  "samples": [
    {
      "lat": 37.376613302904346,
      "lon": 126.92609290379175,
      "geoinfo": {
        "display_name": "Sudogwon Je1sunhwan Expressway, Sanbon 2-dong, Gunpo-si, Gyeonggi, 15800, South Korea",
        "road": "Sudogwon Je1sunhwan Expressway",
        "house_number": null,
        "neighbourhood": null,
        "suburb": null,
        "city_district": "Sanbon 2-dong",
        "city": "Gunpo-si",
        "state": null,
        "postcode": "15800",
        "country": "South Korea",
        "country_code": "kr"
      },
      "address": "Sudogwon Je1sunhwan Expressway, Gunpo, South Korea"
    },
    {
      "lat": 37.356375767993235,
      "lon": 126.93729483901397,
      "geoinfo": {
        "display_name": "Sanbon-ro, Jaegung-dong, Geumjeong-dong, 15862, South Korea",
        "road": "Sanbon-ro",
        "house_number": null,
        "neighbourhood": null,
        "suburb": null,
        "city_district": "Jaegung-dong",
        "city": null,
        "state": null,
        "postcode": "15862",
        "country": "South Korea",
        "country_code": "kr"
      },
      "address": "240, Sanbon-ro, 15862 Gunpo, South Korea"
    },
    {
      "lat": 37.348580262665315,
      "lon": 126.97249678505008,
      "geoinfo": {
        "display_name": "Daeyoung Golden Valley, 257, Gyeongsu-daero, Gocheon-dong, Uiwang-si, 16074, South Korea",
        "road": "Gyeongsu-daero",
        "house_number": "257",
        "neighbourhood": null,
        "suburb": null,
        "city_district": "Gocheon-dong",
        "city": "Uiwang-si",
        "state": null,
        "postcode": "16074",
        "country": "South Korea",
        "country_code": "kr"
      },
      "address": "257, Gyeongsu-daero, 16074 Gunpo, South Korea"
    },
    {
      "lat": 37.34148986547501,
      "lon": 126.9552428078026,
      "geoinfo": {
        "display_name": "Gunpo 1-dong, Gunpo-si, 16078, South Korea",
        "road": null,
        "house_number": null,
        "neighbourhood": null,
        "suburb": null,
        "city_district": null,
        "city": "Gunpo-si",
        "state": null,
        "postcode": "16078",
        "country": "South Korea",
        "country_code": "kr"
      },
      "address": "Gunpo 1-dong, Gunpo-si, 16078, South Korea"
    }
  ],
  "updated_at": "2025-10-19T05:16:47.287541+00:00",
  "_kind": "geo_samples"
}