{
  "country_code": "KR",
  "country": "South Korea",
  "city": "Yangp'yŏng",
  "geonameid": 1832830,
  "target_addresses": 4,
  "samples": [
    {
      "lat": 37.52189082229984,
      "lon": 127.48008621997245,
      "geoinfo": {
        "display_name": "Okcheon, Yangpyeong-gun, Gyeonggi, 12506, South Korea",
        "road": null,
        "house_number": null,
        "neighbourhood": null,
        "suburb": null,
        "city_district": null,
        "city": "Okcheon",
        "state": null,
        "postcode": "12506",
        "country": "South Korea",
        "country_code": "kr"
      },
      "address": "Okcheon, Yangpyeong-gun, Gyeonggi, 12506, South Korea"
    },
    {
      "lat": 37.52148917762774,
      "lon": 127.52482464789716,
      "geoinfo": {
        "display_name": "용문산 등산로 자연휴양림 - 백운봉 구간, Baegan-ri, Yangpyeong-gun, 12509, South Korea",
        "road": "용문산 등산로 자연휴양림 - 백운봉 구간",
        "house_number": null,
        "neighbourhood": null,
        "suburb": null,
        "city_district": null,
        "city": "Baegan-ri",
        "state": null,
        "postcode": "12509",
        "country": "South Korea",
        "country_code": "kr"
      },
      "address": "319, 용문산 등산로 자연휴양림 - 백운봉 구간, Baegan-ri, Yangpyeong-gun, 12509, South Korea"
    },
    {
      "lat": 37.49887740894329,
      "lon": 127.44350026097376,
      "geoinfo": {
        "display_name": "Okcheon, Yangpyeong-gun, 12508, South Korea",
        "road": null,
        "house_number": null,
        "neighbourhood": null,
        "suburb": null,
        "city_district": null,
        "city": "Okcheon",
        "state": null,
        "postcode": "12508",
        "country": "South Korea",
        "country_code": "kr"
      },
      "address": "807, Okcheon, Yangpyeong-gun, 12508, South Korea"
    },
    {
      "lat": 37.50079856270694,
      "lon": 127.45813801835921,
      "geoinfo": {
        "display_name": "Gyeonggang-ro, Okcheon, Yangpyeong-gun, 12507, South Korea",
        "road": "Gyeonggang-ro",
        "house_number": null,
        "neighbourhood": null,
        "suburb": null,
        "city_district": null,
        "city": "Okcheon",
        "state": null,
        "postcode": "12507",
        "country": "South Korea",
        "country_code": "kr"
      },
      "address": "848, Gyeonggang-ro, Okcheon, Yangpyeong-gun, 12507, South Korea"
    }
  ],
  "updated_at": "2025-10-19T05:16:25.366852+00:00",
  "_kind": "geo_samples"
}