{
  "country_code": "KE",
  "country": "Kenya",
  "city": "Kiambu",
  "geonameid": 192710,
  "target_addresses": 4,
  "samples": [
    {
      "lat": -1.1969782976477552,
      "lon": 36.83331416908361,
      "geoinfo": {
        "display_name": "Barua, Kasarini, Kiambu Township ward, Kiambu Town, Kiambu, 00900, Kenya",
        "road": null,
        "house_number": null,
        "neighbourhood": "Barua",
        "suburb": "Kasarini",
        "city_district": null,
        "city": "Kiambu Township ward",
        "state": "Kiambu",
        "postcode": "00900",
        "country": "Kenya",
        "country_code": "ke"
      },
      "address": "Barua, Kiambu, Kiambu, Kenya"
    },
    {
      "lat": -1.1862889067173206,
      "lon": 36.802354836095176,
      "geoinfo": {
        "display_name": "Muchatha ward, Kiambaa, Kiambu, 00900, Kenya",
        "road": null,
        "house_number": null,
        "neighbourhood": null,
        "suburb": null,
        "city_district": null,
        "city": "Muchatha ward",
        "state": "Kiambu",
        "postcode": "00900",
        "country": "Kenya",
        "country_code": "ke"
      },
      "address": "627, Muchatha ward, Kiambaa, Kiambu, 00900, Kenya"
    },
    {
      "lat": -1.2069924920057444,
      "lon": 36.8126615507993,
      "geoinfo": {
        "display_name": "Andrew Zagoritis Road, Karura sublocation, Highridge location, Highridge division, Westlands, Nairobi, Nairobi County, 00621, Kenya",
        "road": "Andrew Zagoritis Road",
        "house_number": null,
        "neighbourhood": "Highridge location",
        "suburb": "Highridge division",
        "city_district": "Westlands",
        "city": "Nairobi",
        "state": "Nairobi County",
        "postcode": "00621",
        "country": "Kenya",
        "country_code": "ke"
      },
      "address": "235, Andrew Zagoritis Road, Karura sublocation, Highridge location, Highridge division, Westlands, Nairobi, Nairobi County, 00621, Kenya"
    },
    {
      "lat": -1.1605993130169254,
      "lon": 36.8624097615714,
      "geoinfo": {
        "display_name": "Ting'ang'a ward, Kiambu Town, Kiambu, 00607, Kenya",
        "road": null,
        "house_number": null,
        "neighbourhood": null,
        "suburb": null,
        "city_district": null,
        "city": "Ting'ang'a ward",
        "state": "Kiambu",
        "postcode": "00607",
        "country": "Kenya",
        "country_code": "ke"
      },
      "address": "638, Ting'ang'a ward, Kiambu Town, Kiambu, 00607, Kenya"
    }
  ],
  "updated_at": "2025-10-19T05:07:39.069452+00:00",
  "_kind": "geo_samples"
}