{
  "country_code": "GP",
  "country": "Guadeloupe",
  "city": "Baie-Mahault",
  "geonameid": 3579767,
  "target_addresses": 10,
  "samples": [
    {
      "lat": 16.25387864452255,
      "lon": -61.58573283343568,
      "geoinfo": {
        "display_name": "Destrellan, Baie-Mahault, Basse-Terre, Guadeloupe, 97122, France",
        "road": null,
        "house_number": null,
        "neighbourhood": null,
        "suburb": null,
        "city_district": null,
        "city": "Baie-Mahault",
        "state": "Guadeloupe",
        "postcode": "97122",
        "country": "France",
        "country_code": "fr"
      },
      "address": "Baie-Mahault, Guadeloupe, Guadeloupe"
    },
    {
      "lat": 16.23817683482537,
      "lon": -61.57475259909696,
      "geoinfo": {
        "display_name": "Rue Émile Gaddarkhan, Zone Industrielle et Commerciale de Houëlbourg-Jarry, Houëlbourg, Baie-Mahault, Basse-Terre, Guadeloupe, 97122, France",
        "road": "Rue Émile Gaddarkhan",
        "house_number": null,
        "neighbourhood": null,
        "suburb": null,
        "city_district": null,
        "city": "Baie-Mahault",
        "state": "Guadeloupe",
        "postcode": "97122",
        "country": "France",
        "country_code": "fr"
      },
      "address": "Rue Émile Gaddarkhan, Baie-Mahault, Guadeloupe, Guadeloupe"
    },
    {
      "lat": 16.235267943999123,
      "lon": -61.617668653156656,
      "geoinfo": {
        "display_name": "Rue Adrien Teplier, Castera, Calvaire, Baie-Mahault, Basse-Terre, Guadeloupe, 97122, France",
        "road": "Rue Adrien Teplier",
        "house_number": null,
        "neighbourhood": null,
        "suburb": null,
        "city_district": null,
        "city": "Baie-Mahault",
        "state": "Guadeloupe",
        "postcode": "97122",
        "country": "France",
        "country_code": "fr"
      },
      "address": "Rue Adrien Teplier, Baie-Mahault, Guadeloupe, Guadeloupe"
    },
    {
      "lat": 16.272360435191565,
      "lon": -61.617064388178456,
      "geoinfo": {
        "display_name": "Rue Saturnin Ochiste, Baie-Mahault, Basse-Terre, Guadeloupe, 97122, France",
        "road": "Rue Saturnin Ochiste",
        "house_number": null,
        "neighbourhood": null,
        "suburb": null,
        "city_district": null,
        "city": "Baie-Mahault",
        "state": "Guadeloupe",
        "postcode": "97122",
        "country": "France",
        "country_code": "fr"
      },
      "address": "Rue Saturnin Ochiste, Baie-Mahault, Guadeloupe, Guadeloupe"
    },
    {
      "lat": 16.25503142510076,
      "lon": -61.59122673988173,
      "geoinfo": {
        "display_name": "Rue des Myosotis, Belcourt, Baie-Mahault, Basse-Terre, Guadeloupe, 97122, France",
        "road": "Rue des Myosotis",
        "house_number": null,
        "neighbourhood": null,
        "suburb": null,
        "city_district": null,
        "city": "Baie-Mahault",
        "state": "Guadeloupe",
        "postcode": "97122",
        "country": "France",
        "country_code": "fr"
      },
      "address": "Rue des Myosotis, Baie-Mahault, Guadeloupe, Guadeloupe"
    },
    {
      "lat": 16.263187022187818,
      "lon": -61.59490055197443,
      "geoinfo": {
        "display_name": "Rue des Maracas, Café, Baie-Mahault, Basse-Terre, Guadeloupe, 97122, France",
        "road": "Rue des Maracas",
        "house_number": null,
        "neighbourhood": "Café",
        "suburb": null,
        "city_district": null,
        "city": "Baie-Mahault",
        "state": "Guadeloupe",
        "postcode": "97122",
        "country": "France",
        "country_code": "fr"
      },
      "address": "Rue des Maracas, Baie-Mahault, Guadeloupe, Guadeloupe"
    },
    {
      "lat": 16.241305531972664,
      "lon": -61.570556694734144,
      "geoinfo": {
        "display_name": "Pavillon shopping center, Rue Henri Becquerel, Zone Industrielle et Commerciale de Houëlbourg-Jarry, Houëlbourg, Baie-Mahault, Basse-Terre, Guadeloupe, 97122, France",
        "road": "Rue Henri Becquerel",
        "house_number": null,
        "neighbourhood": null,
        "suburb": null,
        "city_district": null,
        "city": "Baie-Mahault",
        "state": "Guadeloupe",
        "postcode": "97122",
        "country": "France",
        "country_code": "fr"
      },
      "address": "Rue Henri Becquerel, Baie-Mahault, Guadeloupe, Guadeloupe"
    },
    {
      "lat": 16.234641852996376,
      "lon": -61.571399744029236,
      "geoinfo": {
        "display_name": "Rue René Rabat, Zone Industrielle et Commerciale de Houëlbourg-Jarry, Houëlbourg, Baie-Mahault, Basse-Terre, Guadeloupe, 97122, France",
        "road": "Rue René Rabat",
        "house_number": null,
        "neighbourhood": null,
        "suburb": null,
        "city_district": null,
        "city": "Baie-Mahault",
        "state": "Guadeloupe",
        "postcode": "97122",
        "country": "France",
        "country_code": "fr"
      },
      "address": "Rue René Rabat, Baie-Mahault, Guadeloupe, Guadeloupe"
    },
    {
      "lat": 16.235612360478314,
      "lon": -61.60293690252726,
      "geoinfo": {
        "display_name": "Rue du Pastel, Plaisance, Baie-Mahault, Basse-Terre, Guadeloupe, 97122, France",
        "road": "Rue du Pastel",
        "house_number": null,
        "neighbourhood": null,
        "suburb": null,
        "city_district": null,
        "city": "Baie-Mahault",
        "state": "Guadeloupe",
        "postcode": "97122",
        "country": "France",
        "country_code": "fr"
      },
      "address": "Rue du Pastel, Baie-Mahault, Guadeloupe, Guadeloupe"
    },
    {
      "lat": 16.261435434060907,
      "lon": -61.567123744008846,
      "geoinfo": {
        "display_name": "Route de l'Alliance, Fond Sarrail, Baie-Mahault, Basse-Terre, Guadeloupe, 97122, France",
        "road": "Route de l'Alliance",
        "house_number": null,
        "neighbourhood": null,
        "suburb": null,
        "city_district": null,
        "city": "Baie-Mahault",
        "state": "Guadeloupe",
        "postcode": "97122",
        "country": "France",
        "country_code": "fr"
      },
      "address": "Route de l'Alliance, Baie-Mahault, Guadeloupe, Guadeloupe"
    },
    {
      "lat": 16.292749210665395,
      "lon": -61.5873870372582,
      "geoinfo": {
        "display_name": "Pointe de la Grande Rivière, Sainte-Rose, Basse-Terre, Guadeloupe, 97115, France",
        "road": null,
        "house_number": null,
        "neighbourhood": null,
        "suburb": null,
        "city_district": null,
        "city": "Sainte-Rose",
        "state": "Guadeloupe",
        "postcode": "97115",
        "country": "France",
        "country_code": "fr"
      },
      "address": "932, Baie-Mahault, 97115 Guadeloupe, Guadeloupe"
    },
    {
      "lat": 16.276393813194204,
      "lon": -61.554612001080365,
      "geoinfo": {
        "display_name": "Bon Goût, Baie-Mahault, Basse-Terre, Guadeloupe, 97122, France",
        "road": null,
        "house_number": null,
        "neighbourhood": null,
        "suburb": null,
        "city_district": null,
        "city": "Baie-Mahault",
        "state": "Guadeloupe",
        "postcode": "97122",
        "country": "France",
        "country_code": "fr"
      },
      "address": "557, Baie-Mahault, 97122 Guadeloupe, Guadeloupe"
    },
    {
      "lat": 16.30432737185884,
      "lon": -61.563234383161706,
      "geoinfo": {
        "display_name": "Pointe Lambis, Les Abymes, Pointe-à-Pitre, Guadeloupe, 97139, France",
        "road": null,
        "house_number": null,
        "neighbourhood": null,
        "suburb": null,
        "city_district": null,
        "city": "Les Abymes",
        "state": "Guadeloupe",
        "postcode": "97139",
        "country": "France",
        "country_code": "fr"
      },
      "address": "931, Baie-Mahault, 97139 Guadeloupe, Guadeloupe"
    },
    {
      "lat": 16.244762976662628,
      "lon": -61.623245113362124,
      "geoinfo": {
        "display_name": "Castelbon, Calvaire, Baie-Mahault, Basse-Terre, Guadeloupe, 97122, France",
        "road": null,
        "house_number": null,
        "neighbourhood": null,
        "suburb": null,
        "city_district": null,
        "city": "Baie-Mahault",
        "state": "Guadeloupe",
        "postcode": "97122",
        "country": "France",
        "country_code": "fr"
      },
      "address": "539, Baie-Mahault, 97122 Guadeloupe, Guadeloupe"
    },
    {
      "lat": 16.238186008928523,
      "lon": -61.61934981367477,
      "geoinfo": {
        "display_name": "Rue Adrien Teplier, Castera, Calvaire, Baie-Mahault, Basse-Terre, Guadeloupe, 97122, France",
        "road": "Rue Adrien Teplier",
        "house_number": null,
        "neighbourhood": null,
        "suburb": null,
        "city_district": null,
        "city": "Baie-Mahault",
        "state": "Guadeloupe",
        "postcode": "97122",
        "country": "France",
        "country_code": "fr"
      },
      "address": "890, Rue Adrien Teplier, Baie-Mahault, 97122 Guadeloupe, Guadeloupe"
    },
    {
      "lat": 16.238914300817882,
      "lon": -61.58773389773413,
      "geoinfo": {
        "display_name": "Rue Claude Blandin, ZAC de Mondong-Jarry, Jabrun, Baie-Mahault, Basse-Terre, Guadeloupe, 97122, France",
        "road": "Rue Claude Blandin",
        "house_number": null,
        "neighbourhood": null,
        "suburb": null,
        "city_district": null,
        "city": "Baie-Mahault",
        "state": "Guadeloupe",
        "postcode": "97122",
        "country": "France",
        "country_code": "fr"
      },
      "address": "166, Rue Claude Blandin, Baie-Mahault, 97122 Guadeloupe, Guadeloupe"
    },
    {
      "lat": 16.290463721047168,
      "lon": -61.61588677986489,
      "geoinfo": {
        "display_name": "Blachon, Lamentin, Basse-Terre, Guadeloupe, 97129, France",
        "road": null,
        "house_number": null,
        "neighbourhood": null,
        "suburb": null,
        "city_district": null,
        "city": "Lamentin",
        "state": "Guadeloupe",
        "postcode": "97129",
        "country": "France",
        "country_code": "fr"
      },
      "address": "804, Baie-Mahault, 97129 Guadeloupe, Guadeloupe"
    },
    {
      "lat": 16.288792363489694,
      "lon": -61.58803340272955,
      "geoinfo": {
        "display_name": "Saint Vast, Baie-Mahault, Basse-Terre, Guadeloupe, 97122, France",
        "road": null,
        "house_number": null,
        "neighbourhood": null,
        "suburb": null,
        "city_district": null,
        "city": "Baie-Mahault",
        "state": "Guadeloupe",
        "postcode": "97122",
        "country": "France",
        "country_code": "fr"
      },
      "address": "605, Baie-Mahault, 97122 Guadeloupe, Guadeloupe"
    },
    {
      "lat": 16.26899359647255,
      "lon": -61.626826096710154,
      "geoinfo": {
        "display_name": "Borel, Lamentin, Basse-Terre, Guadeloupe, 97129, France",
        "road": null,
        "house_number": null,
        "neighbourhood": null,
        "suburb": null,
        "city_district": null,
        "city": "Lamentin",
        "state": "Guadeloupe",
        "postcode": "97129",
        "country": "France",
        "country_code": "fr"
      },
      "address": "821, Baie-Mahault, 97129 Guadeloupe, Guadeloupe"
    },
    {
      "lat": 16.231782186047777,
      "lon": -61.56715882410565,
      "geoinfo": {
        "display_name": "Rue de la Chapelle, Zone Industrielle et Commerciale de Houëlbourg-Jarry, Baie-Mahault, Basse-Terre, Guadeloupe, 97122, France",
        "road": "Rue de la Chapelle",
        "house_number": null,
        "neighbourhood": null,
        "suburb": null,
        "city_district": null,
        "city": "Baie-Mahault",
        "state": "Guadeloupe",
        "postcode": "97122",
        "country": "France",
        "country_code": "fr"
      },
      "address": "868, Rue de la Chapelle, Baie-Mahault, 97122 Guadeloupe, Guadeloupe"
    }
  ],
  "updated_at": "2025-10-19T05:44:48.150685+00:00",
  "_kind": "geo_samples"
}