{
  "country_code": "GP",
  "country": "Guadeloupe",
  "city": "Le Gosier",
  "geonameid": 3578978,
  "target_addresses": 10,
  "samples": [
    {
      "lat": 16.203273011215124,
      "lon": -61.50344000119281,
      "geoinfo": {
        "display_name": "Impasse des Hôtels, Montauban, Le Gosier, Pointe-à-Pitre, Guadeloupe, 97190, France",
        "road": "Impasse des Hôtels",
        "house_number": null,
        "neighbourhood": null,
        "suburb": null,
        "city_district": null,
        "city": "Le Gosier",
        "state": "Guadeloupe",
        "postcode": "97190",
        "country": "France",
        "country_code": "fr"
      },
      "address": "Impasse des Hôtels, Le Gosier, Guadeloupe, Guadeloupe"
    },
    {
      "lat": 16.199898067939227,
      "lon": -61.449085949355656,
      "geoinfo": {
        "display_name": "Banc méditatif, Sentier Littoral, Le Gosier, Pointe-à-Pitre, Guadeloupe, 97190, France",
        "road": "Sentier Littoral",
        "house_number": null,
        "neighbourhood": null,
        "suburb": null,
        "city_district": null,
        "city": "Le Gosier",
        "state": "Guadeloupe",
        "postcode": "97190",
        "country": "France",
        "country_code": "fr"
      },
      "address": "Sentier Littoral, Le Gosier, Guadeloupe, Guadeloupe"
    },
    {
      "lat": 16.190690128610772,
      "lon": -61.45391495752388,
      "geoinfo": {
        "display_name": "Pointe Canot, Le Gosier, Pointe-à-Pitre, Guadeloupe, 97190, France",
        "road": null,
        "house_number": null,
        "neighbourhood": null,
        "suburb": null,
        "city_district": null,
        "city": "Le Gosier",
        "state": "Guadeloupe",
        "postcode": "97190",
        "country": "France",
        "country_code": "fr"
      },
      "address": "Le Gosier, Guadeloupe, Guadeloupe"
    },
    {
      "lat": 16.21321317566111,
      "lon": -61.528623185270185,
      "geoinfo": {
        "display_name": "Rue du Fort l'Union, Bas du Fort, Le Gosier, Pointe-à-Pitre, Guadeloupe, 97190, France",
        "road": "Rue du Fort l'Union",
        "house_number": null,
        "neighbourhood": null,
        "suburb": null,
        "city_district": null,
        "city": "Le Gosier",
        "state": "Guadeloupe",
        "postcode": "97190",
        "country": "France",
        "country_code": "fr"
      },
      "address": "Rue du Fort l'Union, Le Gosier, Guadeloupe, Guadeloupe"
    },
    {
      "lat": 16.22585839166935,
      "lon": -61.523657853960906,
      "geoinfo": {
        "display_name": "Pont Blanchard, Rocade de Pointe-à-Pitre, Morne Montmartre, Blanchard, Les Abymes, Pointe-à-Pitre, Guadeloupe, 97157, France",
        "road": "Rocade de Pointe-à-Pitre",
        "house_number": null,
        "neighbourhood": "Morne Montmartre",
        "suburb": null,
        "city_district": null,
        "city": "Les Abymes",
        "state": "Guadeloupe",
        "postcode": "97157",
        "country": "France",
        "country_code": "fr"
      },
      "address": "Rocade de Pointe-à-Pitre, Le Gosier, Guadeloupe, Guadeloupe"
    },
    {
      "lat": 16.21452814375758,
      "lon": -61.45834148318353,
      "geoinfo": {
        "display_name": "Impasse Fond Banane, Pliane, Le Gosier, Pointe-à-Pitre, Guadeloupe, 97190, France",
        "road": "Impasse Fond Banane",
        "house_number": null,
        "neighbourhood": null,
        "suburb": null,
        "city_district": null,
        "city": "Le Gosier",
        "state": "Guadeloupe",
        "postcode": "97190",
        "country": "France",
        "country_code": "fr"
      },
      "address": "Impasse Fond Banane, Le Gosier, Guadeloupe, Guadeloupe"
    },
    {
      "lat": 16.20392758841301,
      "lon": -61.50059381525338,
      "geoinfo": {
        "display_name": "Station balnéaire de l'Anse Tabarin, Avenue de Montauban, Montauban, Le Gosier, Pointe-à-Pitre, Guadeloupe, 97190, France",
        "road": "Avenue de Montauban",
        "house_number": null,
        "neighbourhood": null,
        "suburb": null,
        "city_district": null,
        "city": "Le Gosier",
        "state": "Guadeloupe",
        "postcode": "97190",
        "country": "France",
        "country_code": "fr"
      },
      "address": "Avenue de Montauban, Le Gosier, Guadeloupe, Guadeloupe"
    },
    {
      "lat": 16.20994378569195,
      "lon": -61.48573178232815,
      "geoinfo": {
        "display_name": "Rue du Lotissement Faraux, Fond Marius, Le Gosier, Pointe-à-Pitre, Guadeloupe, 97190, France",
        "road": "Rue du Lotissement Faraux",
        "house_number": null,
        "neighbourhood": null,
        "suburb": null,
        "city_district": null,
        "city": "Le Gosier",
        "state": "Guadeloupe",
        "postcode": "97190",
        "country": "France",
        "country_code": "fr"
      },
      "address": "Rue du Lotissement Faraux, Le Gosier, Guadeloupe, Guadeloupe"
    },
    {
      "lat": 16.1956380668705,
      "lon": -61.490387295021286,
      "geoinfo": {
        "display_name": "Rue Félix Éboué, Fond Marius, Le Gosier, Pointe-à-Pitre, Guadeloupe, 97190, France",
        "road": "Rue Félix Éboué",
        "house_number": null,
        "neighbourhood": null,
        "suburb": null,
        "city_district": null,
        "city": "Le Gosier",
        "state": "Guadeloupe",
        "postcode": "97190",
        "country": "France",
        "country_code": "fr"
      },
      "address": "Rue Félix Éboué, Le Gosier, Guadeloupe, Guadeloupe"
    },
    {
      "lat": 16.214938520165614,
      "lon": -61.505658759420456,
      "geoinfo": {
        "display_name": "Avenue de Poucet, Montauban, Poucet, Le Gosier, Pointe-à-Pitre, Guadeloupe, 97190, France",
        "road": "Avenue de Poucet",
        "house_number": null,
        "neighbourhood": null,
        "suburb": null,
        "city_district": null,
        "city": "Le Gosier",
        "state": "Guadeloupe",
        "postcode": "97190",
        "country": "France",
        "country_code": "fr"
      },
      "address": "Avenue de Poucet, Le Gosier, Guadeloupe, Guadeloupe"
    },
    {
      "lat": 16.190760255322516,
      "lon": -61.5343910980829,
      "geoinfo": {
        "display_name": "Pointe-à-Pitre, Guadeloupe, 97110, France",
        "road": null,
        "house_number": null,
        "neighbourhood": null,
        "suburb": null,
        "city_district": null,
        "city": "Pointe-à-Pitre",
        "state": "Guadeloupe",
        "postcode": "97110",
        "country": "France",
        "country_code": "fr"
      },
      "address": "945, Le Gosier, 97110 Guadeloupe, Guadeloupe"
    },
    {
      "lat": 16.165040470549176,
      "lon": -61.47905656360925,
      "geoinfo": {
        "display_name": "Guadeloupe, France",
        "road": null,
        "house_number": null,
        "neighbourhood": null,
        "suburb": null,
        "city_district": null,
        "city": null,
        "state": "Guadeloupe",
        "postcode": null,
        "country": "France",
        "country_code": "fr"
      },
      "address": "793, Le Gosier, 70766 Guadeloupe, Guadeloupe"
    },
    {
      "lat": 16.21369153919291,
      "lon": -61.48766680507041,
      "geoinfo": {
        "display_name": "Plateau Périnet, Belle Plaine, Le Gosier, Pointe-à-Pitre, Guadeloupe, 97190, France",
        "road": null,
        "house_number": null,
        "neighbourhood": "Plateau Périnet",
        "suburb": null,
        "city_district": null,
        "city": "Le Gosier",
        "state": "Guadeloupe",
        "postcode": "97190",
        "country": "France",
        "country_code": "fr"
      },
      "address": "584, Plateau Périnet, Le Gosier, 97190 Guadeloupe, Guadeloupe"
    },
    {
      "lat": 16.186368992519512,
      "lon": -61.52801092385219,
      "geoinfo": {
        "display_name": "Pointe-à-Pitre, Guadeloupe, 97110, France",
        "road": null,
        "house_number": null,
        "neighbourhood": null,
        "suburb": null,
        "city_district": null,
        "city": "Pointe-à-Pitre",
        "state": "Guadeloupe",
        "postcode": "97110",
        "country": "France",
        "country_code": "fr"
      },
      "address": "740, Le Gosier, 97110 Guadeloupe, Guadeloupe"
    },
    {
      "lat": 16.20336195782272,
      "lon": -61.49365018100438,
      "geoinfo": {
        "display_name": "Traversée à la nage, Rue Félix Éboué, Fond Marius, Le Gosier, Pointe-à-Pitre, Guadeloupe, 97190, France",
        "road": "Rue Félix Éboué",
        "house_number": null,
        "neighbourhood": null,
        "suburb": null,
        "city_district": null,
        "city": "Le Gosier",
        "state": "Guadeloupe",
        "postcode": "97190",
        "country": "France",
        "country_code": "fr"
      },
      "address": "823, Rue Félix Éboué, Le Gosier, 97190 Guadeloupe, Guadeloupe"
    },
    {
      "lat": 16.181919718776875,
      "lon": -61.47462711196399,
      "geoinfo": {
        "display_name": "Pointe Canot, Le Gosier, Pointe-à-Pitre, Guadeloupe, 97190, France",
        "road": null,
        "house_number": null,
        "neighbourhood": null,
        "suburb": null,
        "city_district": null,
        "city": "Le Gosier",
        "state": "Guadeloupe",
        "postcode": "97190",
        "country": "France",
        "country_code": "fr"
      },
      "address": "827, Le Gosier, 97190 Guadeloupe, Guadeloupe"
    },
    {
      "lat": 16.208759662595227,
      "lon": -61.504445879422384,
      "geoinfo": {
        "display_name": "Parking Casino, Route des Hôtels, Montauban, Le Gosier, Pointe-à-Pitre, Guadeloupe, 97190, France",
        "road": "Route des Hôtels",
        "house_number": null,
        "neighbourhood": null,
        "suburb": null,
        "city_district": null,
        "city": "Le Gosier",
        "state": "Guadeloupe",
        "postcode": "97190",
        "country": "France",
        "country_code": "fr"
      },
      "address": "065, Route des Hôtels, Le Gosier, 97190 Guadeloupe, Guadeloupe"
    },
    {
      "lat": 16.207915028662526,
      "lon": -61.530430496134606,
      "geoinfo": {
        "display_name": "la Marina, Pointe-à-Pitre, Guadeloupe, 97110, France",
        "road": null,
        "house_number": null,
        "neighbourhood": null,
        "suburb": null,
        "city_district": null,
        "city": "Pointe-à-Pitre",
        "state": "Guadeloupe",
        "postcode": "97110",
        "country": "France",
        "country_code": "fr"
      },
      "address": "820, Le Gosier, 97110 Guadeloupe, Guadeloupe"
    },
    {
      "lat": 16.194860055575795,
      "lon": -61.458659218766684,
      "geoinfo": {
        "display_name": "Sentier Littoral, Le Gosier, Pointe-à-Pitre, Guadeloupe, 97190, France",
        "road": "Sentier Littoral",
        "house_number": null,
        "neighbourhood": null,
        "suburb": null,
        "city_district": null,
        "city": "Le Gosier",
        "state": "Guadeloupe",
        "postcode": "97190",
        "country": "France",
        "country_code": "fr"
      },
      "address": "791, Sentier Littoral, Le Gosier, 97190 Guadeloupe, Guadeloupe"
    },
    {
      "lat": 16.179795030763938,
      "lon": -61.46213182163612,
      "geoinfo": {
        "display_name": "Pointe Canot, Le Gosier, Pointe-à-Pitre, Guadeloupe, 97190, France",
        "road": null,
        "house_number": null,
        "neighbourhood": null,
        "suburb": null,
        "city_district": null,
        "city": "Le Gosier",
        "state": "Guadeloupe",
        "postcode": "97190",
        "country": "France",
        "country_code": "fr"
      },
      "address": "536, Le Gosier, 97190 Guadeloupe, Guadeloupe"
    }
  ],
  "updated_at": "2025-10-19T04:11:58.230588+00:00",
  "_kind": "geo_samples"
}