{
  "country_code": "GP",
  "country": "Guadeloupe",
  "city": "Les Abymes",
  "geonameid": 3578959,
  "target_addresses": 10,
  "samples": [
    {
      "lat": 16.256737777053488,
      "lon": -61.53010163612896,
      "geoinfo": {
        "display_name": "Collège du Raizet, Avenue du Maréchal Leclerc, Le Raizet, Morne Vergain, Les Abymes, Pointe-à-Pitre, Guadeloupe, 97139, France",
        "road": "Avenue du Maréchal Leclerc",
        "house_number": null,
        "neighbourhood": null,
        "suburb": null,
        "city_district": null,
        "city": "Les Abymes",
        "state": "Guadeloupe",
        "postcode": "97139",
        "country": "France",
        "country_code": "fr"
      },
      "address": "Avenue du Maréchal Leclerc, Les Abymes, Guadeloupe, Guadeloupe"
    },
    {
      "lat": 16.240670165155528,
      "lon": -61.47487491116205,
      "geoinfo": {
        "display_name": "Grand Bois, Le Gosier, Pointe-à-Pitre, Guadeloupe, 97190, France",
        "road": null,
        "house_number": null,
        "neighbourhood": null,
        "suburb": null,
        "city_district": null,
        "city": "Le Gosier",
        "state": "Guadeloupe",
        "postcode": "97190",
        "country": "France",
        "country_code": "fr"
      },
      "address": "Les Abymes, Guadeloupe, Guadeloupe"
    },
    {
      "lat": 16.267720783902465,
      "lon": -61.530173645885704,
      "geoinfo": {
        "display_name": "Pointe-à-Pitre International Airport, Chemin de l'Aérodrome, Le Raizet, Morne Vergain, Les Abymes, Pointe-à-Pitre, Guadeloupe, 97139, France",
        "road": "Chemin de l'Aérodrome",
        "house_number": null,
        "neighbourhood": null,
        "suburb": null,
        "city_district": null,
        "city": "Les Abymes",
        "state": "Guadeloupe",
        "postcode": "97139",
        "country": "France",
        "country_code": "fr"
      },
      "address": "Chemin de l'Aérodrome, Les Abymes, Guadeloupe, Guadeloupe"
    },
    {
      "lat": 16.311846250000233,
      "lon": -61.522508049777066,
      "geoinfo": {
        "display_name": "Rue des Palétuviers, Morne-à-l'Eau, Pointe-à-Pitre, Guadeloupe, 97111, France",
        "road": "Rue des Palétuviers",
        "house_number": null,
        "neighbourhood": null,
        "suburb": null,
        "city_district": null,
        "city": "Morne-à-l'Eau",
        "state": "Guadeloupe",
        "postcode": "97111",
        "country": "France",
        "country_code": "fr"
      },
      "address": "Rue des Palétuviers, Les Abymes, Guadeloupe, Guadeloupe"
    },
    {
      "lat": 16.26592214233139,
      "lon": -61.53773023832392,
      "geoinfo": {
        "display_name": "Route de l'Alliance, Les Abymes, Pointe-à-Pitre, Guadeloupe, 97139, France",
        "road": "Route de l'Alliance",
        "house_number": null,
        "neighbourhood": null,
        "suburb": null,
        "city_district": null,
        "city": "Les Abymes",
        "state": "Guadeloupe",
        "postcode": "97139",
        "country": "France",
        "country_code": "fr"
      },
      "address": "Route de l'Alliance, Les Abymes, Guadeloupe, Guadeloupe"
    },
    {
      "lat": 16.27647498782561,
      "lon": -61.51264560589089,
      "geoinfo": {
        "display_name": "JBA ARCHITECTURE, Rue Firmin Moulin, Parc d’activités La Providence, Dothémare, Les Abymes, Pointe-à-Pitre, Guadeloupe, 97139, France",
        "road": "Rue Firmin Moulin",
        "house_number": null,
        "neighbourhood": null,
        "suburb": null,
        "city_district": null,
        "city": "Les Abymes",
        "state": "Guadeloupe",
        "postcode": "97139",
        "country": "France",
        "country_code": "fr"
      },
      "address": "Rue Firmin Moulin, Les Abymes, Guadeloupe, Guadeloupe"
    },
    {
      "lat": 16.29206968188118,
      "lon": -61.527930085568855,
      "geoinfo": {
        "display_name": "Chemin du Canal de Belle Plaine, Les Abymes, Pointe-à-Pitre, Guadeloupe, 97139, France",
        "road": "Chemin du Canal de Belle Plaine",
        "house_number": null,
        "neighbourhood": null,
        "suburb": null,
        "city_district": null,
        "city": "Les Abymes",
        "state": "Guadeloupe",
        "postcode": "97139",
        "country": "France",
        "country_code": "fr"
      },
      "address": "Chemin du Canal de Belle Plaine, Les Abymes, Guadeloupe, Guadeloupe"
    },
    {
      "lat": 16.25055409707522,
      "lon": -61.49762444505046,
      "geoinfo": {
        "display_name": "Rue Sonor Ursule, Les Abymes, Pointe-à-Pitre, Guadeloupe, 97139, France",
        "road": "Rue Sonor Ursule",
        "house_number": null,
        "neighbourhood": null,
        "suburb": null,
        "city_district": null,
        "city": "Les Abymes",
        "state": "Guadeloupe",
        "postcode": "97139",
        "country": "France",
        "country_code": "fr"
      },
      "address": "Rue Sonor Ursule, Les Abymes, Guadeloupe, Guadeloupe"
    },
    {
      "lat": 16.252051359637452,
      "lon": -61.514961188468575,
      "geoinfo": {
        "display_name": "Petit Pérou, Baimbridge, Petit-Pérou, Les Abymes, Pointe-à-Pitre, Guadeloupe, 97101, France",
        "road": "Petit Pérou",
        "house_number": null,
        "neighbourhood": null,
        "suburb": null,
        "city_district": null,
        "city": "Les Abymes",
        "state": "Guadeloupe",
        "postcode": "97101",
        "country": "France",
        "country_code": "fr"
      },
      "address": "Petit Pérou, Les Abymes, Guadeloupe, Guadeloupe"
    },
    {
      "lat": 16.271786870107174,
      "lon": -61.497849297959576,
      "geoinfo": {
        "display_name": "Rue Hubert Farouil, Les Abymes, Pointe-à-Pitre, Guadeloupe, 97139, France",
        "road": "Rue Hubert Farouil",
        "house_number": null,
        "neighbourhood": null,
        "suburb": null,
        "city_district": null,
        "city": "Les Abymes",
        "state": "Guadeloupe",
        "postcode": "97139",
        "country": "France",
        "country_code": "fr"
      },
      "address": "Rue Hubert Farouil, Les Abymes, Guadeloupe, Guadeloupe"
    },
    {
      "lat": 16.2612714936025,
      "lon": -61.517762744188644,
      "geoinfo": {
        "display_name": "Rue Pompilius Keller, Morne Caruel, Morne Vergain, Les Abymes, Pointe-à-Pitre, Guadeloupe, 97139, France",
        "road": "Rue Pompilius Keller",
        "house_number": null,
        "neighbourhood": "Morne Caruel",
        "suburb": null,
        "city_district": null,
        "city": "Les Abymes",
        "state": "Guadeloupe",
        "postcode": "97139",
        "country": "France",
        "country_code": "fr"
      },
      "address": "189, Rue Pompilius Keller, Les Abymes, 97139 Guadeloupe, Guadeloupe"
    },
    {
      "lat": 16.28340099569915,
      "lon": -61.48838302546623,
      "geoinfo": {
        "display_name": "Les Abymes, Pointe-à-Pitre, Guadeloupe, 97139, France",
        "road": null,
        "house_number": null,
        "neighbourhood": null,
        "suburb": null,
        "city_district": null,
        "city": "Les Abymes",
        "state": "Guadeloupe",
        "postcode": "97139",
        "country": "France",
        "country_code": "fr"
      },
      "address": "352, Les Abymes, 97139 Guadeloupe, Guadeloupe"
    },
    {
      "lat": 16.29933089908669,
      "lon": -61.487422021063104,
      "geoinfo": {
        "display_name": "Caduc, Palais Royal, Les Abymes, Pointe-à-Pitre, Guadeloupe, 97111, France",
        "road": null,
        "house_number": null,
        "neighbourhood": null,
        "suburb": null,
        "city_district": null,
        "city": "Les Abymes",
        "state": "Guadeloupe",
        "postcode": "97111",
        "country": "France",
        "country_code": "fr"
      },
      "address": "062, Les Abymes, 97111 Guadeloupe, Guadeloupe"
    },
    {
      "lat": 16.29910600222719,
      "lon": -61.51168392611671,
      "geoinfo": {
        "display_name": "Route de Perrin, Les Abymes, Pointe-à-Pitre, Guadeloupe, 97139, France",
        "road": "Route de Perrin",
        "house_number": null,
        "neighbourhood": null,
        "suburb": null,
        "city_district": null,
        "city": "Les Abymes",
        "state": "Guadeloupe",
        "postcode": "97139",
        "country": "France",
        "country_code": "fr"
      },
      "address": "401, Route de Perrin, Les Abymes, 97139 Guadeloupe, Guadeloupe"
    },
    {
      "lat": 16.288600891684705,
      "lon": -61.46262428776125,
      "geoinfo": {
        "display_name": "Les Abymes, Pointe-à-Pitre, Guadeloupe, 97111, France",
        "road": null,
        "house_number": null,
        "neighbourhood": null,
        "suburb": null,
        "city_district": null,
        "city": "Les Abymes",
        "state": "Guadeloupe",
        "postcode": "97111",
        "country": "France",
        "country_code": "fr"
      },
      "address": "593, Les Abymes, 97111 Guadeloupe, Guadeloupe"
    },
    {
      "lat": 16.282124724279488,
      "lon": -61.539482908046665,
      "geoinfo": {
        "display_name": "Jacquot, Les Abymes, Pointe-à-Pitre, Guadeloupe, 97139, France",
        "road": null,
        "house_number": null,
        "neighbourhood": null,
        "suburb": null,
        "city_district": null,
        "city": "Les Abymes",
        "state": "Guadeloupe",
        "postcode": "97139",
        "country": "France",
        "country_code": "fr"
      },
      "address": "967, Les Abymes, 97139 Guadeloupe, Guadeloupe"
    },
    {
      "lat": 16.30557888117043,
      "lon": -61.53051489229532,
      "geoinfo": {
        "display_name": "Pointe Lambis, Les Abymes, Pointe-à-Pitre, Guadeloupe, 97139, France",
        "road": null,
        "house_number": null,
        "neighbourhood": null,
        "suburb": null,
        "city_district": null,
        "city": "Les Abymes",
        "state": "Guadeloupe",
        "postcode": "97139",
        "country": "France",
        "country_code": "fr"
      },
      "address": "108, Les Abymes, 97139 Guadeloupe, Guadeloupe"
    },
    {
      "lat": 16.273723640441585,
      "lon": -61.51608208094607,
      "geoinfo": {
        "display_name": "Route de l'Alliance, Parc d’activités La Providence, Dothémare, Les Abymes, Pointe-à-Pitre, Guadeloupe, 97139, France",
        "road": "Route de l'Alliance",
        "house_number": null,
        "neighbourhood": null,
        "suburb": null,
        "city_district": null,
        "city": "Les Abymes",
        "state": "Guadeloupe",
        "postcode": "97139",
        "country": "France",
        "country_code": "fr"
      },
      "address": "888, Route de l'Alliance, Les Abymes, 97139 Guadeloupe, Guadeloupe"
    },
    {
      "lat": 16.297863322745016,
      "lon": -61.466604303011536,
      "geoinfo": {
        "display_name": "Les Abymes, Pointe-à-Pitre, Guadeloupe, 97111, France",
        "road": null,
        "house_number": null,
        "neighbourhood": null,
        "suburb": null,
        "city_district": null,
        "city": "Les Abymes",
        "state": "Guadeloupe",
        "postcode": "97111",
        "country": "France",
        "country_code": "fr"
      },
      "address": "272, Les Abymes, 97111 Guadeloupe, Guadeloupe"
    },
    {
      "lat": 16.272625832824644,
      "lon": -61.52868314495199,
      "geoinfo": {
        "display_name": "Arrivées, Les Abymes, Pointe-à-Pitre, Guadeloupe, 97139, France",
        "road": "Arrivées",
        "house_number": null,
        "neighbourhood": null,
        "suburb": null,
        "city_district": null,
        "city": "Les Abymes",
        "state": "Guadeloupe",
        "postcode": "97139",
        "country": "France",
        "country_code": "fr"
      },
      "address": "661, Arrivées, Les Abymes, 97139 Guadeloupe, Guadeloupe"
    }
  ],
  "updated_at": "2025-10-19T04:34:18.900530+00:00",
  "_kind": "geo_samples"
}