{
  "country_code": "GP",
  "country": "Guadeloupe",
  "city": "Petit-Bourg",
  "geonameid": 3578682,
  "target_addresses": 10,
  "samples": [
    {
      "lat": 16.18821973190819,
      "lon": -61.61663595568935,
      "geoinfo": {
        "display_name": "Duquerry, Petit-Bourg, Basse-Terre, Guadeloupe, 97170, France",
        "road": null,
        "house_number": null,
        "neighbourhood": null,
        "suburb": null,
        "city_district": null,
        "city": "Petit-Bourg",
        "state": "Guadeloupe",
        "postcode": "97170",
        "country": "France",
        "country_code": "fr"
      },
      "address": "172, Petit-Bourg, 97170 Guadeloupe, Guadeloupe"
    },
    {
      "lat": 16.15111396572872,
      "lon": -61.586825189310176,
      "geoinfo": {
        "display_name": "la Rose, Goyave, Basse-Terre, Guadeloupe, 97128, France",
        "road": null,
        "house_number": null,
        "neighbourhood": null,
        "suburb": null,
        "city_district": null,
        "city": "Goyave",
        "state": "Guadeloupe",
        "postcode": "97128",
        "country": "France",
        "country_code": "fr"
      },
      "address": "932, Petit-Bourg, 97128 Guadeloupe, Guadeloupe"
    },
    {
      "lat": 16.155633660734814,
      "lon": -61.58313288356452,
      "geoinfo": {
        "display_name": "la Rose, Goyave, Basse-Terre, Guadeloupe, 97128, France",
        "road": null,
        "house_number": null,
        "neighbourhood": null,
        "suburb": null,
        "city_district": null,
        "city": "Goyave",
        "state": "Guadeloupe",
        "postcode": "97128",
        "country": "France",
        "country_code": "fr"
      },
      "address": "060, Petit-Bourg, 97128 Guadeloupe, Guadeloupe"
    },
    {
      "lat": 16.156235793945626,
      "lon": -61.589670339769356,
      "geoinfo": {
        "display_name": "Blonzac, Goyave, Basse-Terre, Guadeloupe, 97128, France",
        "road": null,
        "house_number": null,
        "neighbourhood": null,
        "suburb": null,
        "city_district": null,
        "city": "Goyave",
        "state": "Guadeloupe",
        "postcode": "97128",
        "country": "France",
        "country_code": "fr"
      },
      "address": "327, Petit-Bourg, 97128 Guadeloupe, Guadeloupe"
    },
    {
      "lat": 16.229384568662717,
      "lon": -61.59570992693332,
      "geoinfo": {
        "display_name": "Chemin des Mangles, Arnouville, Petit-Bourg, Basse-Terre, Guadeloupe, 97170, France",
        "road": "Chemin des Mangles",
        "house_number": null,
        "neighbourhood": null,
        "suburb": null,
        "city_district": null,
        "city": "Petit-Bourg",
        "state": "Guadeloupe",
        "postcode": "97170",
        "country": "France",
        "country_code": "fr"
      },
      "address": "706, Chemin des Mangles, Petit-Bourg, 97170 Guadeloupe, Guadeloupe"
    },
    {
      "lat": 16.212232808387768,
      "lon": -61.61718627650926,
      "geoinfo": {
        "display_name": "Lamothe, Petit-Bourg, Basse-Terre, Guadeloupe, 97170, France",
        "road": null,
        "house_number": null,
        "neighbourhood": null,
        "suburb": null,
        "city_district": null,
        "city": "Petit-Bourg",
        "state": "Guadeloupe",
        "postcode": "97170",
        "country": "France",
        "country_code": "fr"
      },
      "address": "237, Petit-Bourg, 97170 Guadeloupe, Guadeloupe"
    },
    {
      "lat": 16.218333252119184,
      "lon": -61.579475633586924,
      "geoinfo": {
        "display_name": "Pointe à Bacchus, Bel-Air, Petit-Bourg, Basse-Terre, Guadeloupe, 97170, France",
        "road": null,
        "house_number": null,
        "neighbourhood": null,
        "suburb": null,
        "city_district": null,
        "city": "Petit-Bourg",
        "state": "Guadeloupe",
        "postcode": "97170",
        "country": "France",
        "country_code": "fr"
      },
      "address": "678, Petit-Bourg, 97170 Guadeloupe, Guadeloupe"
    },
    {
      "lat": 16.161763279249225,
      "lon": -61.617433416444136,
      "geoinfo": {
        "display_name": "Chemin de Carrère, Petit-Bourg, Basse-Terre, Guadeloupe, 97170, France",
        "road": "Chemin de Carrère",
        "house_number": null,
        "neighbourhood": null,
        "suburb": null,
        "city_district": null,
        "city": "Petit-Bourg",
        "state": "Guadeloupe",
        "postcode": "97170",
        "country": "France",
        "country_code": "fr"
      },
      "address": "061, Chemin de Carrère, Petit-Bourg, 97170 Guadeloupe, Guadeloupe"
    },
    {
      "lat": 16.178930186006546,
      "lon": -61.58912661272464,
      "geoinfo": {
        "display_name": "Chemin de Roujol, Z.A. de Roujol, Bas Carrère, Petit-Bourg, Basse-Terre, Guadeloupe, 97170, France",
        "road": "Chemin de Roujol",
        "house_number": null,
        "neighbourhood": null,
        "suburb": null,
        "city_district": null,
        "city": "Petit-Bourg",
        "state": "Guadeloupe",
        "postcode": "97170",
        "country": "France",
        "country_code": "fr"
      },
      "address": "353, Chemin de Roujol, Petit-Bourg, 97170 Guadeloupe, Guadeloupe"
    },
    {
      "lat": 16.17310159106909,
      "lon": -61.57036792781195,
      "geoinfo": {
        "display_name": "Pointe de Roujol, Petit-Bourg, Basse-Terre, Guadeloupe, 97170, France",
        "road": null,
        "house_number": null,
        "neighbourhood": null,
        "suburb": null,
        "city_district": null,
        "city": "Petit-Bourg",
        "state": "Guadeloupe",
        "postcode": "97170",
        "country": "France",
        "country_code": "fr"
      },
      "address": "665, Petit-Bourg, 97170 Guadeloupe, Guadeloupe"
    }
  ],
  "updated_at": "2025-10-19T04:05:32.580172+00:00",
  "_kind": "geo_samples"
}