{
  "country_code": "GP",
  "country": "Guadeloupe",
  "city": "Sainte-Anne",
  "geonameid": 3578466,
  "target_addresses": 10,
  "samples": [
    {
      "lat": 16.201075346623988,
      "lon": -61.40025317509346,
      "geoinfo": {
        "display_name": "Carrière, Sainte-Anne, Pointe-à-Pitre, Guadeloupe, 97180, France",
        "road": null,
        "house_number": null,
        "neighbourhood": null,
        "suburb": null,
        "city_district": null,
        "city": "Sainte-Anne",
        "state": "Guadeloupe",
        "postcode": "97180",
        "country": "France",
        "country_code": "fr"
      },
      "address": "Sainte-Anne, Guadeloupe, Guadeloupe"
    },
    {
      "lat": 16.225650566474553,
      "lon": -61.38390285015393,
      "geoinfo": {
        "display_name": "École primaire Ginette Maragnes, Rue des Ècoles, Bourg de Sainte-Anne, Sainte-Anne, Pointe-à-Pitre, Guadeloupe, 97180, France",
        "road": "Rue des Ècoles",
        "house_number": null,
        "neighbourhood": null,
        "suburb": null,
        "city_district": null,
        "city": "Sainte-Anne",
        "state": "Guadeloupe",
        "postcode": "97180",
        "country": "France",
        "country_code": "fr"
      },
      "address": "Rue des Ècoles, Sainte-Anne, Guadeloupe, Guadeloupe"
    },
    {
      "lat": 16.238685301051646,
      "lon": -61.35993476370194,
      "geoinfo": {
        "display_name": "Route de Bois Jolan, French, Sainte-Anne, Pointe-à-Pitre, Guadeloupe, 97180, France",
        "road": "Route de Bois Jolan",
        "house_number": null,
        "neighbourhood": null,
        "suburb": null,
        "city_district": null,
        "city": "Sainte-Anne",
        "state": "Guadeloupe",
        "postcode": "97180",
        "country": "France",
        "country_code": "fr"
      },
      "address": "Route de Bois Jolan, Sainte-Anne, Guadeloupe, Guadeloupe"
    },
    {
      "lat": 16.225679277742493,
      "lon": -61.38662455101196,
      "geoinfo": {
        "display_name": "Rue du Morne Tricolore, Bourg de Sainte-Anne, Sainte-Anne, Pointe-à-Pitre, Guadeloupe, 97180, France",
        "road": "Rue du Morne Tricolore",
        "house_number": null,
        "neighbourhood": null,
        "suburb": null,
        "city_district": null,
        "city": "Sainte-Anne",
        "state": "Guadeloupe",
        "postcode": "97180",
        "country": "France",
        "country_code": "fr"
      },
      "address": "Rue du Morne Tricolore, Sainte-Anne, Guadeloupe, Guadeloupe"
    },
    {
      "lat": 16.251697205486213,
      "lon": -61.399544165047345,
      "geoinfo": {
        "display_name": "Chemin de Lagneau, Gaillarbois, Douville, Sainte-Anne, Pointe-à-Pitre, Guadeloupe, 97180, France",
        "road": "Chemin de Lagneau",
        "house_number": null,
        "neighbourhood": null,
        "suburb": null,
        "city_district": null,
        "city": "Sainte-Anne",
        "state": "Guadeloupe",
        "postcode": "97180",
        "country": "France",
        "country_code": "fr"
      },
      "address": "Chemin de Lagneau, Sainte-Anne, Guadeloupe, Guadeloupe"
    },
    {
      "lat": 16.259877066903577,
      "lon": -61.40066462260304,
      "geoinfo": {
        "display_name": "Route de Boisvin à Bragelone, Louisiane, Calvaire, Douville, Sainte-Anne, Pointe-à-Pitre, Guadeloupe, 97180, France",
        "road": "Route de Boisvin à Bragelone",
        "house_number": null,
        "neighbourhood": null,
        "suburb": null,
        "city_district": null,
        "city": "Sainte-Anne",
        "state": "Guadeloupe",
        "postcode": "97180",
        "country": "France",
        "country_code": "fr"
      },
      "address": "Route de Boisvin à Bragelone, Sainte-Anne, Guadeloupe, Guadeloupe"
    },
    {
      "lat": 16.252944208513746,
      "lon": -61.3799643971887,
      "geoinfo": {
        "display_name": "Chemin de Lemesie, Fond Vapeur, Douville, Sainte-Anne, Pointe-à-Pitre, Guadeloupe, 97180, France",
        "road": "Chemin de Lemesie",
        "house_number": null,
        "neighbourhood": null,
        "suburb": null,
        "city_district": null,
        "city": "Sainte-Anne",
        "state": "Guadeloupe",
        "postcode": "97180",
        "country": "France",
        "country_code": "fr"
      },
      "address": "Chemin de Lemesie, Sainte-Anne, Guadeloupe, Guadeloupe"
    },
    {
      "lat": 16.213810799932286,
      "lon": -61.396463752662065,
      "geoinfo": {
        "display_name": "Club Med La Caravelle, Chemin de La Caravelle, Sainte-Anne, Pointe-à-Pitre, Guadeloupe, 97180, France",
        "road": "Chemin de La Caravelle",
        "house_number": null,
        "neighbourhood": null,
        "suburb": null,
        "city_district": null,
        "city": "Sainte-Anne",
        "state": "Guadeloupe",
        "postcode": "97180",
        "country": "France",
        "country_code": "fr"
      },
      "address": "Chemin de La Caravelle, Sainte-Anne, Guadeloupe, Guadeloupe"
    },
    {
      "lat": 16.240457092137614,
      "lon": -61.377787595096564,
      "geoinfo": {
        "display_name": "Route de Deshauteurs, Louisiane, Calvaire, Douville, Sainte-Anne, Pointe-à-Pitre, Guadeloupe, 97180, France",
        "road": "Route de Deshauteurs",
        "house_number": null,
        "neighbourhood": null,
        "suburb": null,
        "city_district": null,
        "city": "Sainte-Anne",
        "state": "Guadeloupe",
        "postcode": "97180",
        "country": "France",
        "country_code": "fr"
      },
      "address": "Route de Deshauteurs, Sainte-Anne, Guadeloupe, Guadeloupe"
    },
    {
      "lat": 16.26604126419069,
      "lon": -61.387747919469454,
      "geoinfo": {
        "display_name": "Route de Liard Saint-Robert, Calvaire, Douville, Sainte-Anne, Pointe-à-Pitre, Guadeloupe, 97180, France",
        "road": "Route de Liard Saint-Robert",
        "house_number": null,
        "neighbourhood": null,
        "suburb": null,
        "city_district": null,
        "city": "Sainte-Anne",
        "state": "Guadeloupe",
        "postcode": "97180",
        "country": "France",
        "country_code": "fr"
      },
      "address": "Route de Liard Saint-Robert, Sainte-Anne, Guadeloupe, Guadeloupe"
    },
    {
      "lat": 16.23366278013317,
      "lon": -61.355142351005306,
      "geoinfo": {
        "display_name": "Station balnéaire Bois Jolan, Chemin Congo, Sainte-Anne, Pointe-à-Pitre, Guadeloupe, 97180, France",
        "road": "Chemin Congo",
        "house_number": null,
        "neighbourhood": null,
        "suburb": null,
        "city_district": null,
        "city": "Sainte-Anne",
        "state": "Guadeloupe",
        "postcode": "97180",
        "country": "France",
        "country_code": "fr"
      },
      "address": "209, Chemin Congo, Sainte-Anne, 97180 Guadeloupe, Guadeloupe"
    },
    {
      "lat": 16.217480001425454,
      "lon": -61.412960588280995,
      "geoinfo": {
        "display_name": "Sainte-Anne, Pointe-à-Pitre, Guadeloupe, 97180, France",
        "road": null,
        "house_number": null,
        "neighbourhood": null,
        "suburb": null,
        "city_district": null,
        "city": "Sainte-Anne",
        "state": "Guadeloupe",
        "postcode": "97180",
        "country": "France",
        "country_code": "fr"
      },
      "address": "950, Sainte-Anne, 97180 Guadeloupe, Guadeloupe"
    },
    {
      "lat": 16.229367308981264,
      "lon": -61.370168687240756,
      "geoinfo": {
        "display_name": "Avenue Hégésippe Ibène, Bourg de Sainte-Anne, French, Sainte-Anne, Pointe-à-Pitre, Guadeloupe, 97180, France",
        "road": "Avenue Hégésippe Ibène",
        "house_number": null,
        "neighbourhood": null,
        "suburb": null,
        "city_district": null,
        "city": "Sainte-Anne",
        "state": "Guadeloupe",
        "postcode": "97180",
        "country": "France",
        "country_code": "fr"
      },
      "address": "599, Avenue Hégésippe Ibène, Sainte-Anne, 97180 Guadeloupe, Guadeloupe"
    },
    {
      "lat": 16.22155962759114,
      "lon": -61.351550223515424,
      "geoinfo": {
        "display_name": "Bois Jolan, Sainte-Anne, Pointe-à-Pitre, Guadeloupe, 97180, France",
        "road": null,
        "house_number": null,
        "neighbourhood": null,
        "suburb": null,
        "city_district": null,
        "city": "Sainte-Anne",
        "state": "Guadeloupe",
        "postcode": "97180",
        "country": "France",
        "country_code": "fr"
      },
      "address": "911, Sainte-Anne, 97180 Guadeloupe, Guadeloupe"
    },
    {
      "lat": 16.263520147861453,
      "lon": -61.38316486731282,
      "geoinfo": {
        "display_name": "Route de Boisvin à Bragelone, Calvaire, Douville, Sainte-Anne, Pointe-à-Pitre, Guadeloupe, 97180, France",
        "road": "Route de Boisvin à Bragelone",
        "house_number": null,
        "neighbourhood": null,
        "suburb": null,
        "city_district": null,
        "city": "Sainte-Anne",
        "state": "Guadeloupe",
        "postcode": "97180",
        "country": "France",
        "country_code": "fr"
      },
      "address": "952, Route de Boisvin à Bragelone, Sainte-Anne, 97180 Guadeloupe, Guadeloupe"
    },
    {
      "lat": 16.21480900137044,
      "lon": -61.3655810230147,
      "geoinfo": {
        "display_name": "Monmain, Bourg de Sainte-Anne, Sainte-Anne, Pointe-à-Pitre, Guadeloupe, 97180, France",
        "road": null,
        "house_number": null,
        "neighbourhood": null,
        "suburb": null,
        "city_district": null,
        "city": "Sainte-Anne",
        "state": "Guadeloupe",
        "postcode": "97180",
        "country": "France",
        "country_code": "fr"
      },
      "address": "644, Sainte-Anne, 97180 Guadeloupe, Guadeloupe"
    },
    {
      "lat": 16.1844161825684,
      "lon": -61.39422500392808,
      "geoinfo": {
        "display_name": "Guadeloupe, France",
        "road": null,
        "house_number": null,
        "neighbourhood": null,
        "suburb": null,
        "city_district": null,
        "city": null,
        "state": "Guadeloupe",
        "postcode": null,
        "country": "France",
        "country_code": "fr"
      },
      "address": "570, Sainte-Anne, 24841 Guadeloupe, Guadeloupe"
    },
    {
      "lat": 16.25316576154283,
      "lon": -61.34956553878574,
      "geoinfo": {
        "display_name": "Impasse des Agoutis, Châteaubrun, Sainte-Anne, Pointe-à-Pitre, Guadeloupe, 97180, France",
        "road": "Impasse des Agoutis",
        "house_number": null,
        "neighbourhood": null,
        "suburb": null,
        "city_district": null,
        "city": "Sainte-Anne",
        "state": "Guadeloupe",
        "postcode": "97180",
        "country": "France",
        "country_code": "fr"
      },
      "address": "288, Impasse des Agoutis, Sainte-Anne, 97180 Guadeloupe, Guadeloupe"
    },
    {
      "lat": 16.24448145630986,
      "lon": -61.385655052531504,
      "geoinfo": {
        "display_name": "Sainte-Anne, Pointe-à-Pitre, Guadeloupe, 97180, France",
        "road": null,
        "house_number": null,
        "neighbourhood": null,
        "suburb": null,
        "city_district": null,
        "city": "Sainte-Anne",
        "state": "Guadeloupe",
        "postcode": "97180",
        "country": "France",
        "country_code": "fr"
      },
      "address": "129, Sainte-Anne, 97180 Guadeloupe, Guadeloupe"
    },
    {
      "lat": 16.25252070539955,
      "lon": -61.37881417279968,
      "geoinfo": {
        "display_name": "Chemin de Lemesie, Fond Vapeur, Douville, Sainte-Anne, Pointe-à-Pitre, Guadeloupe, 97180, France",
        "road": "Chemin de Lemesie",
        "house_number": null,
        "neighbourhood": null,
        "suburb": null,
        "city_district": null,
        "city": "Sainte-Anne",
        "state": "Guadeloupe",
        "postcode": "97180",
        "country": "France",
        "country_code": "fr"
      },
      "address": "283, Chemin de Lemesie, Sainte-Anne, 97180 Guadeloupe, Guadeloupe"
    }
  ],
  "updated_at": "2025-10-19T04:29:31.206284+00:00",
  "_kind": "geo_samples"
}