{
  "country_code": "EC",
  "country": "Ecuador",
  "city": "Calceta",
  "geonameid": 3659926,
  "target_addresses": 2,
  "samples": [
    {
      "lat": -0.8214547646906487,
      "lon": -80.14982091341565,
      "geoinfo": {
        "display_name": "Guarumal, Calceta, Parroquia Canuto, Chone, Manabí, 130601, Ecuador",
        "road": null,
        "house_number": null,
        "neighbourhood": null,
        "suburb": null,
        "city_district": null,
        "city": "Calceta",
        "state": "Manabí",
        "postcode": "130601",
        "country": "Ecuador",
        "country_code": "ec"
      },
      "address": "Calceta, Manabí, Ecuador"
    },
    {
      "lat": -0.8722437599096038,
      "lon": -80.15643160727186,
      "geoinfo": {
        "display_name": "Avenida 10 de Agosto, El Guabal, Calceta, Bolívar, Manabí, 130602, Ecuador",
        "road": "Avenida 10 de Agosto",
        "house_number": null,
        "neighbourhood": null,
        "suburb": null,
        "city_district": null,
        "city": "Calceta",
        "state": "Manabí",
        "postcode": "130602",
        "country": "Ecuador",
        "country_code": "ec"
      },
      "address": "Avenida 10 de Agosto, Calceta, Manabí, Ecuador"
    },
    {
      "lat": -0.8328493232167304,
      "lon": -80.17825477096403,
      "geoinfo": {
        "display_name": "El Morro, Calceta, Bolívar, Manabí, 130601, Ecuador",
        "road": null,
        "house_number": null,
        "neighbourhood": null,
        "suburb": null,
        "city_district": null,
        "city": "Calceta",
        "state": "Manabí",
        "postcode": "130601",
        "country": "Ecuador",
        "country_code": "ec"
      },
      "address": "845, El Morro, Calceta, Bolívar, Manabí, 130601, Ecuador"
    },
    {
      "lat": -0.8466727912983093,
      "lon": -80.1466323971681,
      "geoinfo": {
        "display_name": "Calceta, Bolívar, Manabí, 130602, Ecuador",
        "road": null,
        "house_number": null,
        "neighbourhood": null,
        "suburb": null,
        "city_district": null,
        "city": "Calceta",
        "state": "Manabí",
        "postcode": "130602",
        "country": "Ecuador",
        "country_code": "ec"
      },
      "address": "151, Calceta, Bolívar, Manabí, 130602, Ecuador"
    }
  ],
  "updated_at": "2025-10-19T03:48:43.309200+00:00",
  "_kind": "geo_samples"
}