{
  "country_code": "EC",
  "country": "Ecuador",
  "city": "Gualaceo",
  "geonameid": 3657670,
  "target_addresses": 7,
  "samples": [
    {
      "lat": -2.922284608708848,
      "lon": -78.78843344300007,
      "geoinfo": {
        "display_name": "Tamaute, Capillapamba, Chordeleg, Azuay, 010350, Ecuador",
        "road": null,
        "house_number": null,
        "neighbourhood": null,
        "suburb": null,
        "city_district": null,
        "city": "Chordeleg",
        "state": "Azuay",
        "postcode": "010350",
        "country": "Ecuador",
        "country_code": "ec"
      },
      "address": "Gualaceo, Azuay, Ecuador"
    },
    {
      "lat": -2.916727307117931,
      "lon": -78.80208478604398,
      "geoinfo": {
        "display_name": "Nallig, Cristo Rey, Gualaceo, Azuay, 010350, Ecuador",
        "road": null,
        "house_number": null,
        "neighbourhood": "Nallig",
        "suburb": null,
        "city_district": null,
        "city": "Gualaceo",
        "state": "Azuay",
        "postcode": "010350",
        "country": "Ecuador",
        "country_code": "ec"
      },
      "address": "Nallig, Gualaceo, Azuay, Ecuador"
    },
    {
      "lat": -2.9249787988936893,
      "lon": -78.75904240346493,
      "geoinfo": {
        "display_name": "Vía La Unión - Turapalte, Zhucos, La Unión, Chordeleg, Azuay, 010404, Ecuador",
        "road": "Vía La Unión - Turapalte",
        "house_number": null,
        "neighbourhood": null,
        "suburb": null,
        "city_district": null,
        "city": "La Unión",
        "state": "Azuay",
        "postcode": "010404",
        "country": "Ecuador",
        "country_code": "ec"
      },
      "address": "081, Vía La Unión - Turapalte, Zhucos, La Unión, Chordeleg, Azuay, 010404, Ecuador"
    },
    {
      "lat": -2.917884008862188,
      "lon": -78.81634211255336,
      "geoinfo": {
        "display_name": "Cristo Rey, Gualaceo, Azuay, 010350, Ecuador",
        "road": null,
        "house_number": null,
        "neighbourhood": null,
        "suburb": null,
        "city_district": null,
        "city": "Gualaceo",
        "state": "Azuay",
        "postcode": "010350",
        "country": "Ecuador",
        "country_code": "ec"
      },
      "address": "074, Cristo Rey, Gualaceo, Azuay, 010350, Ecuador"
    },
    {
      "lat": -2.885994545314671,
      "lon": -78.81677576618664,
      "geoinfo": {
        "display_name": "Caguazhún Grande, Jadán, Gualaceo, Azuay, 010402, Ecuador",
        "road": null,
        "house_number": null,
        "neighbourhood": null,
        "suburb": null,
        "city_district": null,
        "city": "Jadán",
        "state": "Azuay",
        "postcode": "010402",
        "country": "Ecuador",
        "country_code": "ec"
      },
      "address": "660, Gualaceo, 010402 Azuay, Ecuador"
    },
    {
      "lat": -2.89075470765842,
      "lon": -78.77441855141186,
      "geoinfo": {
        "display_name": "Los cañaverales, Cuenca, Gualaceo, Azuay, 010350, Ecuador",
        "road": "Los cañaverales",
        "house_number": null,
        "neighbourhood": "Cuenca",
        "suburb": null,
        "city_district": "Cuenca",
        "city": "Gualaceo",
        "state": "Azuay",
        "postcode": "010350",
        "country": "Ecuador",
        "country_code": "ec"
      },
      "address": "978, Los cañaverales, Cuenca, Gualaceo, Azuay, 010350, Ecuador"
    },
    {
      "lat": -2.880547883692662,
      "lon": -78.80040357210306,
      "geoinfo": {
        "display_name": "Caguazhún Chico, San Pedro de los Olivos, Gualaceo, Azuay, 010402, Ecuador",
        "road": null,
        "house_number": null,
        "neighbourhood": null,
        "suburb": null,
        "city_district": null,
        "city": "Gualaceo",
        "state": "Azuay",
        "postcode": "010402",
        "country": "Ecuador",
        "country_code": "ec"
      },
      "address": "724, Caguazhún Chico, San Pedro de los Olivos, Gualaceo, Azuay, 010402, Ecuador"
    }
  ],
  "updated_at": "2025-10-19T04:13:12.009504+00:00",
  "_kind": "geo_samples"
}