{
  "country_code": "EC",
  "country": "Ecuador",
  "city": "Huaquillas",
  "geonameid": 3655720,
  "target_addresses": 7,
  "samples": [
    {
      "lat": -3.5043918917361645,
      "lon": -80.20092354390208,
      "geoinfo": {
        "display_name": "Ciudad Blanca, Huaquillas, El Oro, 070503, Ecuador",
        "road": null,
        "house_number": null,
        "neighbourhood": null,
        "suburb": null,
        "city_district": null,
        "city": "Huaquillas",
        "state": "El Oro",
        "postcode": "070503",
        "country": "Ecuador",
        "country_code": "ec"
      },
      "address": "Huaquillas, El Oro, Ecuador"
    },
    {
      "lat": -3.446150538561258,
      "lon": -80.23187849225799,
      "geoinfo": {
        "display_name": "Restaurante Las Cañitas, Avenida Hualtaco, Puerto Hualtaco, Huaquillas, El Oro, 070703, Ecuador",
        "road": "Avenida Hualtaco",
        "house_number": null,
        "neighbourhood": null,
        "suburb": null,
        "city_district": null,
        "city": "Huaquillas",
        "state": "El Oro",
        "postcode": "070703",
        "country": "Ecuador",
        "country_code": "ec"
      },
      "address": "Avenida Hualtaco, Huaquillas, El Oro, Ecuador"
    },
    {
      "lat": -3.4633401624444096,
      "lon": -80.20787501308007,
      "geoinfo": {
        "display_name": "Via la Huada, Las Amazonas, Huaquillas, El Oro, 070703, Ecuador",
        "road": "Via la Huada",
        "house_number": null,
        "neighbourhood": null,
        "suburb": null,
        "city_district": null,
        "city": "Huaquillas",
        "state": "El Oro",
        "postcode": "070703",
        "country": "Ecuador",
        "country_code": "ec"
      },
      "address": "316, Via la Huada, Las Amazonas, Huaquillas, El Oro, 070703, Ecuador"
    },
    {
      "lat": -3.4552338253824715,
      "lon": -80.20490835278295,
      "geoinfo": {
        "display_name": "Via A la Huada, Manuel Aguirre, Huaquillas, El Oro, 070703, Ecuador",
        "road": "Via A la Huada",
        "house_number": null,
        "neighbourhood": null,
        "suburb": null,
        "city_district": null,
        "city": "Huaquillas",
        "state": "El Oro",
        "postcode": "070703",
        "country": "Ecuador",
        "country_code": "ec"
      },
      "address": "343, Via A la Huada, Manuel Aguirre, Huaquillas, El Oro, 070703, Ecuador"
    },
    {
      "lat": -3.4981343731407004,
      "lon": -80.19451063176999,
      "geoinfo": {
        "display_name": "Ciudad Blanca, El Bosque, Huaquillas, El Oro, 070503, Ecuador",
        "road": null,
        "house_number": null,
        "neighbourhood": null,
        "suburb": null,
        "city_district": null,
        "city": "Huaquillas",
        "state": "El Oro",
        "postcode": "070503",
        "country": "Ecuador",
        "country_code": "ec"
      },
      "address": "151, Huaquillas, 070503 El Oro, Ecuador"
    },
    {
      "lat": -3.4741905067211025,
      "lon": -80.21077395491173,
      "geoinfo": {
        "display_name": "8 de Septiembre, 16 de Julio, Huaquillas, El Oro, 070703, Ecuador",
        "road": "8 de Septiembre",
        "house_number": null,
        "neighbourhood": null,
        "suburb": null,
        "city_district": null,
        "city": "Huaquillas",
        "state": "El Oro",
        "postcode": "070703",
        "country": "Ecuador",
        "country_code": "ec"
      },
      "address": "8 de Septiembre, 16 de Julio, Huaquillas, El Oro, 070703, Ecuador"
    },
    {
      "lat": -3.501071574485885,
      "lon": -80.20598730034509,
      "geoinfo": {
        "display_name": "Calle Francisco Darío Riofrío, Alborada, Huaquillas, El Oro, 070503, Ecuador",
        "road": "Calle Francisco Darío Riofrío",
        "house_number": null,
        "neighbourhood": null,
        "suburb": null,
        "city_district": null,
        "city": "Huaquillas",
        "state": "El Oro",
        "postcode": "070503",
        "country": "Ecuador",
        "country_code": "ec"
      },
      "address": "204, Calle Francisco Darío Riofrío, Alborada, Huaquillas, El Oro, 070503, Ecuador"
    }
  ],
  "updated_at": "2025-10-19T04:12:57.998571+00:00",
  "_kind": "geo_samples"
}