{
  "country_code": "EC",
  "country": "Ecuador",
  "city": "Machachi",
  "geonameid": 3654536,
  "target_addresses": 2,
  "samples": [
    {
      "lat": -0.49140443331331796,
      "lon": -78.58088799776992,
      "geoinfo": {
        "display_name": "Vía Fuerte Militar Atahualpa, El Corazón, Aloag, Machachi, Pichincha, 170350, Ecuador",
        "road": "Vía Fuerte Militar Atahualpa",
        "house_number": null,
        "neighbourhood": null,
        "suburb": null,
        "city_district": null,
        "city": "Aloag",
        "state": null,
        "postcode": "170350",
        "country": "Ecuador",
        "country_code": "ec"
      },
      "address": "Vía Fuerte Militar Atahualpa, Machachi, Ecuador"
    },
    {
      "lat": -0.5338002265307238,
      "lon": -78.58439317859731,
      "geoinfo": {
        "display_name": "La Esperanza, Aloasí, Machachi, Pichincha, 170350, Ecuador",
        "road": null,
        "house_number": null,
        "neighbourhood": null,
        "suburb": null,
        "city_district": null,
        "city": "Aloasí",
        "state": null,
        "postcode": "170350",
        "country": "Ecuador",
        "country_code": "ec"
      },
      "address": "Machachi, Ecuador"
    },
    {
      "lat": -0.5334553948496945,
      "lon": -78.59704221763882,
      "geoinfo": {
        "display_name": "La Moya, Aloasí, Machachi, Pichincha, 170350, Ecuador",
        "road": null,
        "house_number": null,
        "neighbourhood": null,
        "suburb": null,
        "city_district": null,
        "city": "Aloasí",
        "state": null,
        "postcode": "170350",
        "country": "Ecuador",
        "country_code": "ec"
      },
      "address": "141, La Moya, Aloasí, Machachi, Pichincha, 170350, Ecuador"
    },
    {
      "lat": -0.5298383093458738,
      "lon": -78.56328766035763,
      "geoinfo": {
        "display_name": "Luis Fernando Merlo, San Antonio de Chamizas, Machachi, Pichincha, 171111, Ecuador",
        "road": "Luis Fernando Merlo",
        "house_number": null,
        "neighbourhood": null,
        "suburb": null,
        "city_district": null,
        "city": "Machachi",
        "state": null,
        "postcode": "171111",
        "country": "Ecuador",
        "country_code": "ec"
      },
      "address": "648, Luis Fernando Merlo, San Antonio de Chamizas, Machachi, Pichincha, 171111, Ecuador"
    }
  ],
  "updated_at": "2025-10-19T03:48:18.756148+00:00",
  "_kind": "geo_samples"
}