{
  "country_code": "EC",
  "country": "Ecuador",
  "city": "Machala",
  "geonameid": 3654533,
  "target_addresses": 2,
  "samples": [
    {
      "lat": -3.2458454201419555,
      "lon": -79.97836484507327,
      "geoinfo": {
        "display_name": "Avenida Vicente Serrano, Urseza 3 Sector 1, Puerto Bolívar, Machala, El Oro, 070210, Ecuador",
        "road": "Avenida Vicente Serrano",
        "house_number": null,
        "neighbourhood": "Urseza 3 Sector 1",
        "suburb": null,
        "city_district": null,
        "city": "Machala",
        "state": "El Oro",
        "postcode": "070210",
        "country": "Ecuador",
        "country_code": "ec"
      },
      "address": "Avenida Vicente Serrano, Machala, El Oro, Ecuador"
    },
    {
      "lat": -3.270636813505464,
      "lon": -79.92996982691868,
      "geoinfo": {
        "display_name": "El Condado, Machala, El Oro, 070121, Ecuador",
        "road": null,
        "house_number": null,
        "neighbourhood": "El Condado",
        "suburb": null,
        "city_district": null,
        "city": "Machala",
        "state": "El Oro",
        "postcode": "070121",
        "country": "Ecuador",
        "country_code": "ec"
      },
      "address": "El Condado, Machala, El Oro, Ecuador"
    },
    {
      "lat": -3.2384762522291424,
      "lon": -79.98354801440702,
      "geoinfo": {
        "display_name": "Puente Ingreso Coco Viche, Machala, El Oro, 070210, Ecuador",
        "road": null,
        "house_number": null,
        "neighbourhood": "Puente Ingreso Coco Viche",
        "suburb": null,
        "city_district": null,
        "city": "Machala",
        "state": "El Oro",
        "postcode": "070210",
        "country": "Ecuador",
        "country_code": "ec"
      },
      "address": "004, Puente Ingreso Coco Viche, Machala, El Oro, 070210, Ecuador"
    },
    {
      "lat": -3.2147220592690418,
      "lon": -79.95248204532588,
      "geoinfo": {
        "display_name": "Calle 66, FEDERICO PÁEZ, Machala, El Oro, 070202, Ecuador",
        "road": "Calle 66",
        "house_number": null,
        "neighbourhood": "FEDERICO PÁEZ",
        "suburb": null,
        "city_district": null,
        "city": "Machala",
        "state": "El Oro",
        "postcode": "070202",
        "country": "Ecuador",
        "country_code": "ec"
      },
      "address": "Calle 66, FEDERICO PÁEZ, Machala, El Oro, 070202, Ecuador"
    }
  ],
  "updated_at": "2025-10-19T02:02:04.129660+00:00",
  "_kind": "geo_samples"
}