{
  "country_code": "EC",
  "country": "Ecuador",
  "city": "Manta",
  "geonameid": 3654410,
  "target_addresses": 7,
  "samples": [
    {
      "lat": -0.9464183880157447,
      "lon": -80.68765984464402,
      "geoinfo": {
        "display_name": "Ingreso al Aeropuerto, Los Almendros, Los Esteros, Manta, Manabí, 130208, Ecuador",
        "road": "Ingreso al Aeropuerto",
        "house_number": null,
        "neighbourhood": "Los Almendros",
        "suburb": "Los Esteros",
        "city_district": "Los Esteros",
        "city": "Manta",
        "state": "Manabí",
        "postcode": "130208",
        "country": "Ecuador",
        "country_code": "ec"
      },
      "address": "Ingreso al Aeropuerto, Manta, Manabí, Ecuador"
    },
    {
      "lat": -0.9642354569870095,
      "lon": -80.73817493912519,
      "geoinfo": {
        "display_name": "Ruta del Spóndylus, Nueva Comunidad Río Manta, Tarqui, Manta, Manabí, 130206, Ecuador",
        "road": "Ruta del Spóndylus",
        "house_number": null,
        "neighbourhood": "Nueva Comunidad Río Manta",
        "suburb": null,
        "city_district": "Tarqui",
        "city": "Manta",
        "state": "Manabí",
        "postcode": "130206",
        "country": "Ecuador",
        "country_code": "ec"
      },
      "address": "Ruta del Spóndylus, Manta, Manabí, Ecuador"
    },
    {
      "lat": -0.9892401978639276,
      "lon": -80.72080682648028,
      "geoinfo": {
        "display_name": "Cdla. Azteca, Tarqui, Manta, Manabí, 130212, Ecuador",
        "road": null,
        "house_number": null,
        "neighbourhood": "Cdla. Azteca",
        "suburb": null,
        "city_district": "Tarqui",
        "city": "Manta",
        "state": "Manabí",
        "postcode": "130212",
        "country": "Ecuador",
        "country_code": "ec"
      },
      "address": "073, Cdla. Azteca, Tarqui, Manta, Manabí, 130212, Ecuador"
    },
    {
      "lat": -0.9801495586621278,
      "lon": -80.7299456658047,
      "geoinfo": {
        "display_name": "Sariland, Tarqui, Manta, Manabí, 130212, Ecuador",
        "road": null,
        "house_number": null,
        "neighbourhood": "Sariland",
        "suburb": null,
        "city_district": "Tarqui",
        "city": "Manta",
        "state": "Manabí",
        "postcode": "130212",
        "country": "Ecuador",
        "country_code": "ec"
      },
      "address": "496, Sariland, Tarqui, Manta, Manabí, 130212, Ecuador"
    },
    {
      "lat": -0.9435345407206622,
      "lon": -80.74485478262395,
      "geoinfo": {
        "display_name": "Calle Umiña 2, Portal del Sol, Manta Central, Manta, Manabí, 130214, Ecuador",
        "road": "Calle Umiña 2",
        "house_number": null,
        "neighbourhood": "Portal del Sol",
        "suburb": "Manta Central",
        "city_district": null,
        "city": "Manta",
        "state": "Manabí",
        "postcode": "130214",
        "country": "Ecuador",
        "country_code": "ec"
      },
      "address": "Calle Umiña 2, Portal del Sol, Manta Central, Manta, Manabí, 130214, Ecuador"
    },
    {
      "lat": -0.9606452729700448,
      "lon": -80.76153514522684,
      "geoinfo": {
        "display_name": "Ruta del Spóndylus, Porto Manta, Manta, Manabí, 130802, Ecuador",
        "road": "Ruta del Spóndylus",
        "house_number": null,
        "neighbourhood": "Porto Manta",
        "suburb": null,
        "city_district": null,
        "city": "Manta",
        "state": "Manabí",
        "postcode": "130802",
        "country": "Ecuador",
        "country_code": "ec"
      },
      "address": "808, Ruta del Spóndylus, Porto Manta, Manta, Manabí, 130802, Ecuador"
    },
    {
      "lat": -0.9452682921139127,
      "lon": -80.7132989937902,
      "geoinfo": {
        "display_name": "La Ensenadita, Manta, Manabí, 130207, Ecuador",
        "road": null,
        "house_number": null,
        "neighbourhood": "La Ensenadita",
        "suburb": null,
        "city_district": null,
        "city": "Manta",
        "state": "Manabí",
        "postcode": "130207",
        "country": "Ecuador",
        "country_code": "ec"
      },
      "address": "516, La Ensenadita, Manta, Manabí, 130207, Ecuador"
    }
  ],
  "updated_at": "2025-10-19T04:12:21.059338+00:00",
  "_kind": "geo_samples"
}