{
  "country_code": "EC",
  "country": "Ecuador",
  "city": "Posorja",
  "geonameid": 3652928,
  "target_addresses": 2,
  "samples": [
    {
      "lat": -2.6803610928672734,
      "lon": -80.24039155896655,
      "geoinfo": {
        "display_name": "Terminal Portuario DP World -Posorja, Posorja, Guayaquil, Guayas, 091001, Ecuador",
        "road": null,
        "house_number": null,
        "neighbourhood": null,
        "suburb": "Terminal Portuario DP World -Posorja",
        "city_district": null,
        "city": "Posorja",
        "state": "Guayas",
        "postcode": "091001",
        "country": "Ecuador",
        "country_code": "ec"
      },
      "address": "Terminal Portuario DP World -Posorja, Posorja, Guayas, Ecuador"
    },
    {
      "lat": -2.7186221392343404,
      "lon": -80.24267230694491,
      "geoinfo": {
        "display_name": "Muelle Carga/Descarga- Nirsa - At√∫n Real Posorja, Teodoro Wolf, Muelle Portuario - INVESTCAPITAL, Posorja, Guayaquil, Guayas, 091001, Ecuador",
        "road": "Teodoro Wolf",
        "house_number": null,
        "neighbourhood": null,
        "suburb": "Muelle Portuario - INVESTCAPITAL",
        "city_district": null,
        "city": "Posorja",
        "state": "Guayas",
        "postcode": "091001",
        "country": "Ecuador",
        "country_code": "ec"
      },
      "address": "Teodoro Wolf, Posorja, Guayas, Ecuador"
    },
    {
      "lat": -2.734150388339984,
      "lon": -80.25097993477067,
      "geoinfo": {
        "display_name": "Punta del Morro, Posorja, Guayaquil, Guayas, 091001, Ecuador",
        "road": null,
        "house_number": null,
        "neighbourhood": null,
        "suburb": null,
        "city_district": null,
        "city": "Posorja",
        "state": "Guayas",
        "postcode": "091001",
        "country": "Ecuador",
        "country_code": "ec"
      },
      "address": "125, Punta del Morro, Posorja, Guayaquil, Guayas, 091001, Ecuador"
    },
    {
      "lat": -2.706509599928782,
      "lon": -80.24043406218485,
      "geoinfo": {
        "display_name": "avistamoento dedelfines, Regidor Trejo, Muelle Portuario - INVESTCAPITAL, Posorja, Guayaquil, Guayas, 091001, Ecuador",
        "road": "Regidor Trejo",
        "house_number": null,
        "neighbourhood": null,
        "suburb": "Muelle Portuario - INVESTCAPITAL",
        "city_district": null,
        "city": "Posorja",
        "state": "Guayas",
        "postcode": "091001",
        "country": "Ecuador",
        "country_code": "ec"
      },
      "address": "921, Regidor Trejo, Posorja, 091001 Guayas, Ecuador"
    }
  ],
  "updated_at": "2025-10-19T03:42:55.334591+00:00",
  "_kind": "geo_samples"
}