{
  "country_code": "EC",
  "country": "Ecuador",
  "city": "Riobamba",
  "geonameid": 3652350,
  "target_addresses": 7,
  "samples": [
    {
      "lat": -1.7095927617367799,
      "lon": -78.65915945833314,
      "geoinfo": {
        "display_name": "San Luis, Riobamba, Chimborazo, 060117, Ecuador",
        "road": null,
        "house_number": null,
        "neighbourhood": null,
        "suburb": null,
        "city_district": null,
        "city": "San Luis",
        "state": "Chimborazo",
        "postcode": "060117",
        "country": "Ecuador",
        "country_code": "ec"
      },
      "address": "Riobamba, Chimborazo, Ecuador"
    },
    {
      "lat": -1.702022373774769,
      "lon": -78.65319207498193,
      "geoinfo": {
        "display_name": "Chimborazo, San Luis, Riobamba, Chimborazo, 060117, Ecuador",
        "road": "Chimborazo",
        "house_number": null,
        "neighbourhood": null,
        "suburb": null,
        "city_district": null,
        "city": "San Luis",
        "state": "Chimborazo",
        "postcode": "060117",
        "country": "Ecuador",
        "country_code": "ec"
      },
      "address": "Chimborazo, Riobamba, Chimborazo, Ecuador"
    },
    {
      "lat": -1.6522230986745865,
      "lon": -78.66037504564154,
      "geoinfo": {
        "display_name": "Brigada de Caballería Blindada Nº 11 \"Galápagos\", Virgilio Corral, Riobamba, Chimborazo, 060106, Ecuador",
        "road": "Virgilio Corral",
        "house_number": null,
        "neighbourhood": null,
        "suburb": null,
        "city_district": null,
        "city": "Riobamba",
        "state": "Chimborazo",
        "postcode": "060106",
        "country": "Ecuador",
        "country_code": "ec"
      },
      "address": "Brigada de Caballería Blindada Nº 11 \"Galápagos\", Virgilio Corral, Riobamba, Chimborazo, 060106, Ecuador"
    },
    {
      "lat": -1.6920279115629018,
      "lon": -78.6231298338793,
      "geoinfo": {
        "display_name": "San Luis, Riobamba, Chimborazo, 060110, Ecuador",
        "road": null,
        "house_number": null,
        "neighbourhood": null,
        "suburb": null,
        "city_district": null,
        "city": "San Luis",
        "state": "Chimborazo",
        "postcode": "060110",
        "country": "Ecuador",
        "country_code": "ec"
      },
      "address": "762, San Luis, Riobamba, Chimborazo, 060110, Ecuador"
    },
    {
      "lat": -1.6810593414170483,
      "lon": -78.66621025631802,
      "geoinfo": {
        "display_name": "Yaruquíes, Riobamba, Chimborazo, 060112, Ecuador",
        "road": null,
        "house_number": null,
        "neighbourhood": null,
        "suburb": null,
        "city_district": null,
        "city": "Riobamba",
        "state": "Chimborazo",
        "postcode": "060112",
        "country": "Ecuador",
        "country_code": "ec"
      },
      "address": "294, Yaruquíes, Riobamba, Chimborazo, 060112, Ecuador"
    },
    {
      "lat": -1.6336127355178756,
      "lon": -78.68635833956952,
      "geoinfo": {
        "display_name": "Licán, Riobamba, Chimborazo, 060107, Ecuador",
        "road": null,
        "house_number": null,
        "neighbourhood": null,
        "suburb": null,
        "city_district": null,
        "city": "Licán",
        "state": "Chimborazo",
        "postcode": "060107",
        "country": "Ecuador",
        "country_code": "ec"
      },
      "address": "183, Licán, Riobamba, Chimborazo, 060107, Ecuador"
    },
    {
      "lat": -1.667730609513841,
      "lon": -78.61874764202506,
      "geoinfo": {
        "display_name": "Riobamba, Chimborazo, 060110, Ecuador",
        "road": null,
        "house_number": null,
        "neighbourhood": null,
        "suburb": null,
        "city_district": null,
        "city": "Riobamba",
        "state": "Chimborazo",
        "postcode": "060110",
        "country": "Ecuador",
        "country_code": "ec"
      },
      "address": "093, Riobamba, Chimborazo, 060110, Ecuador"
    }
  ],
  "updated_at": "2025-10-19T04:11:57.686089+00:00",
  "_kind": "geo_samples"
}