{
  "country_code": "NL",
  "country": "The Netherlands",
  "city": "Oosterhout",
  "geonameid": 2749450,
  "target_addresses": 3,
  "samples": [
    {
      "lat": 51.61503981465404,
      "lon": 4.886994705036279,
      "geoinfo": {
        "display_name": "Geregt van Oosterhout, Vijf Eikenweg, Oosterhout, North Brabant, Netherlands, 4903 RX, Netherlands",
        "road": "Vijf Eikenweg",
        "house_number": null,
        "neighbourhood": null,
        "suburb": null,
        "city_district": null,
        "city": "Oosterhout",
        "state": "North Brabant",
        "postcode": "4903 RX",
        "country": "Netherlands",
        "country_code": "nl"
      },
      "address": "Vijf Eikenweg, Oosterhout, North Brabant, The Netherlands"
    },
    {
      "lat": 51.64670501868065,
      "lon": 4.9035635215628295,
      "geoinfo": {
        "display_name": "101A, Provincialeweg, Oosteind, Oosterhout, North Brabant, Netherlands, 4909 AG, Netherlands",
        "road": "Provincialeweg",
        "house_number": "101A",
        "neighbourhood": null,
        "suburb": null,
        "city_district": null,
        "city": "Oosteind",
        "state": "North Brabant",
        "postcode": "4909 AG",
        "country": "Netherlands",
        "country_code": "nl"
      },
      "address": "101A, Provincialeweg, Oosteind, Oosterhout, North Brabant, Netherlands, 4909 AG, Netherlands"
    },
    {
      "lat": 51.65245810136829,
      "lon": 4.813157024562755,
      "geoinfo": {
        "display_name": "Irene '58, Hoge Akker, Den Hout, Oosterhout, North Brabant, Netherlands, 4911 BA, Netherlands",
        "road": "Hoge Akker",
        "house_number": null,
        "neighbourhood": null,
        "suburb": null,
        "city_district": null,
        "city": "Den Hout",
        "state": "North Brabant",
        "postcode": "4911 BA",
        "country": "Netherlands",
        "country_code": "nl"
      },
      "address": "Irene '58, Hoge Akker, Den Hout, Oosterhout, North Brabant, Netherlands, 4911 BA, Netherlands"
    }
  ],
  "updated_at": "2025-10-19T05:59:24.232210+00:00",
  "_kind": "geo_samples"
}