{
  "country_code": "LV",
  "country": "Latvia",
  "city": "Jēkabpils",
  "geonameid": 459283,
  "target_addresses": 8,
  "samples": [
    {
      "lat": 56.52244481548984,
      "lon": 25.792026881770656,
      "geoinfo": {
        "display_name": "Ādmināni, Sēlpils pagasts, Jēkabpils novads, LV-5230, Latvia",
        "road": null,
        "house_number": null,
        "neighbourhood": null,
        "suburb": null,
        "city_district": null,
        "city": "Sēlpils pagasts",
        "state": null,
        "postcode": "LV-5230",
        "country": "Latvia",
        "country_code": "lv"
      },
      "address": "Jēkabpils, Latvia"
    },
    {
      "lat": 56.49130715181316,
      "lon": 25.797580647703427,
      "geoinfo": {
        "display_name": "V805, Sēlpils pagasts, Jēkabpils novads, LV-5230, Latvia",
        "road": "V805",
        "house_number": null,
        "neighbourhood": null,
        "suburb": null,
        "city_district": null,
        "city": "Sēlpils pagasts",
        "state": null,
        "postcode": "LV-5230",
        "country": "Latvia",
        "country_code": "lv"
      },
      "address": "V805, Jēkabpils, Latvia"
    },
    {
      "lat": 56.5051300633343,
      "lon": 25.79559859930684,
      "geoinfo": {
        "display_name": "Vārpas, Aizkraukle — Jēkabpils, Sala, Sēlpils pagasts, Jēkabpils novads, LV-5230, Latvia",
        "road": "Aizkraukle — Jēkabpils",
        "house_number": null,
        "neighbourhood": null,
        "suburb": null,
        "city_district": null,
        "city": "Sēlpils pagasts",
        "state": null,
        "postcode": "LV-5230",
        "country": "Latvia",
        "country_code": "lv"
      },
      "address": "Aizkraukle — Jēkabpils, Jēkabpils, Latvia"
    },
    {
      "lat": 56.474959536480455,
      "lon": 25.875271615900655,
      "geoinfo": {
        "display_name": "39, Aldaunas iela, Brodi, Jēkabpils, Jēkabpils novads, LV-5201, Latvia",
        "road": "Aldaunas iela",
        "house_number": "39",
        "neighbourhood": null,
        "suburb": "Brodi",
        "city_district": null,
        "city": "Jēkabpils",
        "state": null,
        "postcode": "LV-5201",
        "country": "Latvia",
        "country_code": "lv"
      },
      "address": "39 Aldaunas iela, Jēkabpils, Latvia"
    },
    {
      "lat": 56.49796796211978,
      "lon": 25.857077755584413,
      "geoinfo": {
        "display_name": "7, Zaļā iela, Akmeņu ielas radošais kvartāls, Dzintarzeme, Jēkabpils, Jēkabpils novads, LV-5201, Latvia",
        "road": "Zaļā iela",
        "house_number": "7",
        "neighbourhood": "Akmeņu ielas radošais kvartāls",
        "suburb": "Dzintarzeme",
        "city_district": null,
        "city": "Jēkabpils",
        "state": null,
        "postcode": "LV-5201",
        "country": "Latvia",
        "country_code": "lv"
      },
      "address": "7 Zaļā iela, Jēkabpils, Latvia"
    },
    {
      "lat": 56.48358936137677,
      "lon": 25.793094898207944,
      "geoinfo": {
        "display_name": "Dzelznavas kapliča, V812, Ošāni, Sēlpils pagasts, Jēkabpils novads, LV-5230, Latvia",
        "road": "V812",
        "house_number": null,
        "neighbourhood": null,
        "suburb": null,
        "city_district": null,
        "city": "Sēlpils pagasts",
        "state": null,
        "postcode": "LV-5230",
        "country": "Latvia",
        "country_code": "lv"
      },
      "address": "V812, Jēkabpils, Latvia"
    },
    {
      "lat": 56.51842719646927,
      "lon": 25.92100970718065,
      "geoinfo": {
        "display_name": "9, Lapu iela, Zīlāni, Jēkabpils, Jēkabpils novads, LV-5202, Latvia",
        "road": "Lapu iela",
        "house_number": "9",
        "neighbourhood": null,
        "suburb": "Zīlāni",
        "city_district": null,
        "city": "Jēkabpils",
        "state": null,
        "postcode": "LV-5202",
        "country": "Latvia",
        "country_code": "lv"
      },
      "address": "9 Lapu iela, Jēkabpils, Latvia"
    },
    {
      "lat": 56.52150414591366,
      "lon": 25.861390379558152,
      "geoinfo": {
        "display_name": "12E, Zvaigžņu iela, Madonas ielas rajons, Jēkabpils, Jēkabpils novads, LV-5202, Latvia",
        "road": "Zvaigžņu iela",
        "house_number": "12E",
        "neighbourhood": null,
        "suburb": "Madonas ielas rajons",
        "city_district": null,
        "city": "Jēkabpils",
        "state": null,
        "postcode": "LV-5202",
        "country": "Latvia",
        "country_code": "lv"
      },
      "address": "12E Zvaigžņu iela, Jēkabpils, Latvia"
    },
    {
      "lat": 56.51819481419892,
      "lon": 25.89044340931892,
      "geoinfo": {
        "display_name": "Donaviņas iela, Vārpa, Kūku pagasts, Jēkabpils novads, LV-5202, Latvia",
        "road": "Donaviņas iela",
        "house_number": null,
        "neighbourhood": null,
        "suburb": null,
        "city_district": null,
        "city": "Kūku pagasts",
        "state": null,
        "postcode": "LV-5202",
        "country": "Latvia",
        "country_code": "lv"
      },
      "address": "057, Donaviņas iela, Vārpa, Kūku pagasts, Jēkabpils novads, LV-5202, Latvia"
    },
    {
      "lat": 56.4982023408933,
      "lon": 25.778719631392107,
      "geoinfo": {
        "display_name": "V805, Sala, Sēlpils pagasts, Jēkabpils novads, LV-5230, Latvia",
        "road": "V805",
        "house_number": null,
        "neighbourhood": null,
        "suburb": null,
        "city_district": null,
        "city": "Sēlpils pagasts",
        "state": null,
        "postcode": "LV-5230",
        "country": "Latvia",
        "country_code": "lv"
      },
      "address": "V805, Sala, Sēlpils pagasts, Jēkabpils novads, LV-5230, Latvia"
    },
    {
      "lat": 56.5220325818183,
      "lon": 25.794250974060922,
      "geoinfo": {
        "display_name": "Ādmināni, Sēlpils pagasts, Jēkabpils novads, LV-5204, Latvia",
        "road": null,
        "house_number": null,
        "neighbourhood": null,
        "suburb": null,
        "city_district": null,
        "city": "Sēlpils pagasts",
        "state": null,
        "postcode": "LV-5204",
        "country": "Latvia",
        "country_code": "lv"
      },
      "address": "861, Ādmināni, Sēlpils pagasts, Jēkabpils novads, LV-5204, Latvia"
    },
    {
      "lat": 56.50545479208468,
      "lon": 25.808695768499124,
      "geoinfo": {
        "display_name": "Irbītes, Aizkraukle — Jēkabpils, Sala, Sēlpils pagasts, Jēkabpils novads, LV-5230, Latvia",
        "road": "Aizkraukle — Jēkabpils",
        "house_number": null,
        "neighbourhood": null,
        "suburb": null,
        "city_district": null,
        "city": "Sēlpils pagasts",
        "state": null,
        "postcode": "LV-5230",
        "country": "Latvia",
        "country_code": "lv"
      },
      "address": "171, Aizkraukle — Jēkabpils, LV-5230 Jēkabpils, Latvia"
    },
    {
      "lat": 56.51362012729905,
      "lon": 25.84079659747094,
      "geoinfo": {
        "display_name": "Daugavsalas iela, Cukurfabrika, Jēkabpils, Jēkabpils novads, LV-5201, Latvia",
        "road": "Daugavsalas iela",
        "house_number": null,
        "neighbourhood": null,
        "suburb": "Cukurfabrika",
        "city_district": null,
        "city": "Jēkabpils",
        "state": null,
        "postcode": "LV-5201",
        "country": "Latvia",
        "country_code": "lv"
      },
      "address": "662, Daugavsalas iela, Cukurfabrika, Jēkabpils, Jēkabpils novads, LV-5201, Latvia"
    },
    {
      "lat": 56.52562465274863,
      "lon": 25.87719136170963,
      "geoinfo": {
        "display_name": "75, Madonas iela, Veseļi, Jēkabpils, Jēkabpils novads, LV-5202, Latvia",
        "road": "Madonas iela",
        "house_number": "75",
        "neighbourhood": null,
        "suburb": "Veseļi",
        "city_district": null,
        "city": "Jēkabpils",
        "state": null,
        "postcode": "LV-5202",
        "country": "Latvia",
        "country_code": "lv"
      },
      "address": "75, Madonas iela, Veseļi, Jēkabpils, Jēkabpils novads, LV-5202, Latvia"
    },
    {
      "lat": 56.46902120724362,
      "lon": 25.797456886807506,
      "geoinfo": {
        "display_name": "Ābeļi, Stuburi, Sēlpils pagasts, Jēkabpils novads, LV-5230, Latvia",
        "road": null,
        "house_number": null,
        "neighbourhood": null,
        "suburb": null,
        "city_district": null,
        "city": "Sēlpils pagasts",
        "state": null,
        "postcode": "LV-5230",
        "country": "Latvia",
        "country_code": "lv"
      },
      "address": "808, Ābeļi, Stuburi, Sēlpils pagasts, Jēkabpils novads, LV-5230, Latvia"
    },
    {
      "lat": 56.47619391376338,
      "lon": 25.85079550688443,
      "geoinfo": {
        "display_name": "Brodi, Jēkabpils, Jēkabpils novads, LV-5201, Latvia",
        "road": null,
        "house_number": null,
        "neighbourhood": null,
        "suburb": "Brodi",
        "city_district": null,
        "city": "Jēkabpils",
        "state": null,
        "postcode": "LV-5201",
        "country": "Latvia",
        "country_code": "lv"
      },
      "address": "215, Brodi, Jēkabpils, Jēkabpils novads, LV-5201, Latvia"
    }
  ],
  "updated_at": "2025-10-19T03:45:55.850557+00:00",
  "_kind": "geo_samples"
}