{
  "country_code": "LV",
  "country": "Latvia",
  "city": "Mārupe",
  "geonameid": 864723,
  "target_addresses": 8,
  "samples": [
    {
      "lat": 56.89869380420694,
      "lon": 24.015172743557553,
      "geoinfo": {
        "display_name": "Dzērveņu iela, Sēļi, Mārupes pagasts, Mārupes novads, LV-2167, Latvia",
        "road": "Dzērveņu iela",
        "house_number": null,
        "neighbourhood": null,
        "suburb": "Sēļi",
        "city_district": null,
        "city": "Mārupes pagasts",
        "state": null,
        "postcode": "LV-2167",
        "country": "Latvia",
        "country_code": "lv"
      },
      "address": "Dzērveņu iela, Mārupe, Latvia"
    },
    {
      "lat": 56.90574427978414,
      "lon": 24.02070933687034,
      "geoinfo": {
        "display_name": "Dambji, Sēļi, Mārupe, Mārupes novads, LV-2167, Latvia",
        "road": null,
        "house_number": null,
        "neighbourhood": "Dambji",
        "suburb": "Sēļi",
        "city_district": null,
        "city": "Mārupe",
        "state": null,
        "postcode": "LV-2167",
        "country": "Latvia",
        "country_code": "lv"
      },
      "address": "Dambji, Mārupe, Latvia"
    },
    {
      "lat": 56.91894659424778,
      "lon": 24.03586852444124,
      "geoinfo": {
        "display_name": "Mārupes Valsts ģimnāzija, 97, Kantora iela, Tēriņi, Bieriņi, Āgenskalna apkaime, Mārupe, Mārupes novads, LV-2167, Latvia",
        "road": "Kantora iela",
        "house_number": "97",
        "neighbourhood": "Tēriņi",
        "suburb": "Bieriņi",
        "city_district": "Āgenskalna apkaime",
        "city": "Mārupe",
        "state": null,
        "postcode": "LV-2167",
        "country": "Latvia",
        "country_code": "lv"
      },
      "address": "97 Kantora iela, Mārupe, Latvia"
    },
    {
      "lat": 56.883359722428885,
      "lon": 24.022390324598824,
      "geoinfo": {
        "display_name": "Mārasciems, Sēļi, Mārupes pagasts, Mārupes novads, LV-2167, Latvia",
        "road": null,
        "house_number": null,
        "neighbourhood": "Mārasciems",
        "suburb": "Sēļi",
        "city_district": null,
        "city": "Mārupes pagasts",
        "state": null,
        "postcode": "LV-2167",
        "country": "Latvia",
        "country_code": "lv"
      },
      "address": "Mārasciems, Mārupe, Latvia"
    },
    {
      "lat": 56.917456678673396,
      "lon": 24.00154695714318,
      "geoinfo": {
        "display_name": "Līcīši, C18, Dambji, Mārupes pagasts, Mārupes novads, LV-2167, Latvia",
        "road": "C18",
        "house_number": null,
        "neighbourhood": "Dambji",
        "suburb": null,
        "city_district": null,
        "city": "Mārupes pagasts",
        "state": null,
        "postcode": "LV-2167",
        "country": "Latvia",
        "country_code": "lv"
      },
      "address": "C18, Mārupe, Latvia"
    },
    {
      "lat": 56.906637818453866,
      "lon": 24.049199903664757,
      "geoinfo": {
        "display_name": "26, Pededzes iela, Ozolciems, Sēļi, Mārupe, Mārupes novads, LV-2167, Latvia",
        "road": "Pededzes iela",
        "house_number": "26",
        "neighbourhood": "Ozolciems",
        "suburb": "Sēļi",
        "city_district": null,
        "city": "Mārupe",
        "state": null,
        "postcode": "LV-2167",
        "country": "Latvia",
        "country_code": "lv"
      },
      "address": "26 Pededzes iela, Mārupe, Latvia"
    },
    {
      "lat": 56.89802765118753,
      "lon": 23.980702821054106,
      "geoinfo": {
        "display_name": "C12, Mārupes pagasts, Mārupes novads, LV-2167, Latvia",
        "road": "C12",
        "house_number": null,
        "neighbourhood": null,
        "suburb": null,
        "city_district": null,
        "city": "Mārupes pagasts",
        "state": null,
        "postcode": "LV-2167",
        "country": "Latvia",
        "country_code": "lv"
      },
      "address": "C12, Mārupe, Latvia"
    },
    {
      "lat": 56.88855412961449,
      "lon": 24.05753482359405,
      "geoinfo": {
        "display_name": "29, Sauliešu iela, Vecozoli, Tīraine, Mārupes pagasts, Mārupes novads, LV-2167, Latvia",
        "road": "Sauliešu iela",
        "house_number": "29",
        "neighbourhood": null,
        "suburb": "Vecozoli",
        "city_district": "Tīraine",
        "city": "Mārupes pagasts",
        "state": null,
        "postcode": "LV-2167",
        "country": "Latvia",
        "country_code": "lv"
      },
      "address": "29 Sauliešu iela, Mārupe, Latvia"
    },
    {
      "lat": 56.91005839197453,
      "lon": 24.07308466058873,
      "geoinfo": {
        "display_name": "5A, Sīpeles iela, Bieriņi, Āgenskalna apkaime, Riga, LV-1058, Latvia",
        "road": "Sīpeles iela",
        "house_number": "5A",
        "neighbourhood": null,
        "suburb": "Bieriņi",
        "city_district": "Āgenskalna apkaime",
        "city": "Riga",
        "state": null,
        "postcode": "LV-1058",
        "country": "Latvia",
        "country_code": "lv"
      },
      "address": "5A, Sīpeles iela, Bieriņi, Āgenskalna apkaime, Riga, LV-1058, Latvia"
    },
    {
      "lat": 56.889129357508985,
      "lon": 24.091858250647004,
      "geoinfo": {
        "display_name": "18B, Rītausmas iela, Ozolciems, Ziepniekkalns, Āgenskalna apkaime, Riga, LV-1058, Latvia",
        "road": "Rītausmas iela",
        "house_number": "18B",
        "neighbourhood": null,
        "suburb": "Ozolciems",
        "city_district": "Āgenskalna apkaime",
        "city": "Riga",
        "state": null,
        "postcode": "LV-1058",
        "country": "Latvia",
        "country_code": "lv"
      },
      "address": "18B, Rītausmas iela, Ozolciems, Ziepniekkalns, Āgenskalna apkaime, Riga, LV-1058, Latvia"
    },
    {
      "lat": 56.88551516257431,
      "lon": 24.01320016239413,
      "geoinfo": {
        "display_name": "Pasakas, Pakaviņu iela, Sēļi, Mārupe, Mārupes novads, LV-2167, Latvia",
        "road": "Pakaviņu iela",
        "house_number": null,
        "neighbourhood": null,
        "suburb": "Sēļi",
        "city_district": null,
        "city": "Mārupe",
        "state": null,
        "postcode": "LV-2167",
        "country": "Latvia",
        "country_code": "lv"
      },
      "address": "631, Pakaviņu iela, LV-2167 Mārupe, Latvia"
    },
    {
      "lat": 56.913503386585134,
      "lon": 24.034743792347278,
      "geoinfo": {
        "display_name": "31, Paleju iela, Tēriņi, Mārupe, Mārupes novads, LV-2167, Latvia",
        "road": "Paleju iela",
        "house_number": "31",
        "neighbourhood": "Tēriņi",
        "suburb": null,
        "city_district": null,
        "city": "Mārupe",
        "state": null,
        "postcode": "LV-2167",
        "country": "Latvia",
        "country_code": "lv"
      },
      "address": "31, Paleju iela, Tēriņi, Mārupe, Mārupes novads, LV-2167, Latvia"
    },
    {
      "lat": 56.92916133164231,
      "lon": 24.07826296827103,
      "geoinfo": {
        "display_name": "Mārupes iela, Āgenskalns, Āgenskalna apkaime, Riga, LV-1002, Latvia",
        "road": "Mārupes iela",
        "house_number": null,
        "neighbourhood": null,
        "suburb": "Āgenskalns",
        "city_district": "Āgenskalna apkaime",
        "city": "Riga",
        "state": null,
        "postcode": "LV-1002",
        "country": "Latvia",
        "country_code": "lv"
      },
      "address": "139, Mārupes iela, Āgenskalns, Āgenskalna apkaime, Riga, LV-1002, Latvia"
    },
    {
      "lat": 56.90443461343192,
      "lon": 24.043593331976847,
      "geoinfo": {
        "display_name": "6A, Abavas iela, Bieriņi, Sēļi, Mārupe, Mārupes novads, LV-2167, Latvia",
        "road": "Abavas iela",
        "house_number": "6A",
        "neighbourhood": "Bieriņi",
        "suburb": "Sēļi",
        "city_district": null,
        "city": "Mārupe",
        "state": null,
        "postcode": "LV-2167",
        "country": "Latvia",
        "country_code": "lv"
      },
      "address": "6A, Abavas iela, Bieriņi, Sēļi, Mārupe, Mārupes novads, LV-2167, Latvia"
    },
    {
      "lat": 56.899742986636284,
      "lon": 24.04376355100822,
      "geoinfo": {
        "display_name": "30, Daugavas iela, Sēļi, Mārupe, Mārupes novads, LV-2167, Latvia",
        "road": "Daugavas iela",
        "house_number": "30",
        "neighbourhood": null,
        "suburb": "Sēļi",
        "city_district": null,
        "city": "Mārupe",
        "state": null,
        "postcode": "LV-2167",
        "country": "Latvia",
        "country_code": "lv"
      },
      "address": "30, Daugavas iela, Sēļi, Mārupe, Mārupes novads, LV-2167, Latvia"
    },
    {
      "lat": 56.92414336703916,
      "lon": 24.01188183657189,
      "geoinfo": {
        "display_name": "15, Plieņciema iela, Tēriņi, Pleskodāle, Imantas apkaime, Mārupe, Mārupes novads, LV-2167, Latvia",
        "road": "Plieņciema iela",
        "house_number": "15",
        "neighbourhood": "Tēriņi",
        "suburb": "Pleskodāle",
        "city_district": "Imantas apkaime",
        "city": "Mārupe",
        "state": null,
        "postcode": "LV-2167",
        "country": "Latvia",
        "country_code": "lv"
      },
      "address": "15, Plieņciema iela, Tēriņi, Pleskodāle, Imantas apkaime, Mārupe, Mārupes novads, LV-2167, Latvia"
    }
  ],
  "updated_at": "2025-10-19T03:47:09.740752+00:00",
  "_kind": "geo_samples"
}