{
  "country_code": "LV",
  "country": "Latvia",
  "city": "Ogre",
  "geonameid": 457065,
  "target_addresses": 8,
  "samples": [
    {
      "lat": 56.813789041774356,
      "lon": 24.66941915714228,
      "geoinfo": {
        "display_name": "Dārziņi, Ogresgala pagasts, Ogres novads, LV-5041, Latvia",
        "road": null,
        "house_number": null,
        "neighbourhood": "Dārziņi",
        "suburb": null,
        "city_district": null,
        "city": "Ogresgala pagasts",
        "state": null,
        "postcode": "LV-5041",
        "country": "Latvia",
        "country_code": "lv"
      },
      "address": "Dārziņi, Ogre, Latvia"
    },
    {
      "lat": 56.79484216547186,
      "lon": 24.63841738269325,
      "geoinfo": {
        "display_name": "Urdziņa 4, Vasarnīcu iela, Ķentes kalns, Ogre, Ogres novads, LV-5001, Latvia",
        "road": "Vasarnīcu iela",
        "house_number": null,
        "neighbourhood": "Ķentes kalns",
        "suburb": null,
        "city_district": null,
        "city": "Ogre",
        "state": null,
        "postcode": "LV-5001",
        "country": "Latvia",
        "country_code": "lv"
      },
      "address": "Vasarnīcu iela, Ogre, Latvia"
    },
    {
      "lat": 56.826834168364186,
      "lon": 24.55767093369287,
      "geoinfo": {
        "display_name": "Mazdzeņi, Doles iela, Tīnūžu pagasts, Ogres novads, LV-5001, Latvia",
        "road": "Doles iela",
        "house_number": null,
        "neighbourhood": null,
        "suburb": null,
        "city_district": null,
        "city": "Tīnūžu pagasts",
        "state": null,
        "postcode": "LV-5001",
        "country": "Latvia",
        "country_code": "lv"
      },
      "address": "Doles iela, Ogre, Latvia"
    },
    {
      "lat": 56.81339812524989,
      "lon": 24.65725223337885,
      "geoinfo": {
        "display_name": "24, Lavandu iela, Lašupes, Ogre, Ogres novads, LV-5001, Latvia",
        "road": "Lavandu iela",
        "house_number": "24",
        "neighbourhood": "Lašupes",
        "suburb": null,
        "city_district": null,
        "city": "Ogre",
        "state": null,
        "postcode": "LV-5001",
        "country": "Latvia",
        "country_code": "lv"
      },
      "address": "24 Lavandu iela, Ogre, Latvia"
    },
    {
      "lat": 56.84190920506789,
      "lon": 24.643349159738236,
      "geoinfo": {
        "display_name": "Mežrozītes, Tīnūžu pagasts, Ogres novads, LV-5015, Latvia",
        "road": null,
        "house_number": null,
        "neighbourhood": null,
        "suburb": null,
        "city_district": null,
        "city": "Tīnūžu pagasts",
        "state": null,
        "postcode": "LV-5015",
        "country": "Latvia",
        "country_code": "lv"
      },
      "address": "Ogre, Latvia"
    },
    {
      "lat": 56.812899492023575,
      "lon": 24.628464030384375,
      "geoinfo": {
        "display_name": "9, Jāņa Čakstes prospekts, Pārogre, Ogre, Ogres novads, LV-5001, Latvia",
        "road": "Jāņa Čakstes prospekts",
        "house_number": "9",
        "neighbourhood": "Pārogre",
        "suburb": null,
        "city_district": null,
        "city": "Ogre",
        "state": null,
        "postcode": "LV-5001",
        "country": "Latvia",
        "country_code": "lv"
      },
      "address": "9 Jāņa Čakstes prospekts, Ogre, Latvia"
    },
    {
      "lat": 56.81820208398466,
      "lon": 24.6402073194504,
      "geoinfo": {
        "display_name": "2, Mežmalas iela, Loka ielas rajons, Ogre, Ogres novads, LV-5001, Latvia",
        "road": "Mežmalas iela",
        "house_number": "2",
        "neighbourhood": "Loka ielas rajons",
        "suburb": null,
        "city_district": null,
        "city": "Ogre",
        "state": null,
        "postcode": "LV-5001",
        "country": "Latvia",
        "country_code": "lv"
      },
      "address": "2 Mežmalas iela, Ogre, Latvia"
    },
    {
      "lat": 56.81931268752106,
      "lon": 24.54517126926177,
      "geoinfo": {
        "display_name": "Medņi, A6, Ādamlauks, Tīnūžu pagasts, Ogres novads, LV-5052, Latvia",
        "road": "A6",
        "house_number": null,
        "neighbourhood": "Ādamlauks",
        "suburb": "Ādamlauks",
        "city_district": null,
        "city": "Tīnūžu pagasts",
        "state": null,
        "postcode": "LV-5052",
        "country": "Latvia",
        "country_code": "lv"
      },
      "address": "A6, Ogre, Latvia"
    },
    {
      "lat": 56.84360916386889,
      "lon": 24.5788394841462,
      "geoinfo": {
        "display_name": "Ulbroka — Ogre, Tīnūžu pagasts, Ogres novads, LV-5015, Latvia",
        "road": "Ulbroka — Ogre",
        "house_number": null,
        "neighbourhood": null,
        "suburb": null,
        "city_district": null,
        "city": "Tīnūžu pagasts",
        "state": null,
        "postcode": "LV-5015",
        "country": "Latvia",
        "country_code": "lv"
      },
      "address": "478, Ulbroka — Ogre, Tīnūžu pagasts, Ogres novads, LV-5015, Latvia"
    },
    {
      "lat": 56.81919889891654,
      "lon": 24.605458790634675,
      "geoinfo": {
        "display_name": "1, Lapu iela, Centrs, Ogre, Ogres novads, LV-5001, Latvia",
        "road": "Lapu iela",
        "house_number": "1",
        "neighbourhood": "Centrs",
        "suburb": null,
        "city_district": null,
        "city": "Ogre",
        "state": null,
        "postcode": "LV-5001",
        "country": "Latvia",
        "country_code": "lv"
      },
      "address": "1, Lapu iela, Centrs, Ogre, Ogres novads, LV-5001, Latvia"
    },
    {
      "lat": 56.826794936630996,
      "lon": 24.562992477321846,
      "geoinfo": {
        "display_name": "Bērzkalni, Doles iela, Tīnūžu pagasts, Ogres novads, LV-5052, Latvia",
        "road": "Doles iela",
        "house_number": null,
        "neighbourhood": null,
        "suburb": null,
        "city_district": null,
        "city": "Tīnūžu pagasts",
        "state": null,
        "postcode": "LV-5052",
        "country": "Latvia",
        "country_code": "lv"
      },
      "address": "371, Doles iela, LV-5052 Ogre, Latvia"
    },
    {
      "lat": 56.80952024614459,
      "lon": 24.641110981035034,
      "geoinfo": {
        "display_name": "1, Petūniju iela, Lašupes, Ogre, Ogres novads, LV-5001, Latvia",
        "road": "Petūniju iela",
        "house_number": "1",
        "neighbourhood": "Lašupes",
        "suburb": null,
        "city_district": null,
        "city": "Ogre",
        "state": null,
        "postcode": "LV-5001",
        "country": "Latvia",
        "country_code": "lv"
      },
      "address": "1, Petūniju iela, Lašupes, Ogre, Ogres novads, LV-5001, Latvia"
    },
    {
      "lat": 56.81602028740535,
      "lon": 24.656755331481996,
      "geoinfo": {
        "display_name": "7, Miķelīšu iela, Loka ielas rajons, Ogre, Ogres novads, LV-5001, Latvia",
        "road": "Miķelīšu iela",
        "house_number": "7",
        "neighbourhood": "Loka ielas rajons",
        "suburb": null,
        "city_district": null,
        "city": "Ogre",
        "state": null,
        "postcode": "LV-5001",
        "country": "Latvia",
        "country_code": "lv"
      },
      "address": "7, Miķelīšu iela, Loka ielas rajons, Ogre, Ogres novads, LV-5001, Latvia"
    },
    {
      "lat": 56.82373677028539,
      "lon": 24.608988187199653,
      "geoinfo": {
        "display_name": "Gunāra Astras iela, Centrs, Ogre, Ogres novads, LV-5001, Latvia",
        "road": "Gunāra Astras iela",
        "house_number": null,
        "neighbourhood": "Centrs",
        "suburb": null,
        "city_district": null,
        "city": "Ogre",
        "state": null,
        "postcode": "LV-5001",
        "country": "Latvia",
        "country_code": "lv"
      },
      "address": "165, Gunāra Astras iela, Centrs, Ogre, Ogres novads, LV-5001, Latvia"
    },
    {
      "lat": 56.81454755729056,
      "lon": 24.634690933621297,
      "geoinfo": {
        "display_name": "17A, Rūpnieku iela, Ribelīte, Ogre, Ogres novads, LV-5001, Latvia",
        "road": "Rūpnieku iela",
        "house_number": "17A",
        "neighbourhood": "Ribelīte",
        "suburb": null,
        "city_district": null,
        "city": "Ogre",
        "state": null,
        "postcode": "LV-5001",
        "country": "Latvia",
        "country_code": "lv"
      },
      "address": "17A, Rūpnieku iela, Ribelīte, Ogre, Ogres novads, LV-5001, Latvia"
    },
    {
      "lat": 56.831637641777256,
      "lon": 24.654402829603473,
      "geoinfo": {
        "display_name": "Ogre — Jugla, Tīnūžu pagasts, Ogres novads, LV-5001, Latvia",
        "road": "Ogre — Jugla",
        "house_number": null,
        "neighbourhood": null,
        "suburb": null,
        "city_district": null,
        "city": "Tīnūžu pagasts",
        "state": null,
        "postcode": "LV-5001",
        "country": "Latvia",
        "country_code": "lv"
      },
      "address": "959, Ogre — Jugla, Tīnūžu pagasts, Ogres novads, LV-5001, Latvia"
    }
  ],
  "updated_at": "2025-10-19T05:50:39.872212+00:00",
  "_kind": "geo_samples"
}