{
  "country_code": "LV",
  "country": "Latvia",
  "city": "Rēzekne",
  "geonameid": 456202,
  "target_addresses": 8,
  "samples": [
    {
      "lat": 56.50964270499386,
      "lon": 27.356750403594177,
      "geoinfo": {
        "display_name": "24, Parka iela, Vipinga, Rezekne, LV-4601, Latvia",
        "road": "Parka iela",
        "house_number": "24",
        "neighbourhood": null,
        "suburb": "Vipinga",
        "city_district": null,
        "city": "Rezekne",
        "state": null,
        "postcode": "LV-4601",
        "country": "Latvia",
        "country_code": "lv"
      },
      "address": "24, Parka iela, LV-4601 Rēzekne, Latvia"
    },
    {
      "lat": 56.50354164347071,
      "lon": 27.383817780570116,
      "geoinfo": {
        "display_name": "Utāni, Rēzekne — Stoļerova — Kaunata, Vipinga, Sprūževa, Griškānu pagasts, Rēzeknes novads, LV-4641, Latvia",
        "road": "Rēzekne — Stoļerova — Kaunata",
        "house_number": null,
        "neighbourhood": null,
        "suburb": "Vipinga",
        "city_district": null,
        "city": "Griškānu pagasts",
        "state": null,
        "postcode": "LV-4641",
        "country": "Latvia",
        "country_code": "lv"
      },
      "address": "281, Rēzekne — Stoļerova — Kaunata, LV-4641 Rēzekne, Latvia"
    },
    {
      "lat": 56.496141869064296,
      "lon": 27.335321733815857,
      "geoinfo": {
        "display_name": "36B, Jurija Tiņanova iela, Dienvidu rajons, Rezekne, LV-4601, Latvia",
        "road": "Jurija Tiņanova iela",
        "house_number": "36B",
        "neighbourhood": null,
        "suburb": "Dienvidu rajons",
        "city_district": null,
        "city": "Rezekne",
        "state": null,
        "postcode": "LV-4601",
        "country": "Latvia",
        "country_code": "lv"
      },
      "address": "36B, Jurija Tiņanova iela, LV-4601 Rēzekne, Latvia"
    },
    {
      "lat": 56.493194630256184,
      "lon": 27.281903787548817,
      "geoinfo": {
        "display_name": "Rēzekne — Ciskādi — Ružina, Lielie Garanči, Ozolmuižas pagasts, Rēzeknes novads, LV-4601, Latvia",
        "road": "Rēzekne — Ciskādi — Ružina",
        "house_number": null,
        "neighbourhood": null,
        "suburb": null,
        "city_district": null,
        "city": "Ozolmuižas pagasts",
        "state": null,
        "postcode": "LV-4601",
        "country": "Latvia",
        "country_code": "lv"
      },
      "address": "452, Rēzekne — Ciskādi — Ružina, Lielie Garanči, Ozolmuižas pagasts, Rēzeknes novads, LV-4601, Latvia"
    },
    {
      "lat": 56.50580188324482,
      "lon": 27.340483703756824,
      "geoinfo": {
        "display_name": "39, Pulkveža Brieža iela, Centrs, Rezekne, LV-4601, Latvia",
        "road": "Pulkveža Brieža iela",
        "house_number": "39",
        "neighbourhood": null,
        "suburb": "Centrs",
        "city_district": null,
        "city": "Rezekne",
        "state": null,
        "postcode": "LV-4601",
        "country": "Latvia",
        "country_code": "lv"
      },
      "address": "39, Pulkveža Brieža iela, LV-4601 Rēzekne, Latvia"
    },
    {
      "lat": 56.53029650055413,
      "lon": 27.38724004682189,
      "geoinfo": {
        "display_name": "Sili, Noliktavu iela, Vērēmu pagasts, Rēzeknes novads, LV-4604, Latvia",
        "road": "Noliktavu iela",
        "house_number": null,
        "neighbourhood": null,
        "suburb": null,
        "city_district": null,
        "city": "Vērēmu pagasts",
        "state": null,
        "postcode": "LV-4604",
        "country": "Latvia",
        "country_code": "lv"
      },
      "address": "532, Noliktavu iela, LV-4604 Rēzekne, Latvia"
    },
    {
      "lat": 56.5064453691766,
      "lon": 27.36297956306779,
      "geoinfo": {
        "display_name": "11, Vipingas iela, Vipinga, Rezekne, LV-4601, Latvia",
        "road": "Vipingas iela",
        "house_number": "11",
        "neighbourhood": null,
        "suburb": "Vipinga",
        "city_district": null,
        "city": "Rezekne",
        "state": null,
        "postcode": "LV-4601",
        "country": "Latvia",
        "country_code": "lv"
      },
      "address": "11, Vipingas iela, LV-4601 Rēzekne, Latvia"
    },
    {
      "lat": 56.53246272009904,
      "lon": 27.333421753805048,
      "geoinfo": {
        "display_name": "Viļakas iela, Ziemeļu rajons, Vērēmu pagasts, Rēzeknes novads, LV-4604, Latvia",
        "road": "Viļakas iela",
        "house_number": null,
        "neighbourhood": null,
        "suburb": "Ziemeļu rajons",
        "city_district": null,
        "city": "Vērēmu pagasts",
        "state": null,
        "postcode": "LV-4604",
        "country": "Latvia",
        "country_code": "lv"
      },
      "address": "410, Viļakas iela, LV-4604 Rēzekne, Latvia"
    }
  ],
  "updated_at": "2025-10-19T05:12:27.525552+00:00",
  "_kind": "geo_samples"
}