{
  "country_code": "LV",
  "country": "Latvia",
  "city": "Salaspils",
  "geonameid": 455898,
  "target_addresses": 8,
  "samples": [
    {
      "lat": 56.88930885848456,
      "lon": 24.346738781207304,
      "geoinfo": {
        "display_name": "Saulesciems, Salaspils pagasts, Salaspils novads, LV-2169, Latvia",
        "road": null,
        "house_number": null,
        "neighbourhood": "Saulesciems",
        "suburb": null,
        "city_district": null,
        "city": "Salaspils pagasts",
        "state": null,
        "postcode": "LV-2169",
        "country": "Latvia",
        "country_code": "lv"
      },
      "address": "Saulesciems, Salaspils, Latvia"
    },
    {
      "lat": 56.86186604637646,
      "lon": 24.311900193384677,
      "geoinfo": {
        "display_name": "Salaspils pagasts, Salaspils novads, LV-2121, Latvia",
        "road": null,
        "house_number": null,
        "neighbourhood": null,
        "suburb": null,
        "city_district": null,
        "city": "Salaspils pagasts",
        "state": null,
        "postcode": "LV-2121",
        "country": "Latvia",
        "country_code": "lv"
      },
      "address": "Salaspils, Latvia"
    },
    {
      "lat": 56.878348039639775,
      "lon": 24.35288941224195,
      "geoinfo": {
        "display_name": "Silava, Salaspils, Salaspils novads, LV-2169, Latvia",
        "road": null,
        "house_number": null,
        "neighbourhood": "Silava",
        "suburb": null,
        "city_district": null,
        "city": "Salaspils",
        "state": null,
        "postcode": "LV-2169",
        "country": "Latvia",
        "country_code": "lv"
      },
      "address": "Silava, Salaspils, Latvia"
    },
    {
      "lat": 56.857463542837934,
      "lon": 24.31636965873986,
      "geoinfo": {
        "display_name": "Rīga — Daugavpils — Krāslava — Baltkrievijas robeža (Pāternieki), Salaspils pagasts, Salaspils novads, LV-2121, Latvia",
        "road": "Rīga — Daugavpils — Krāslava — Baltkrievijas robeža (Pāternieki)",
        "house_number": null,
        "neighbourhood": null,
        "suburb": null,
        "city_district": null,
        "city": "Salaspils pagasts",
        "state": null,
        "postcode": "LV-2121",
        "country": "Latvia",
        "country_code": "lv"
      },
      "address": "Rīga — Daugavpils — Krāslava — Baltkrievijas robeža (Pāternieki), Salaspils, Latvia"
    },
    {
      "lat": 56.89346358713064,
      "lon": 24.327888644048716,
      "geoinfo": {
        "display_name": "Zivju ferma, Planderu iela, Salaspils, Salaspils novads, LV-2118, Latvia",
        "road": "Planderu iela",
        "house_number": null,
        "neighbourhood": null,
        "suburb": null,
        "city_district": null,
        "city": "Salaspils",
        "state": null,
        "postcode": "LV-2118",
        "country": "Latvia",
        "country_code": "lv"
      },
      "address": "Planderu iela, Salaspils, Latvia"
    },
    {
      "lat": 56.86704673235099,
      "lon": 24.376724229869552,
      "geoinfo": {
        "display_name": "Miera iela, Zinātņu Akadēmijas ciemats, Salaspils, Salaspils novads, LV-2169, Latvia",
        "road": "Miera iela",
        "house_number": null,
        "neighbourhood": "Zinātņu Akadēmijas ciemats",
        "suburb": null,
        "city_district": null,
        "city": "Salaspils",
        "state": null,
        "postcode": "LV-2169",
        "country": "Latvia",
        "country_code": "lv"
      },
      "address": "Miera iela, Salaspils, Latvia"
    },
    {
      "lat": 56.890525108908236,
      "lon": 24.39022354152785,
      "geoinfo": {
        "display_name": "Magdalēnas, Melno Ķiršu iela, Jaunsaurieši, Salaspils pagasts, Salaspils novads, LV-2118, Latvia",
        "road": "Melno Ķiršu iela",
        "house_number": null,
        "neighbourhood": null,
        "suburb": null,
        "city_district": null,
        "city": "Salaspils pagasts",
        "state": null,
        "postcode": "LV-2118",
        "country": "Latvia",
        "country_code": "lv"
      },
      "address": "Melno Ķiršu iela, Salaspils, Latvia"
    },
    {
      "lat": 56.87546799697307,
      "lon": 24.326470159961328,
      "geoinfo": {
        "display_name": "26, Dunduru iela, Piķurgas, Salaspils, Salaspils novads, LV-2121, Latvia",
        "road": "Dunduru iela",
        "house_number": "26",
        "neighbourhood": "Piķurgas",
        "suburb": null,
        "city_district": null,
        "city": "Salaspils",
        "state": null,
        "postcode": "LV-2121",
        "country": "Latvia",
        "country_code": "lv"
      },
      "address": "26 Dunduru iela, Salaspils, Latvia"
    },
    {
      "lat": 56.84930730329534,
      "lon": 24.327090372416443,
      "geoinfo": {
        "display_name": "12, Zviedru iela, Ķesterciems, Salaspils, Salaspils novads, LV-2121, Latvia",
        "road": "Zviedru iela",
        "house_number": "12",
        "neighbourhood": "Ķesterciems",
        "suburb": null,
        "city_district": null,
        "city": "Salaspils",
        "state": null,
        "postcode": "LV-2121",
        "country": "Latvia",
        "country_code": "lv"
      },
      "address": "12, Zviedru iela, Ķesterciems, Salaspils, Salaspils novads, LV-2121, Latvia"
    },
    {
      "lat": 56.89679161910858,
      "lon": 24.34450312851381,
      "geoinfo": {
        "display_name": "35, Tīrumu iela, Salaspils pagasts, Salaspils novads, LV-2118, Latvia",
        "road": "Tīrumu iela",
        "house_number": "35",
        "neighbourhood": null,
        "suburb": null,
        "city_district": null,
        "city": "Salaspils pagasts",
        "state": null,
        "postcode": "LV-2118",
        "country": "Latvia",
        "country_code": "lv"
      },
      "address": "35, Tīrumu iela, Salaspils pagasts, Salaspils novads, LV-2118, Latvia"
    },
    {
      "lat": 56.848588800139844,
      "lon": 24.34041265760811,
      "geoinfo": {
        "display_name": "Zviedru iela, Ķesterciems, Salaspils, Salaspils novads, LV-2169, Latvia",
        "road": "Zviedru iela",
        "house_number": null,
        "neighbourhood": "Ķesterciems",
        "suburb": null,
        "city_district": null,
        "city": "Salaspils",
        "state": null,
        "postcode": "LV-2169",
        "country": "Latvia",
        "country_code": "lv"
      },
      "address": "592, Zviedru iela, Ķesterciems, Salaspils, Salaspils novads, LV-2169, Latvia"
    },
    {
      "lat": 56.86059969863435,
      "lon": 24.385622842215586,
      "geoinfo": {
        "display_name": "24, Sila iela, Purvs, Salaspils, Salaspils novads, LV-2169, Latvia",
        "road": "Sila iela",
        "house_number": "24",
        "neighbourhood": "Purvs",
        "suburb": null,
        "city_district": null,
        "city": "Salaspils",
        "state": null,
        "postcode": "LV-2169",
        "country": "Latvia",
        "country_code": "lv"
      },
      "address": "24, Sila iela, Purvs, Salaspils, Salaspils novads, LV-2169, Latvia"
    },
    {
      "lat": 56.849900504385744,
      "lon": 24.428767040094332,
      "geoinfo": {
        "display_name": "Vasaras, C9, Gausiņi, Salaspils pagasts, Salaspils novads, LV-2117, Latvia",
        "road": "C9",
        "house_number": null,
        "neighbourhood": null,
        "suburb": null,
        "city_district": null,
        "city": "Salaspils pagasts",
        "state": null,
        "postcode": "LV-2117",
        "country": "Latvia",
        "country_code": "lv"
      },
      "address": "Vasaras, C9, Gausiņi, Salaspils pagasts, Salaspils novads, LV-2117, Latvia"
    },
    {
      "lat": 56.88780896930321,
      "lon": 24.40631914308981,
      "geoinfo": {
        "display_name": "6, A4, Salaspils pagasts, Salaspils novads, LV-2117, Latvia",
        "road": "A4",
        "house_number": "6",
        "neighbourhood": null,
        "suburb": null,
        "city_district": null,
        "city": "Salaspils pagasts",
        "state": null,
        "postcode": "LV-2117",
        "country": "Latvia",
        "country_code": "lv"
      },
      "address": "6, A4, Salaspils pagasts, Salaspils novads, LV-2117, Latvia"
    },
    {
      "lat": 56.90334602587053,
      "lon": 24.346389655108307,
      "geoinfo": {
        "display_name": "Daugavas iela, Saurieši, Stopiņu pagasts, Ropažu novads, LV-2118, Latvia",
        "road": "Daugavas iela",
        "house_number": null,
        "neighbourhood": null,
        "suburb": null,
        "city_district": null,
        "city": "Stopiņu pagasts",
        "state": null,
        "postcode": "LV-2118",
        "country": "Latvia",
        "country_code": "lv"
      },
      "address": "316, Daugavas iela, LV-2118 Salaspils, Latvia"
    },
    {
      "lat": 56.89104047552522,
      "lon": 24.34565870900757,
      "geoinfo": {
        "display_name": "Jurīši 1, Tīrumu iela, Salaspils pagasts, Salaspils novads, LV-2118, Latvia",
        "road": "Tīrumu iela",
        "house_number": null,
        "neighbourhood": null,
        "suburb": null,
        "city_district": null,
        "city": "Salaspils pagasts",
        "state": null,
        "postcode": "LV-2118",
        "country": "Latvia",
        "country_code": "lv"
      },
      "address": "Jurīši 1, Tīrumu iela, Salaspils pagasts, Salaspils novads, LV-2118, Latvia"
    }
  ],
  "updated_at": "2025-10-19T05:29:12.426035+00:00",
  "_kind": "geo_samples"
}