{
  "country_code": "LV",
  "country": "Latvia",
  "city": "Tukums",
  "geonameid": 454768,
  "target_addresses": 8,
  "samples": [
    {
      "lat": 56.96503940963045,
      "lon": 23.179095915423126,
      "geoinfo": {
        "display_name": "3, Ūdens iela, Tīle, Tukums, Tukuma novads, LV-3101, Latvia",
        "road": "Ūdens iela",
        "house_number": "3",
        "neighbourhood": null,
        "suburb": "Tīle",
        "city_district": null,
        "city": "Tukums",
        "state": null,
        "postcode": "LV-3101",
        "country": "Latvia",
        "country_code": "lv"
      },
      "address": "3 Ūdens iela, Tukums, Latvia"
    },
    {
      "lat": 56.97214940141605,
      "lon": 23.109247420936786,
      "geoinfo": {
        "display_name": "Apšukalni, Veļķu iela, Veļķi, Tumes pagasts, Tukuma novads, LV-3139, Latvia",
        "road": "Veļķu iela",
        "house_number": null,
        "neighbourhood": null,
        "suburb": "Veļķi",
        "city_district": null,
        "city": "Tumes pagasts",
        "state": null,
        "postcode": "LV-3139",
        "country": "Latvia",
        "country_code": "lv"
      },
      "address": "Veļķu iela, Tukums, Latvia"
    },
    {
      "lat": 56.95022464047238,
      "lon": 23.115069424567835,
      "geoinfo": {
        "display_name": "P121, Līdums, Tumes pagasts, Tukuma novads, LV-3104, Latvia",
        "road": "P121",
        "house_number": null,
        "neighbourhood": null,
        "suburb": null,
        "city_district": null,
        "city": "Tumes pagasts",
        "state": null,
        "postcode": "LV-3104",
        "country": "Latvia",
        "country_code": "lv"
      },
      "address": "P121, Tukums, Latvia"
    },
    {
      "lat": 56.95847121889898,
      "lon": 23.102400893808152,
      "geoinfo": {
        "display_name": "3, Rīga — Ventspils, Līdums, Tukums, Tukuma novads, LV-3104, Latvia",
        "road": "Rīga — Ventspils",
        "house_number": "3",
        "neighbourhood": null,
        "suburb": null,
        "city_district": null,
        "city": "Tukums",
        "state": null,
        "postcode": "LV-3104",
        "country": "Latvia",
        "country_code": "lv"
      },
      "address": "3 Rīga — Ventspils, Tukums, Latvia"
    },
    {
      "lat": 56.99985970515641,
      "lon": 23.103415762220045,
      "geoinfo": {
        "display_name": "Druvas, Tumes pagasts, Tukuma novads, LV-3139, Latvia",
        "road": null,
        "house_number": null,
        "neighbourhood": null,
        "suburb": null,
        "city_district": null,
        "city": "Tumes pagasts",
        "state": null,
        "postcode": "LV-3139",
        "country": "Latvia",
        "country_code": "lv"
      },
      "address": "Tukums, Latvia"
    },
    {
      "lat": 56.97050850889213,
      "lon": 23.188522337696615,
      "geoinfo": {
        "display_name": "3, Pūpolu iela, Durbe, Tukums, Tukuma novads, LV-3101, Latvia",
        "road": "Pūpolu iela",
        "house_number": "3",
        "neighbourhood": null,
        "suburb": "Durbe",
        "city_district": null,
        "city": "Tukums",
        "state": null,
        "postcode": "LV-3101",
        "country": "Latvia",
        "country_code": "lv"
      },
      "address": "3 Pūpolu iela, Tukums, Latvia"
    },
    {
      "lat": 56.95344604241055,
      "lon": 23.14987938080459,
      "geoinfo": {
        "display_name": "8B, Rūpniecības iela, Centrs, Tukums, Tukuma novads, LV-3101, Latvia",
        "road": "Rūpniecības iela",
        "house_number": "8B",
        "neighbourhood": null,
        "suburb": "Centrs",
        "city_district": null,
        "city": "Tukums",
        "state": null,
        "postcode": "LV-3101",
        "country": "Latvia",
        "country_code": "lv"
      },
      "address": "8B Rūpniecības iela, Tukums, Latvia"
    },
    {
      "lat": 56.97656270648086,
      "lon": 23.134197084247635,
      "geoinfo": {
        "display_name": "Ozoliņi, Tumes pagasts, Tukuma novads, LV-3101, Latvia",
        "road": null,
        "house_number": null,
        "neighbourhood": null,
        "suburb": "Ozoliņi",
        "city_district": null,
        "city": "Tumes pagasts",
        "state": null,
        "postcode": "LV-3101",
        "country": "Latvia",
        "country_code": "lv"
      },
      "address": "Ozoliņi, Tukums, Latvia"
    },
    {
      "lat": 56.95132193376608,
      "lon": 23.204292321088438,
      "geoinfo": {
        "display_name": "Jelgava (Tušķi) — Tukums, Jauntukums, Smārdes pagasts, Tukuma novads, LV-3101, Latvia",
        "road": "Jelgava (Tušķi) — Tukums",
        "house_number": null,
        "neighbourhood": null,
        "suburb": "Jauntukums",
        "city_district": null,
        "city": "Smārdes pagasts",
        "state": null,
        "postcode": "LV-3101",
        "country": "Latvia",
        "country_code": "lv"
      },
      "address": "481, Jelgava (Tušķi) — Tukums, Jauntukums, Smārdes pagasts, Tukuma novads, LV-3101, Latvia"
    },
    {
      "lat": 56.9678697151403,
      "lon": 23.093315756771805,
      "geoinfo": {
        "display_name": "Kandavas iela, Godiņi, Tumes pagasts, Tukuma novads, LV-3139, Latvia",
        "road": "Kandavas iela",
        "house_number": null,
        "neighbourhood": null,
        "suburb": null,
        "city_district": null,
        "city": "Tumes pagasts",
        "state": null,
        "postcode": "LV-3139",
        "country": "Latvia",
        "country_code": "lv"
      },
      "address": "692, Kandavas iela, LV-3139 Tukums, Latvia"
    },
    {
      "lat": 56.93617869304622,
      "lon": 23.199246860121075,
      "geoinfo": {
        "display_name": "Jaunzeltiņi, Jelgava (Tušķi) — Tukums, Jauntukums, Smārdes pagasts, Tukuma novads, LV-3129, Latvia",
        "road": "Jelgava (Tušķi) — Tukums",
        "house_number": null,
        "neighbourhood": null,
        "suburb": "Jauntukums",
        "city_district": null,
        "city": "Smārdes pagasts",
        "state": null,
        "postcode": "LV-3129",
        "country": "Latvia",
        "country_code": "lv"
      },
      "address": "930, Jelgava (Tušķi) — Tukums, LV-3129 Tukums, Latvia"
    },
    {
      "lat": 56.96533071942754,
      "lon": 23.219889047506253,
      "geoinfo": {
        "display_name": "Kalēji — Durbe, Vizuļi, Aizpure, Smārdes pagasts, Tukuma novads, LV-3129, Latvia",
        "road": "Kalēji — Durbe",
        "house_number": null,
        "neighbourhood": null,
        "suburb": null,
        "city_district": null,
        "city": "Smārdes pagasts",
        "state": null,
        "postcode": "LV-3129",
        "country": "Latvia",
        "country_code": "lv"
      },
      "address": "399, Kalēji — Durbe, LV-3129 Tukums, Latvia"
    },
    {
      "lat": 56.95455378333311,
      "lon": 23.177837124219092,
      "geoinfo": {
        "display_name": "Hortenzijas, Jelgavas iela, Jauntukums, Tukums, Tukuma novads, LV-3129, Latvia",
        "road": "Jelgavas iela",
        "house_number": null,
        "neighbourhood": null,
        "suburb": "Jauntukums",
        "city_district": null,
        "city": "Tukums",
        "state": null,
        "postcode": "LV-3129",
        "country": "Latvia",
        "country_code": "lv"
      },
      "address": "285, Jelgavas iela, LV-3129 Tukums, Latvia"
    },
    {
      "lat": 56.965859455705946,
      "lon": 23.146345336151544,
      "geoinfo": {
        "display_name": "16, Zirgu iela, Centrs, Tukums, Tukuma novads, LV-3101, Latvia",
        "road": "Zirgu iela",
        "house_number": "16",
        "neighbourhood": null,
        "suburb": "Centrs",
        "city_district": null,
        "city": "Tukums",
        "state": null,
        "postcode": "LV-3101",
        "country": "Latvia",
        "country_code": "lv"
      },
      "address": "16, Zirgu iela, Centrs, Tukums, Tukuma novads, LV-3101, Latvia"
    }
  ],
  "updated_at": "2025-10-19T05:28:40.828165+00:00",
  "_kind": "geo_samples"
}