{
  "country_code": "LV",
  "country": "Latvia",
  "city": "Valmiera",
  "geonameid": 453754,
  "target_addresses": 8,
  "samples": [
    {
      "lat": 57.51045891006154,
      "lon": 25.42968130770674,
      "geoinfo": {
        "display_name": "Valmiera — Smiltene, Gaides, Kauguru pagasts, Valmieras novads, LV-4224, Latvia",
        "road": "Valmiera — Smiltene",
        "house_number": null,
        "neighbourhood": null,
        "suburb": "Gaides",
        "city_district": null,
        "city": "Kauguru pagasts",
        "state": null,
        "postcode": "LV-4224",
        "country": "Latvia",
        "country_code": "lv"
      },
      "address": "Valmiera — Smiltene, Valmiera, Latvia"
    },
    {
      "lat": 57.548054216344774,
      "lon": 25.480002952252097,
      "geoinfo": {
        "display_name": "Enerģētiķis 63, Fazānu ceļa pievadceļš, Enerģētiķis, Kauguru pagasts, Valmieras novads, LV-4224, Latvia",
        "road": "Fazānu ceļa pievadceļš",
        "house_number": null,
        "neighbourhood": null,
        "suburb": null,
        "city_district": null,
        "city": "Kauguru pagasts",
        "state": null,
        "postcode": "LV-4224",
        "country": "Latvia",
        "country_code": "lv"
      },
      "address": "Fazānu ceļa pievadceļš, Valmiera, Latvia"
    },
    {
      "lat": 57.523787543476175,
      "lon": 25.38629560723482,
      "geoinfo": {
        "display_name": "2A, Rietekļa iela, Jumaras, Valmiera, Valmieras novads, LV-4201, Latvia",
        "road": "Rietekļa iela",
        "house_number": "2A",
        "neighbourhood": null,
        "suburb": "Jumaras",
        "city_district": null,
        "city": "Valmiera",
        "state": null,
        "postcode": "LV-4201",
        "country": "Latvia",
        "country_code": "lv"
      },
      "address": "2A Rietekļa iela, Valmiera, Latvia"
    },
    {
      "lat": 57.518321390002015,
      "lon": 25.426714041808715,
      "geoinfo": {
        "display_name": "Kreses, Lodes iela, Kaugurmuiža, Kauguru pagasts, Valmieras novads, LV-4224, Latvia",
        "road": "Lodes iela",
        "house_number": null,
        "neighbourhood": null,
        "suburb": "Kaugurmuiža",
        "city_district": null,
        "city": "Kauguru pagasts",
        "state": null,
        "postcode": "LV-4224",
        "country": "Latvia",
        "country_code": "lv"
      },
      "address": "Lodes iela, Valmiera, Latvia"
    },
    {
      "lat": 57.53233965630954,
      "lon": 25.38860581880902,
      "geoinfo": {
        "display_name": "24, Kuršu iela, Jāņparks, Valmiera, Valmieras novads, LV-4201, Latvia",
        "road": "Kuršu iela",
        "house_number": "24",
        "neighbourhood": null,
        "suburb": "Jāņparks",
        "city_district": null,
        "city": "Valmiera",
        "state": null,
        "postcode": "LV-4201",
        "country": "Latvia",
        "country_code": "lv"
      },
      "address": "24 Kuršu iela, Valmiera, Latvia"
    },
    {
      "lat": 57.54808882906332,
      "lon": 25.407106051563087,
      "geoinfo": {
        "display_name": "27, Salacas iela, Putniņi, Valmiermuiža, Valmiera, Valmieras novads, LV-4201, Latvia",
        "road": "Salacas iela",
        "house_number": "27",
        "neighbourhood": null,
        "suburb": "Putniņi",
        "city_district": null,
        "city": "Valmiera",
        "state": null,
        "postcode": "LV-4201",
        "country": "Latvia",
        "country_code": "lv"
      },
      "address": "27 Salacas iela, Valmiera, Latvia"
    },
    {
      "lat": 57.524270697476176,
      "lon": 25.419683545339115,
      "geoinfo": {
        "display_name": "46, Cēsu iela, Kaugurmuiža, Valmiera, Valmieras novads, LV-4201, Latvia",
        "road": "Cēsu iela",
        "house_number": "46",
        "neighbourhood": null,
        "suburb": "Kaugurmuiža",
        "city_district": null,
        "city": "Valmiera",
        "state": null,
        "postcode": "LV-4201",
        "country": "Latvia",
        "country_code": "lv"
      },
      "address": "46 Cēsu iela, Valmiera, Latvia"
    },
    {
      "lat": 57.51866071645208,
      "lon": 25.383606036812353,
      "geoinfo": {
        "display_name": "Vidzemes slimnīca, Jumaras iela, Jumaras, Valmiera, Valmieras novads, LV-4201, Latvia",
        "road": "Jumaras iela",
        "house_number": null,
        "neighbourhood": null,
        "suburb": "Jumaras",
        "city_district": null,
        "city": "Valmiera",
        "state": null,
        "postcode": "LV-4201",
        "country": "Latvia",
        "country_code": "lv"
      },
      "address": "Jumaras iela, Valmiera, Latvia"
    },
    {
      "lat": 57.545113240910545,
      "lon": 25.38326814426751,
      "geoinfo": {
        "display_name": "A3, Šķesteri, Valmiera, Valmieras novads, LV-4201, Latvia",
        "road": "A3",
        "house_number": null,
        "neighbourhood": null,
        "suburb": "Šķesteri",
        "city_district": null,
        "city": "Valmiera",
        "state": null,
        "postcode": "LV-4201",
        "country": "Latvia",
        "country_code": "lv"
      },
      "address": "A3, Šķesteri, Valmiera, Valmieras novads, LV-4201, Latvia"
    },
    {
      "lat": 57.49915666670425,
      "lon": 25.441675054589354,
      "geoinfo": {
        "display_name": "Dumbrāji - Zeiboti, Kaugurmāja, Industriālais parks, Kauguru pagasts, Valmieras novads, LV-4224, Latvia",
        "road": "Dumbrāji - Zeiboti",
        "house_number": null,
        "neighbourhood": null,
        "suburb": "Industriālais parks",
        "city_district": null,
        "city": "Kauguru pagasts",
        "state": null,
        "postcode": "LV-4224",
        "country": "Latvia",
        "country_code": "lv"
      },
      "address": "282, Dumbrāji - Zeiboti, LV-4224 Valmiera, Latvia"
    },
    {
      "lat": 57.56725930552114,
      "lon": 25.44680013425495,
      "geoinfo": {
        "display_name": "Valmiera — Rūjiena — Igaunijas robeža (Unguriņi), Vanagi, Mežvidi, Valmiermuiža, Valmieras pagasts, Valmieras novads, LV-4219, Latvia",
        "road": "Valmiera — Rūjiena — Igaunijas robeža (Unguriņi)",
        "house_number": null,
        "neighbourhood": "Vanagi",
        "suburb": null,
        "city_district": null,
        "city": "Valmieras pagasts",
        "state": null,
        "postcode": "LV-4219",
        "country": "Latvia",
        "country_code": "lv"
      },
      "address": "542, Valmiera — Rūjiena — Igaunijas robeža (Unguriņi), Vanagi, Mežvidi, Valmiermuiža, Valmieras pagasts, Valmieras novads, LV-4219, Latvia"
    },
    {
      "lat": 57.50296780127983,
      "lon": 25.421365391186878,
      "geoinfo": {
        "display_name": "Valmiera — Cēsis — Drabeši, Gauja, Kauguru pagasts, Valmieras novads, LV-4224, Latvia",
        "road": "Valmiera — Cēsis — Drabeši",
        "house_number": null,
        "neighbourhood": null,
        "suburb": null,
        "city_district": null,
        "city": "Kauguru pagasts",
        "state": null,
        "postcode": "LV-4224",
        "country": "Latvia",
        "country_code": "lv"
      },
      "address": "660, Valmiera — Cēsis — Drabeši, Gauja, Kauguru pagasts, Valmieras novads, LV-4224, Latvia"
    },
    {
      "lat": 57.51511970062479,
      "lon": 25.440237070788864,
      "geoinfo": {
        "display_name": "22, Mūrmuižas iela, Gaides, Valmiera, Valmieras novads, LV-4201, Latvia",
        "road": "Mūrmuižas iela",
        "house_number": "22",
        "neighbourhood": null,
        "suburb": "Gaides",
        "city_district": null,
        "city": "Valmiera",
        "state": null,
        "postcode": "LV-4201",
        "country": "Latvia",
        "country_code": "lv"
      },
      "address": "22, Mūrmuižas iela, Gaides, Valmiera, Valmieras novads, LV-4201, Latvia"
    }
  ],
  "updated_at": "2025-10-19T04:10:10.630854+00:00",
  "_kind": "geo_samples"
}