{
  "country_code": "TT",
  "country": "Trinidad and Tobago",
  "city": "Chaguanas",
  "geonameid": 3574810,
  "target_addresses": 22,
  "samples": [
    {
      "lat": 10.517880195640494,
      "lon": -61.42252824386561,
      "geoinfo": {
        "display_name": "Magnolia Drive, Chaguanas, 500125, Trinidad and Tobago",
        "road": "Magnolia Drive",
        "house_number": null,
        "neighbourhood": null,
        "suburb": null,
        "city_district": null,
        "city": "Chaguanas",
        "state": null,
        "postcode": "500125",
        "country": "Trinidad and Tobago",
        "country_code": "tt"
      },
      "address": "Magnolia Drive, Chaguanas, Trinidad and Tobago"
    },
    {
      "lat": 10.527736114688762,
      "lon": -61.43393930271037,
      "geoinfo": {
        "display_name": "136, Chaguanas Main Road, Chaguanas, 500125, Trinidad and Tobago",
        "road": "Chaguanas Main Road",
        "house_number": "136",
        "neighbourhood": null,
        "suburb": null,
        "city_district": null,
        "city": "Chaguanas",
        "state": null,
        "postcode": "500125",
        "country": "Trinidad and Tobago",
        "country_code": "tt"
      },
      "address": "136 Chaguanas Main Road, Chaguanas, Trinidad and Tobago"
    },
    {
      "lat": 10.497834957077755,
      "lon": -61.42591494541466,
      "geoinfo": {
        "display_name": "17, Joyce Road, Chaguanas, Couva-Tabaquite-Talparo, 500125, Trinidad and Tobago",
        "road": "Joyce Road",
        "house_number": "17",
        "neighbourhood": null,
        "suburb": null,
        "city_district": null,
        "city": "Chaguanas",
        "state": "Couva-Tabaquite-Talparo",
        "postcode": "500125",
        "country": "Trinidad and Tobago",
        "country_code": "tt"
      },
      "address": "17 Joyce Road, Chaguanas, Couva-Tabaquite-Talparo, Trinidad and Tobago"
    },
    {
      "lat": 10.515168364099885,
      "lon": -61.41847638674324,
      "geoinfo": {
        "display_name": "Chaguanas, 500125, Trinidad and Tobago",
        "road": null,
        "house_number": null,
        "neighbourhood": null,
        "suburb": null,
        "city_district": null,
        "city": "Chaguanas",
        "state": null,
        "postcode": "500125",
        "country": "Trinidad and Tobago",
        "country_code": "tt"
      },
      "address": "Chaguanas, Couva-Tabaquite-Talparo, Trinidad and Tobago"
    },
    {
      "lat": 10.510711228769456,
      "lon": -61.3919219876335,
      "geoinfo": {
        "display_name": "779, Edinburgh Gardens, Chaguanas, Couva-Tabaquite-Talparo, 500125, Trinidad and Tobago",
        "road": "Edinburgh Gardens",
        "house_number": "779",
        "neighbourhood": null,
        "suburb": null,
        "city_district": null,
        "city": "Chaguanas",
        "state": "Couva-Tabaquite-Talparo",
        "postcode": "500125",
        "country": "Trinidad and Tobago",
        "country_code": "tt"
      },
      "address": "779 Edinburgh Gardens, Chaguanas, Couva-Tabaquite-Talparo, Trinidad and Tobago"
    },
    {
      "lat": 10.496269716019214,
      "lon": -61.407538745685805,
      "geoinfo": {
        "display_name": "School Street, Chaguanas, Couva-Tabaquite-Talparo, 500125, Trinidad and Tobago",
        "road": "School Street",
        "house_number": null,
        "neighbourhood": null,
        "suburb": null,
        "city_district": null,
        "city": "Chaguanas",
        "state": "Couva-Tabaquite-Talparo",
        "postcode": "500125",
        "country": "Trinidad and Tobago",
        "country_code": "tt"
      },
      "address": "School Street, Chaguanas, Couva-Tabaquite-Talparo, Trinidad and Tobago"
    },
    {
      "lat": 10.501308732522181,
      "lon": -61.415869463854094,
      "geoinfo": {
        "display_name": "Perseverance Road, Chandernagore, Couva-Tabaquite-Talparo, 500125, Trinidad and Tobago",
        "road": "Perseverance Road",
        "house_number": null,
        "neighbourhood": null,
        "suburb": null,
        "city_district": null,
        "city": "Chandernagore",
        "state": "Couva-Tabaquite-Talparo",
        "postcode": "500125",
        "country": "Trinidad and Tobago",
        "country_code": "tt"
      },
      "address": "Perseverance Road, Chaguanas, Couva-Tabaquite-Talparo, Trinidad and Tobago"
    },
    {
      "lat": 10.480719647603784,
      "lon": -61.404685727399134,
      "geoinfo": {
        "display_name": "Sir Solomon Hochoy Highway, Freeport, Couva-Tabaquite-Talparo, 500125, Trinidad and Tobago",
        "road": "Sir Solomon Hochoy Highway",
        "house_number": null,
        "neighbourhood": null,
        "suburb": null,
        "city_district": null,
        "city": "Freeport",
        "state": "Couva-Tabaquite-Talparo",
        "postcode": "500125",
        "country": "Trinidad and Tobago",
        "country_code": "tt"
      },
      "address": "Sir Solomon Hochoy Highway, Chaguanas, Couva-Tabaquite-Talparo, Trinidad and Tobago"
    },
    {
      "lat": 10.52212194664888,
      "lon": -61.45383508165853,
      "geoinfo": {
        "display_name": "Felicity, Chaguanas, 500125, Trinidad and Tobago",
        "road": null,
        "house_number": null,
        "neighbourhood": null,
        "suburb": null,
        "city_district": null,
        "city": "Chaguanas",
        "state": null,
        "postcode": "500125",
        "country": "Trinidad and Tobago",
        "country_code": "tt"
      },
      "address": "376, Felicity, Chaguanas, 500125, Trinidad and Tobago"
    },
    {
      "lat": 10.50345529722791,
      "lon": -61.37339791416883,
      "geoinfo": {
        "display_name": "Caparo Valley Brasso Road, Palmiste, Couva-Tabaquite-Talparo, 500125, Trinidad and Tobago",
        "road": "Caparo Valley Brasso Road",
        "house_number": null,
        "neighbourhood": null,
        "suburb": null,
        "city_district": null,
        "city": "Palmiste",
        "state": "Couva-Tabaquite-Talparo",
        "postcode": "500125",
        "country": "Trinidad and Tobago",
        "country_code": "tt"
      },
      "address": "013, Caparo Valley Brasso Road, Chaguanas, 500125 Couva-Tabaquite-Talparo, Trinidad and Tobago"
    },
    {
      "lat": 10.558260969026309,
      "lon": -61.40117473582248,
      "geoinfo": {
        "display_name": "Chaguanas, 520448, Trinidad and Tobago",
        "road": null,
        "house_number": null,
        "neighbourhood": null,
        "suburb": null,
        "city_district": null,
        "city": "Chaguanas",
        "state": null,
        "postcode": "520448",
        "country": "Trinidad and Tobago",
        "country_code": "tt"
      },
      "address": "721, Chaguanas, 520448, Trinidad and Tobago"
    },
    {
      "lat": 10.540503429534464,
      "lon": -61.414000358056626,
      "geoinfo": {
        "display_name": "108, Savannah Heights, Chaguanas, 500125, Trinidad and Tobago",
        "road": "Savannah Heights",
        "house_number": "108",
        "neighbourhood": null,
        "suburb": null,
        "city_district": null,
        "city": "Chaguanas",
        "state": null,
        "postcode": "500125",
        "country": "Trinidad and Tobago",
        "country_code": "tt"
      },
      "address": "108, Savannah Heights, Chaguanas, 500125, Trinidad and Tobago"
    },
    {
      "lat": 10.512257449996104,
      "lon": -61.414911691414765,
      "geoinfo": {
        "display_name": "Downtown Chaguanas, Chaguanas, 500125, Trinidad and Tobago",
        "road": null,
        "house_number": null,
        "neighbourhood": null,
        "suburb": null,
        "city_district": null,
        "city": "Chaguanas",
        "state": null,
        "postcode": "500125",
        "country": "Trinidad and Tobago",
        "country_code": "tt"
      },
      "address": "623, Downtown Chaguanas, Chaguanas, 500125, Trinidad and Tobago"
    },
    {
      "lat": 10.519602525870297,
      "lon": -61.38663969830981,
      "geoinfo": {
        "display_name": "14, Enterprise Street, Enterprise, Lendore, Chaguanas, 500125, Trinidad and Tobago",
        "road": "Enterprise Street",
        "house_number": "14",
        "neighbourhood": null,
        "suburb": null,
        "city_district": null,
        "city": "Chaguanas",
        "state": null,
        "postcode": "500125",
        "country": "Trinidad and Tobago",
        "country_code": "tt"
      },
      "address": "14, Enterprise Street, Enterprise, Lendore, Chaguanas, 500125, Trinidad and Tobago"
    },
    {
      "lat": 10.527090392136383,
      "lon": -61.44005791415623,
      "geoinfo": {
        "display_name": "Chaguanas, 500125, Trinidad and Tobago",
        "road": null,
        "house_number": null,
        "neighbourhood": null,
        "suburb": null,
        "city_district": null,
        "city": "Chaguanas",
        "state": null,
        "postcode": "500125",
        "country": "Trinidad and Tobago",
        "country_code": "tt"
      },
      "address": "945, Chaguanas, 500125, Trinidad and Tobago"
    },
    {
      "lat": 10.555516557178423,
      "lon": -61.40333311216496,
      "geoinfo": {
        "display_name": "Assaraff Road, Chaguanas, 520448, Trinidad and Tobago",
        "road": "Assaraff Road",
        "house_number": null,
        "neighbourhood": null,
        "suburb": null,
        "city_district": null,
        "city": "Chaguanas",
        "state": null,
        "postcode": "520448",
        "country": "Trinidad and Tobago",
        "country_code": "tt"
      },
      "address": "483, Assaraff Road, Chaguanas, 520448, Trinidad and Tobago"
    },
    {
      "lat": 10.54924322163846,
      "lon": -61.3896622227466,
      "geoinfo": {
        "display_name": "Jerningham Junction, Chaguanas, 520448, Trinidad and Tobago",
        "road": "Jerningham Junction",
        "house_number": null,
        "neighbourhood": null,
        "suburb": null,
        "city_district": null,
        "city": "Chaguanas",
        "state": null,
        "postcode": "520448",
        "country": "Trinidad and Tobago",
        "country_code": "tt"
      },
      "address": "946, Jerningham Junction, Chaguanas, 520448, Trinidad and Tobago"
    },
    {
      "lat": 10.559360986749768,
      "lon": -61.42118221798442,
      "geoinfo": {
        "display_name": "Chaguanas, 520448, Trinidad and Tobago",
        "road": null,
        "house_number": null,
        "neighbourhood": null,
        "suburb": null,
        "city_district": null,
        "city": "Chaguanas",
        "state": null,
        "postcode": "520448",
        "country": "Trinidad and Tobago",
        "country_code": "tt"
      },
      "address": "452, Chaguanas, 520448, Trinidad and Tobago"
    },
    {
      "lat": 10.557284218211855,
      "lon": -61.40800949157984,
      "geoinfo": {
        "display_name": "Charlieville, Chaguanas, 520448, Trinidad and Tobago",
        "road": null,
        "house_number": null,
        "neighbourhood": null,
        "suburb": null,
        "city_district": null,
        "city": "Chaguanas",
        "state": null,
        "postcode": "520448",
        "country": "Trinidad and Tobago",
        "country_code": "tt"
      },
      "address": "671, Charlieville, Chaguanas, 520448, Trinidad and Tobago"
    },
    {
      "lat": 10.5557403204968,
      "lon": -61.407518869431065,
      "geoinfo": {
        "display_name": "Bissoon Avenue, Chaguanas, 520448, Trinidad and Tobago",
        "road": "Bissoon Avenue",
        "house_number": null,
        "neighbourhood": null,
        "suburb": null,
        "city_district": null,
        "city": "Chaguanas",
        "state": null,
        "postcode": "520448",
        "country": "Trinidad and Tobago",
        "country_code": "tt"
      },
      "address": "356, Bissoon Avenue, Chaguanas, 520448, Trinidad and Tobago"
    },
    {
      "lat": 10.527690483585557,
      "lon": -61.39221902241389,
      "geoinfo": {
        "display_name": "63, Crown Trace, Enterprise, Lendore, Chaguanas, 500125, Trinidad and Tobago",
        "road": "Crown Trace",
        "house_number": "63",
        "neighbourhood": null,
        "suburb": null,
        "city_district": null,
        "city": "Chaguanas",
        "state": null,
        "postcode": "500125",
        "country": "Trinidad and Tobago",
        "country_code": "tt"
      },
      "address": "63, Crown Trace, Enterprise, Lendore, Chaguanas, 500125, Trinidad and Tobago"
    },
    {
      "lat": 10.510791173683913,
      "lon": -61.39285816862667,
      "geoinfo": {
        "display_name": "768, Kestral Boulevard, Brentwood / Edinburgh 500, Lendore, Chaguanas, 500125, Trinidad and Tobago",
        "road": "Kestral Boulevard",
        "house_number": "768",
        "neighbourhood": null,
        "suburb": null,
        "city_district": null,
        "city": "Chaguanas",
        "state": null,
        "postcode": "500125",
        "country": "Trinidad and Tobago",
        "country_code": "tt"
      },
      "address": "768, Kestral Boulevard, Brentwood / Edinburgh 500, Lendore, Chaguanas, 500125, Trinidad and Tobago"
    }
  ],
  "updated_at": "2025-10-19T06:30:52.378223+00:00",
  "_kind": "geo_samples"
}