{
  "country_code": "TT",
  "country": "Trinidad and Tobago",
  "city": "Marabella",
  "geonameid": 3574194,
  "target_addresses": 8,
  "samples": [
    {
      "lat": 10.31398311263891,
      "lon": -61.458574885110124,
      "geoinfo": {
        "display_name": "Pointe-a-Pierre, Gasparillo, Couva-Tabaquite-Talparo, 602905, Trinidad and Tobago",
        "road": null,
        "house_number": null,
        "neighbourhood": null,
        "suburb": "Pointe-a-Pierre",
        "city_district": null,
        "city": "Gasparillo",
        "state": "Couva-Tabaquite-Talparo",
        "postcode": "602905",
        "country": "Trinidad and Tobago",
        "country_code": "tt"
      },
      "address": "Pointe-a-Pierre, Marabella, Couva-Tabaquite-Talparo, Trinidad and Tobago"
    },
    {
      "lat": 10.310767527856386,
      "lon": -61.42815770958036,
      "geoinfo": {
        "display_name": "Harmony Hall, Princes Town, 602905, Trinidad and Tobago",
        "road": null,
        "house_number": null,
        "neighbourhood": null,
        "suburb": null,
        "city_district": null,
        "city": "Harmony Hall",
        "state": "Princes Town",
        "postcode": "602905",
        "country": "Trinidad and Tobago",
        "country_code": "tt"
      },
      "address": "Marabella, Princes Town, Trinidad and Tobago"
    },
    {
      "lat": 10.292986071978246,
      "lon": -61.44088386778018,
      "geoinfo": {
        "display_name": "Bernard Julien Circle, Tarouba, Marabella, Gopaul Lands, San Fernando, 602905, Trinidad and Tobago",
        "road": "Bernard Julien Circle",
        "house_number": null,
        "neighbourhood": null,
        "suburb": "Marabella",
        "city_district": null,
        "city": "San Fernando",
        "state": null,
        "postcode": "602905",
        "country": "Trinidad and Tobago",
        "country_code": "tt"
      },
      "address": "398, Bernard Julien Circle, Tarouba, Marabella, Gopaul Lands, San Fernando, 602905, Trinidad and Tobago"
    },
    {
      "lat": 10.295055886344553,
      "lon": -61.459346585823205,
      "geoinfo": {
        "display_name": "176, Theresa Street, Marabella, Gopaul Lands, San Fernando, 601418, Trinidad and Tobago",
        "road": "Theresa Street",
        "house_number": "176",
        "neighbourhood": null,
        "suburb": "Marabella",
        "city_district": null,
        "city": "San Fernando",
        "state": null,
        "postcode": "601418",
        "country": "Trinidad and Tobago",
        "country_code": "tt"
      },
      "address": "176, Theresa Street, Marabella, Gopaul Lands, San Fernando, 601418, Trinidad and Tobago"
    },
    {
      "lat": 10.282631299354804,
      "lon": -61.45031020614571,
      "geoinfo": {
        "display_name": "25, Mac Gillivary Street, Mon Repos, San Fernando, 601418, Trinidad and Tobago",
        "road": "Mac Gillivary Street",
        "house_number": "25",
        "neighbourhood": "Mon Repos",
        "suburb": null,
        "city_district": null,
        "city": "San Fernando",
        "state": null,
        "postcode": "601418",
        "country": "Trinidad and Tobago",
        "country_code": "tt"
      },
      "address": "25, Mac Gillivary Street, Mon Repos, San Fernando, 601418, Trinidad and Tobago"
    },
    {
      "lat": 10.305037902857611,
      "lon": -61.458713898906005,
      "geoinfo": {
        "display_name": "157, Stollmeyer Street, Marabella, Gopaul Lands, San Fernando, 602905, Trinidad and Tobago",
        "road": "Stollmeyer Street",
        "house_number": "157",
        "neighbourhood": null,
        "suburb": "Marabella",
        "city_district": null,
        "city": "San Fernando",
        "state": null,
        "postcode": "602905",
        "country": "Trinidad and Tobago",
        "country_code": "tt"
      },
      "address": "157, Stollmeyer Street, Marabella, Gopaul Lands, San Fernando, 602905, Trinidad and Tobago"
    },
    {
      "lat": 10.300933812877162,
      "lon": -61.44459920069248,
      "geoinfo": {
        "display_name": "114, Park Lane, Marabella, Gopaul Lands, San Fernando, 602905, Trinidad and Tobago",
        "road": "Park Lane",
        "house_number": "114",
        "neighbourhood": null,
        "suburb": "Marabella",
        "city_district": null,
        "city": "San Fernando",
        "state": null,
        "postcode": "602905",
        "country": "Trinidad and Tobago",
        "country_code": "tt"
      },
      "address": "114, Park Lane, Marabella, Gopaul Lands, San Fernando, 602905, Trinidad and Tobago"
    },
    {
      "lat": 10.335362869074906,
      "lon": -61.4628637809259,
      "geoinfo": {
        "display_name": "M Southern Main Road, Couva-Tabaquite-Talparo, 602905, Trinidad and Tobago",
        "road": "M Southern Main Road",
        "house_number": null,
        "neighbourhood": null,
        "suburb": null,
        "city_district": null,
        "city": null,
        "state": "Couva-Tabaquite-Talparo",
        "postcode": "602905",
        "country": "Trinidad and Tobago",
        "country_code": "tt"
      },
      "address": "386, M Southern Main Road, Couva-Tabaquite-Talparo, 602905, Trinidad and Tobago"
    },
    {
      "lat": 10.269722492605952,
      "lon": -61.43747872237568,
      "geoinfo": {
        "display_name": "76, Corinth Road, Pleasantville, Gooding Village, San Fernando, 602418, Trinidad and Tobago",
        "road": "Corinth Road",
        "house_number": "76",
        "neighbourhood": "Pleasantville",
        "suburb": null,
        "city_district": null,
        "city": "San Fernando",
        "state": null,
        "postcode": "602418",
        "country": "Trinidad and Tobago",
        "country_code": "tt"
      },
      "address": "76, Corinth Road, Pleasantville, Gooding Village, San Fernando, 602418, Trinidad and Tobago"
    }
  ],
  "updated_at": "2025-10-19T05:54:40.717544+00:00",
  "_kind": "geo_samples"
}