{
  "country_code": "TT",
  "country": "Trinidad and Tobago",
  "city": "Paradise",
  "geonameid": 3573989,
  "target_addresses": 8,
  "samples": [
    {
      "lat": 10.691885913794478,
      "lon": -61.3460540632699,
      "geoinfo": {
        "display_name": "Tunapuna-Piarco, Trinidad and Tobago",
        "road": null,
        "house_number": null,
        "neighbourhood": null,
        "suburb": null,
        "city_district": null,
        "city": null,
        "state": "Tunapuna-Piarco",
        "postcode": null,
        "country": "Trinidad and Tobago",
        "country_code": "tt"
      },
      "address": "Paradise, Tunapuna-Piarco, Trinidad and Tobago"
    },
    {
      "lat": 10.648463918657196,
      "lon": -61.38180005378824,
      "geoinfo": {
        "display_name": "30, El Dorado Road, Macoya, Tunapuna, Tunapuna-Piarco, 340603, Trinidad and Tobago",
        "road": "El Dorado Road",
        "house_number": "30",
        "neighbourhood": null,
        "suburb": null,
        "city_district": null,
        "city": "Tunapuna",
        "state": "Tunapuna-Piarco",
        "postcode": "340603",
        "country": "Trinidad and Tobago",
        "country_code": "tt"
      },
      "address": "30, El Dorado Road, Macoya, Tunapuna, Tunapuna-Piarco, 340603, Trinidad and Tobago"
    },
    {
      "lat": 10.658859441894954,
      "lon": -61.37409668604755,
      "geoinfo": {
        "display_name": "Caura Royal Road, Tacarigua, Tunapuna, Tunapuna-Piarco, 340603, Trinidad and Tobago",
        "road": "Caura Royal Road",
        "house_number": null,
        "neighbourhood": null,
        "suburb": "Tacarigua",
        "city_district": null,
        "city": "Tunapuna",
        "state": "Tunapuna-Piarco",
        "postcode": "340603",
        "country": "Trinidad and Tobago",
        "country_code": "tt"
      },
      "address": "032, Caura Royal Road, Tacarigua, Tunapuna, Tunapuna-Piarco, 340603, Trinidad and Tobago"
    },
    {
      "lat": 10.658951957307643,
      "lon": -61.40729064541828,
      "geoinfo": {
        "display_name": "14, Ragbir Street, Saint Augustine, La Mango, Tunapuna-Piarco, 310407, Trinidad and Tobago",
        "road": "Ragbir Street",
        "house_number": "14",
        "neighbourhood": null,
        "suburb": "Saint Augustine",
        "city_district": null,
        "city": "La Mango",
        "state": "Tunapuna-Piarco",
        "postcode": "310407",
        "country": "Trinidad and Tobago",
        "country_code": "tt"
      },
      "address": "14, Ragbir Street, Saint Augustine, La Mango, Tunapuna-Piarco, 310407, Trinidad and Tobago"
    },
    {
      "lat": 10.621066365391023,
      "lon": -61.39106890551078,
      "geoinfo": {
        "display_name": "Centenary Street, Tunapuna, Tunapuna-Piarco, 340603, Trinidad and Tobago",
        "road": "Centenary Street",
        "house_number": null,
        "neighbourhood": null,
        "suburb": null,
        "city_district": null,
        "city": "Tunapuna",
        "state": "Tunapuna-Piarco",
        "postcode": "340603",
        "country": "Trinidad and Tobago",
        "country_code": "tt"
      },
      "address": "136, Centenary Street, Tunapuna, Tunapuna-Piarco, 340603, Trinidad and Tobago"
    },
    {
      "lat": 10.678113480923914,
      "lon": -61.39875913176038,
      "geoinfo": {
        "display_name": "Poolside, La Seiva, Tunapuna-Piarco, 310407, Trinidad and Tobago",
        "road": null,
        "house_number": null,
        "neighbourhood": "Poolside",
        "suburb": null,
        "city_district": null,
        "city": "La Seiva",
        "state": "Tunapuna-Piarco",
        "postcode": "310407",
        "country": "Trinidad and Tobago",
        "country_code": "tt"
      },
      "address": "247, Poolside, La Seiva, Tunapuna-Piarco, 310407, Trinidad and Tobago"
    }
  ],
  "updated_at": "2025-10-19T07:20:53.092692+00:00",
  "_kind": "geo_samples"
}