{
  "country_code": "TT",
  "country": "Trinidad and Tobago",
  "city": "Port of Spain",
  "geonameid": 3573890,
  "target_addresses": 22,
  "samples": [
    {
      "lat": 10.680027072279557,
      "lon": -61.525447991639275,
      "geoinfo": {
        "display_name": "Caribbean Sound Basin Ltd., 135, Long Circular Road, Maraval, Port of Spain, Diego Martin, 190130, Trinidad and Tobago",
        "road": "Long Circular Road",
        "house_number": "135",
        "neighbourhood": null,
        "suburb": "Maraval",
        "city_district": null,
        "city": "Port of Spain",
        "state": "Diego Martin",
        "postcode": "190130",
        "country": "Trinidad and Tobago",
        "country_code": "tt"
      },
      "address": "135 Long Circular Road, Port of Spain, Diego Martin, Trinidad and Tobago"
    },
    {
      "lat": 10.680578535404749,
      "lon": -61.486110199699006,
      "geoinfo": {
        "display_name": "14, Mon Repos, Port of Spain, San Juan-Laventille, 101002, Trinidad and Tobago",
        "road": "Mon Repos",
        "house_number": "14",
        "neighbourhood": null,
        "suburb": null,
        "city_district": null,
        "city": "Port of Spain",
        "state": "San Juan-Laventille",
        "postcode": "101002",
        "country": "Trinidad and Tobago",
        "country_code": "tt"
      },
      "address": "14 Mon Repos, Port of Spain, San Juan-Laventille, Trinidad and Tobago"
    },
    {
      "lat": 10.664160960497442,
      "lon": -61.5456001093355,
      "geoinfo": {
        "display_name": "Cocorite, Diego Martin, 110712, Trinidad and Tobago",
        "road": null,
        "house_number": null,
        "neighbourhood": null,
        "suburb": null,
        "city_district": null,
        "city": null,
        "state": "Diego Martin",
        "postcode": "110712",
        "country": "Trinidad and Tobago",
        "country_code": "tt"
      },
      "address": "Port of Spain, Diego Martin, Trinidad and Tobago"
    },
    {
      "lat": 10.627650529611646,
      "lon": -61.503244631269105,
      "geoinfo": {
        "display_name": "Sea Lots, John John, Port of Spain, 150123, Trinidad and Tobago",
        "road": null,
        "house_number": null,
        "neighbourhood": null,
        "suburb": "John John",
        "city_district": null,
        "city": "Port of Spain",
        "state": null,
        "postcode": "150123",
        "country": "Trinidad and Tobago",
        "country_code": "tt"
      },
      "address": "John John, Port of Spain, Diego Martin, Trinidad and Tobago"
    },
    {
      "lat": 10.697841667107925,
      "lon": -61.4947968691847,
      "geoinfo": {
        "display_name": "15, Plaisance Road, Saint Ann's, Port of Spain, San Juan-Laventille, 101002, Trinidad and Tobago",
        "road": "Plaisance Road",
        "house_number": "15",
        "neighbourhood": null,
        "suburb": "Saint Ann's",
        "city_district": null,
        "city": "Port of Spain",
        "state": "San Juan-Laventille",
        "postcode": "101002",
        "country": "Trinidad and Tobago",
        "country_code": "tt"
      },
      "address": "15 Plaisance Road, Port of Spain, San Juan-Laventille, Trinidad and Tobago"
    },
    {
      "lat": 10.671774423599324,
      "lon": -61.50641681378567,
      "geoinfo": {
        "display_name": "Lady Young Road, Saint Ann's, Port of Spain, San Juan-Laventille, 101002, Trinidad and Tobago",
        "road": "Lady Young Road",
        "house_number": null,
        "neighbourhood": null,
        "suburb": "Saint Ann's",
        "city_district": null,
        "city": "Port of Spain",
        "state": "San Juan-Laventille",
        "postcode": "101002",
        "country": "Trinidad and Tobago",
        "country_code": "tt"
      },
      "address": "Lady Young Road, Port of Spain, San Juan-Laventille, Trinidad and Tobago"
    },
    {
      "lat": 10.642015795625284,
      "lon": -61.485496779559064,
      "geoinfo": {
        "display_name": "Beetham Highway, Laventille, San Juan-Laventille, 101009, Trinidad and Tobago",
        "road": "Beetham Highway",
        "house_number": null,
        "neighbourhood": null,
        "suburb": "Laventille",
        "city_district": null,
        "city": null,
        "state": "San Juan-Laventille",
        "postcode": "101009",
        "country": "Trinidad and Tobago",
        "country_code": "tt"
      },
      "address": "Beetham Highway, Port of Spain, San Juan-Laventille, Trinidad and Tobago"
    },
    {
      "lat": 10.654861599337424,
      "lon": -61.5453149282983,
      "geoinfo": {
        "display_name": "Saint James, Port of Spain, 190130, Trinidad and Tobago",
        "road": null,
        "house_number": null,
        "neighbourhood": null,
        "suburb": "Saint James",
        "city_district": "Saint James",
        "city": "Port of Spain",
        "state": null,
        "postcode": "190130",
        "country": "Trinidad and Tobago",
        "country_code": "tt"
      },
      "address": "Saint James, Port of Spain, Diego Martin, Trinidad and Tobago"
    },
    {
      "lat": 10.674229247962424,
      "lon": -61.514374951639844,
      "geoinfo": {
        "display_name": "Royal Botanic Gardens, Lady Chancellor Road, Saint Ann's, Port of Spain, San Juan-Laventille, 101002, Trinidad and Tobago",
        "road": "Lady Chancellor Road",
        "house_number": null,
        "neighbourhood": null,
        "suburb": "Saint Ann's",
        "city_district": null,
        "city": "Port of Spain",
        "state": "San Juan-Laventille",
        "postcode": "101002",
        "country": "Trinidad and Tobago",
        "country_code": "tt"
      },
      "address": "421, Lady Chancellor Road, Port of Spain, 101002 San Juan-Laventille, Trinidad and Tobago"
    },
    {
      "lat": 10.69138806404064,
      "lon": -61.494457712191796,
      "geoinfo": {
        "display_name": "Uariapita Road, San Juan-Laventille, 101002, Trinidad and Tobago",
        "road": "Uariapita Road",
        "house_number": null,
        "neighbourhood": null,
        "suburb": null,
        "city_district": null,
        "city": null,
        "state": "San Juan-Laventille",
        "postcode": "101002",
        "country": "Trinidad and Tobago",
        "country_code": "tt"
      },
      "address": "950, Uariapita Road, San Juan-Laventille, 101002, Trinidad and Tobago"
    },
    {
      "lat": 10.675090537518868,
      "lon": -61.5478453447138,
      "geoinfo": {
        "display_name": "Western Main Road, Cocorite, Port of Spain, Diego Martin, 110712, Trinidad and Tobago",
        "road": "Western Main Road",
        "house_number": null,
        "neighbourhood": null,
        "suburb": null,
        "city_district": null,
        "city": "Port of Spain",
        "state": "Diego Martin",
        "postcode": "110712",
        "country": "Trinidad and Tobago",
        "country_code": "tt"
      },
      "address": "642, Western Main Road, Cocorite, Port of Spain, Diego Martin, 110712, Trinidad and Tobago"
    },
    {
      "lat": 10.630979696652366,
      "lon": -61.54217737007322,
      "geoinfo": {
        "display_name": "Woodbrook, Port of Spain, 190130, Trinidad and Tobago",
        "road": null,
        "house_number": null,
        "neighbourhood": null,
        "suburb": "Woodbrook",
        "city_district": null,
        "city": "Port of Spain",
        "state": null,
        "postcode": "190130",
        "country": "Trinidad and Tobago",
        "country_code": "tt"
      },
      "address": "128, Woodbrook, Port of Spain, 190130, Trinidad and Tobago"
    },
    {
      "lat": 10.67428278094846,
      "lon": -61.534594082497755,
      "geoinfo": {
        "display_name": "20, Angelina Street, Saint James, Port of Spain, 190130, Trinidad and Tobago",
        "road": "Angelina Street",
        "house_number": "20",
        "neighbourhood": null,
        "suburb": "Saint James",
        "city_district": "Saint James",
        "city": "Port of Spain",
        "state": null,
        "postcode": "190130",
        "country": "Trinidad and Tobago",
        "country_code": "tt"
      },
      "address": "20, Angelina Street, Saint James, Port of Spain, 190130, Trinidad and Tobago"
    },
    {
      "lat": 10.701865211334837,
      "lon": -61.5401693641745,
      "geoinfo": {
        "display_name": "Diego Martin, 110712, Trinidad and Tobago",
        "road": null,
        "house_number": null,
        "neighbourhood": null,
        "suburb": null,
        "city_district": null,
        "city": null,
        "state": "Diego Martin",
        "postcode": "110712",
        "country": "Trinidad and Tobago",
        "country_code": "tt"
      },
      "address": "965, Diego Martin, 110712, Trinidad and Tobago"
    },
    {
      "lat": 10.70022044901892,
      "lon": -61.54664998583357,
      "geoinfo": {
        "display_name": "9, Fourth Street, Diego Martin, 110712, Trinidad and Tobago",
        "road": "Fourth Street",
        "house_number": "9",
        "neighbourhood": null,
        "suburb": null,
        "city_district": null,
        "city": null,
        "state": "Diego Martin",
        "postcode": "110712",
        "country": "Trinidad and Tobago",
        "country_code": "tt"
      },
      "address": "9, Fourth Street, Diego Martin, 110712, Trinidad and Tobago"
    },
    {
      "lat": 10.652091169456067,
      "lon": -61.505190731587554,
      "geoinfo": {
        "display_name": "Jami Masjid, Queen Janelle Commissiong Street, Downtown, Port of Spain, 150123, Trinidad and Tobago",
        "road": "Queen Janelle Commissiong Street",
        "house_number": null,
        "neighbourhood": null,
        "suburb": "Downtown",
        "city_district": null,
        "city": "Port of Spain",
        "state": null,
        "postcode": "150123",
        "country": "Trinidad and Tobago",
        "country_code": "tt"
      },
      "address": "878, Queen Janelle Commissiong Street, 150123 Port of Spain, Trinidad and Tobago"
    },
    {
      "lat": 10.65243923091938,
      "lon": -61.53158350023708,
      "geoinfo": {
        "display_name": "Woodbrook, Port of Spain, 170605, Trinidad and Tobago",
        "road": null,
        "house_number": null,
        "neighbourhood": null,
        "suburb": "Woodbrook",
        "city_district": null,
        "city": "Port of Spain",
        "state": null,
        "postcode": "170605",
        "country": "Trinidad and Tobago",
        "country_code": "tt"
      },
      "address": "548, Woodbrook, Port of Spain, 170605, Trinidad and Tobago"
    },
    {
      "lat": 10.637612022559798,
      "lon": -61.50881553875309,
      "geoinfo": {
        "display_name": "Milling Avenue, Sea Lots, Downtown, Port of Spain, 100623, Trinidad and Tobago",
        "road": "Milling Avenue",
        "house_number": null,
        "neighbourhood": null,
        "suburb": "Downtown",
        "city_district": null,
        "city": "Port of Spain",
        "state": null,
        "postcode": "100623",
        "country": "Trinidad and Tobago",
        "country_code": "tt"
      },
      "address": "627, Milling Avenue, Sea Lots, Downtown, Port of Spain, 100623, Trinidad and Tobago"
    },
    {
      "lat": 10.69063884564709,
      "lon": -61.5233142254084,
      "geoinfo": {
        "display_name": "7, Saint Andrews Terrace, Maraval, Diego Martin, 190130, Trinidad and Tobago",
        "road": "Saint Andrews Terrace",
        "house_number": "7",
        "neighbourhood": null,
        "suburb": "Maraval",
        "city_district": null,
        "city": null,
        "state": "Diego Martin",
        "postcode": "190130",
        "country": "Trinidad and Tobago",
        "country_code": "tt"
      },
      "address": "7, Saint Andrews Terrace, Maraval, Diego Martin, 190130, Trinidad and Tobago"
    },
    {
      "lat": 10.659140152722621,
      "lon": -61.54776504349647,
      "geoinfo": {
        "display_name": "Saint James, Port of Spain, 190130, Trinidad and Tobago",
        "road": null,
        "house_number": null,
        "neighbourhood": null,
        "suburb": "Saint James",
        "city_district": "Saint James",
        "city": "Port of Spain",
        "state": null,
        "postcode": "190130",
        "country": "Trinidad and Tobago",
        "country_code": "tt"
      },
      "address": "400, Saint James, Port of Spain, 190130, Trinidad and Tobago"
    },
    {
      "lat": 10.68297045410154,
      "lon": -61.56024546505256,
      "geoinfo": {
        "display_name": "Westland Avenue, Glencoe, Diego Martin, 110712, Trinidad and Tobago",
        "road": "Westland Avenue",
        "house_number": null,
        "neighbourhood": null,
        "suburb": null,
        "city_district": null,
        "city": "Glencoe",
        "state": "Diego Martin",
        "postcode": "110712",
        "country": "Trinidad and Tobago",
        "country_code": "tt"
      },
      "address": "054, Westland Avenue, Glencoe, Diego Martin, 110712, Trinidad and Tobago"
    },
    {
      "lat": 10.653801478717316,
      "lon": -61.48876728984716,
      "geoinfo": {
        "display_name": "16, Uwharton Street, Laventille, Port of Spain, San Juan-Laventille, 101009, Trinidad and Tobago",
        "road": "Uwharton Street",
        "house_number": "16",
        "neighbourhood": null,
        "suburb": "Laventille",
        "city_district": null,
        "city": "Port of Spain",
        "state": "San Juan-Laventille",
        "postcode": "101009",
        "country": "Trinidad and Tobago",
        "country_code": "tt"
      },
      "address": "16, Uwharton Street, Laventille, Port of Spain, San Juan-Laventille, 101009, Trinidad and Tobago"
    }
  ],
  "updated_at": "2025-10-19T06:30:41.301883+00:00",
  "_kind": "geo_samples"
}