{
  "country_code": "TT",
  "country": "Trinidad and Tobago",
  "city": "Sangre Grande",
  "geonameid": 3573732,
  "target_addresses": 8,
  "samples": [
    {
      "lat": 10.561144091786069,
      "lon": -61.14814862492944,
      "geoinfo": {
        "display_name": "Upper Cunapo Road, Sangre Grande, 460626, Trinidad and Tobago",
        "road": "Upper Cunapo Road",
        "house_number": null,
        "neighbourhood": null,
        "suburb": null,
        "city_district": null,
        "city": "Sangre Grande",
        "state": "Sangre Grande",
        "postcode": "460626",
        "country": "Trinidad and Tobago",
        "country_code": "tt"
      },
      "address": "277, Upper Cunapo Road, Sangre Grande, 460626, Trinidad and Tobago"
    },
    {
      "lat": 10.613234663026727,
      "lon": -61.1351623161002,
      "geoinfo": {
        "display_name": "Ojoe Road, Sangre Grande, 450530, Trinidad and Tobago",
        "road": "Ojoe Road",
        "house_number": null,
        "neighbourhood": null,
        "suburb": null,
        "city_district": null,
        "city": "Sangre Grande",
        "state": "Sangre Grande",
        "postcode": "450530",
        "country": "Trinidad and Tobago",
        "country_code": "tt"
      },
      "address": "737, Ojoe Road, Sangre Grande, 450530, Trinidad and Tobago"
    },
    {
      "lat": 10.575490359849013,
      "lon": -61.14630810844785,
      "geoinfo": {
        "display_name": "San Louis Park, Guaico, Sangre Grande, 450530, Trinidad and Tobago",
        "road": "San Louis Park",
        "house_number": null,
        "neighbourhood": null,
        "suburb": null,
        "city_district": null,
        "city": "Guaico",
        "state": "Sangre Grande",
        "postcode": "450530",
        "country": "Trinidad and Tobago",
        "country_code": "tt"
      },
      "address": "001, San Louis Park, Guaico, Sangre Grande, 450530, Trinidad and Tobago"
    },
    {
      "lat": 10.584586363278468,
      "lon": -61.17282101617659,
      "geoinfo": {
        "display_name": "Orhuillia Trace, Sangre Grande, 450530, Trinidad and Tobago",
        "road": "Orhuillia Trace",
        "house_number": null,
        "neighbourhood": null,
        "suburb": null,
        "city_district": null,
        "city": null,
        "state": "Sangre Grande",
        "postcode": "450530",
        "country": "Trinidad and Tobago",
        "country_code": "tt"
      },
      "address": "057, Orhuillia Trace, Sangre Grande, 450530, Trinidad and Tobago"
    },
    {
      "lat": 10.562217745246672,
      "lon": -61.117040926986405,
      "geoinfo": {
        "display_name": "Kowlessar Road, Sangre Grande, 460626, Trinidad and Tobago",
        "road": "Kowlessar Road",
        "house_number": null,
        "neighbourhood": null,
        "suburb": null,
        "city_district": null,
        "city": "Sangre Grande",
        "state": "Sangre Grande",
        "postcode": "460626",
        "country": "Trinidad and Tobago",
        "country_code": "tt"
      },
      "address": "610, Kowlessar Road, Sangre Grande, 460626, Trinidad and Tobago"
    },
    {
      "lat": 10.591761528307568,
      "lon": -61.114865298997366,
      "geoinfo": {
        "display_name": "Lotus Gardens, Sangre Grande, 450530, Trinidad and Tobago",
        "road": "Lotus Gardens",
        "house_number": null,
        "neighbourhood": null,
        "suburb": null,
        "city_district": null,
        "city": "Sangre Grande",
        "state": "Sangre Grande",
        "postcode": "450530",
        "country": "Trinidad and Tobago",
        "country_code": "tt"
      },
      "address": "164, Lotus Gardens, Sangre Grande, 450530, Trinidad and Tobago"
    },
    {
      "lat": 10.598436202485981,
      "lon": -61.11938034739637,
      "geoinfo": {
        "display_name": "4, Jebode Trace, Sangre Grande, 450530, Trinidad and Tobago",
        "road": "Jebode Trace",
        "house_number": "4",
        "neighbourhood": null,
        "suburb": null,
        "city_district": null,
        "city": "Sangre Grande",
        "state": "Sangre Grande",
        "postcode": "450530",
        "country": "Trinidad and Tobago",
        "country_code": "tt"
      },
      "address": "4, Jebode Trace, Sangre Grande, 450530, Trinidad and Tobago"
    },
    {
      "lat": 10.58521143470477,
      "lon": -61.10437879331145,
      "geoinfo": {
        "display_name": "13, Dean Drive, Sangre Grande, 460626, Trinidad and Tobago",
        "road": "Dean Drive",
        "house_number": "13",
        "neighbourhood": null,
        "suburb": null,
        "city_district": null,
        "city": "Sangre Grande",
        "state": "Sangre Grande",
        "postcode": "460626",
        "country": "Trinidad and Tobago",
        "country_code": "tt"
      },
      "address": "13, Dean Drive, Sangre Grande, 460626, Trinidad and Tobago"
    }
  ],
  "updated_at": "2025-10-19T06:20:10.544369+00:00",
  "_kind": "geo_samples"
}