{
  "country_code": "TT",
  "country": "Trinidad and Tobago",
  "city": "Scarborough",
  "geonameid": 3573703,
  "target_addresses": 8,
  "samples": [
    {
      "lat": 11.191252014273806,
      "lon": -60.70570468487374,
      "geoinfo": {
        "display_name": "French Fort Road, Scarborough, Tobago, Trinidad and Tobago",
        "road": "French Fort Road",
        "house_number": null,
        "neighbourhood": null,
        "suburb": null,
        "city_district": null,
        "city": "Scarborough",
        "state": null,
        "postcode": null,
        "country": "Trinidad and Tobago",
        "country_code": "tt"
      },
      "address": "French Fort Road, Scarborough, Trinidad and Tobago"
    },
    {
      "lat": 11.21083006650388,
      "lon": -60.767910767711975,
      "geoinfo": {
        "display_name": "Kaela Cres, Plymouth, Tobago, Trinidad and Tobago",
        "road": "Kaela Cres",
        "house_number": null,
        "neighbourhood": null,
        "suburb": null,
        "city_district": null,
        "city": "Plymouth",
        "state": null,
        "postcode": null,
        "country": "Trinidad and Tobago",
        "country_code": "tt"
      },
      "address": "Kaela Cres, Scarborough, Trinidad and Tobago"
    },
    {
      "lat": 11.216118269060374,
      "lon": -60.728381984731705,
      "geoinfo": {
        "display_name": "Les Coteaux Road, Mason Hall, Tobago, Trinidad and Tobago",
        "road": "Les Coteaux Road",
        "house_number": null,
        "neighbourhood": null,
        "suburb": null,
        "city_district": null,
        "city": "Mason Hall",
        "state": null,
        "postcode": null,
        "country": "Trinidad and Tobago",
        "country_code": "tt"
      },
      "address": "Les Coteaux Road, Scarborough, Trinidad and Tobago"
    },
    {
      "lat": 11.202094141739448,
      "lon": -60.767809027489236,
      "geoinfo": {
        "display_name": "Scarborough, Tobago, Trinidad and Tobago",
        "road": null,
        "house_number": null,
        "neighbourhood": null,
        "suburb": null,
        "city_district": null,
        "city": "Scarborough",
        "state": null,
        "postcode": null,
        "country": "Trinidad and Tobago",
        "country_code": "tt"
      },
      "address": "Scarborough, Trinidad and Tobago"
    },
    {
      "lat": 11.171055376245445,
      "lon": -60.72570199397327,
      "geoinfo": {
        "display_name": "Blue Haven Hotel, Bacolet Street, Bacolet, Scarborough, Tobago, Trinidad and Tobago",
        "road": "Bacolet Street",
        "house_number": null,
        "neighbourhood": "Bacolet",
        "suburb": null,
        "city_district": null,
        "city": "Scarborough",
        "state": null,
        "postcode": null,
        "country": "Trinidad and Tobago",
        "country_code": "tt"
      },
      "address": "Bacolet Street, Scarborough, Trinidad and Tobago"
    },
    {
      "lat": 11.149994734508304,
      "lon": -60.728064375449485,
      "geoinfo": {
        "display_name": "Lambeau, Scarborough, Tobago, Trinidad and Tobago",
        "road": null,
        "house_number": null,
        "neighbourhood": null,
        "suburb": "Lambeau",
        "city_district": null,
        "city": "Scarborough",
        "state": null,
        "postcode": null,
        "country": "Trinidad and Tobago",
        "country_code": "tt"
      },
      "address": "Lambeau, Scarborough, Trinidad and Tobago"
    },
    {
      "lat": 11.163444418818484,
      "lon": -60.717733299117725,
      "geoinfo": {
        "display_name": "Bacolet, Scarborough, Tobago, Trinidad and Tobago",
        "road": null,
        "house_number": null,
        "neighbourhood": "Bacolet",
        "suburb": null,
        "city_district": null,
        "city": "Scarborough",
        "state": null,
        "postcode": null,
        "country": "Trinidad and Tobago",
        "country_code": "tt"
      },
      "address": "Bacolet, Scarborough, Trinidad and Tobago"
    },
    {
      "lat": 11.196910491343184,
      "lon": -60.70219525771144,
      "geoinfo": {
        "display_name": "Old Farm Road, Hope, Tobago, Trinidad and Tobago",
        "road": "Old Farm Road",
        "house_number": null,
        "neighbourhood": null,
        "suburb": null,
        "city_district": null,
        "city": "Hope",
        "state": null,
        "postcode": null,
        "country": "Trinidad and Tobago",
        "country_code": "tt"
      },
      "address": "Old Farm Road, Scarborough, Trinidad and Tobago"
    },
    {
      "lat": 11.195898616179022,
      "lon": -60.778469381226984,
      "geoinfo": {
        "display_name": "Mount Hay Trace, Black Rock, Tobago, Trinidad and Tobago",
        "road": "Mount Hay Trace",
        "house_number": null,
        "neighbourhood": null,
        "suburb": null,
        "city_district": null,
        "city": "Black Rock",
        "state": null,
        "postcode": null,
        "country": "Trinidad and Tobago",
        "country_code": "tt"
      },
      "address": "858, Mount Hay Trace, 67905 Scarborough, Trinidad and Tobago"
    },
    {
      "lat": 11.167508313518338,
      "lon": -60.72994634664409,
      "geoinfo": {
        "display_name": "Bacolet, Scarborough, Tobago, Trinidad and Tobago",
        "road": null,
        "house_number": null,
        "neighbourhood": "Bacolet",
        "suburb": null,
        "city_district": null,
        "city": "Scarborough",
        "state": null,
        "postcode": null,
        "country": "Trinidad and Tobago",
        "country_code": "tt"
      },
      "address": "777, Bacolet, Scarborough, 78076 Tobago, Trinidad and Tobago"
    },
    {
      "lat": 11.150675492819959,
      "lon": -60.7675171499241,
      "geoinfo": {
        "display_name": "Lowlands, Scarborough, Tobago, Trinidad and Tobago",
        "road": null,
        "house_number": null,
        "neighbourhood": null,
        "suburb": "Lowlands",
        "city_district": null,
        "city": "Scarborough",
        "state": null,
        "postcode": null,
        "country": "Trinidad and Tobago",
        "country_code": "tt"
      },
      "address": "268, Lowlands, Scarborough, 23319 Tobago, Trinidad and Tobago"
    },
    {
      "lat": 11.178378152072169,
      "lon": -60.75935395797582,
      "geoinfo": {
        "display_name": "Signal Hill Main Road, Lambeau, Scarborough, Tobago, Trinidad and Tobago",
        "road": "Signal Hill Main Road",
        "house_number": null,
        "neighbourhood": null,
        "suburb": "Lambeau",
        "city_district": null,
        "city": "Scarborough",
        "state": null,
        "postcode": null,
        "country": "Trinidad and Tobago",
        "country_code": "tt"
      },
      "address": "062, Signal Hill Main Road, Lambeau, Scarborough, 74776 Tobago, Trinidad and Tobago"
    },
    {
      "lat": 11.202293735423122,
      "lon": -60.761748484607416,
      "geoinfo": {
        "display_name": "Scarborough, Tobago, Trinidad and Tobago",
        "road": null,
        "house_number": null,
        "neighbourhood": null,
        "suburb": null,
        "city_district": null,
        "city": "Scarborough",
        "state": null,
        "postcode": null,
        "country": "Trinidad and Tobago",
        "country_code": "tt"
      },
      "address": "321, Scarborough, 84444 Tobago, Trinidad and Tobago"
    },
    {
      "lat": 11.175750521230649,
      "lon": -60.71359153979016,
      "geoinfo": {
        "display_name": "Bacolet Point, Scarborough, Tobago, Trinidad and Tobago",
        "road": "Bacolet Point",
        "house_number": null,
        "neighbourhood": null,
        "suburb": null,
        "city_district": null,
        "city": "Scarborough",
        "state": null,
        "postcode": null,
        "country": "Trinidad and Tobago",
        "country_code": "tt"
      },
      "address": "332, Bacolet Point, Scarborough, 28368 Tobago, Trinidad and Tobago"
    },
    {
      "lat": 11.162588125969384,
      "lon": -60.73203375852233,
      "geoinfo": {
        "display_name": "Lambeau, Scarborough, Tobago, Trinidad and Tobago",
        "road": null,
        "house_number": null,
        "neighbourhood": null,
        "suburb": "Lambeau",
        "city_district": null,
        "city": "Scarborough",
        "state": null,
        "postcode": null,
        "country": "Trinidad and Tobago",
        "country_code": "tt"
      },
      "address": "291, Lambeau, Scarborough, 72547 Tobago, Trinidad and Tobago"
    },
    {
      "lat": 11.183271184221082,
      "lon": -60.72553034615943,
      "geoinfo": {
        "display_name": "5, Dunn Drive, Bacolet, Scarborough, Tobago, Trinidad and Tobago",
        "road": "Dunn Drive",
        "house_number": "5",
        "neighbourhood": "Bacolet",
        "suburb": null,
        "city_district": null,
        "city": "Scarborough",
        "state": null,
        "postcode": null,
        "country": "Trinidad and Tobago",
        "country_code": "tt"
      },
      "address": "5, Dunn Drive, Bacolet, Scarborough, 34779 Tobago, Trinidad and Tobago"
    }
  ],
  "updated_at": "2025-10-19T05:07:27.503157+00:00",
  "_kind": "geo_samples"
}