{
  "country_code": "TT",
  "country": "Trinidad and Tobago",
  "city": "Tunapuna",
  "geonameid": 3573576,
  "target_addresses": 8,
  "samples": [
    {
      "lat": 10.693635073107878,
      "lon": -61.3723659821007,
      "geoinfo": {
        "display_name": "Acono, Tunapuna-Piarco, 310407, Trinidad and Tobago",
        "road": null,
        "house_number": null,
        "neighbourhood": null,
        "suburb": null,
        "city_district": null,
        "city": "Acono",
        "state": "Tunapuna-Piarco",
        "postcode": "310407",
        "country": "Trinidad and Tobago",
        "country_code": "tt"
      },
      "address": "Tunapuna, Tunapuna-Piarco, Trinidad and Tobago"
    },
    {
      "lat": 10.692986776020891,
      "lon": -61.38605266578272,
      "geoinfo": {
        "display_name": "La Sambadora Road, Acono, Tunapuna-Piarco, 310407, Trinidad and Tobago",
        "road": "La Sambadora Road",
        "house_number": null,
        "neighbourhood": null,
        "suburb": null,
        "city_district": null,
        "city": "Acono",
        "state": "Tunapuna-Piarco",
        "postcode": "310407",
        "country": "Trinidad and Tobago",
        "country_code": "tt"
      },
      "address": "La Sambadora Road, Tunapuna, Tunapuna-Piarco, Trinidad and Tobago"
    },
    {
      "lat": 10.68525845325301,
      "lon": -61.403147826622266,
      "geoinfo": {
        "display_name": "Leotaud Road, Valley View, La Seiva, Tunapuna-Piarco, 310407, Trinidad and Tobago",
        "road": "Leotaud Road",
        "house_number": null,
        "neighbourhood": "Valley View",
        "suburb": null,
        "city_district": null,
        "city": "La Seiva",
        "state": "Tunapuna-Piarco",
        "postcode": "310407",
        "country": "Trinidad and Tobago",
        "country_code": "tt"
      },
      "address": "Leotaud Road, Tunapuna, Tunapuna-Piarco, Trinidad and Tobago"
    },
    {
      "lat": 10.630800920878933,
      "lon": -61.3543845961841,
      "geoinfo": {
        "display_name": "11, 2nd Street West, Trincity, Five Rivers, Tunapuna-Piarco, 340603, Trinidad and Tobago",
        "road": "2nd Street West",
        "house_number": "11",
        "neighbourhood": null,
        "suburb": "Trincity",
        "city_district": null,
        "city": "Five Rivers",
        "state": "Tunapuna-Piarco",
        "postcode": "340603",
        "country": "Trinidad and Tobago",
        "country_code": "tt"
      },
      "address": "11 2nd Street West, Tunapuna, Tunapuna-Piarco, Trinidad and Tobago"
    },
    {
      "lat": 10.679335300101613,
      "lon": -61.41771361536,
      "geoinfo": {
        "display_name": "Nicole Terrace, Valley View, La Seiva, Tunapuna-Piarco, 310407, Trinidad and Tobago",
        "road": "Nicole Terrace",
        "house_number": null,
        "neighbourhood": "Valley View",
        "suburb": null,
        "city_district": null,
        "city": "La Seiva",
        "state": "Tunapuna-Piarco",
        "postcode": "310407",
        "country": "Trinidad and Tobago",
        "country_code": "tt"
      },
      "address": "Nicole Terrace, Tunapuna, Tunapuna-Piarco, Trinidad and Tobago"
    },
    {
      "lat": 10.649265487198909,
      "lon": -61.38980934070809,
      "geoinfo": {
        "display_name": "3, Green Street, Macoya, Saint Augustine, Tunapuna, Tunapuna-Piarco, 340603, Trinidad and Tobago",
        "road": "Green Street",
        "house_number": "3",
        "neighbourhood": null,
        "suburb": "Saint Augustine",
        "city_district": null,
        "city": "Tunapuna",
        "state": "Tunapuna-Piarco",
        "postcode": "340603",
        "country": "Trinidad and Tobago",
        "country_code": "tt"
      },
      "address": "3 Green Street, Tunapuna, Tunapuna-Piarco, Trinidad and Tobago"
    },
    {
      "lat": 10.644559593369587,
      "lon": -61.389538168168166,
      "geoinfo": {
        "display_name": "Tunapuna Police Station, Pasea Main Road, Macoya, Saint Augustine, Tunapuna, Tunapuna-Piarco, 340603, Trinidad and Tobago",
        "road": "Pasea Main Road",
        "house_number": null,
        "neighbourhood": null,
        "suburb": "Saint Augustine",
        "city_district": null,
        "city": "Tunapuna",
        "state": "Tunapuna-Piarco",
        "postcode": "340603",
        "country": "Trinidad and Tobago",
        "country_code": "tt"
      },
      "address": "Pasea Main Road, Tunapuna, Tunapuna-Piarco, Trinidad and Tobago"
    },
    {
      "lat": 10.615153785584004,
      "lon": -61.383715470858554,
      "geoinfo": {
        "display_name": "Orange Grove Road, Caroni, Tunapuna-Piarco, 340603, Trinidad and Tobago",
        "road": "Orange Grove Road",
        "house_number": null,
        "neighbourhood": null,
        "suburb": null,
        "city_district": null,
        "city": "Caroni",
        "state": "Tunapuna-Piarco",
        "postcode": "340603",
        "country": "Trinidad and Tobago",
        "country_code": "tt"
      },
      "address": "Orange Grove Road, Tunapuna, Tunapuna-Piarco, Trinidad and Tobago"
    },
    {
      "lat": 10.634778732485064,
      "lon": -61.37520258495043,
      "geoinfo": {
        "display_name": "Churchill-Roosevelt Highway, Tacarigua, Tunapuna, Tunapuna-Piarco, 340603, Trinidad and Tobago",
        "road": "Churchill-Roosevelt Highway",
        "house_number": null,
        "neighbourhood": null,
        "suburb": "Tacarigua",
        "city_district": null,
        "city": "Tunapuna",
        "state": "Tunapuna-Piarco",
        "postcode": "340603",
        "country": "Trinidad and Tobago",
        "country_code": "tt"
      },
      "address": "154, Churchill-Roosevelt Highway, Tacarigua, Tunapuna, Tunapuna-Piarco, 340603, Trinidad and Tobago"
    },
    {
      "lat": 10.654253840880324,
      "lon": -61.36713472833145,
      "geoinfo": {
        "display_name": "Caura Hospital (Chest Services), Caura Royal Road, El Dorado, Tacarigua, Tunapuna, Tunapuna-Piarco, 340603, Trinidad and Tobago",
        "road": "Caura Royal Road",
        "house_number": null,
        "neighbourhood": null,
        "suburb": "Tacarigua",
        "city_district": null,
        "city": "Tunapuna",
        "state": "Tunapuna-Piarco",
        "postcode": "340603",
        "country": "Trinidad and Tobago",
        "country_code": "tt"
      },
      "address": "234, Caura Royal Road, Tunapuna, 340603 Tunapuna-Piarco, Trinidad and Tobago"
    },
    {
      "lat": 10.6229076950583,
      "lon": -61.411808422910646,
      "geoinfo": {
        "display_name": "279, Rincon Circular, Valsayn, Bamboo Settlement No. 2, Tunapuna-Piarco, 310401, Trinidad and Tobago",
        "road": "Rincon Circular",
        "house_number": "279",
        "neighbourhood": null,
        "suburb": "Valsayn",
        "city_district": null,
        "city": "Bamboo Settlement No. 2",
        "state": "Tunapuna-Piarco",
        "postcode": "310401",
        "country": "Trinidad and Tobago",
        "country_code": "tt"
      },
      "address": "279, Rincon Circular, Tunapuna, 310401 Tunapuna-Piarco, Trinidad and Tobago"
    },
    {
      "lat": 10.614097845417986,
      "lon": -61.41124059152104,
      "geoinfo": {
        "display_name": "Caroni Savannah Road, La Paille, Tunapuna-Piarco, 310401, Trinidad and Tobago",
        "road": "Caroni Savannah Road",
        "house_number": null,
        "neighbourhood": null,
        "suburb": null,
        "city_district": null,
        "city": "La Paille",
        "state": "Tunapuna-Piarco",
        "postcode": "310401",
        "country": "Trinidad and Tobago",
        "country_code": "tt"
      },
      "address": "558, Caroni Savannah Road, La Paille, Tunapuna-Piarco, 310401, Trinidad and Tobago"
    },
    {
      "lat": 10.666673934695234,
      "lon": -61.37672244039609,
      "geoinfo": {
        "display_name": "El Dorado, Tacarigua, Tunapuna, Tunapuna-Piarco, 340603, Trinidad and Tobago",
        "road": null,
        "house_number": null,
        "neighbourhood": null,
        "suburb": "Tacarigua",
        "city_district": null,
        "city": "Tunapuna",
        "state": "Tunapuna-Piarco",
        "postcode": "340603",
        "country": "Trinidad and Tobago",
        "country_code": "tt"
      },
      "address": "627, El Dorado, Tacarigua, Tunapuna, Tunapuna-Piarco, 340603, Trinidad and Tobago"
    },
    {
      "lat": 10.649478250621122,
      "lon": -61.420507168895796,
      "geoinfo": {
        "display_name": "Eric Williams Medical Sciences Complex, Field Station, Nestlé Trinidad & Tobago, Valsayn, Bamboo Settlement Number 3, Tunapuna-Piarco, 310401, Trinidad and Tobago",
        "road": "Field Station",
        "house_number": null,
        "neighbourhood": null,
        "suburb": "Valsayn",
        "city_district": null,
        "city": "Bamboo Settlement Number 3",
        "state": "Tunapuna-Piarco",
        "postcode": "310401",
        "country": "Trinidad and Tobago",
        "country_code": "tt"
      },
      "address": "405, Field Station, Tunapuna, 310401 Tunapuna-Piarco, Trinidad and Tobago"
    },
    {
      "lat": 10.643841389970152,
      "lon": -61.427339296330885,
      "geoinfo": {
        "display_name": "Eric Williams Medical Sciences Complex, Field Station, Nestlé Trinidad & Tobago, Valsayn, Bamboo Settlement Number 3, Tunapuna-Piarco, 310401, Trinidad and Tobago",
        "road": "Field Station",
        "house_number": null,
        "neighbourhood": null,
        "suburb": "Valsayn",
        "city_district": null,
        "city": "Bamboo Settlement Number 3",
        "state": "Tunapuna-Piarco",
        "postcode": "310401",
        "country": "Trinidad and Tobago",
        "country_code": "tt"
      },
      "address": "213, Field Station, Tunapuna, 310401 Tunapuna-Piarco, Trinidad and Tobago"
    },
    {
      "lat": 10.633833156883737,
      "lon": -61.392730705547336,
      "geoinfo": {
        "display_name": "20, Orange Grove Street, Saint Augustine, Saint Augustine South, Tunapuna-Piarco, 310401, Trinidad and Tobago",
        "road": "Orange Grove Street",
        "house_number": "20",
        "neighbourhood": null,
        "suburb": "Saint Augustine",
        "city_district": null,
        "city": "Saint Augustine South",
        "state": "Tunapuna-Piarco",
        "postcode": "310401",
        "country": "Trinidad and Tobago",
        "country_code": "tt"
      },
      "address": "20, Orange Grove Street, Tunapuna, 310401 Tunapuna-Piarco, Trinidad and Tobago"
    }
  ],
  "updated_at": "2025-10-19T07:15:30.444461+00:00",
  "_kind": "geo_samples"
}