{
  "country_code": "DM",
  "country": "Dominica",
  "city": "Roseau",
  "geonameid": 3575635,
  "target_addresses": 100,
  "samples": [
    {
      "lat": 15.273597131661157,
      "lon": -61.40503307883612,
      "geoinfo": {
        "display_name": "Loubiere, Saint George Parish, Dominica",
        "road": null,
        "house_number": null,
        "neighbourhood": null,
        "suburb": null,
        "city_district": null,
        "city": "Loubiere",
        "state": "Saint George Parish",
        "postcode": null,
        "country": "Dominica",
        "country_code": "dm"
      },
      "address": "Roseau, Saint George Parish, Dominica"
    },
    {
      "lat": 15.315756818954082,
      "lon": -61.3853152406193,
      "geoinfo": {
        "display_name": "Fond Colé, Roseau, Saint George Parish, Dominica",
        "road": null,
        "house_number": null,
        "neighbourhood": null,
        "suburb": "Fond Colé",
        "city_district": null,
        "city": "Roseau",
        "state": "Saint George Parish",
        "postcode": null,
        "country": "Dominica",
        "country_code": "dm"
      },
      "address": "Fond Colé, Roseau, Saint George Parish, Dominica"
    },
    {
      "lat": 15.331628500578347,
      "lon": -61.35874106567753,
      "geoinfo": {
        "display_name": "Cochrane, Saint Paul Parish, Dominica",
        "road": null,
        "house_number": null,
        "neighbourhood": null,
        "suburb": null,
        "city_district": null,
        "city": "Cochrane",
        "state": "Saint Paul Parish",
        "postcode": null,
        "country": "Dominica",
        "country_code": "dm"
      },
      "address": "Roseau, Saint Paul Parish, Dominica"
    },
    {
      "lat": 15.317502382195027,
      "lon": -61.358459526549744,
      "geoinfo": {
        "display_name": "Valley Road, Louisville, Roseau, Saint George Parish, Dominica",
        "road": "Valley Road",
        "house_number": null,
        "neighbourhood": null,
        "suburb": "Louisville",
        "city_district": null,
        "city": "Roseau",
        "state": "Saint George Parish",
        "postcode": null,
        "country": "Dominica",
        "country_code": "dm"
      },
      "address": "Valley Road, Roseau, Saint George Parish, Dominica"
    },
    {
      "lat": 15.29922145110347,
      "lon": -61.37440770206656,
      "geoinfo": {
        "display_name": "Morne Bruce Road, Elm's Hall, Roseau, Saint George Parish, Dominica",
        "road": "Morne Bruce Road",
        "house_number": null,
        "neighbourhood": null,
        "suburb": "Elm's Hall",
        "city_district": null,
        "city": "Roseau",
        "state": "Saint George Parish",
        "postcode": null,
        "country": "Dominica",
        "country_code": "dm"
      },
      "address": "Morne Bruce Road, Roseau, Saint George Parish, Dominica"
    },
    {
      "lat": 15.281568652799432,
      "lon": -61.364169583196855,
      "geoinfo": {
        "display_name": "Newtown, Wallhouse, Saint George Parish, Dominica",
        "road": null,
        "house_number": null,
        "neighbourhood": null,
        "suburb": "Newtown",
        "city_district": null,
        "city": "Wallhouse",
        "state": "Saint George Parish",
        "postcode": null,
        "country": "Dominica",
        "country_code": "dm"
      },
      "address": "Newtown, Roseau, Saint George Parish, Dominica"
    },
    {
      "lat": 15.28591195599265,
      "lon": -61.41168622354492,
      "geoinfo": {
        "display_name": "Potters Ville, Roseau, Saint George Parish, Dominica",
        "road": null,
        "house_number": null,
        "neighbourhood": null,
        "suburb": "Potters Ville",
        "city_district": null,
        "city": "Roseau",
        "state": "Saint George Parish",
        "postcode": null,
        "country": "Dominica",
        "country_code": "dm"
      },
      "address": "Potters Ville, Roseau, Saint George Parish, Dominica"
    },
    {
      "lat": 15.307632431786526,
      "lon": -61.37751447352015,
      "geoinfo": {
        "display_name": "Yampiece, Roseau, Saint George Parish, Dominica",
        "road": null,
        "house_number": null,
        "neighbourhood": null,
        "suburb": "Yampiece",
        "city_district": null,
        "city": "Roseau",
        "state": "Saint George Parish",
        "postcode": null,
        "country": "Dominica",
        "country_code": "dm"
      },
      "address": "Yampiece, Roseau, Saint George Parish, Dominica"
    },
    {
      "lat": 15.317902197362978,
      "lon": -61.35002622353392,
      "geoinfo": {
        "display_name": "Trafalgar Road, Copt Hall, Fond Cani, Saint George Parish, Dominica",
        "road": "Trafalgar Road",
        "house_number": null,
        "neighbourhood": null,
        "suburb": null,
        "city_district": null,
        "city": "Fond Cani",
        "state": "Saint George Parish",
        "postcode": null,
        "country": "Dominica",
        "country_code": "dm"
      },
      "address": "Trafalgar Road, Roseau, Saint George Parish, Dominica"
    },
    {
      "lat": 15.295410367761415,
      "lon": -61.375124017289124,
      "geoinfo": {
        "display_name": "Charlotte Valley Road, Elm's Hall, Roseau, Saint George Parish, Dominica",
        "road": "Charlotte Valley Road",
        "house_number": null,
        "neighbourhood": null,
        "suburb": "Elm's Hall",
        "city_district": null,
        "city": "Roseau",
        "state": "Saint George Parish",
        "postcode": null,
        "country": "Dominica",
        "country_code": "dm"
      },
      "address": "Charlotte Valley Road, Roseau, Saint George Parish, Dominica"
    },
    {
      "lat": 15.29119656887073,
      "lon": -61.37500915912224,
      "geoinfo": {
        "display_name": "Fortune-Eggleston Road, Yampiece, Eggleston, Saint George Parish, Dominica",
        "road": "Fortune-Eggleston Road",
        "house_number": null,
        "neighbourhood": null,
        "suburb": "Yampiece",
        "city_district": null,
        "city": "Eggleston",
        "state": "Saint George Parish",
        "postcode": null,
        "country": "Dominica",
        "country_code": "dm"
      },
      "address": "Fortune-Eggleston Road, Roseau, Saint George Parish, Dominica"
    },
    {
      "lat": 15.276797240073067,
      "lon": -61.37729711893252,
      "geoinfo": {
        "display_name": "River Side Cuisine, Victoria Street, Loubiere, Saint George Parish, Dominica",
        "road": "Victoria Street",
        "house_number": null,
        "neighbourhood": null,
        "suburb": null,
        "city_district": null,
        "city": "Loubiere",
        "state": "Saint George Parish",
        "postcode": null,
        "country": "Dominica",
        "country_code": "dm"
      },
      "address": "Victoria Street, Roseau, Saint George Parish, Dominica"
    },
    {
      "lat": 15.302283060507147,
      "lon": -61.37945926988309,
      "geoinfo": {
        "display_name": "Bath Estate, Roseau, Saint George Parish, Dominica",
        "road": null,
        "house_number": null,
        "neighbourhood": null,
        "suburb": "Bath Estate",
        "city_district": null,
        "city": "Roseau",
        "state": "Saint George Parish",
        "postcode": null,
        "country": "Dominica",
        "country_code": "dm"
      },
      "address": "Bath Estate, Roseau, Saint George Parish, Dominica"
    },
    {
      "lat": 15.343011549458389,
      "lon": -61.39567061094323,
      "geoinfo": {
        "display_name": "Edward Olivier Leblanc Highway, Check Hall, Saint Paul Parish, Dominica",
        "road": "Edward Olivier Leblanc Highway",
        "house_number": null,
        "neighbourhood": null,
        "suburb": null,
        "city_district": null,
        "city": "Check Hall",
        "state": "Saint Paul Parish",
        "postcode": null,
        "country": "Dominica",
        "country_code": "dm"
      },
      "address": "Edward Olivier Leblanc Highway, Roseau, Saint Paul Parish, Dominica"
    },
    {
      "lat": 15.294284863562101,
      "lon": -61.38719492651901,
      "geoinfo": {
        "display_name": "Fort Young Pier, Dame Mary Eugenia Charles Boulevard, Potters Ville, Roseau, Saint George Parish, Dominica",
        "road": "Dame Mary Eugenia Charles Boulevard",
        "house_number": null,
        "neighbourhood": null,
        "suburb": "Potters Ville",
        "city_district": null,
        "city": "Roseau",
        "state": "Saint George Parish",
        "postcode": null,
        "country": "Dominica",
        "country_code": "dm"
      },
      "address": "Dame Mary Eugenia Charles Boulevard, Roseau, Saint George Parish, Dominica"
    },
    {
      "lat": 15.301221445763792,
      "lon": -61.36431961535091,
      "geoinfo": {
        "display_name": "Saint Aromant, Eggleston, Saint George Parish, Dominica",
        "road": null,
        "house_number": null,
        "neighbourhood": null,
        "suburb": "Saint Aromant",
        "city_district": null,
        "city": "Eggleston",
        "state": "Saint George Parish",
        "postcode": null,
        "country": "Dominica",
        "country_code": "dm"
      },
      "address": "Saint Aromant, Roseau, Saint George Parish, Dominica"
    },
    {
      "lat": 15.281399194715364,
      "lon": -61.37251418511315,
      "geoinfo": {
        "display_name": "Watty Street, Newtown, Wallhouse, Saint George Parish, Dominica",
        "road": "Watty Street",
        "house_number": null,
        "neighbourhood": null,
        "suburb": "Newtown",
        "city_district": null,
        "city": "Wallhouse",
        "state": "Saint George Parish",
        "postcode": null,
        "country": "Dominica",
        "country_code": "dm"
      },
      "address": "Watty Street, Roseau, Saint George Parish, Dominica"
    },
    {
      "lat": 15.30959165870808,
      "lon": -61.38780274825593,
      "geoinfo": {
        "display_name": "Stockyard Street, Tarish Pit, Roseau, Saint George Parish, Dominica",
        "road": "Stockyard Street",
        "house_number": null,
        "neighbourhood": null,
        "suburb": "Tarish Pit",
        "city_district": null,
        "city": "Roseau",
        "state": "Saint George Parish",
        "postcode": null,
        "country": "Dominica",
        "country_code": "dm"
      },
      "address": "Stockyard Street, Roseau, Saint George Parish, Dominica"
    },
    {
      "lat": 15.279750846960498,
      "lon": -61.37249101977505,
      "geoinfo": {
        "display_name": "South Leopold Drive, Newtown, Wallhouse, Saint George Parish, Dominica",
        "road": "South Leopold Drive",
        "house_number": null,
        "neighbourhood": null,
        "suburb": "Newtown",
        "city_district": null,
        "city": "Wallhouse",
        "state": "Saint George Parish",
        "postcode": null,
        "country": "Dominica",
        "country_code": "dm"
      },
      "address": "South Leopold Drive, Roseau, Saint George Parish, Dominica"
    },
    {
      "lat": 15.283896840294979,
      "lon": -61.37163846744405,
      "geoinfo": {
        "display_name": "Ocean View Way, Newtown, Castle Comfort, Saint George Parish, Dominica",
        "road": "Ocean View Way",
        "house_number": null,
        "neighbourhood": null,
        "suburb": "Newtown",
        "city_district": null,
        "city": "Castle Comfort",
        "state": "Saint George Parish",
        "postcode": null,
        "country": "Dominica",
        "country_code": "dm"
      },
      "address": "Ocean View Way, Roseau, Saint George Parish, Dominica"
    },
    {
      "lat": 15.302540945083752,
      "lon": -61.396174657230716,
      "geoinfo": {
        "display_name": "Glenda's Bar, Elliot Avenue, Potters Ville, Roseau, Saint George Parish, Dominica",
        "road": "Elliot Avenue",
        "house_number": null,
        "neighbourhood": null,
        "suburb": "Potters Ville",
        "city_district": null,
        "city": "Roseau",
        "state": "Saint George Parish",
        "postcode": null,
        "country": "Dominica",
        "country_code": "dm"
      },
      "address": "Elliot Avenue, Roseau, Saint George Parish, Dominica"
    },
    {
      "lat": 15.30656006298967,
      "lon": -61.39062189227204,
      "geoinfo": {
        "display_name": "Goodwill Road, Potters Ville, Roseau, Saint George Parish, Dominica",
        "road": "Goodwill Road",
        "house_number": null,
        "neighbourhood": null,
        "suburb": "Potters Ville",
        "city_district": null,
        "city": "Roseau",
        "state": "Saint George Parish",
        "postcode": null,
        "country": "Dominica",
        "country_code": "dm"
      },
      "address": "Goodwill Road, Roseau, Saint George Parish, Dominica"
    },
    {
      "lat": 15.274371743883968,
      "lon": -61.363941581963864,
      "geoinfo": {
        "display_name": "Grand Bay Road, Loubiere, Saint George Parish, Dominica",
        "road": "Grand Bay Road",
        "house_number": null,
        "neighbourhood": null,
        "suburb": null,
        "city_district": null,
        "city": "Loubiere",
        "state": "Saint George Parish",
        "postcode": null,
        "country": "Dominica",
        "country_code": "dm"
      },
      "address": "Grand Bay Road, Roseau, Saint George Parish, Dominica"
    },
    {
      "lat": 15.296658907770114,
      "lon": -61.3942030097458,
      "geoinfo": {
        "display_name": "Roseau Fisheries Complex, Ship Street, Potters Ville, Roseau, Saint George Parish, Dominica",
        "road": "Ship Street",
        "house_number": null,
        "neighbourhood": null,
        "suburb": "Potters Ville",
        "city_district": null,
        "city": "Roseau",
        "state": "Saint George Parish",
        "postcode": null,
        "country": "Dominica",
        "country_code": "dm"
      },
      "address": "Ship Street, Roseau, Saint George Parish, Dominica"
    },
    {
      "lat": 15.313917570894578,
      "lon": -61.389258471964936,
      "geoinfo": {
        "display_name": "Coast Guard Base, Edward Olivier Leblanc Highway, Morne Daniel, Canefield, Roseau, Saint George Parish, Dominica",
        "road": "Edward Olivier Leblanc Highway",
        "house_number": null,
        "neighbourhood": null,
        "suburb": "Morne Daniel",
        "city_district": null,
        "city": "Canefield",
        "state": "Saint George Parish",
        "postcode": null,
        "country": "Dominica",
        "country_code": "dm"
      },
      "address": "Edward Olivier Leblanc Highway, Roseau, Saint George Parish, Dominica"
    },
    {
      "lat": 15.293749373571925,
      "lon": -61.35827178959242,
      "geoinfo": {
        "display_name": "Elm's Hall, Eggleston, Saint George Parish, Dominica",
        "road": null,
        "house_number": null,
        "neighbourhood": null,
        "suburb": "Elm's Hall",
        "city_district": null,
        "city": "Eggleston",
        "state": "Saint George Parish",
        "postcode": null,
        "country": "Dominica",
        "country_code": "dm"
      },
      "address": "Elm's Hall, Roseau, Saint George Parish, Dominica"
    },
    {
      "lat": 15.303258151514537,
      "lon": -61.37921185548729,
      "geoinfo": {
        "display_name": "Bath Estate Community Centre, Bath Estate, Balata Avenue, Bath Estate, Roseau, Saint George Parish, Dominica",
        "road": "Balata Avenue",
        "house_number": "Bath Estate",
        "neighbourhood": null,
        "suburb": "Bath Estate",
        "city_district": null,
        "city": "Roseau",
        "state": "Saint George Parish",
        "postcode": null,
        "country": "Dominica",
        "country_code": "dm"
      },
      "address": "Bath Estate Balata Avenue, Roseau, Saint George Parish, Dominica"
    },
    {
      "lat": 15.28448851262375,
      "lon": -61.35172759975128,
      "geoinfo": {
        "display_name": "Newtown - Castle Comfort Road, Newtown, Castle Comfort, Saint George Parish, Dominica",
        "road": "Newtown - Castle Comfort Road",
        "house_number": null,
        "neighbourhood": null,
        "suburb": "Newtown",
        "city_district": null,
        "city": "Castle Comfort",
        "state": "Saint George Parish",
        "postcode": null,
        "country": "Dominica",
        "country_code": "dm"
      },
      "address": "Newtown - Castle Comfort Road, Roseau, Saint George Parish, Dominica"
    },
    {
      "lat": 15.258400019774594,
      "lon": -61.3807489082602,
      "geoinfo": {
        "display_name": "Victoria Street, Pointe Michel, Saint Luke Parish, Dominica",
        "road": "Victoria Street",
        "house_number": null,
        "neighbourhood": null,
        "suburb": null,
        "city_district": null,
        "city": "Pointe Michel",
        "state": "Saint Luke Parish",
        "postcode": null,
        "country": "Dominica",
        "country_code": "dm"
      },
      "address": "Victoria Street, Roseau, Saint Luke Parish, Dominica"
    },
    {
      "lat": 15.307283344624183,
      "lon": -61.38320395268668,
      "geoinfo": {
        "display_name": "Dominica-China Friendship Hospital, Federation Drive, Goodwill, Roseau, Saint George Parish, Dominica",
        "road": "Federation Drive",
        "house_number": null,
        "neighbourhood": null,
        "suburb": "Goodwill",
        "city_district": null,
        "city": "Roseau",
        "state": "Saint George Parish",
        "postcode": null,
        "country": "Dominica",
        "country_code": "dm"
      },
      "address": "Federation Drive, Roseau, Saint George Parish, Dominica"
    },
    {
      "lat": 15.310068897666412,
      "lon": -61.36516818087435,
      "geoinfo": {
        "display_name": "Louisville Road, Louisville, Roseau, Saint George Parish, Dominica",
        "road": "Louisville Road",
        "house_number": null,
        "neighbourhood": null,
        "suburb": "Louisville",
        "city_district": null,
        "city": "Roseau",
        "state": "Saint George Parish",
        "postcode": null,
        "country": "Dominica",
        "country_code": "dm"
      },
      "address": "Louisville Road, Roseau, Saint George Parish, Dominica"
    },
    {
      "lat": 15.305277889185259,
      "lon": -61.38152664355643,
      "geoinfo": {
        "display_name": "Downing Gap, Yampiece, Roseau, Saint George Parish, Dominica",
        "road": "Downing Gap",
        "house_number": null,
        "neighbourhood": null,
        "suburb": "Yampiece",
        "city_district": null,
        "city": "Roseau",
        "state": "Saint George Parish",
        "postcode": null,
        "country": "Dominica",
        "country_code": "dm"
      },
      "address": "Downing Gap, Roseau, Saint George Parish, Dominica"
    },
    {
      "lat": 15.30669816429088,
      "lon": -61.3828470802459,
      "geoinfo": {
        "display_name": "Terrel Lane, Goodwill, Roseau, Saint George Parish, Dominica",
        "road": "Terrel Lane",
        "house_number": null,
        "neighbourhood": null,
        "suburb": "Goodwill",
        "city_district": null,
        "city": "Roseau",
        "state": "Saint George Parish",
        "postcode": null,
        "country": "Dominica",
        "country_code": "dm"
      },
      "address": "Terrel Lane, Roseau, Saint George Parish, Dominica"
    },
    {
      "lat": 15.302494733938346,
      "lon": -61.370020459834905,
      "geoinfo": {
        "display_name": "Elmshall Road, Elm's Hall, Roseau, Saint George Parish, Dominica",
        "road": "Elmshall Road",
        "house_number": null,
        "neighbourhood": null,
        "suburb": "Elm's Hall",
        "city_district": null,
        "city": "Roseau",
        "state": "Saint George Parish",
        "postcode": null,
        "country": "Dominica",
        "country_code": "dm"
      },
      "address": "Elmshall Road, Roseau, Saint George Parish, Dominica"
    },
    {
      "lat": 15.295155444882958,
      "lon": -61.38439572931594,
      "geoinfo": {
        "display_name": "High Street, Bath Estate, Roseau, Saint George Parish, Dominica",
        "road": "High Street",
        "house_number": null,
        "neighbourhood": null,
        "suburb": "Bath Estate",
        "city_district": null,
        "city": "Roseau",
        "state": "Saint George Parish",
        "postcode": null,
        "country": "Dominica",
        "country_code": "dm"
      },
      "address": "High Street, Roseau, Saint George Parish, Dominica"
    },
    {
      "lat": 15.322184008597464,
      "lon": -61.401353482693374,
      "geoinfo": {
        "display_name": "Woodbridge Bay, Fond Colé, Canefield, Dominica",
        "road": null,
        "house_number": null,
        "neighbourhood": null,
        "suburb": "Fond Colé",
        "city_district": null,
        "city": "Canefield",
        "state": null,
        "postcode": null,
        "country": "Dominica",
        "country_code": "dm"
      },
      "address": "224, Fond Colé, 74745 Roseau, Dominica"
    },
    {
      "lat": 15.287453127517903,
      "lon": -61.352440896946916,
      "geoinfo": {
        "display_name": "Newtown - Castle Comfort Road, Newtown, Castle Comfort, Saint George Parish, Dominica",
        "road": "Newtown - Castle Comfort Road",
        "house_number": null,
        "neighbourhood": null,
        "suburb": "Newtown",
        "city_district": null,
        "city": "Castle Comfort",
        "state": "Saint George Parish",
        "postcode": null,
        "country": "Dominica",
        "country_code": "dm"
      },
      "address": "733, Newtown - Castle Comfort Road, Roseau, 88600 Saint George Parish, Dominica"
    },
    {
      "lat": 15.287479418052486,
      "lon": -61.36504226308033,
      "geoinfo": {
        "display_name": "Newtown - Castle Comfort Road, Newtown, Castle Comfort, Saint George Parish, Dominica",
        "road": "Newtown - Castle Comfort Road",
        "house_number": null,
        "neighbourhood": null,
        "suburb": "Newtown",
        "city_district": null,
        "city": "Castle Comfort",
        "state": "Saint George Parish",
        "postcode": null,
        "country": "Dominica",
        "country_code": "dm"
      },
      "address": "614, Newtown - Castle Comfort Road, Roseau, 39580 Saint George Parish, Dominica"
    },
    {
      "lat": 15.287410872751922,
      "lon": -61.352493122778384,
      "geoinfo": {
        "display_name": "Newtown - Castle Comfort Road, Newtown, Castle Comfort, Saint George Parish, Dominica",
        "road": "Newtown - Castle Comfort Road",
        "house_number": null,
        "neighbourhood": null,
        "suburb": "Newtown",
        "city_district": null,
        "city": "Castle Comfort",
        "state": "Saint George Parish",
        "postcode": null,
        "country": "Dominica",
        "country_code": "dm"
      },
      "address": "407, Newtown - Castle Comfort Road, Roseau, 03610 Saint George Parish, Dominica"
    },
    {
      "lat": 15.289828913263856,
      "lon": -61.36163456561124,
      "geoinfo": {
        "display_name": "Newtown - Castle Comfort Road, Newtown, Castle Comfort, Saint George Parish, Dominica",
        "road": "Newtown - Castle Comfort Road",
        "house_number": null,
        "neighbourhood": null,
        "suburb": "Newtown",
        "city_district": null,
        "city": "Castle Comfort",
        "state": "Saint George Parish",
        "postcode": null,
        "country": "Dominica",
        "country_code": "dm"
      },
      "address": "070, Newtown - Castle Comfort Road, Roseau, 27644 Saint George Parish, Dominica"
    },
    {
      "lat": 15.32496589877144,
      "lon": -61.35388209803999,
      "geoinfo": {
        "display_name": "Valley Road, Laudat, Saint George Parish, Dominica",
        "road": "Valley Road",
        "house_number": null,
        "neighbourhood": null,
        "suburb": null,
        "city_district": null,
        "city": "Laudat",
        "state": "Saint George Parish",
        "postcode": null,
        "country": "Dominica",
        "country_code": "dm"
      },
      "address": "473, Valley Road, Roseau, 20672 Saint George Parish, Dominica"
    },
    {
      "lat": 15.299746366670377,
      "lon": -61.42726144708909,
      "geoinfo": {
        "display_name": "Potters Ville, Roseau, Saint George Parish, Dominica",
        "road": null,
        "house_number": null,
        "neighbourhood": null,
        "suburb": "Potters Ville",
        "city_district": null,
        "city": "Roseau",
        "state": "Saint George Parish",
        "postcode": null,
        "country": "Dominica",
        "country_code": "dm"
      },
      "address": "922, Potters Ville, Roseau, 03677 Saint George Parish, Dominica"
    },
    {
      "lat": 15.314466217885865,
      "lon": -61.37332588615993,
      "geoinfo": {
        "display_name": "Bellevue Rawle, Roseau, Saint George Parish, Dominica",
        "road": null,
        "house_number": null,
        "neighbourhood": null,
        "suburb": null,
        "city_district": null,
        "city": "Roseau",
        "state": "Saint George Parish",
        "postcode": null,
        "country": "Dominica",
        "country_code": "dm"
      },
      "address": "983, Bellevue Rawle, Roseau, 71562 Saint George Parish, Dominica"
    },
    {
      "lat": 15.288235633825833,
      "lon": -61.41287505099339,
      "geoinfo": {
        "display_name": "Potters Ville, Roseau, Saint George Parish, Dominica",
        "road": null,
        "house_number": null,
        "neighbourhood": null,
        "suburb": "Potters Ville",
        "city_district": null,
        "city": "Roseau",
        "state": "Saint George Parish",
        "postcode": null,
        "country": "Dominica",
        "country_code": "dm"
      },
      "address": "800, Potters Ville, Roseau, 25488 Saint George Parish, Dominica"
    },
    {
      "lat": 15.269497452960861,
      "lon": -61.369312299692254,
      "geoinfo": {
        "display_name": "Loubiere, Saint George Parish, Dominica",
        "road": null,
        "house_number": null,
        "neighbourhood": null,
        "suburb": null,
        "city_district": null,
        "city": "Loubiere",
        "state": "Saint George Parish",
        "postcode": null,
        "country": "Dominica",
        "country_code": "dm"
      },
      "address": "095, Roseau, 30293 Saint George Parish, Dominica"
    },
    {
      "lat": 15.321667644052802,
      "lon": -61.3635639679039,
      "geoinfo": {
        "display_name": "Valley Road, Laudat, Saint George Parish, Dominica",
        "road": "Valley Road",
        "house_number": null,
        "neighbourhood": null,
        "suburb": null,
        "city_district": null,
        "city": "Laudat",
        "state": "Saint George Parish",
        "postcode": null,
        "country": "Dominica",
        "country_code": "dm"
      },
      "address": "741, Valley Road, Roseau, 96083 Saint George Parish, Dominica"
    },
    {
      "lat": 15.309523359985842,
      "lon": -61.370853457561616,
      "geoinfo": {
        "display_name": "Bellevue Rawle, Roseau, Saint George Parish, Dominica",
        "road": null,
        "house_number": null,
        "neighbourhood": null,
        "suburb": null,
        "city_district": null,
        "city": "Roseau",
        "state": "Saint George Parish",
        "postcode": null,
        "country": "Dominica",
        "country_code": "dm"
      },
      "address": "573, Bellevue Rawle, Roseau, 41892 Saint George Parish, Dominica"
    },
    {
      "lat": 15.338810222624149,
      "lon": -61.39538427935468,
      "geoinfo": {
        "display_name": "Canefield Airport, Edward Olivier Leblanc Highway, Canefield, Saint Paul Parish, Dominica",
        "road": "Edward Olivier Leblanc Highway",
        "house_number": null,
        "neighbourhood": null,
        "suburb": null,
        "city_district": null,
        "city": "Canefield",
        "state": "Saint Paul Parish",
        "postcode": null,
        "country": "Dominica",
        "country_code": "dm"
      },
      "address": "475, Edward Olivier Leblanc Highway, Roseau, 87746 Saint Paul Parish, Dominica"
    },
    {
      "lat": 15.318581230116258,
      "lon": -61.349828847982074,
      "geoinfo": {
        "display_name": "Trafalgar, Saint George Parish, Dominica",
        "road": null,
        "house_number": null,
        "neighbourhood": null,
        "suburb": null,
        "city_district": null,
        "city": "Trafalgar",
        "state": "Saint George Parish",
        "postcode": null,
        "country": "Dominica",
        "country_code": "dm"
      },
      "address": "717, Roseau, 15031 Saint George Parish, Dominica"
    },
    {
      "lat": 15.310561903445684,
      "lon": -61.39264614876818,
      "geoinfo": {
        "display_name": "Woodbridge Bay Deep Water Harbour, Edward Olivier Leblanc Highway, Stockfarm, Roseau, Saint George Parish, Dominica",
        "road": "Edward Olivier Leblanc Highway",
        "house_number": null,
        "neighbourhood": null,
        "suburb": "Stockfarm",
        "city_district": null,
        "city": "Roseau",
        "state": "Saint George Parish",
        "postcode": null,
        "country": "Dominica",
        "country_code": "dm"
      },
      "address": "354, Edward Olivier Leblanc Highway, Roseau, 81739 Saint George Parish, Dominica"
    },
    {
      "lat": 15.297474953149923,
      "lon": -61.42582636333797,
      "geoinfo": {
        "display_name": "Potters Ville, Roseau, Saint George Parish, Dominica",
        "road": null,
        "house_number": null,
        "neighbourhood": null,
        "suburb": "Potters Ville",
        "city_district": null,
        "city": "Roseau",
        "state": "Saint George Parish",
        "postcode": null,
        "country": "Dominica",
        "country_code": "dm"
      },
      "address": "462, Potters Ville, Roseau, 63138 Saint George Parish, Dominica"
    },
    {
      "lat": 15.279818655669958,
      "lon": -61.40456623411042,
      "geoinfo": {
        "display_name": "Potters Ville, Roseau, Saint George Parish, Dominica",
        "road": null,
        "house_number": null,
        "neighbourhood": null,
        "suburb": "Potters Ville",
        "city_district": null,
        "city": "Roseau",
        "state": "Saint George Parish",
        "postcode": null,
        "country": "Dominica",
        "country_code": "dm"
      },
      "address": "367, Potters Ville, Roseau, 59178 Saint George Parish, Dominica"
    },
    {
      "lat": 15.28393647301754,
      "lon": -61.364636493917544,
      "geoinfo": {
        "display_name": "Newtown - Castle Comfort Road, Newtown, Castle Comfort, Saint George Parish, Dominica",
        "road": "Newtown - Castle Comfort Road",
        "house_number": null,
        "neighbourhood": null,
        "suburb": "Newtown",
        "city_district": null,
        "city": "Castle Comfort",
        "state": "Saint George Parish",
        "postcode": null,
        "country": "Dominica",
        "country_code": "dm"
      },
      "address": "744, Newtown - Castle Comfort Road, Roseau, 59378 Saint George Parish, Dominica"
    },
    {
      "lat": 15.294728149892062,
      "lon": -61.41835421942979,
      "geoinfo": {
        "display_name": "Potters Ville, Roseau, Saint George Parish, Dominica",
        "road": null,
        "house_number": null,
        "neighbourhood": null,
        "suburb": "Potters Ville",
        "city_district": null,
        "city": "Roseau",
        "state": "Saint George Parish",
        "postcode": null,
        "country": "Dominica",
        "country_code": "dm"
      },
      "address": "544, Potters Ville, Roseau, 38406 Saint George Parish, Dominica"
    },
    {
      "lat": 15.308598877107729,
      "lon": -61.37759648485906,
      "geoinfo": {
        "display_name": "Yampiece, Roseau, Saint George Parish, Dominica",
        "road": null,
        "house_number": null,
        "neighbourhood": null,
        "suburb": "Yampiece",
        "city_district": null,
        "city": "Roseau",
        "state": "Saint George Parish",
        "postcode": null,
        "country": "Dominica",
        "country_code": "dm"
      },
      "address": "900, Yampiece, Roseau, 94848 Saint George Parish, Dominica"
    },
    {
      "lat": 15.342856106489085,
      "lon": -61.394847032242836,
      "geoinfo": {
        "display_name": "Edward Olivier Leblanc Highway, Check Hall, Saint Paul Parish, Dominica",
        "road": "Edward Olivier Leblanc Highway",
        "house_number": null,
        "neighbourhood": null,
        "suburb": null,
        "city_district": null,
        "city": "Check Hall",
        "state": "Saint Paul Parish",
        "postcode": null,
        "country": "Dominica",
        "country_code": "dm"
      },
      "address": "951, Edward Olivier Leblanc Highway, Roseau, 98642 Saint Paul Parish, Dominica"
    },
    {
      "lat": 15.294257592868313,
      "lon": -61.370460144175354,
      "geoinfo": {
        "display_name": "Fortune-Eggleston Road, Yampiece, Eggleston, Saint George Parish, Dominica",
        "road": "Fortune-Eggleston Road",
        "house_number": null,
        "neighbourhood": null,
        "suburb": "Yampiece",
        "city_district": null,
        "city": "Eggleston",
        "state": "Saint George Parish",
        "postcode": null,
        "country": "Dominica",
        "country_code": "dm"
      },
      "address": "195, Fortune-Eggleston Road, Roseau, 96843 Saint George Parish, Dominica"
    },
    {
      "lat": 15.340064379797688,
      "lon": -61.396026438901366,
      "geoinfo": {
        "display_name": "Canefield Airport, Edward Olivier Leblanc Highway, Canefield, Saint Paul Parish, Dominica",
        "road": "Edward Olivier Leblanc Highway",
        "house_number": null,
        "neighbourhood": null,
        "suburb": null,
        "city_district": null,
        "city": "Canefield",
        "state": "Saint Paul Parish",
        "postcode": null,
        "country": "Dominica",
        "country_code": "dm"
      },
      "address": "568, Edward Olivier Leblanc Highway, Roseau, 88234 Saint Paul Parish, Dominica"
    },
    {
      "lat": 15.311124661457699,
      "lon": -61.42320658774244,
      "geoinfo": {
        "display_name": "Potters Ville, Roseau, Saint George Parish, Dominica",
        "road": null,
        "house_number": null,
        "neighbourhood": null,
        "suburb": "Potters Ville",
        "city_district": null,
        "city": "Roseau",
        "state": "Saint George Parish",
        "postcode": null,
        "country": "Dominica",
        "country_code": "dm"
      },
      "address": "912, Potters Ville, Roseau, 44493 Saint George Parish, Dominica"
    },
    {
      "lat": 15.282140572330743,
      "lon": -61.399836640564615,
      "geoinfo": {
        "display_name": "Potters Ville, Roseau, Saint George Parish, Dominica",
        "road": null,
        "house_number": null,
        "neighbourhood": null,
        "suburb": "Potters Ville",
        "city_district": null,
        "city": "Roseau",
        "state": "Saint George Parish",
        "postcode": null,
        "country": "Dominica",
        "country_code": "dm"
      },
      "address": "608, Potters Ville, Roseau, 19169 Saint George Parish, Dominica"
    },
    {
      "lat": 15.288221126352848,
      "lon": -61.39857182754497,
      "geoinfo": {
        "display_name": "Potters Ville, Roseau, Saint George Parish, Dominica",
        "road": null,
        "house_number": null,
        "neighbourhood": null,
        "suburb": "Potters Ville",
        "city_district": null,
        "city": "Roseau",
        "state": "Saint George Parish",
        "postcode": null,
        "country": "Dominica",
        "country_code": "dm"
      },
      "address": "408, Potters Ville, Roseau, 57554 Saint George Parish, Dominica"
    },
    {
      "lat": 15.295213737165392,
      "lon": -61.39196209873283,
      "geoinfo": {
        "display_name": "Roseau Fisheries Complex, Ship Street, Potters Ville, Roseau, Saint George Parish, Dominica",
        "road": "Ship Street",
        "house_number": null,
        "neighbourhood": null,
        "suburb": "Potters Ville",
        "city_district": null,
        "city": "Roseau",
        "state": "Saint George Parish",
        "postcode": null,
        "country": "Dominica",
        "country_code": "dm"
      },
      "address": "025, Ship Street, Roseau, 06123 Saint George Parish, Dominica"
    },
    {
      "lat": 15.30437594520529,
      "lon": -61.427258486728235,
      "geoinfo": {
        "display_name": "Potters Ville, Roseau, Saint George Parish, Dominica",
        "road": null,
        "house_number": null,
        "neighbourhood": null,
        "suburb": "Potters Ville",
        "city_district": null,
        "city": "Roseau",
        "state": "Saint George Parish",
        "postcode": null,
        "country": "Dominica",
        "country_code": "dm"
      },
      "address": "671, Potters Ville, Roseau, 08635 Saint George Parish, Dominica"
    },
    {
      "lat": 15.260119006900805,
      "lon": -61.38031813677432,
      "geoinfo": {
        "display_name": "Victoria Street, Pointe Michel, Saint Luke Parish, Dominica",
        "road": "Victoria Street",
        "house_number": null,
        "neighbourhood": null,
        "suburb": null,
        "city_district": null,
        "city": "Pointe Michel",
        "state": "Saint Luke Parish",
        "postcode": null,
        "country": "Dominica",
        "country_code": "dm"
      },
      "address": "299, Victoria Street, Roseau, 14736 Saint Luke Parish, Dominica"
    },
    {
      "lat": 15.295986255175677,
      "lon": -61.350121285151346,
      "geoinfo": {
        "display_name": "Fortune-Eggleston Road, Yampiece, Eggleston, Saint George Parish, Dominica",
        "road": "Fortune-Eggleston Road",
        "house_number": null,
        "neighbourhood": null,
        "suburb": "Yampiece",
        "city_district": null,
        "city": "Eggleston",
        "state": "Saint George Parish",
        "postcode": null,
        "country": "Dominica",
        "country_code": "dm"
      },
      "address": "374, Fortune-Eggleston Road, Roseau, 50824 Saint George Parish, Dominica"
    },
    {
      "lat": 15.28507383385485,
      "lon": -61.38003639324425,
      "geoinfo": {
        "display_name": "Victoria Street, Newtown, Castle Comfort, Saint George Parish, Dominica",
        "road": "Victoria Street",
        "house_number": null,
        "neighbourhood": null,
        "suburb": "Newtown",
        "city_district": null,
        "city": "Castle Comfort",
        "state": "Saint George Parish",
        "postcode": null,
        "country": "Dominica",
        "country_code": "dm"
      },
      "address": "007, Victoria Street, Roseau, 34410 Saint George Parish, Dominica"
    },
    {
      "lat": 15.307277864140366,
      "lon": -61.393610458568894,
      "geoinfo": {
        "display_name": "Goodwill Road, Potters Ville, Roseau, Saint George Parish, Dominica",
        "road": "Goodwill Road",
        "house_number": null,
        "neighbourhood": null,
        "suburb": "Potters Ville",
        "city_district": null,
        "city": "Roseau",
        "state": "Saint George Parish",
        "postcode": null,
        "country": "Dominica",
        "country_code": "dm"
      },
      "address": "152, Goodwill Road, Potters Ville, Roseau, 38665 Saint George Parish, Dominica"
    },
    {
      "lat": 15.29997341725273,
      "lon": -61.415703867506195,
      "geoinfo": {
        "display_name": "Potters Ville, Roseau, Saint George Parish, Dominica",
        "road": null,
        "house_number": null,
        "neighbourhood": null,
        "suburb": "Potters Ville",
        "city_district": null,
        "city": "Roseau",
        "state": "Saint George Parish",
        "postcode": null,
        "country": "Dominica",
        "country_code": "dm"
      },
      "address": "175, Potters Ville, Roseau, 92125 Saint George Parish, Dominica"
    },
    {
      "lat": 15.303559539052817,
      "lon": -61.35427474566111,
      "geoinfo": {
        "display_name": "Eggleston, Saint George Parish, Dominica",
        "road": null,
        "house_number": null,
        "neighbourhood": null,
        "suburb": null,
        "city_district": null,
        "city": "Eggleston",
        "state": "Saint George Parish",
        "postcode": null,
        "country": "Dominica",
        "country_code": "dm"
      },
      "address": "517, Roseau, 35249 Saint George Parish, Dominica"
    },
    {
      "lat": 15.330395824390065,
      "lon": -61.40259734646572,
      "geoinfo": {
        "display_name": "Edward Olivier Leblanc Highway, Morne Daniel, Canefield, Roseau, Saint Paul Parish, Dominica",
        "road": "Edward Olivier Leblanc Highway",
        "house_number": null,
        "neighbourhood": null,
        "suburb": "Morne Daniel",
        "city_district": null,
        "city": "Canefield",
        "state": "Saint Paul Parish",
        "postcode": null,
        "country": "Dominica",
        "country_code": "dm"
      },
      "address": "057, Edward Olivier Leblanc Highway, Morne Daniel, Canefield, Roseau, 38594 Saint Paul Parish, Dominica"
    },
    {
      "lat": 15.258948328071238,
      "lon": -61.40071294907674,
      "geoinfo": {
        "display_name": "Loubiere, Saint George Parish, Dominica",
        "road": null,
        "house_number": null,
        "neighbourhood": null,
        "suburb": null,
        "city_district": null,
        "city": "Loubiere",
        "state": "Saint George Parish",
        "postcode": null,
        "country": "Dominica",
        "country_code": "dm"
      },
      "address": "378, Roseau, 31153 Saint George Parish, Dominica"
    },
    {
      "lat": 15.279005929723004,
      "lon": -61.38117008967193,
      "geoinfo": {
        "display_name": "Castle Comfort, Newtown, Castle Comfort, Saint George Parish, Dominica",
        "road": null,
        "house_number": null,
        "neighbourhood": null,
        "suburb": "Newtown",
        "city_district": null,
        "city": "Castle Comfort",
        "state": "Saint George Parish",
        "postcode": null,
        "country": "Dominica",
        "country_code": "dm"
      },
      "address": "974, Newtown, Roseau, 67561 Saint George Parish, Dominica"
    },
    {
      "lat": 15.303461012454896,
      "lon": -61.40924696645238,
      "geoinfo": {
        "display_name": "Woodbridge Bay, Fond Colé, Canefield, Dominica",
        "road": null,
        "house_number": null,
        "neighbourhood": null,
        "suburb": "Fond Colé",
        "city_district": null,
        "city": "Canefield",
        "state": null,
        "postcode": null,
        "country": "Dominica",
        "country_code": "dm"
      },
      "address": "501, Fond Colé, 67682 Roseau, Dominica"
    },
    {
      "lat": 15.305004090939557,
      "lon": -61.3600548655454,
      "geoinfo": {
        "display_name": "Trafalgar Road, Copt Hall, Fond Cani, Saint George Parish, Dominica",
        "road": "Trafalgar Road",
        "house_number": null,
        "neighbourhood": null,
        "suburb": null,
        "city_district": null,
        "city": "Fond Cani",
        "state": "Saint George Parish",
        "postcode": null,
        "country": "Dominica",
        "country_code": "dm"
      },
      "address": "528, Trafalgar Road, Roseau, 67832 Saint George Parish, Dominica"
    },
    {
      "lat": 15.292210804532798,
      "lon": -61.35413278391757,
      "geoinfo": {
        "display_name": "Giraudel, Saint George Parish, Dominica",
        "road": null,
        "house_number": null,
        "neighbourhood": null,
        "suburb": null,
        "city_district": null,
        "city": "Giraudel",
        "state": "Saint George Parish",
        "postcode": null,
        "country": "Dominica",
        "country_code": "dm"
      },
      "address": "815, Roseau, 29284 Saint George Parish, Dominica"
    },
    {
      "lat": 15.280491190184764,
      "lon": -61.39494651571854,
      "geoinfo": {
        "display_name": "Newtown, Castle Comfort, Saint George Parish, Dominica",
        "road": null,
        "house_number": null,
        "neighbourhood": null,
        "suburb": "Newtown",
        "city_district": null,
        "city": "Castle Comfort",
        "state": "Saint George Parish",
        "postcode": null,
        "country": "Dominica",
        "country_code": "dm"
      },
      "address": "807, Newtown, Roseau, 29216 Saint George Parish, Dominica"
    },
    {
      "lat": 15.26633351909276,
      "lon": -61.39596616132461,
      "geoinfo": {
        "display_name": "Loubiere, Saint George Parish, Dominica",
        "road": null,
        "house_number": null,
        "neighbourhood": null,
        "suburb": null,
        "city_district": null,
        "city": "Loubiere",
        "state": "Saint George Parish",
        "postcode": null,
        "country": "Dominica",
        "country_code": "dm"
      },
      "address": "254, Roseau, 55070 Saint George Parish, Dominica"
    },
    {
      "lat": 15.299666141403302,
      "lon": -61.37000637019961,
      "geoinfo": {
        "display_name": "Elm's Hall, Roseau, Saint George Parish, Dominica",
        "road": null,
        "house_number": null,
        "neighbourhood": null,
        "suburb": "Elm's Hall",
        "city_district": null,
        "city": "Roseau",
        "state": "Saint George Parish",
        "postcode": null,
        "country": "Dominica",
        "country_code": "dm"
      },
      "address": "558, Elm's Hall, Roseau, 05038 Saint George Parish, Dominica"
    },
    {
      "lat": 15.279537476752136,
      "lon": -61.40893818112014,
      "geoinfo": {
        "display_name": "Potters Ville, Roseau, Saint George Parish, Dominica",
        "road": null,
        "house_number": null,
        "neighbourhood": null,
        "suburb": "Potters Ville",
        "city_district": null,
        "city": "Roseau",
        "state": "Saint George Parish",
        "postcode": null,
        "country": "Dominica",
        "country_code": "dm"
      },
      "address": "510, Potters Ville, Roseau, 74642 Saint George Parish, Dominica"
    },
    {
      "lat": 15.308087018783754,
      "lon": -61.40461133687704,
      "geoinfo": {
        "display_name": "Woodbridge Bay, Fond Colé, Canefield, Dominica",
        "road": null,
        "house_number": null,
        "neighbourhood": null,
        "suburb": "Fond Colé",
        "city_district": null,
        "city": "Canefield",
        "state": null,
        "postcode": null,
        "country": "Dominica",
        "country_code": "dm"
      },
      "address": "994, Fond Colé, 04714 Roseau, Dominica"
    },
    {
      "lat": 15.298611391403805,
      "lon": -61.380716867390475,
      "geoinfo": {
        "display_name": "Morne Bruce Road, Bath Estate, Roseau, Saint George Parish, Dominica",
        "road": "Morne Bruce Road",
        "house_number": null,
        "neighbourhood": null,
        "suburb": "Bath Estate",
        "city_district": null,
        "city": "Roseau",
        "state": "Saint George Parish",
        "postcode": null,
        "country": "Dominica",
        "country_code": "dm"
      },
      "address": "054, Morne Bruce Road, Bath Estate, Roseau, 81568 Saint George Parish, Dominica"
    },
    {
      "lat": 15.288736670082114,
      "lon": -61.42465704051334,
      "geoinfo": {
        "display_name": "Potters Ville, Roseau, Saint George Parish, Dominica",
        "road": null,
        "house_number": null,
        "neighbourhood": null,
        "suburb": "Potters Ville",
        "city_district": null,
        "city": "Roseau",
        "state": "Saint George Parish",
        "postcode": null,
        "country": "Dominica",
        "country_code": "dm"
      },
      "address": "457, Potters Ville, Roseau, 72064 Saint George Parish, Dominica"
    },
    {
      "lat": 15.26333479095523,
      "lon": -61.39899484685318,
      "geoinfo": {
        "display_name": "Loubiere, Saint George Parish, Dominica",
        "road": null,
        "house_number": null,
        "neighbourhood": null,
        "suburb": null,
        "city_district": null,
        "city": "Loubiere",
        "state": "Saint George Parish",
        "postcode": null,
        "country": "Dominica",
        "country_code": "dm"
      },
      "address": "535, Roseau, 42157 Saint George Parish, Dominica"
    },
    {
      "lat": 15.297147299977585,
      "lon": -61.34207300826188,
      "geoinfo": {
        "display_name": "Giraudel, Saint George Parish, Dominica",
        "road": null,
        "house_number": null,
        "neighbourhood": null,
        "suburb": null,
        "city_district": null,
        "city": "Giraudel",
        "state": "Saint George Parish",
        "postcode": null,
        "country": "Dominica",
        "country_code": "dm"
      },
      "address": "679, Roseau, 35496 Saint George Parish, Dominica"
    },
    {
      "lat": 15.304119146221241,
      "lon": -61.37220861364266,
      "geoinfo": {
        "display_name": "Valley Road, Silverlake, Roseau, Saint George Parish, Dominica",
        "road": "Valley Road",
        "house_number": null,
        "neighbourhood": null,
        "suburb": "Silverlake",
        "city_district": null,
        "city": "Roseau",
        "state": "Saint George Parish",
        "postcode": null,
        "country": "Dominica",
        "country_code": "dm"
      },
      "address": "057, Valley Road, Silverlake, Roseau, 23951 Saint George Parish, Dominica"
    },
    {
      "lat": 15.263100800357442,
      "lon": -61.40327135164455,
      "geoinfo": {
        "display_name": "Loubiere, Saint George Parish, Dominica",
        "road": null,
        "house_number": null,
        "neighbourhood": null,
        "suburb": null,
        "city_district": null,
        "city": "Loubiere",
        "state": "Saint George Parish",
        "postcode": null,
        "country": "Dominica",
        "country_code": "dm"
      },
      "address": "587, Roseau, 42878 Saint George Parish, Dominica"
    },
    {
      "lat": 15.267002379844703,
      "lon": -61.37359535853995,
      "geoinfo": {
        "display_name": "Victoria Street, Loubiere, Saint Luke Parish, Dominica",
        "road": "Victoria Street",
        "house_number": null,
        "neighbourhood": null,
        "suburb": null,
        "city_district": null,
        "city": "Loubiere",
        "state": "Saint Luke Parish",
        "postcode": null,
        "country": "Dominica",
        "country_code": "dm"
      },
      "address": "079, Victoria Street, Roseau, 02559 Saint Luke Parish, Dominica"
    },
    {
      "lat": 15.314998365726945,
      "lon": -61.409858512827256,
      "geoinfo": {
        "display_name": "Woodbridge Bay, Fond Colé, Canefield, Dominica",
        "road": null,
        "house_number": null,
        "neighbourhood": null,
        "suburb": "Fond Colé",
        "city_district": null,
        "city": "Canefield",
        "state": null,
        "postcode": null,
        "country": "Dominica",
        "country_code": "dm"
      },
      "address": "569, Fond Colé, 69221 Roseau, Dominica"
    },
    {
      "lat": 15.276298334909669,
      "lon": -61.36020911687438,
      "geoinfo": {
        "display_name": "Grand Bay Road, Loubiere, Saint George Parish, Dominica",
        "road": "Grand Bay Road",
        "house_number": null,
        "neighbourhood": null,
        "suburb": null,
        "city_district": null,
        "city": "Loubiere",
        "state": "Saint George Parish",
        "postcode": null,
        "country": "Dominica",
        "country_code": "dm"
      },
      "address": "249, Grand Bay Road, Roseau, 17088 Saint George Parish, Dominica"
    },
    {
      "lat": 15.293262082173166,
      "lon": -61.40749724925073,
      "geoinfo": {
        "display_name": "Potters Ville, Roseau, Saint George Parish, Dominica",
        "road": null,
        "house_number": null,
        "neighbourhood": null,
        "suburb": "Potters Ville",
        "city_district": null,
        "city": "Roseau",
        "state": "Saint George Parish",
        "postcode": null,
        "country": "Dominica",
        "country_code": "dm"
      },
      "address": "907, Potters Ville, Roseau, 94117 Saint George Parish, Dominica"
    },
    {
      "lat": 15.269226877640232,
      "lon": -61.375361805370645,
      "geoinfo": {
        "display_name": "Victoria Street, Loubiere, Saint Luke Parish, Dominica",
        "road": "Victoria Street",
        "house_number": null,
        "neighbourhood": null,
        "suburb": null,
        "city_district": null,
        "city": "Loubiere",
        "state": "Saint Luke Parish",
        "postcode": null,
        "country": "Dominica",
        "country_code": "dm"
      },
      "address": "680, Victoria Street, Roseau, 71765 Saint Luke Parish, Dominica"
    },
    {
      "lat": 15.275589002368044,
      "lon": -61.38829284170793,
      "geoinfo": {
        "display_name": "Castle Comfort, Newtown, Castle Comfort, Saint George Parish, Dominica",
        "road": null,
        "house_number": null,
        "neighbourhood": null,
        "suburb": "Newtown",
        "city_district": null,
        "city": "Castle Comfort",
        "state": "Saint George Parish",
        "postcode": null,
        "country": "Dominica",
        "country_code": "dm"
      },
      "address": "902, Newtown, Roseau, 63726 Saint George Parish, Dominica"
    },
    {
      "lat": 15.290291194610623,
      "lon": -61.347586881569384,
      "geoinfo": {
        "display_name": "Giraudel, Saint George Parish, Dominica",
        "road": null,
        "house_number": null,
        "neighbourhood": null,
        "suburb": null,
        "city_district": null,
        "city": "Giraudel",
        "state": "Saint George Parish",
        "postcode": null,
        "country": "Dominica",
        "country_code": "dm"
      },
      "address": "079, Roseau, 79644 Saint George Parish, Dominica"
    },
    {
      "lat": 15.292904538482446,
      "lon": -61.38922450681984,
      "geoinfo": {
        "display_name": "Roseau Cruise Ship Berth, Dame Mary Eugenia Charles Boulevard, Potters Ville, Roseau, Saint George Parish, Dominica",
        "road": "Dame Mary Eugenia Charles Boulevard",
        "house_number": null,
        "neighbourhood": null,
        "suburb": "Potters Ville",
        "city_district": null,
        "city": "Roseau",
        "state": "Saint George Parish",
        "postcode": null,
        "country": "Dominica",
        "country_code": "dm"
      },
      "address": "445, Dame Mary Eugenia Charles Boulevard, Roseau, 45444 Saint George Parish, Dominica"
    }
  ],
  "updated_at": "2025-10-19T03:52:59.125948+00:00",
  "_kind": "geo_samples"
}