{
  "country_code": "MZ",
  "country": "Mozambique",
  "city": "Cuamba",
  "geonameid": 1047660,
  "target_addresses": 8,
  "samples": [
    {
      "lat": -14.837710781246981,
      "lon": 36.53900215184537,
      "geoinfo": {
        "display_name": "Chiponde, Mepina, Cuamba, Niassa Province, Zona Norte, Mozambique",
        "road": null,
        "house_number": null,
        "neighbourhood": null,
        "suburb": "Chiponde",
        "city_district": null,
        "city": "Mepina",
        "state": "Niassa Province",
        "postcode": null,
        "country": "Mozambique",
        "country_code": "mz"
      },
      "address": "Chiponde, Cuamba, Niassa Province, Mozambique"
    },
    {
      "lat": -14.786836029150026,
      "lon": 36.569970984551674,
      "geoinfo": {
        "display_name": "Adine 3B, Cuamba, Niassa Province, Zona Norte, Mozambique",
        "road": null,
        "house_number": null,
        "neighbourhood": null,
        "suburb": "Adine 3B",
        "city_district": null,
        "city": "Cuamba",
        "state": "Niassa Province",
        "postcode": null,
        "country": "Mozambique",
        "country_code": "mz"
      },
      "address": "Adine 3B, Cuamba, Niassa Province, Mozambique"
    },
    {
      "lat": -14.77882904639167,
      "lon": 36.54017416536425,
      "geoinfo": {
        "display_name": "Rimbane, Cuamba, Niassa Province, Zona Norte, Mozambique",
        "road": null,
        "house_number": null,
        "neighbourhood": null,
        "suburb": "Rimbane",
        "city_district": null,
        "city": "Cuamba",
        "state": "Niassa Province",
        "postcode": null,
        "country": "Mozambique",
        "country_code": "mz"
      },
      "address": "139, Rimbane, Cuamba, Niassa Province, 96117 Zona Norte, Mozambique"
    },
    {
      "lat": -14.833220003302806,
      "lon": 36.54529705501958,
      "geoinfo": {
        "display_name": "Matias, Namutimbua, Cuamba, Niassa Province, Zona Norte, Mozambique",
        "road": null,
        "house_number": null,
        "neighbourhood": null,
        "suburb": "Matias",
        "city_district": null,
        "city": "Namutimbua",
        "state": "Niassa Province",
        "postcode": null,
        "country": "Mozambique",
        "country_code": "mz"
      },
      "address": "370, Matias, Cuamba, 36532 Niassa Province, Mozambique"
    },
    {
      "lat": -14.813629445115364,
      "lon": 36.559601200341326,
      "geoinfo": {
        "display_name": "Matias, Cuamba, Niassa Province, Zona Norte, Mozambique",
        "road": null,
        "house_number": null,
        "neighbourhood": null,
        "suburb": "Matias",
        "city_district": null,
        "city": "Cuamba",
        "state": "Niassa Province",
        "postcode": null,
        "country": "Mozambique",
        "country_code": "mz"
      },
      "address": "081, Matias, Cuamba, Niassa Province, 00689 Zona Norte, Mozambique"
    },
    {
      "lat": -14.807001684637632,
      "lon": 36.49770899466242,
      "geoinfo": {
        "display_name": "Minas, Cuamba, Niassa Province, Zona Norte, Mozambique",
        "road": null,
        "house_number": null,
        "neighbourhood": null,
        "suburb": "Minas",
        "city_district": null,
        "city": null,
        "state": "Niassa Province",
        "postcode": null,
        "country": "Mozambique",
        "country_code": "mz"
      },
      "address": "525, Minas, Cuamba, Niassa Province, 54157 Zona Norte, Mozambique"
    },
    {
      "lat": -14.799952296060853,
      "lon": 36.52605021995799,
      "geoinfo": {
        "display_name": "Rimbane, Cuamba, Niassa Province, Zona Norte, Mozambique",
        "road": null,
        "house_number": null,
        "neighbourhood": null,
        "suburb": "Rimbane",
        "city_district": null,
        "city": "Cuamba",
        "state": "Niassa Province",
        "postcode": null,
        "country": "Mozambique",
        "country_code": "mz"
      },
      "address": "207, Rimbane, Cuamba, Niassa Province, 63650 Zona Norte, Mozambique"
    },
    {
      "lat": -14.792701510841773,
      "lon": 36.532112100562976,
      "geoinfo": {
        "display_name": "Cuamba, Niassa Province, Zona Norte, Mozambique",
        "road": null,
        "house_number": null,
        "neighbourhood": null,
        "suburb": null,
        "city_district": null,
        "city": "Cuamba",
        "state": "Niassa Province",
        "postcode": null,
        "country": "Mozambique",
        "country_code": "mz"
      },
      "address": "790, Cuamba, Niassa Province, 32309 Zona Norte, Mozambique"
    }
  ],
  "updated_at": "2025-10-19T05:54:31.627464+00:00",
  "_kind": "geo_samples"
}