{
  "country_code": "MZ",
  "country": "Mozambique",
  "city": "Macomia",
  "geonameid": 1042456,
  "target_addresses": 2,
  "samples": [
    {
      "lat": -12.225798389385474,
      "lon": 40.08117682600785,
      "geoinfo": {
        "display_name": "Macomia, Cabo Delgado Province, Zona Norte, Mozambique",
        "road": null,
        "house_number": null,
        "neighbourhood": null,
        "suburb": null,
        "city_district": null,
        "city": "Macomia",
        "state": "Cabo Delgado Province",
        "postcode": null,
        "country": "Mozambique",
        "country_code": "mz"
      },
      "address": "Macomia, Cabo Delgado Province, Mozambique"
    },
    {
      "lat": -12.250938089949472,
      "lon": 40.10644476563335,
      "geoinfo": {
        "display_name": "Bairro Changana, Macomia, Cabo Delgado Province, Zona Norte, Mozambique",
        "road": null,
        "house_number": null,
        "neighbourhood": null,
        "suburb": "Bairro Changana",
        "city_district": null,
        "city": "Macomia",
        "state": "Cabo Delgado Province",
        "postcode": null,
        "country": "Mozambique",
        "country_code": "mz"
      },
      "address": "Bairro Changana, Macomia, Cabo Delgado Province, Mozambique"
    },
    {
      "lat": -12.248009238045725,
      "lon": 40.144674365379835,
      "geoinfo": {
        "display_name": "Milapane, Macomia, Cabo Delgado Province, Zona Norte, Mozambique",
        "road": null,
        "house_number": null,
        "neighbourhood": null,
        "suburb": "Milapane",
        "city_district": null,
        "city": "Macomia",
        "state": "Cabo Delgado Province",
        "postcode": null,
        "country": "Mozambique",
        "country_code": "mz"
      },
      "address": "933, Milapane, Macomia, Cabo Delgado Province, 51566 Zona Norte, Mozambique"
    },
    {
      "lat": -12.241068707447642,
      "lon": 40.13753774213176,
      "geoinfo": {
        "display_name": "Macomia, Cabo Delgado Province, Zona Norte, Mozambique",
        "road": null,
        "house_number": null,
        "neighbourhood": null,
        "suburb": null,
        "city_district": null,
        "city": "Macomia",
        "state": "Cabo Delgado Province",
        "postcode": null,
        "country": "Mozambique",
        "country_code": "mz"
      },
      "address": "300, Macomia, Cabo Delgado Province, 58991 Zona Norte, Mozambique"
    }
  ],
  "updated_at": "2025-10-19T06:11:03.831071+00:00",
  "_kind": "geo_samples"
}