{
  "country_code": "MZ",
  "country": "Mozambique",
  "city": "Songo",
  "geonameid": 1026755,
  "target_addresses": 2,
  "samples": [
    {
      "lat": -15.604168485802559,
      "lon": 32.80688838118145,
      "geoinfo": {
        "display_name": "Maroeira, Cahora-Bassa, Tete Province, Zona Centro, Mozambique",
        "road": null,
        "house_number": null,
        "neighbourhood": null,
        "suburb": null,
        "city_district": null,
        "city": null,
        "state": "Tete Province",
        "postcode": null,
        "country": "Mozambique",
        "country_code": "mz"
      },
      "address": "Songo, Tete Province, Mozambique"
    },
    {
      "lat": -15.630851130684691,
      "lon": 32.75735134113519,
      "geoinfo": {
        "display_name": "Batalhao de Songo, Av. Armando Emilio Guebusa, Songo, Cahora-Bassa, Tete Province, Zona Centro, Mozambique",
        "road": "Av. Armando Emilio Guebusa",
        "house_number": null,
        "neighbourhood": null,
        "suburb": null,
        "city_district": null,
        "city": "Songo",
        "state": "Tete Province",
        "postcode": null,
        "country": "Mozambique",
        "country_code": "mz"
      },
      "address": "Av. Armando Emilio Guebusa, Songo, Tete Province, Mozambique"
    },
    {
      "lat": -15.585323785366496,
      "lon": 32.757339561925335,
      "geoinfo": {
        "display_name": "Songo, Cahora-Bassa, Tete Province, Zona Centro, Mozambique",
        "road": null,
        "house_number": null,
        "neighbourhood": null,
        "suburb": null,
        "city_district": null,
        "city": "Songo",
        "state": "Tete Province",
        "postcode": null,
        "country": "Mozambique",
        "country_code": "mz"
      },
      "address": "343, Songo, Cahora-Bassa, Tete Province, 11176 Zona Centro, Mozambique"
    },
    {
      "lat": -15.590829816900825,
      "lon": 32.720246905907075,
      "geoinfo": {
        "display_name": "Cahora-Bassa, Tete Province, Zona Centro, Mozambique",
        "road": null,
        "house_number": null,
        "neighbourhood": null,
        "suburb": null,
        "city_district": null,
        "city": null,
        "state": "Tete Province",
        "postcode": null,
        "country": "Mozambique",
        "country_code": "mz"
      },
      "address": "415, Songo, 95390 Tete Province, Mozambique"
    }
  ],
  "updated_at": "2025-10-19T06:15:53.424711+00:00",
  "_kind": "geo_samples"
}