{
  "country_code": "FI",
  "country": "Finland",
  "city": "Anjala",
  "geonameid": 661164,
  "target_addresses": 2,
  "samples": [
    {
      "lat": 60.64714216770019,
      "lon": 26.79014378896364,
      "geoinfo": {
        "display_name": "Hurukselantie, Peippola, Kymi, Huruksela, Kotka, Kotka-Hamina sub-region, Kymenlaakso, Mainland Finland, 48750, Finland",
        "road": "Hurukselantie",
        "house_number": null,
        "neighbourhood": null,
        "suburb": "Peippola",
        "city_district": null,
        "city": "Kotka",
        "state": "Kymenlaakso",
        "postcode": "48750",
        "country": "Finland",
        "country_code": "fi"
      },
      "address": "Hurukselantie, Anjala, Kymenlaakso, Finland"
    },
    {
      "lat": 60.71994846597622,
      "lon": 26.80662950833302,
      "geoinfo": {
        "display_name": "Kotirannantie, Pitk채oja, Anjala, Anjalankosken suuralue, Kouvola, Kouvola sub-region, Kymenlaakso, Mainland Finland, 36900, Finland",
        "road": "Kotirannantie",
        "house_number": null,
        "neighbourhood": null,
        "suburb": "Anjala",
        "city_district": "Anjalankosken suuralue",
        "city": "Kouvola",
        "state": "Kymenlaakso",
        "postcode": "36900",
        "country": "Finland",
        "country_code": "fi"
      },
      "address": "Kotirannantie, Anjala, Kymenlaakso, Finland"
    },
    {
      "lat": 60.6428174579116,
      "lon": 26.859918304200914,
      "geoinfo": {
        "display_name": "Kasakkapoluntie, Inkeroinen, Anjalankosken suuralue, Kouvola, Kouvola sub-region, Kymenlaakso, Mainland Finland, 49600, Finland",
        "road": "Kasakkapoluntie",
        "house_number": null,
        "neighbourhood": null,
        "suburb": "Inkeroinen",
        "city_district": "Anjalankosken suuralue",
        "city": "Kouvola",
        "state": "Kymenlaakso",
        "postcode": "49600",
        "country": "Finland",
        "country_code": "fi"
      },
      "address": "249, Kasakkapoluntie, Inkeroinen, Anjalankosken suuralue, Kouvola, Kouvola sub-region, Kymenlaakso, Mainland Finland, 49600, Finland"
    },
    {
      "lat": 60.66760025120571,
      "lon": 26.869782434027982,
      "geoinfo": {
        "display_name": "Mets채-ahontie, Pikkusuo, Inkeroinen, Anjalankosken suuralue, Kouvola, Kouvola sub-region, Kymenlaakso, Mainland Finland, 49600, Finland",
        "road": "Mets채-ahontie",
        "house_number": null,
        "neighbourhood": null,
        "suburb": "Inkeroinen",
        "city_district": "Anjalankosken suuralue",
        "city": "Kouvola",
        "state": "Kymenlaakso",
        "postcode": "49600",
        "country": "Finland",
        "country_code": "fi"
      },
      "address": "083, Mets채-ahontie, Pikkusuo, Inkeroinen, Anjalankosken suuralue, Kouvola, Kouvola sub-region, Kymenlaakso, Mainland Finland, 49600, Finland"
    }
  ],
  "updated_at": "2025-10-19T02:33:47.515482+00:00",
  "_kind": "geo_samples"
}