{
  "country_code": "FI",
  "country": "Finland",
  "city": "Espoonlahti",
  "geonameid": 7521636,
  "target_addresses": 2,
  "samples": [
    {
      "lat": 60.11707988322458,
      "lon": 24.712355029476313,
      "geoinfo": {
        "display_name": "61, Suvisaarentie, Suvisaari, Suvisaaristo, Suur-Espoonlahti, Espoo, Helsinki sub-region, Uusimaa, Mainland Finland, 02380, Finland",
        "road": "Suvisaarentie",
        "house_number": "61",
        "neighbourhood": "Suvisaari",
        "suburb": "Suvisaaristo",
        "city_district": "Suur-Espoonlahti",
        "city": "Espoo",
        "state": "Uusimaa",
        "postcode": "02380",
        "country": "Finland",
        "country_code": "fi"
      },
      "address": "61 Suvisaarentie, Espoonlahti, Uusimaa, Finland"
    },
    {
      "lat": 60.1201974876063,
      "lon": 24.679170483234618,
      "geoinfo": {
        "display_name": "8b, Vähänlahdentie, Soukanniemi, Soukka, Suur-Espoonlahti, Espoo, Helsinki sub-region, Uusimaa, Mainland Finland, 02360, Finland",
        "road": "Vähänlahdentie",
        "house_number": "8b",
        "neighbourhood": null,
        "suburb": "Soukka",
        "city_district": "Suur-Espoonlahti",
        "city": "Espoo",
        "state": "Uusimaa",
        "postcode": "02360",
        "country": "Finland",
        "country_code": "fi"
      },
      "address": "8b Vähänlahdentie, Espoonlahti, Uusimaa, Finland"
    },
    {
      "lat": 60.18551955558488,
      "lon": 24.65211794090287,
      "geoinfo": {
        "display_name": "Sänkiänreitti, Lugnet, Kaupunginkallio, Vanha-Espoo, Espoo, Helsinki sub-region, Uusimaa, Mainland Finland, 02340, Finland",
        "road": "Sänkiänreitti",
        "house_number": null,
        "neighbourhood": "Lugnet",
        "suburb": "Kaupunginkallio",
        "city_district": "Vanha-Espoo",
        "city": "Espoo",
        "state": "Uusimaa",
        "postcode": "02340",
        "country": "Finland",
        "country_code": "fi"
      },
      "address": "386, Sänkiänreitti, Lugnet, Kaupunginkallio, Vanha-Espoo, Espoo, Helsinki sub-region, Uusimaa, Mainland Finland, 02340, Finland"
    },
    {
      "lat": 60.18695783060606,
      "lon": 24.666588728904863,
      "geoinfo": {
        "display_name": "66, Finnoontie, Kaskipuu, Latokaskenmäki, Latokaski, Suur-Espoonlahti, Espoo, Helsinki sub-region, Uusimaa, Mainland Finland, 02340, Finland",
        "road": "Finnoontie",
        "house_number": "66",
        "neighbourhood": "Kaskipuu",
        "suburb": "Latokaski",
        "city_district": "Suur-Espoonlahti",
        "city": "Espoo",
        "state": "Uusimaa",
        "postcode": "02340",
        "country": "Finland",
        "country_code": "fi"
      },
      "address": "66, Finnoontie, Kaskipuu, Latokaskenmäki, Latokaski, Suur-Espoonlahti, Espoo, Helsinki sub-region, Uusimaa, Mainland Finland, 02340, Finland"
    }
  ],
  "updated_at": "2025-10-19T04:02:09.898088+00:00",
  "_kind": "geo_samples"
}