{
  "country_code": "FI",
  "country": "Finland",
  "city": "Forssa",
  "geonameid": 659935,
  "target_addresses": 2,
  "samples": [
    {
      "lat": 60.824701947601135,
      "lon": 23.7086206268364,
      "geoinfo": {
        "display_name": "Kaukjärventie, Norri, Kaukjärvi, Tammela, Forssa sub-region, Kanta-Häme, Mainland Finland, Finland",
        "road": "Kaukjärventie",
        "house_number": null,
        "neighbourhood": null,
        "suburb": null,
        "city_district": null,
        "city": "Tammela",
        "state": "Kanta-Häme",
        "postcode": null,
        "country": "Finland",
        "country_code": "fi"
      },
      "address": "Kaukjärventie, Forssa, Kanta-Häme, Finland"
    },
    {
      "lat": 60.79954688287334,
      "lon": 23.60808060109738,
      "geoinfo": {
        "display_name": "10, Lehto-ojantie, Pikku-Muolaa, Forssa, Forssa sub-region, Kanta-Häme, Mainland Finland, 30420, Finland",
        "road": "Lehto-ojantie",
        "house_number": "10",
        "neighbourhood": null,
        "suburb": "Pikku-Muolaa",
        "city_district": null,
        "city": "Forssa",
        "state": "Kanta-Häme",
        "postcode": "30420",
        "country": "Finland",
        "country_code": "fi"
      },
      "address": "10 Lehto-ojantie, Forssa, Kanta-Häme, Finland"
    },
    {
      "lat": 60.781962150632225,
      "lon": 23.5651953951007,
      "geoinfo": {
        "display_name": "Tammela, Forssa sub-region, Kanta-Häme, Mainland Finland, Finland",
        "road": null,
        "house_number": null,
        "neighbourhood": null,
        "suburb": null,
        "city_district": null,
        "city": "Tammela",
        "state": "Kanta-Häme",
        "postcode": null,
        "country": "Finland",
        "country_code": "fi"
      },
      "address": "572, Tammela, Forssa sub-region, Kanta-Häme, 61924 Mainland Finland, Finland"
    },
    {
      "lat": 60.801121648581436,
      "lon": 23.53956821753471,
      "geoinfo": {
        "display_name": "Pellilä, Jokioinen, Forssa sub-region, Kanta-Häme, Mainland Finland, 31600, Finland",
        "road": null,
        "house_number": null,
        "neighbourhood": null,
        "suburb": "Pellilä",
        "city_district": null,
        "city": "Jokioinen",
        "state": "Kanta-Häme",
        "postcode": "31600",
        "country": "Finland",
        "country_code": "fi"
      },
      "address": "526, Pellilä, Jokioinen, Forssa sub-region, Kanta-Häme, Mainland Finland, 31600, Finland"
    }
  ],
  "updated_at": "2025-10-19T04:07:22.866799+00:00",
  "_kind": "geo_samples"
}