{
  "country_code": "FI",
  "country": "Finland",
  "city": "Haaga",
  "geonameid": 659717,
  "target_addresses": 2,
  "samples": [
    {
      "lat": 60.20770570263443,
      "lon": 24.920929880110823,
      "geoinfo": {
        "display_name": "Rantaradan varsiraitti, Keski-Pasila, Pasila, Central major district, Helsinki, Helsinki sub-region, Uusimaa, Mainland Finland, 00240, Finland",
        "road": "Rantaradan varsiraitti",
        "house_number": null,
        "neighbourhood": null,
        "suburb": "Pasila",
        "city_district": "Central major district",
        "city": "Helsinki",
        "state": "Uusimaa",
        "postcode": "00240",
        "country": "Finland",
        "country_code": "fi"
      },
      "address": "Rantaradan varsiraitti, Haaga, Uusimaa, Finland"
    },
    {
      "lat": 60.209140679541875,
      "lon": 24.906583354023997,
      "geoinfo": {
        "display_name": "Hakamäentie, Kivihaka, Haaga, Western major district, Helsinki, Helsinki sub-region, Uusimaa, Mainland Finland, 00280, Finland",
        "road": "Hakamäentie",
        "house_number": null,
        "neighbourhood": null,
        "suburb": "Haaga",
        "city_district": "Western major district",
        "city": "Helsinki",
        "state": "Uusimaa",
        "postcode": "00280",
        "country": "Finland",
        "country_code": "fi"
      },
      "address": "Hakamäentie, Haaga, Uusimaa, Finland"
    },
    {
      "lat": 60.22848741018697,
      "lon": 24.967334816481316,
      "geoinfo": {
        "display_name": "Oulunkylänpolku, Veräjämäki, Oulunkylä, Northern major district, Helsinki, Helsinki sub-region, Uusimaa, Mainland Finland, 00645, Finland",
        "road": "Oulunkylänpolku",
        "house_number": null,
        "neighbourhood": null,
        "suburb": "Oulunkylä",
        "city_district": "Northern major district",
        "city": "Helsinki",
        "state": "Uusimaa",
        "postcode": "00645",
        "country": "Finland",
        "country_code": "fi"
      },
      "address": "377, Oulunkylänpolku, Veräjämäki, Oulunkylä, Northern major district, Helsinki, Helsinki sub-region, Uusimaa, Mainland Finland, 00645, Finland"
    },
    {
      "lat": 60.23152581106484,
      "lon": 24.938072868153814,
      "geoinfo": {
        "display_name": "6, Suursuontie, Maunula, Oulunkylä, Northern major district, Helsinki, Helsinki sub-region, Uusimaa, Mainland Finland, 00620, Finland",
        "road": "Suursuontie",
        "house_number": "6",
        "neighbourhood": null,
        "suburb": "Maunula",
        "city_district": "Northern major district",
        "city": "Helsinki",
        "state": "Uusimaa",
        "postcode": "00620",
        "country": "Finland",
        "country_code": "fi"
      },
      "address": "6, Suursuontie, Maunula, Oulunkylä, Northern major district, Helsinki, Helsinki sub-region, Uusimaa, Mainland Finland, 00620, Finland"
    }
  ],
  "updated_at": "2025-10-19T05:04:55.259075+00:00",
  "_kind": "geo_samples"
}