{
  "country_code": "FI",
  "country": "Finland",
  "city": "Hervanta",
  "geonameid": 658120,
  "target_addresses": 5,
  "samples": [
    {
      "lat": 61.465125403778394,
      "lon": 23.892448570415297,
      "geoinfo": {
        "display_name": "22, Hikivuorenkatu, Annala, Kaukajärvi, Kaakkoinen suuralue, Tampere, Tampere sub-region, Pirkanmaa, Mainland Finland, 33710, Finland",
        "road": "Hikivuorenkatu",
        "house_number": "22",
        "neighbourhood": null,
        "suburb": "Kaukajärvi",
        "city_district": "Kaakkoinen suuralue",
        "city": "Tampere",
        "state": "Pirkanmaa",
        "postcode": "33710",
        "country": "Finland",
        "country_code": "fi"
      },
      "address": "22, Hikivuorenkatu, Annala, Kaukajärvi, Kaakkoinen suuralue, Tampere, Tampere sub-region, Pirkanmaa, Mainland Finland, 33710, Finland"
    },
    {
      "lat": 61.41219754152659,
      "lon": 23.892174624476667,
      "geoinfo": {
        "display_name": "415, Matinlahdentie, Matinlahti, Hervannanmaa, Lempäälä, Tampere sub-region, Pirkanmaa, Mainland Finland, 33720, Finland",
        "road": "Matinlahdentie",
        "house_number": "415",
        "neighbourhood": null,
        "suburb": null,
        "city_district": null,
        "city": "Lempäälä",
        "state": "Pirkanmaa",
        "postcode": "33720",
        "country": "Finland",
        "country_code": "fi"
      },
      "address": "415, Matinlahdentie, Matinlahti, Hervannanmaa, Lempäälä, Tampere sub-region, Pirkanmaa, Mainland Finland, 33720, Finland"
    },
    {
      "lat": 61.42596174789978,
      "lon": 23.867457702169624,
      "geoinfo": {
        "display_name": "Kurkilahdentie, Hervantajärvi, Kaakkoinen suuralue, Tampere, Tampere sub-region, Pirkanmaa, Mainland Finland, 33720, Finland",
        "road": "Kurkilahdentie",
        "house_number": null,
        "neighbourhood": null,
        "suburb": "Hervantajärvi",
        "city_district": "Kaakkoinen suuralue",
        "city": "Tampere",
        "state": "Pirkanmaa",
        "postcode": "33720",
        "country": "Finland",
        "country_code": "fi"
      },
      "address": "138, Kurkilahdentie, Hervantajärvi, Kaakkoinen suuralue, Tampere, Tampere sub-region, Pirkanmaa, Mainland Finland, 33720, Finland"
    },
    {
      "lat": 61.420696889088134,
      "lon": 23.90765634435119,
      "geoinfo": {
        "display_name": "Vasikkasuontie, Saarenmaa, Haapaniemi, Kangasala, Tampere sub-region, Pirkanmaa, Mainland Finland, 33730, Finland",
        "road": "Vasikkasuontie",
        "house_number": null,
        "neighbourhood": "Saarenmaa",
        "suburb": "Haapaniemi",
        "city_district": null,
        "city": "Kangasala",
        "state": "Pirkanmaa",
        "postcode": "33730",
        "country": "Finland",
        "country_code": "fi"
      },
      "address": "585, Vasikkasuontie, Saarenmaa, Haapaniemi, Kangasala, Tampere sub-region, Pirkanmaa, Mainland Finland, 33730, Finland"
    },
    {
      "lat": 61.43180166409082,
      "lon": 23.85094951810625,
      "geoinfo": {
        "display_name": "21, Riipintie, Hervantajärvi, Kaakkoinen suuralue, Tampere, Tampere sub-region, Pirkanmaa, Mainland Finland, 33720, Finland",
        "road": "Riipintie",
        "house_number": "21",
        "neighbourhood": null,
        "suburb": "Hervantajärvi",
        "city_district": "Kaakkoinen suuralue",
        "city": "Tampere",
        "state": "Pirkanmaa",
        "postcode": "33720",
        "country": "Finland",
        "country_code": "fi"
      },
      "address": "21, Riipintie, Hervantajärvi, Kaakkoinen suuralue, Tampere, Tampere sub-region, Pirkanmaa, Mainland Finland, 33720, Finland"
    }
  ],
  "updated_at": "2025-10-19T04:29:40.598398+00:00",
  "_kind": "geo_samples"
}