{
  "country_code": "FI",
  "country": "Finland",
  "city": "Hollola",
  "geonameid": 657530,
  "target_addresses": 6,
  "samples": [
    {
      "lat": 61.06100950810298,
      "lon": 25.51126124397963,
      "geoinfo": {
        "display_name": "Taavelinkulma, Pyhäniemi, Hollola, Lahti sub-region, Päijät-Häme, Mainland Finland, 16730, Finland",
        "road": null,
        "house_number": null,
        "neighbourhood": null,
        "suburb": null,
        "city_district": null,
        "city": "Hollola",
        "state": "Päijät-Häme",
        "postcode": "16730",
        "country": "Finland",
        "country_code": "fi"
      },
      "address": "Hollola, Päijät-Häme, Finland"
    },
    {
      "lat": 61.08153666435686,
      "lon": 25.454072234742828,
      "geoinfo": {
        "display_name": "Auralantie, Kutajoentie, Kutajoki, Hollola, Lahti sub-region, Päijät-Häme, Mainland Finland, 16710, Finland",
        "road": "Kutajoentie",
        "house_number": null,
        "neighbourhood": null,
        "suburb": null,
        "city_district": null,
        "city": "Hollola",
        "state": "Päijät-Häme",
        "postcode": "16710",
        "country": "Finland",
        "country_code": "fi"
      },
      "address": "Kutajoentie, Hollola, Päijät-Häme, Finland"
    },
    {
      "lat": 61.03794890025755,
      "lon": 25.40856500357782,
      "geoinfo": {
        "display_name": "Jokikuja, Uskila, Kirkonseutu, Hollolan kirkonkylä, Hollola, Lahti sub-region, Päijät-Häme, Mainland Finland, 16710, Finland",
        "road": "Jokikuja",
        "house_number": null,
        "neighbourhood": null,
        "suburb": "Kirkonseutu",
        "city_district": null,
        "city": "Hollola",
        "state": "Päijät-Häme",
        "postcode": "16710",
        "country": "Finland",
        "country_code": "fi"
      },
      "address": "044, Jokikuja, Uskila, Kirkonseutu, Hollolan kirkonkylä, Hollola, Lahti sub-region, Päijät-Häme, Mainland Finland, 16710, Finland"
    },
    {
      "lat": 61.0638408792727,
      "lon": 25.431768178354893,
      "geoinfo": {
        "display_name": "Särkäntie, Kirkonseutu, Hollolan kirkonkylä, Hollola, Lahti sub-region, Päijät-Häme, Mainland Finland, 16710, Finland",
        "road": "Särkäntie",
        "house_number": null,
        "neighbourhood": null,
        "suburb": "Kirkonseutu",
        "city_district": null,
        "city": "Hollola",
        "state": "Päijät-Häme",
        "postcode": "16710",
        "country": "Finland",
        "country_code": "fi"
      },
      "address": "671, Särkäntie, Kirkonseutu, Hollolan kirkonkylä, Hollola, Lahti sub-region, Päijät-Häme, Mainland Finland, 16710, Finland"
    },
    {
      "lat": 61.07567482804918,
      "lon": 25.370966528617323,
      "geoinfo": {
        "display_name": "Kalamiehentie, Kirkonseutu, Hollola, Lahti sub-region, Päijät-Häme, Mainland Finland, Finland",
        "road": "Kalamiehentie",
        "house_number": null,
        "neighbourhood": null,
        "suburb": "Kirkonseutu",
        "city_district": null,
        "city": "Hollola",
        "state": "Päijät-Häme",
        "postcode": null,
        "country": "Finland",
        "country_code": "fi"
      },
      "address": "915, Kalamiehentie, Kirkonseutu, Hollola, Lahti sub-region, Päijät-Häme, 38437 Mainland Finland, Finland"
    },
    {
      "lat": 61.02275974365823,
      "lon": 25.366527955216405,
      "geoinfo": {
        "display_name": "Hatsinantie, Uskila, Kirkonseutu, Hollola, Lahti sub-region, Päijät-Häme, Mainland Finland, Finland",
        "road": "Hatsinantie",
        "house_number": null,
        "neighbourhood": null,
        "suburb": "Kirkonseutu",
        "city_district": null,
        "city": "Hollola",
        "state": "Päijät-Häme",
        "postcode": null,
        "country": "Finland",
        "country_code": "fi"
      },
      "address": "399, Hatsinantie, Uskila, Kirkonseutu, Hollola, Lahti sub-region, Päijät-Häme, 02243 Mainland Finland, Finland"
    }
  ],
  "updated_at": "2025-10-19T04:29:32.986360+00:00",
  "_kind": "geo_samples"
}