{
  "country_code": "FI",
  "country": "Finland",
  "city": "Hyvinge",
  "geonameid": 656913,
  "target_addresses": 2,
  "samples": [
    {
      "lat": 60.66375156366515,
      "lon": 24.93356035596988,
      "geoinfo": {
        "display_name": "Peräniityntie, Jussila, Hyvinkää, Helsinki sub-region, Uusimaa, Mainland Finland, Finland",
        "road": "Peräniityntie",
        "house_number": null,
        "neighbourhood": null,
        "suburb": null,
        "city_district": null,
        "city": "Hyvinkää",
        "state": "Uusimaa",
        "postcode": null,
        "country": "Finland",
        "country_code": "fi"
      },
      "address": "Peräniityntie, Hyvinge, Uusimaa, Finland"
    },
    {
      "lat": 60.656633360370606,
      "lon": 24.86633829812501,
      "geoinfo": {
        "display_name": "Varastokatu, Sahanmäen teollisuusalue, Sahanmäki, Hyvinkää, Helsinki sub-region, Uusimaa, Mainland Finland, 05800, Finland",
        "road": "Varastokatu",
        "house_number": null,
        "neighbourhood": null,
        "suburb": "Sahanmäki",
        "city_district": null,
        "city": "Hyvinkää",
        "state": "Uusimaa",
        "postcode": "05800",
        "country": "Finland",
        "country_code": "fi"
      },
      "address": "Varastokatu, Hyvinge, Uusimaa, Finland"
    },
    {
      "lat": 60.66305914748435,
      "lon": 24.81633670200298,
      "geoinfo": {
        "display_name": "Hyvinkään golf, Pohjoinen kehätie, Paavola, Hyvinkää, Helsinki sub-region, Uusimaa, Mainland Finland, 05880, Finland",
        "road": "Pohjoinen kehätie",
        "house_number": null,
        "neighbourhood": null,
        "suburb": "Paavola",
        "city_district": null,
        "city": "Hyvinkää",
        "state": "Uusimaa",
        "postcode": "05880",
        "country": "Finland",
        "country_code": "fi"
      },
      "address": "186, Pohjoinen kehätie, Hyvinge, 05880 Uusimaa, Finland"
    },
    {
      "lat": 60.6732944154134,
      "lon": 24.881656427231075,
      "geoinfo": {
        "display_name": "Rutikantie, Hausjärvi, Riihimäki sub-region, Kanta-Häme, Mainland Finland, 05801, Finland",
        "road": "Rutikantie",
        "house_number": null,
        "neighbourhood": null,
        "suburb": null,
        "city_district": null,
        "city": null,
        "state": "Kanta-Häme",
        "postcode": "05801",
        "country": "Finland",
        "country_code": "fi"
      },
      "address": "469, Rutikantie, Hausjärvi, Riihimäki sub-region, Kanta-Häme, Mainland Finland, 05801, Finland"
    }
  ],
  "updated_at": "2025-10-19T02:15:25.948934+00:00",
  "_kind": "geo_samples"
}