{
  "country_code": "FI",
  "country": "Finland",
  "city": "Hämeenlinna",
  "geonameid": 659180,
  "target_addresses": 6,
  "samples": [
    {
      "lat": 61.02540299415185,
      "lon": 24.436139725860098,
      "geoinfo": {
        "display_name": "Aulangonkuja, Aulanko, Hämeenlinna, Hämeenlinna sub-region, Kanta-Häme, Mainland Finland, 13600, Finland",
        "road": "Aulangonkuja",
        "house_number": null,
        "neighbourhood": null,
        "suburb": "Aulanko",
        "city_district": "Hämeenlinna",
        "city": "Hämeenlinna",
        "state": "Kanta-Häme",
        "postcode": "13600",
        "country": "Finland",
        "country_code": "fi"
      },
      "address": "Aulangonkuja, Hämeenlinna, Kanta-Häme, Finland"
    },
    {
      "lat": 60.96987368339693,
      "lon": 24.447983092043177,
      "geoinfo": {
        "display_name": "Hattelmalanjärven lintutorni, Aleksis Kiven katu, Ratasniitty, Luolaja, Hämeenlinna, Hämeenlinna sub-region, Kanta-Häme, Mainland Finland, 13430, Finland",
        "road": "Aleksis Kiven katu",
        "house_number": null,
        "neighbourhood": "Ratasniitty",
        "suburb": "Luolaja",
        "city_district": "Hämeenlinna",
        "city": "Hämeenlinna",
        "state": "Kanta-Häme",
        "postcode": "13430",
        "country": "Finland",
        "country_code": "fi"
      },
      "address": "Aleksis Kiven katu, Hämeenlinna, Kanta-Häme, Finland"
    },
    {
      "lat": 61.004195917633986,
      "lon": 24.487058190365733,
      "geoinfo": {
        "display_name": "3, Lähdekuja, Hätilä, Hämeenlinna, Hämeenlinna sub-region, Kanta-Häme, Mainland Finland, 13210, Finland",
        "road": "Lähdekuja",
        "house_number": "3",
        "neighbourhood": null,
        "suburb": "Hätilä",
        "city_district": "Hämeenlinna",
        "city": "Hämeenlinna",
        "state": "Kanta-Häme",
        "postcode": "13210",
        "country": "Finland",
        "country_code": "fi"
      },
      "address": "3, Lähdekuja, Hätilä, Hämeenlinna, Hämeenlinna sub-region, Kanta-Häme, Mainland Finland, 13210, Finland"
    },
    {
      "lat": 61.02174610436675,
      "lon": 24.52125660305028,
      "geoinfo": {
        "display_name": "Kikaristonkatu, Kukostensyrjä, Ruununmylly, Hämeenlinna, Hämeenlinna sub-region, Kanta-Häme, Mainland Finland, 13270, Finland",
        "road": "Kikaristonkatu",
        "house_number": null,
        "neighbourhood": null,
        "suburb": "Ruununmylly",
        "city_district": "Hämeenlinna",
        "city": "Hämeenlinna",
        "state": "Kanta-Häme",
        "postcode": "13270",
        "country": "Finland",
        "country_code": "fi"
      },
      "address": "480, Kikaristonkatu, Kukostensyrjä, Ruununmylly, Hämeenlinna, Hämeenlinna sub-region, Kanta-Häme, Mainland Finland, 13270, Finland"
    },
    {
      "lat": 61.02637775687473,
      "lon": 24.401709045648868,
      "geoinfo": {
        "display_name": "Helsinki-Tampere valtatie, Tuiskula, Kirstula, Hämeenlinna, Hämeenlinna sub-region, Kanta-Häme, Mainland Finland, 13800, Finland",
        "road": "Helsinki-Tampere valtatie",
        "house_number": null,
        "neighbourhood": "Tuiskula",
        "suburb": "Kirstula",
        "city_district": "Hämeenlinna",
        "city": "Hämeenlinna",
        "state": "Kanta-Häme",
        "postcode": "13800",
        "country": "Finland",
        "country_code": "fi"
      },
      "address": "450, Helsinki-Tampere valtatie, Tuiskula, Kirstula, Hämeenlinna, Hämeenlinna sub-region, Kanta-Häme, Mainland Finland, 13800, Finland"
    },
    {
      "lat": 60.95988690594397,
      "lon": 24.411930215359373,
      "geoinfo": {
        "display_name": "232, Luolajantie, Loimalahti, Hämeenlinna, Hämeenlinna sub-region, Kanta-Häme, Mainland Finland, 13500, Finland",
        "road": "Luolajantie",
        "house_number": "232",
        "neighbourhood": null,
        "suburb": "Loimalahti",
        "city_district": "Hämeenlinna",
        "city": "Hämeenlinna",
        "state": "Kanta-Häme",
        "postcode": "13500",
        "country": "Finland",
        "country_code": "fi"
      },
      "address": "232, Luolajantie, Loimalahti, Hämeenlinna, Hämeenlinna sub-region, Kanta-Häme, Mainland Finland, 13500, Finland"
    }
  ],
  "updated_at": "2025-10-19T04:29:48.568728+00:00",
  "_kind": "geo_samples"
}