{
  "country_code": "FI",
  "country": "Finland",
  "city": "Iisalmi",
  "geonameid": 656820,
  "target_addresses": 6,
  "samples": [
    {
      "lat": 63.56676295012139,
      "lon": 27.147785676059442,
      "geoinfo": {
        "display_name": "Käänninniementie, Iisalmi, Upper Savonia, North Savo, Mainland Finland, 74101, Finland",
        "road": "Käänninniementie",
        "house_number": null,
        "neighbourhood": null,
        "suburb": null,
        "city_district": null,
        "city": "Iisalmi",
        "state": "North Savo",
        "postcode": "74101",
        "country": "Finland",
        "country_code": "fi"
      },
      "address": "Käänninniementie, Iisalmi, North Savo, Finland"
    },
    {
      "lat": 63.55939177776415,
      "lon": 27.127418020514344,
      "geoinfo": {
        "display_name": "Porovedentie, Pihlajaharju, Iisalmi, Upper Savonia, North Savo, Mainland Finland, 74150, Finland",
        "road": "Porovedentie",
        "house_number": null,
        "neighbourhood": null,
        "suburb": "Pihlajaharju",
        "city_district": null,
        "city": "Iisalmi",
        "state": "North Savo",
        "postcode": "74150",
        "country": "Finland",
        "country_code": "fi"
      },
      "address": "Porovedentie, Iisalmi, North Savo, Finland"
    },
    {
      "lat": 63.58401190191743,
      "lon": 27.14287229618189,
      "geoinfo": {
        "display_name": "Iisalmi, Upper Savonia, North Savo, Mainland Finland, Finland",
        "road": null,
        "house_number": null,
        "neighbourhood": null,
        "suburb": null,
        "city_district": null,
        "city": "Iisalmi",
        "state": "North Savo",
        "postcode": null,
        "country": "Finland",
        "country_code": "fi"
      },
      "address": "483, Iisalmi, Upper Savonia, North Savo, 64022 Mainland Finland, Finland"
    },
    {
      "lat": 63.53716429013358,
      "lon": 27.2086512295216,
      "geoinfo": {
        "display_name": "Salakkakalliontie, Keveli, Iisalmi, Upper Savonia, North Savo, Mainland Finland, 74130, Finland",
        "road": "Salakkakalliontie",
        "house_number": null,
        "neighbourhood": null,
        "suburb": "Keveli",
        "city_district": null,
        "city": "Iisalmi",
        "state": "North Savo",
        "postcode": "74130",
        "country": "Finland",
        "country_code": "fi"
      },
      "address": "391, Salakkakalliontie, Keveli, Iisalmi, Upper Savonia, North Savo, Mainland Finland, 74130, Finland"
    },
    {
      "lat": 63.54467899034976,
      "lon": 27.10167164898611,
      "geoinfo": {
        "display_name": "Seiskantie, Huotari, Iisalmi, Upper Savonia, North Savo, Mainland Finland, 74150, Finland",
        "road": "Seiskantie",
        "house_number": null,
        "neighbourhood": null,
        "suburb": null,
        "city_district": null,
        "city": "Iisalmi",
        "state": "North Savo",
        "postcode": "74150",
        "country": "Finland",
        "country_code": "fi"
      },
      "address": "547, Seiskantie, Huotari, Iisalmi, Upper Savonia, North Savo, Mainland Finland, 74150, Finland"
    },
    {
      "lat": 63.55581377503452,
      "lon": 27.181587794082976,
      "geoinfo": {
        "display_name": "Haukiniemenkatu, Luuniemi, Iisalmi, Upper Savonia, North Savo, Mainland Finland, 74101, Finland",
        "road": "Haukiniemenkatu",
        "house_number": null,
        "neighbourhood": null,
        "suburb": "Luuniemi",
        "city_district": null,
        "city": "Iisalmi",
        "state": "North Savo",
        "postcode": "74101",
        "country": "Finland",
        "country_code": "fi"
      },
      "address": "959, Haukiniemenkatu, Luuniemi, Iisalmi, Upper Savonia, North Savo, Mainland Finland, 74101, Finland"
    }
  ],
  "updated_at": "2025-10-19T04:29:24.663089+00:00",
  "_kind": "geo_samples"
}