{
  "country_code": "FI",
  "country": "Finland",
  "city": "Janakkala",
  "geonameid": 656073,
  "target_addresses": 2,
  "samples": [
    {
      "lat": 60.87059919300746,
      "lon": 24.534275176696372,
      "geoinfo": {
        "display_name": "Tapialantie, Tuulensuu, Janakkala, Hämeenlinna sub-region, Kanta-Häme, Mainland Finland, 14240, Finland",
        "road": "Tapialantie",
        "house_number": null,
        "neighbourhood": null,
        "suburb": null,
        "city_district": null,
        "city": "Tuulensuu",
        "state": "Kanta-Häme",
        "postcode": "14240",
        "country": "Finland",
        "country_code": "fi"
      },
      "address": "Tapialantie, Janakkala, Kanta-Häme, Finland"
    },
    {
      "lat": 60.90260926912141,
      "lon": 24.613936142681712,
      "geoinfo": {
        "display_name": "Hakoistentie, Oravala, Janakkalan kirkonkylä, Janakkala, Hämeenlinna sub-region, Kanta-Häme, Mainland Finland, Finland",
        "road": "Hakoistentie",
        "house_number": null,
        "neighbourhood": null,
        "suburb": null,
        "city_district": null,
        "city": "Janakkalan kirkonkylä",
        "state": "Kanta-Häme",
        "postcode": null,
        "country": "Finland",
        "country_code": "fi"
      },
      "address": "Hakoistentie, Janakkala, Kanta-Häme, Finland"
    },
    {
      "lat": 60.89906978014456,
      "lon": 24.54620277477793,
      "geoinfo": {
        "display_name": "Junala, Virala, Janakkala, Hämeenlinna sub-region, Kanta-Häme, Mainland Finland, 14240, Finland",
        "road": null,
        "house_number": null,
        "neighbourhood": null,
        "suburb": null,
        "city_district": null,
        "city": "Virala",
        "state": "Kanta-Häme",
        "postcode": "14240",
        "country": "Finland",
        "country_code": "fi"
      },
      "address": "189, Janakkala, 14240 Kanta-Häme, Finland"
    },
    {
      "lat": 60.877414093778235,
      "lon": 24.650059919717748,
      "geoinfo": {
        "display_name": "358, Kernaalantie, Kirkosilta, Kernaala, Janakkala, Hämeenlinna sub-region, Kanta-Häme, Mainland Finland, 14200, Finland",
        "road": "Kernaalantie",
        "house_number": "358",
        "neighbourhood": null,
        "suburb": null,
        "city_district": null,
        "city": "Kernaala",
        "state": "Kanta-Häme",
        "postcode": "14200",
        "country": "Finland",
        "country_code": "fi"
      },
      "address": "358, Kernaalantie, Kirkosilta, Kernaala, Janakkala, Hämeenlinna sub-region, Kanta-Häme, Mainland Finland, 14200, Finland"
    }
  ],
  "updated_at": "2025-10-19T02:15:09.757872+00:00",
  "_kind": "geo_samples"
}