{
  "country_code": "FI",
  "country": "Finland",
  "city": "Jyväskylä",
  "geonameid": 655194,
  "target_addresses": 2,
  "samples": [
    {
      "lat": 62.237872544429656,
      "lon": 25.71037396498889,
      "geoinfo": {
        "display_name": "3, Rautpohjankatu, Rautpohja, Mäki-Matti, Kantakaupunki, Jyväskylä, Jyväskylä sub-region, Central Finland, Mainland Finland, 40700, Finland",
        "road": "Rautpohjankatu",
        "house_number": "3",
        "neighbourhood": "Rautpohja",
        "suburb": "Mäki-Matti",
        "city_district": "Kantakaupunki",
        "city": "Jyväskylä",
        "state": "Central Finland",
        "postcode": "40700",
        "country": "Finland",
        "country_code": "fi"
      },
      "address": "3 Rautpohjankatu, Jyväskylä, Central Finland, Finland"
    },
    {
      "lat": 62.26629783505627,
      "lon": 25.67031340203884,
      "geoinfo": {
        "display_name": "27, Lammeke, Rippalanmäki, Jyväskylä, Jyväskylä sub-region, Central Finland, Mainland Finland, 40660, Finland",
        "road": "Lammeke",
        "house_number": "27",
        "neighbourhood": null,
        "suburb": "Rippalanmäki",
        "city_district": null,
        "city": "Jyväskylä",
        "state": "Central Finland",
        "postcode": "40660",
        "country": "Finland",
        "country_code": "fi"
      },
      "address": "27 Lammeke, Jyväskylä, Central Finland, Finland"
    },
    {
      "lat": 62.208029815827466,
      "lon": 25.72995670234868,
      "geoinfo": {
        "display_name": "Keljonlahdentie, Taipale, Ristikivi, Kuokkala, Jyväskylä, Jyväskylä sub-region, Central Finland, Mainland Finland, 40101, Finland",
        "road": "Keljonlahdentie",
        "house_number": null,
        "neighbourhood": "Taipale",
        "suburb": "Ristikivi",
        "city_district": "Kuokkala",
        "city": "Jyväskylä",
        "state": "Central Finland",
        "postcode": "40101",
        "country": "Finland",
        "country_code": "fi"
      },
      "address": "948, Keljonlahdentie, Taipale, Ristikivi, Kuokkala, Jyväskylä, Jyväskylä sub-region, Central Finland, Mainland Finland, 40101, Finland"
    },
    {
      "lat": 62.20484647101372,
      "lon": 25.732001291720625,
      "geoinfo": {
        "display_name": "Keljonrannantie, Keljonkangas, Keljo, Jyväskylä, Jyväskylä sub-region, Central Finland, Mainland Finland, 40530, Finland",
        "road": "Keljonrannantie",
        "house_number": null,
        "neighbourhood": null,
        "suburb": "Keljonkangas",
        "city_district": "Keljo",
        "city": "Jyväskylä",
        "state": "Central Finland",
        "postcode": "40530",
        "country": "Finland",
        "country_code": "fi"
      },
      "address": "489, Keljonrannantie, Keljonkangas, Keljo, Jyväskylä, Jyväskylä sub-region, Central Finland, Mainland Finland, 40530, Finland"
    }
  ],
  "updated_at": "2025-10-19T02:33:39.343092+00:00",
  "_kind": "geo_samples"
}