{
  "country_code": "FI",
  "country": "Finland",
  "city": "Kangasala",
  "geonameid": 654440,
  "target_addresses": 6,
  "samples": [
    {
      "lat": 61.5026161213451,
      "lon": 24.05430207543503,
      "geoinfo": {
        "display_name": "Erkinkärjentie, Ruutana, Päkinmäki, Kangasala, Tampere sub-region, Pirkanmaa, Mainland Finland, 36110, Finland",
        "road": "Erkinkärjentie",
        "house_number": null,
        "neighbourhood": null,
        "suburb": null,
        "city_district": null,
        "city": "Kangasala",
        "state": "Pirkanmaa",
        "postcode": "36110",
        "country": "Finland",
        "country_code": "fi"
      },
      "address": "Erkinkärjentie, Kangasala, Pirkanmaa, Finland"
    },
    {
      "lat": 61.448718978573446,
      "lon": 24.133456223337866,
      "geoinfo": {
        "display_name": "Lepistöntie, Vääksy, Kangasala, Tampere sub-region, Pirkanmaa, Mainland Finland, 36270, Finland",
        "road": "Lepistöntie",
        "house_number": null,
        "neighbourhood": null,
        "suburb": "Vääksy",
        "city_district": null,
        "city": "Kangasala",
        "state": "Pirkanmaa",
        "postcode": "36270",
        "country": "Finland",
        "country_code": "fi"
      },
      "address": "Lepistöntie, Kangasala, Pirkanmaa, Finland"
    },
    {
      "lat": 61.457754578747355,
      "lon": 24.13911782697562,
      "geoinfo": {
        "display_name": "Kallionpääntie, Vääksy, Kangasala, Tampere sub-region, Pirkanmaa, Mainland Finland, 36270, Finland",
        "road": "Kallionpääntie",
        "house_number": null,
        "neighbourhood": null,
        "suburb": "Vääksy",
        "city_district": null,
        "city": "Kangasala",
        "state": "Pirkanmaa",
        "postcode": "36270",
        "country": "Finland",
        "country_code": "fi"
      },
      "address": "286, Kallionpääntie, Vääksy, Kangasala, Tampere sub-region, Pirkanmaa, Mainland Finland, 36270, Finland"
    },
    {
      "lat": 61.49937324281323,
      "lon": 24.044277783298117,
      "geoinfo": {
        "display_name": "Hallalantie, Riku, Päkinmäki, Kangasala, Tampere sub-region, Pirkanmaa, Mainland Finland, 36110, Finland",
        "road": "Hallalantie",
        "house_number": null,
        "neighbourhood": null,
        "suburb": "Riku",
        "city_district": null,
        "city": "Kangasala",
        "state": "Pirkanmaa",
        "postcode": "36110",
        "country": "Finland",
        "country_code": "fi"
      },
      "address": "702, Hallalantie, Riku, Päkinmäki, Kangasala, Tampere sub-region, Pirkanmaa, Mainland Finland, 36110, Finland"
    },
    {
      "lat": 61.41963506617433,
      "lon": 24.07070792133059,
      "geoinfo": {
        "display_name": "Vietäväntie, Tiihala, Kangasala, Tampere sub-region, Pirkanmaa, Mainland Finland, Finland",
        "road": "Vietäväntie",
        "house_number": null,
        "neighbourhood": null,
        "suburb": "Tiihala",
        "city_district": null,
        "city": "Kangasala",
        "state": "Pirkanmaa",
        "postcode": null,
        "country": "Finland",
        "country_code": "fi"
      },
      "address": "819, Vietäväntie, Tiihala, Kangasala, Tampere sub-region, Pirkanmaa, 22649 Mainland Finland, Finland"
    },
    {
      "lat": 61.507688324833644,
      "lon": 24.084995545853662,
      "geoinfo": {
        "display_name": "Ruutana, Laureeninkallio, Kangasala, Tampere sub-region, Pirkanmaa, Mainland Finland, 36110, Finland",
        "road": null,
        "house_number": null,
        "neighbourhood": null,
        "suburb": null,
        "city_district": null,
        "city": "Kangasala",
        "state": "Pirkanmaa",
        "postcode": "36110",
        "country": "Finland",
        "country_code": "fi"
      },
      "address": "721, Ruutana, Laureeninkallio, Kangasala, Tampere sub-region, Pirkanmaa, Mainland Finland, 36110, Finland"
    }
  ],
  "updated_at": "2025-10-19T04:29:01.722442+00:00",
  "_kind": "geo_samples"
}