{
  "country_code": "FI",
  "country": "Finland",
  "city": "Kirkkonummi",
  "geonameid": 649630,
  "target_addresses": 6,
  "samples": [
    {
      "lat": 60.101123702343955,
      "lon": 24.373513235851693,
      "geoinfo": {
        "display_name": "100, Båtvikintie, Kantvik, Eteläinen Kirkkonummi, Kirkkonummi, Helsinki sub-region, Uusimaa, Mainland Finland, 02480, Finland",
        "road": "Båtvikintie",
        "house_number": "100",
        "neighbourhood": null,
        "suburb": "Kantvik",
        "city_district": "Eteläinen Kirkkonummi",
        "city": "Kirkkonummi",
        "state": "Uusimaa",
        "postcode": "02480",
        "country": "Finland",
        "country_code": "fi"
      },
      "address": "100 Båtvikintie, Kirkkonummi, Uusimaa, Finland"
    },
    {
      "lat": 60.15072342804417,
      "lon": 24.404175032309,
      "geoinfo": {
        "display_name": "380a, Volsintie, Ingels, Myllykylä, Keskinen Kirkkonummi, Kirkkonummi, Helsinki sub-region, Uusimaa, Mainland Finland, 02410, Finland",
        "road": "Volsintie",
        "house_number": "380a",
        "neighbourhood": "Ingels",
        "suburb": "Myllykylä",
        "city_district": "Keskinen Kirkkonummi",
        "city": "Kirkkonummi",
        "state": "Uusimaa",
        "postcode": "02410",
        "country": "Finland",
        "country_code": "fi"
      },
      "address": "380a Volsintie, Kirkkonummi, Uusimaa, Finland"
    },
    {
      "lat": 60.11353188469689,
      "lon": 24.356994128937743,
      "geoinfo": {
        "display_name": "540, Överbyntie, Överby, Keskinen Kirkkonummi, Kirkkonummi, Helsinki sub-region, Uusimaa, Mainland Finland, 02490, Finland",
        "road": "Överbyntie",
        "house_number": "540",
        "neighbourhood": null,
        "suburb": "Överby",
        "city_district": "Keskinen Kirkkonummi",
        "city": "Kirkkonummi",
        "state": "Uusimaa",
        "postcode": "02490",
        "country": "Finland",
        "country_code": "fi"
      },
      "address": "540, Överbyntie, Överby, Keskinen Kirkkonummi, Kirkkonummi, Helsinki sub-region, Uusimaa, Mainland Finland, 02490, Finland"
    },
    {
      "lat": 60.12818359518323,
      "lon": 24.371765164964753,
      "geoinfo": {
        "display_name": "31, Bergträskinpolku, Överby, Keskinen Kirkkonummi, Kirkkonummi, Helsinki sub-region, Uusimaa, Mainland Finland, 02400, Finland",
        "road": "Bergträskinpolku",
        "house_number": "31",
        "neighbourhood": null,
        "suburb": "Överby",
        "city_district": "Keskinen Kirkkonummi",
        "city": "Kirkkonummi",
        "state": "Uusimaa",
        "postcode": "02400",
        "country": "Finland",
        "country_code": "fi"
      },
      "address": "31, Bergträskinpolku, Överby, Keskinen Kirkkonummi, Kirkkonummi, Helsinki sub-region, Uusimaa, Mainland Finland, 02400, Finland"
    },
    {
      "lat": 60.12729404605881,
      "lon": 24.51942700717321,
      "geoinfo": {
        "display_name": "112, Hirsalantie, Jorvas, Itäinen Kirkkonummi, Kirkkonummi, Helsinki sub-region, Uusimaa, Mainland Finland, 02420, Finland",
        "road": "Hirsalantie",
        "house_number": "112",
        "neighbourhood": null,
        "suburb": "Jorvas",
        "city_district": "Itäinen Kirkkonummi",
        "city": "Kirkkonummi",
        "state": "Uusimaa",
        "postcode": "02420",
        "country": "Finland",
        "country_code": "fi"
      },
      "address": "112, Hirsalantie, Jorvas, Itäinen Kirkkonummi, Kirkkonummi, Helsinki sub-region, Uusimaa, Mainland Finland, 02420, Finland"
    },
    {
      "lat": 60.09694209491294,
      "lon": 24.454598738434598,
      "geoinfo": {
        "display_name": "200, Eestinkyläntie, Fräsars, Eestinkylä, Eteläinen Kirkkonummi, Kirkkonummi, Helsinki sub-region, Uusimaa, Mainland Finland, 02480, Finland",
        "road": "Eestinkyläntie",
        "house_number": "200",
        "neighbourhood": "Fräsars",
        "suburb": "Eestinkylä",
        "city_district": "Eteläinen Kirkkonummi",
        "city": "Kirkkonummi",
        "state": "Uusimaa",
        "postcode": "02480",
        "country": "Finland",
        "country_code": "fi"
      },
      "address": "200, Eestinkyläntie, Fräsars, Eestinkylä, Eteläinen Kirkkonummi, Kirkkonummi, Helsinki sub-region, Uusimaa, Mainland Finland, 02480, Finland"
    }
  ],
  "updated_at": "2025-10-19T04:28:53.609438+00:00",
  "_kind": "geo_samples"
}