{
  "country_code": "FI",
  "country": "Finland",
  "city": "Kokkola",
  "geonameid": 651943,
  "target_addresses": 2,
  "samples": [
    {
      "lat": 63.862337750163434,
      "lon": 23.09622732163232,
      "geoinfo": {
        "display_name": "Harrinniementie, Meritulli, Kokkola, Kokkola sub-region, Central Ostrobothnia, Mainland Finland, 67200, Finland",
        "road": "Harrinniementie",
        "house_number": null,
        "neighbourhood": null,
        "suburb": "Meritulli",
        "city_district": null,
        "city": "Kokkola",
        "state": "Central Ostrobothnia",
        "postcode": "67200",
        "country": "Finland",
        "country_code": "fi"
      },
      "address": "Harrinniementie, Kokkola, Central Ostrobothnia, Finland"
    },
    {
      "lat": 63.812591213190174,
      "lon": 23.15509431468307,
      "geoinfo": {
        "display_name": "45, Sokojantie, Piilesmäki, Ventus, Kokkola, Kokkola sub-region, Central Ostrobothnia, Mainland Finland, 67600, Finland",
        "road": "Sokojantie",
        "house_number": "45",
        "neighbourhood": "Piilesmäki",
        "suburb": "Ventus",
        "city_district": null,
        "city": "Kokkola",
        "state": "Central Ostrobothnia",
        "postcode": "67600",
        "country": "Finland",
        "country_code": "fi"
      },
      "address": "45 Sokojantie, Kokkola, Central Ostrobothnia, Finland"
    },
    {
      "lat": 63.872321584316815,
      "lon": 23.11109466496069,
      "geoinfo": {
        "display_name": "Mustakari, Räihä, Meritulli, Kokkola, Kokkola sub-region, Central Ostrobothnia, Mainland Finland, 67300, Finland",
        "road": null,
        "house_number": null,
        "neighbourhood": "Räihä",
        "suburb": "Meritulli",
        "city_district": null,
        "city": "Kokkola",
        "state": "Central Ostrobothnia",
        "postcode": "67300",
        "country": "Finland",
        "country_code": "fi"
      },
      "address": "542, Mustakari, Räihä, Meritulli, Kokkola, Kokkola sub-region, Central Ostrobothnia, Mainland Finland, 67300, Finland"
    },
    {
      "lat": 63.86919644689998,
      "lon": 23.135410609382966,
      "geoinfo": {
        "display_name": "Varvintie, Räihä, Kaanaanmaa, Kokkola, Kokkola sub-region, Central Ostrobothnia, Mainland Finland, 67300, Finland",
        "road": "Varvintie",
        "house_number": null,
        "neighbourhood": "Räihä",
        "suburb": "Kaanaanmaa",
        "city_district": null,
        "city": "Kokkola",
        "state": "Central Ostrobothnia",
        "postcode": "67300",
        "country": "Finland",
        "country_code": "fi"
      },
      "address": "496, Varvintie, Räihä, Kaanaanmaa, Kokkola, Kokkola sub-region, Central Ostrobothnia, Mainland Finland, 67300, Finland"
    }
  ],
  "updated_at": "2025-10-19T02:14:50.449662+00:00",
  "_kind": "geo_samples"
}