{
  "country_code": "FI",
  "country": "Finland",
  "city": "Korsholm",
  "geonameid": 651299,
  "target_addresses": 2,
  "samples": [
    {
      "lat": 63.13793981346632,
      "lon": 21.653471156161242,
      "geoinfo": {
        "display_name": "Länsiniityntie, Länsiniitty, Böle, Vaasa, Ostrobothnia, Mainland Finland, 65300, Finland",
        "road": "Länsiniityntie",
        "house_number": null,
        "neighbourhood": null,
        "suburb": "Länsiniitty",
        "city_district": "Vaasa",
        "city": "Vaasa",
        "state": "Ostrobothnia",
        "postcode": "65300",
        "country": "Finland",
        "country_code": "fi"
      },
      "address": "Länsiniityntie, Korsholm, Ostrobothnia, Finland"
    },
    {
      "lat": 63.11827583818364,
      "lon": 21.590123140780406,
      "geoinfo": {
        "display_name": "Huvilatie, Gerby, Vaasa, Vaasa sub-region, Ostrobothnia, Mainland Finland, 65200, Finland",
        "road": "Huvilatie",
        "house_number": null,
        "neighbourhood": null,
        "suburb": "Gerby",
        "city_district": "Vaasa",
        "city": "Vaasa",
        "state": "Ostrobothnia",
        "postcode": "65200",
        "country": "Finland",
        "country_code": "fi"
      },
      "address": "Huvilatie, Korsholm, Ostrobothnia, Finland"
    },
    {
      "lat": 63.09174239711834,
      "lon": 21.723453498764542,
      "geoinfo": {
        "display_name": "Kultanummi, 8, Vanhan Vaasan katu, Ristinummi, Vaasa, Ostrobothnia, Mainland Finland, 65370, Finland",
        "road": "Vanhan Vaasan katu",
        "house_number": "8",
        "neighbourhood": null,
        "suburb": "Ristinummi",
        "city_district": "Vaasa",
        "city": "Vaasa",
        "state": "Ostrobothnia",
        "postcode": "65370",
        "country": "Finland",
        "country_code": "fi"
      },
      "address": "Kultanummi, 8, Vanhan Vaasan katu, Ristinummi, Vaasa, Ostrobothnia, Mainland Finland, 65370, Finland"
    },
    {
      "lat": 63.117110906484946,
      "lon": 21.720621786542857,
      "geoinfo": {
        "display_name": "Fältskärsvägen, Fågelberget, Korsholm, Ostrobothnia, Mainland Finland, 65610, Finland",
        "road": "Fältskärsvägen",
        "house_number": null,
        "neighbourhood": null,
        "suburb": "Fågelberget",
        "city_district": null,
        "city": "Korsholm",
        "state": "Ostrobothnia",
        "postcode": "65610",
        "country": "Finland",
        "country_code": "fi"
      },
      "address": "037, Fältskärsvägen, Fågelberget, Korsholm, Ostrobothnia, Mainland Finland, 65610, Finland"
    }
  ],
  "updated_at": "2025-10-19T04:11:48.709789+00:00",
  "_kind": "geo_samples"
}