{
  "country_code": "FI",
  "country": "Finland",
  "city": "Kouvola",
  "geonameid": 650859,
  "target_addresses": 2,
  "samples": [
    {
      "lat": 60.86624593559436,
      "lon": 26.748726108022954,
      "geoinfo": {
        "display_name": "29, Kojumäenkierto, Mielakanrinne, Mielakka, Kouvolan keskustan suuralue, Kouvola, Kouvola sub-region, Kymenlaakso, Mainland Finland, 45120, Finland",
        "road": "Kojumäenkierto",
        "house_number": "29",
        "neighbourhood": "Mielakanrinne",
        "suburb": "Mielakka",
        "city_district": "Kouvolan keskustan suuralue",
        "city": "Kouvola",
        "state": "Kymenlaakso",
        "postcode": "45120",
        "country": "Finland",
        "country_code": "fi"
      },
      "address": "29 Kojumäenkierto, Kouvola, Kymenlaakso, Finland"
    },
    {
      "lat": 60.849302211085764,
      "lon": 26.774201675746323,
      "geoinfo": {
        "display_name": "Ojamaantie, Ojamaa, Kiehuva, Valkealan suuralue, Kouvola, Kouvola sub-region, Kymenlaakso, Mainland Finland, 45200, Finland",
        "road": "Ojamaantie",
        "house_number": null,
        "neighbourhood": null,
        "suburb": "Ojamaa",
        "city_district": "Valkealan suuralue",
        "city": "Kouvola",
        "state": "Kymenlaakso",
        "postcode": "45200",
        "country": "Finland",
        "country_code": "fi"
      },
      "address": "Ojamaantie, Kouvola, Kymenlaakso, Finland"
    },
    {
      "lat": 60.86687138879612,
      "lon": 26.77717119881432,
      "geoinfo": {
        "display_name": "Muokkaajanmutka, Tehola, Mielakka, Kouvolan keskustan suuralue, Kouvola, Kouvola sub-region, Kymenlaakso, Mainland Finland, 45200, Finland",
        "road": "Muokkaajanmutka",
        "house_number": null,
        "neighbourhood": "Tehola",
        "suburb": "Mielakka",
        "city_district": "Kouvolan keskustan suuralue",
        "city": "Kouvola",
        "state": "Kymenlaakso",
        "postcode": "45200",
        "country": "Finland",
        "country_code": "fi"
      },
      "address": "564, Muokkaajanmutka, Tehola, Mielakka, Kouvolan keskustan suuralue, Kouvola, Kouvola sub-region, Kymenlaakso, Mainland Finland, 45200, Finland"
    },
    {
      "lat": 60.85395844746104,
      "lon": 26.67918671353598,
      "geoinfo": {
        "display_name": "7, Alakyläntie, Rekola, Kankaro, Kouvolan keskustan suuralue, Kouvola, Kouvola sub-region, Kymenlaakso, Mainland Finland, 45100, Finland",
        "road": "Alakyläntie",
        "house_number": "7",
        "neighbourhood": null,
        "suburb": "Rekola",
        "city_district": "Kouvolan keskustan suuralue",
        "city": "Kouvola",
        "state": "Kymenlaakso",
        "postcode": "45100",
        "country": "Finland",
        "country_code": "fi"
      },
      "address": "7, Alakyläntie, Rekola, Kankaro, Kouvolan keskustan suuralue, Kouvola, Kouvola sub-region, Kymenlaakso, Mainland Finland, 45100, Finland"
    }
  ],
  "updated_at": "2025-10-19T04:11:41.675081+00:00",
  "_kind": "geo_samples"
}