{
  "country_code": "FI",
  "country": "Finland",
  "city": "Kuopio",
  "geonameid": 650224,
  "target_addresses": 2,
  "samples": [
    {
      "lat": 62.9022634233922,
      "lon": 27.72008174696663,
      "geoinfo": {
        "display_name": "25, Virtasalmenkatu, Itkonniemi, Kuopio, Kuopio sub-region, North Savo, Mainland Finland, 70500, Finland",
        "road": "Virtasalmenkatu",
        "house_number": "25",
        "neighbourhood": null,
        "suburb": "Itkonniemi",
        "city_district": null,
        "city": "Kuopio",
        "state": "North Savo",
        "postcode": "70500",
        "country": "Finland",
        "country_code": "fi"
      },
      "address": "25 Virtasalmenkatu, Kuopio, North Savo, Finland"
    },
    {
      "lat": 62.86950109974681,
      "lon": 27.689026060000295,
      "geoinfo": {
        "display_name": "21, Kukkaroniemenkatu, Käränkä, Lehtoniemi, Kuopio, Kuopio sub-region, North Savo, Mainland Finland, 70840, Finland",
        "road": "Kukkaroniemenkatu",
        "house_number": "21",
        "neighbourhood": "Käränkä",
        "suburb": "Lehtoniemi",
        "city_district": null,
        "city": "Kuopio",
        "state": "North Savo",
        "postcode": "70840",
        "country": "Finland",
        "country_code": "fi"
      },
      "address": "21 Kukkaroniemenkatu, Kuopio, North Savo, Finland"
    },
    {
      "lat": 62.93277471564083,
      "lon": 27.646254036778654,
      "geoinfo": {
        "display_name": "Julkulanmäki, Puijon mtb-reitti, Julkula, Kuopio, Kuopio sub-region, North Savo, Mainland Finland, 70280, Finland",
        "road": "Puijon mtb-reitti",
        "house_number": null,
        "neighbourhood": null,
        "suburb": "Julkula",
        "city_district": null,
        "city": "Kuopio",
        "state": "North Savo",
        "postcode": "70280",
        "country": "Finland",
        "country_code": "fi"
      },
      "address": "771, Puijon mtb-reitti, Kuopio, 70280 North Savo, Finland"
    },
    {
      "lat": 62.89109313514558,
      "lon": 27.768977570185097,
      "geoinfo": {
        "display_name": "Kuopio, Kuopio sub-region, North Savo, Mainland Finland, Finland",
        "road": null,
        "house_number": null,
        "neighbourhood": null,
        "suburb": null,
        "city_district": null,
        "city": "Kuopio",
        "state": "North Savo",
        "postcode": null,
        "country": "Finland",
        "country_code": "fi"
      },
      "address": "144, Kuopio, Kuopio sub-region, North Savo, 29364 Mainland Finland, Finland"
    }
  ],
  "updated_at": "2025-10-19T02:33:32.058860+00:00",
  "_kind": "geo_samples"
}