{
  "country_code": "FI",
  "country": "Finland",
  "city": "Lahti",
  "geonameid": 649360,
  "target_addresses": 6,
  "samples": [
    {
      "lat": 60.98566275943689,
      "lon": 25.654112127891512,
      "geoinfo": {
        "display_name": "Lumisota, Kirkkokatu, Central Lahti, Lahti, Lahti sub-region, Päijät-Häme, Mainland Finland, 15110, Finland",
        "road": "Kirkkokatu",
        "house_number": null,
        "neighbourhood": null,
        "suburb": "Central Lahti",
        "city_district": null,
        "city": "Lahti",
        "state": "Päijät-Häme",
        "postcode": "15110",
        "country": "Finland",
        "country_code": "fi"
      },
      "address": "Kirkkokatu, Lahti, Päijät-Häme, Finland"
    },
    {
      "lat": 60.998673256620414,
      "lon": 25.674444460787033,
      "geoinfo": {
        "display_name": "Heinlammintie, Vesterås, Kivimaa, Lahti, Lahti sub-region, Päijät-Häme, Mainland Finland, 15200, Finland",
        "road": "Heinlammintie",
        "house_number": null,
        "neighbourhood": null,
        "suburb": "Kivimaa",
        "city_district": null,
        "city": "Lahti",
        "state": "Päijät-Häme",
        "postcode": "15200",
        "country": "Finland",
        "country_code": "fi"
      },
      "address": "Heinlammintie, Lahti, Päijät-Häme, Finland"
    },
    {
      "lat": 61.01491151702772,
      "lon": 25.64837141680524,
      "geoinfo": {
        "display_name": "Niemenkatu, Mukkula, Lahti, Lahti sub-region, Päijät-Häme, Mainland Finland, 15240, Finland",
        "road": "Niemenkatu",
        "house_number": null,
        "neighbourhood": null,
        "suburb": "Mukkula",
        "city_district": null,
        "city": "Lahti",
        "state": "Päijät-Häme",
        "postcode": "15240",
        "country": "Finland",
        "country_code": "fi"
      },
      "address": "091, Niemenkatu, Mukkula, Lahti, Lahti sub-region, Päijät-Häme, Mainland Finland, 15240, Finland"
    },
    {
      "lat": 60.94870678057821,
      "lon": 25.713331446811754,
      "geoinfo": {
        "display_name": "Rauhalantie, Kujala, Lahti, Lahti sub-region, Päijät-Häme, Mainland Finland, 15520, Finland",
        "road": "Rauhalantie",
        "house_number": null,
        "neighbourhood": null,
        "suburb": "Kujala",
        "city_district": null,
        "city": "Lahti",
        "state": "Päijät-Häme",
        "postcode": "15520",
        "country": "Finland",
        "country_code": "fi"
      },
      "address": "661, Rauhalantie, Kujala, Lahti, Lahti sub-region, Päijät-Häme, Mainland Finland, 15520, Finland"
    },
    {
      "lat": 61.02386690347042,
      "lon": 25.687699201679703,
      "geoinfo": {
        "display_name": "6, Aidaskatu, Soltti, Kilpiäinen, Lahti, Lahti sub-region, Päijät-Häme, Mainland Finland, 15240, Finland",
        "road": "Aidaskatu",
        "house_number": "6",
        "neighbourhood": null,
        "suburb": "Soltti",
        "city_district": null,
        "city": "Lahti",
        "state": "Päijät-Häme",
        "postcode": "15240",
        "country": "Finland",
        "country_code": "fi"
      },
      "address": "6, Aidaskatu, Soltti, Kilpiäinen, Lahti, Lahti sub-region, Päijät-Häme, Mainland Finland, 15240, Finland"
    },
    {
      "lat": 60.97181712214885,
      "lon": 25.607442197934336,
      "geoinfo": {
        "display_name": "11, Katsastajankatu, Metsäkangas, Kärpänen, Lahti, Lahti sub-region, Päijät-Häme, Mainland Finland, 15800, Finland",
        "road": "Katsastajankatu",
        "house_number": "11",
        "neighbourhood": null,
        "suburb": "Metsäkangas",
        "city_district": null,
        "city": "Lahti",
        "state": "Päijät-Häme",
        "postcode": "15800",
        "country": "Finland",
        "country_code": "fi"
      },
      "address": "11, Katsastajankatu, Metsäkangas, Kärpänen, Lahti, Lahti sub-region, Päijät-Häme, Mainland Finland, 15800, Finland"
    }
  ],
  "updated_at": "2025-10-19T04:28:46.464274+00:00",
  "_kind": "geo_samples"
}