{
  "country_code": "FI",
  "country": "Finland",
  "city": "Lauttasaari",
  "geonameid": 648635,
  "target_addresses": 2,
  "samples": [
    {
      "lat": 60.16725665281114,
      "lon": 24.908827661088253,
      "geoinfo": {
        "display_name": "Länsiväylä, Salmisaari, Ruoholahti, Länsisatama, Southern major district, Helsinki, Helsinki sub-region, Uusimaa, Mainland Finland, 00180, Finland",
        "road": "Länsiväylä",
        "house_number": null,
        "neighbourhood": null,
        "suburb": "Ruoholahti",
        "city_district": "Southern major district",
        "city": "Helsinki",
        "state": "Uusimaa",
        "postcode": "00180",
        "country": "Finland",
        "country_code": "fi"
      },
      "address": "Länsiväylä, Lauttasaari, Uusimaa, Finland"
    },
    {
      "lat": 60.15616510111224,
      "lon": 24.846012374859864,
      "geoinfo": {
        "display_name": "Vaskisalmenkuja, Koivusaari, Lauttasaari, Southern major district, Helsinki, Helsinki sub-region, Uusimaa, Mainland Finland, 00200, Finland",
        "road": "Vaskisalmenkuja",
        "house_number": null,
        "neighbourhood": "Koivusaari",
        "suburb": "Lauttasaari",
        "city_district": "Southern major district",
        "city": "Helsinki",
        "state": "Uusimaa",
        "postcode": "00200",
        "country": "Finland",
        "country_code": "fi"
      },
      "address": "Vaskisalmenkuja, Lauttasaari, Uusimaa, Finland"
    },
    {
      "lat": 60.12779424395665,
      "lon": 24.85354623547557,
      "geoinfo": {
        "display_name": "Länsisaaret, Ulkosaaret, Southern major district, Helsinki, Helsinki sub-region, Uusimaa, Mainland Finland, Finland",
        "road": null,
        "house_number": null,
        "neighbourhood": "Länsisaaret",
        "suburb": "Ulkosaaret",
        "city_district": "Southern major district",
        "city": "Helsinki",
        "state": "Uusimaa",
        "postcode": null,
        "country": "Finland",
        "country_code": "fi"
      },
      "address": "492, Länsisaaret, Ulkosaaret, Southern major district, Helsinki, Helsinki sub-region, Uusimaa, 66974 Mainland Finland, Finland"
    },
    {
      "lat": 60.13992423998254,
      "lon": 24.867939346955712,
      "geoinfo": {
        "display_name": "Länsisaaret, Ulkosaaret, Southern major district, Helsinki, Helsinki sub-region, Uusimaa, Mainland Finland, Finland",
        "road": null,
        "house_number": null,
        "neighbourhood": "Länsisaaret",
        "suburb": "Ulkosaaret",
        "city_district": "Southern major district",
        "city": "Helsinki",
        "state": "Uusimaa",
        "postcode": null,
        "country": "Finland",
        "country_code": "fi"
      },
      "address": "975, Länsisaaret, Ulkosaaret, Southern major district, Helsinki, Helsinki sub-region, Uusimaa, 78138 Mainland Finland, Finland"
    }
  ],
  "updated_at": "2025-10-19T04:06:53.855753+00:00",
  "_kind": "geo_samples"
}