{
  "country_code": "FI",
  "country": "Finland",
  "city": "Nokia",
  "geonameid": 644450,
  "target_addresses": 6,
  "samples": [
    {
      "lat": 61.43306786925036,
      "lon": 23.45173094346171,
      "geoinfo": {
        "display_name": "Sorvantie, Sorva, Muu Nokia, Nokia, Tampere sub-region, Pirkanmaa, Mainland Finland, 37140, Finland",
        "road": "Sorvantie",
        "house_number": null,
        "neighbourhood": null,
        "suburb": "Sorva",
        "city_district": "Muu Nokia",
        "city": "Nokia",
        "state": "Pirkanmaa",
        "postcode": "37140",
        "country": "Finland",
        "country_code": "fi"
      },
      "address": "Sorvantie, Nokia, Pirkanmaa, Finland"
    },
    {
      "lat": 61.49806777028077,
      "lon": 23.532822523220954,
      "geoinfo": {
        "display_name": "Öljytie, Kankaantaan pienteollisuusalue, Myllyhaka, Keskustaajama, Nokia, Tampere sub-region, Pirkanmaa, Mainland Finland, 37101, Finland",
        "road": "Öljytie",
        "house_number": null,
        "neighbourhood": null,
        "suburb": "Kankaantaan pienteollisuusalue",
        "city_district": "Keskustaajama",
        "city": "Nokia",
        "state": "Pirkanmaa",
        "postcode": "37101",
        "country": "Finland",
        "country_code": "fi"
      },
      "address": "Öljytie, Nokia, Pirkanmaa, Finland"
    },
    {
      "lat": 61.46236565779345,
      "lon": 23.551516406577097,
      "geoinfo": {
        "display_name": "Uittamonnokantie, Pirkkalankylä, Pirkkala, Tampere sub-region, Pirkanmaa, Mainland Finland, 37100, Finland",
        "road": "Uittamonnokantie",
        "house_number": null,
        "neighbourhood": null,
        "suburb": null,
        "city_district": null,
        "city": "Pirkkala",
        "state": "Pirkanmaa",
        "postcode": "37100",
        "country": "Finland",
        "country_code": "fi"
      },
      "address": "810, Uittamonnokantie, Pirkkalankylä, Pirkkala, Tampere sub-region, Pirkanmaa, Mainland Finland, 37100, Finland"
    },
    {
      "lat": 61.500243134416834,
      "lon": 23.466254427221813,
      "geoinfo": {
        "display_name": "Porintie, Lähdeniitty, Aaroninkorpi-Lähdeniitty, Keskustaajama, Nokia, Tampere sub-region, Pirkanmaa, Mainland Finland, 37130, Finland",
        "road": "Porintie",
        "house_number": null,
        "neighbourhood": null,
        "suburb": "Lähdeniitty",
        "city_district": "Keskustaajama",
        "city": "Nokia",
        "state": "Pirkanmaa",
        "postcode": "37130",
        "country": "Finland",
        "country_code": "fi"
      },
      "address": "494, Porintie, Lähdeniitty, Aaroninkorpi-Lähdeniitty, Keskustaajama, Nokia, Tampere sub-region, Pirkanmaa, Mainland Finland, 37130, Finland"
    },
    {
      "lat": 61.478668861713494,
      "lon": 23.539592687375034,
      "geoinfo": {
        "display_name": "Turuntie, Viiki, Keskustaajama, Nokia, Tampere sub-region, Pirkanmaa, Mainland Finland, 37101, Finland",
        "road": "Turuntie",
        "house_number": null,
        "neighbourhood": null,
        "suburb": "Viiki",
        "city_district": "Keskustaajama",
        "city": "Nokia",
        "state": "Pirkanmaa",
        "postcode": "37101",
        "country": "Finland",
        "country_code": "fi"
      },
      "address": "927, Turuntie, Viiki, Keskustaajama, Nokia, Tampere sub-region, Pirkanmaa, Mainland Finland, 37101, Finland"
    },
    {
      "lat": 61.44039811087212,
      "lon": 23.517882003553716,
      "geoinfo": {
        "display_name": "Tervasuo, Keskustaajama, Nokia, Tampere sub-region, Pirkanmaa, Mainland Finland, Finland",
        "road": null,
        "house_number": null,
        "neighbourhood": null,
        "suburb": "Tervasuo",
        "city_district": "Keskustaajama",
        "city": "Nokia",
        "state": "Pirkanmaa",
        "postcode": null,
        "country": "Finland",
        "country_code": "fi"
      },
      "address": "959, Tervasuo, Keskustaajama, Nokia, Tampere sub-region, Pirkanmaa, 00225 Mainland Finland, Finland"
    }
  ],
  "updated_at": "2025-10-19T04:28:30.496860+00:00",
  "_kind": "geo_samples"
}