{
  "country_code": "FI",
  "country": "Finland",
  "city": "Olari",
  "geonameid": 843404,
  "target_addresses": 2,
  "samples": [
    {
      "lat": 60.17747170147698,
      "lon": 24.71681252918019,
      "geoinfo": {
        "display_name": "Keelkorvenpolku, Holmanmäki, Friisilä, Olari, Suur-Matinkylä, Espoo, Helsinki sub-region, Uusimaa, Mainland Finland, 02240, Finland",
        "road": "Keelkorvenpolku",
        "house_number": null,
        "neighbourhood": "Holmanmäki",
        "suburb": "Olari",
        "city_district": "Suur-Matinkylä",
        "city": "Espoo",
        "state": "Uusimaa",
        "postcode": "02240",
        "country": "Finland",
        "country_code": "fi"
      },
      "address": "Keelkorvenpolku, Olari, Uusimaa, Finland"
    },
    {
      "lat": 60.17503250836154,
      "lon": 24.73409401915695,
      "geoinfo": {
        "display_name": "Ruomelanpolku, Olarinmäki, Olari, Suur-Matinkylä, Espoo, Helsinki sub-region, Uusimaa, Mainland Finland, 02210, Finland",
        "road": "Ruomelanpolku",
        "house_number": null,
        "neighbourhood": null,
        "suburb": "Olari",
        "city_district": "Suur-Matinkylä",
        "city": "Espoo",
        "state": "Uusimaa",
        "postcode": "02210",
        "country": "Finland",
        "country_code": "fi"
      },
      "address": "Ruomelanpolku, Olari, Uusimaa, Finland"
    },
    {
      "lat": 60.176015871244374,
      "lon": 24.699505599302903,
      "geoinfo": {
        "display_name": "Kiitäjänpolku, Holmanmäki, Friisilä, Olari, Suur-Matinkylä, Espoo, Helsinki sub-region, Uusimaa, Mainland Finland, 02070, Finland",
        "road": "Kiitäjänpolku",
        "house_number": null,
        "neighbourhood": "Holmanmäki",
        "suburb": "Olari",
        "city_district": "Suur-Matinkylä",
        "city": "Espoo",
        "state": "Uusimaa",
        "postcode": "02070",
        "country": "Finland",
        "country_code": "fi"
      },
      "address": "658, Kiitäjänpolku, Holmanmäki, Friisilä, Olari, Suur-Matinkylä, Espoo, Helsinki sub-region, Uusimaa, Mainland Finland, 02070, Finland"
    },
    {
      "lat": 60.153145438723996,
      "lon": 24.737552831871195,
      "geoinfo": {
        "display_name": "Tiistilän koulu, 4, Tiistilänkuja, Sepetlahti, Tiistilä, Matinkylä, Suur-Matinkylä, Espoo, Helsinki sub-region, Uusimaa, Mainland Finland, 02230, Finland",
        "road": "Tiistilänkuja",
        "house_number": "4",
        "neighbourhood": "Sepetlahti",
        "suburb": "Matinkylä",
        "city_district": "Suur-Matinkylä",
        "city": "Espoo",
        "state": "Uusimaa",
        "postcode": "02230",
        "country": "Finland",
        "country_code": "fi"
      },
      "address": "Tiistilän koulu, 4, Tiistilänkuja, Sepetlahti, Tiistilä, Matinkylä, Suur-Matinkylä, Espoo, Helsinki sub-region, Uusimaa, Mainland Finland, 02230, Finland"
    }
  ],
  "updated_at": "2025-10-19T02:33:54.864008+00:00",
  "_kind": "geo_samples"
}