{
  "country_code": "FI",
  "country": "Finland",
  "city": "Suutarila",
  "geonameid": 847506,
  "target_addresses": 2,
  "samples": [
    {
      "lat": 60.293300984234335,
      "lon": 25.051511318218537,
      "geoinfo": {
        "display_name": "A, 35, Tikkurilantie, Satomäki, Jokiniemi, Tikkurilan suuralue, Vantaa, Helsinki sub-region, Uusimaa, Mainland Finland, 01370, Finland",
        "road": "Tikkurilantie",
        "house_number": "35",
        "neighbourhood": null,
        "suburb": "Jokiniemi",
        "city_district": "Tikkurilan suuralue",
        "city": "Vantaa",
        "state": "Uusimaa",
        "postcode": "01370",
        "country": "Finland",
        "country_code": "fi"
      },
      "address": "35 Tikkurilantie, Suutarila, Uusimaa, Finland"
    },
    {
      "lat": 60.277753573357415,
      "lon": 24.990846888881332,
      "geoinfo": {
        "display_name": "2, Kiertotähdentie, Siltamäki, Suutarila, Northeastern major district, Helsinki, Helsinki sub-region, Uusimaa, Mainland Finland, 00740, Finland",
        "road": "Kiertotähdentie",
        "house_number": "2",
        "neighbourhood": null,
        "suburb": "Siltamäki",
        "city_district": "Northeastern major district",
        "city": "Helsinki",
        "state": "Uusimaa",
        "postcode": "00740",
        "country": "Finland",
        "country_code": "fi"
      },
      "address": "2 Kiertotähdentie, Suutarila, Uusimaa, Finland"
    },
    {
      "lat": 60.26988436180336,
      "lon": 25.087295720068727,
      "geoinfo": {
        "display_name": "6, Rajapolku, Vaarala, Hakunilan suuralue, Vantaa, Helsinki sub-region, Uusimaa, Mainland Finland, 01230, Finland",
        "road": "Rajapolku",
        "house_number": "6",
        "neighbourhood": null,
        "suburb": "Vaarala",
        "city_district": "Hakunilan suuralue",
        "city": "Vantaa",
        "state": "Uusimaa",
        "postcode": "01230",
        "country": "Finland",
        "country_code": "fi"
      },
      "address": "6, Rajapolku, Vaarala, Hakunilan suuralue, Vantaa, Helsinki sub-region, Uusimaa, Mainland Finland, 01230, Finland"
    },
    {
      "lat": 60.28348020113684,
      "lon": 25.094138998027915,
      "geoinfo": {
        "display_name": "Kaskelantie, Kaskela, Hakunila, Hakunilan suuralue, Vantaa, Helsinki sub-region, Uusimaa, Mainland Finland, 01230, Finland",
        "road": "Kaskelantie",
        "house_number": null,
        "neighbourhood": null,
        "suburb": "Kaskela",
        "city_district": "Hakunilan suuralue",
        "city": "Vantaa",
        "state": "Uusimaa",
        "postcode": "01230",
        "country": "Finland",
        "country_code": "fi"
      },
      "address": "510, Kaskelantie, Kaskela, Hakunila, Hakunilan suuralue, Vantaa, Helsinki sub-region, Uusimaa, Mainland Finland, 01230, Finland"
    }
  ],
  "updated_at": "2025-10-19T04:02:02.829410+00:00",
  "_kind": "geo_samples"
}