{
  "country_code": "FI",
  "country": "Finland",
  "city": "Vaasa",
  "geonameid": 632978,
  "target_addresses": 2,
  "samples": [
    {
      "lat": 63.135431228505084,
      "lon": 21.5736499772688,
      "geoinfo": {
        "display_name": "Saratie, Länsimetsä, Gerby, Vaasa, Vaasa sub-region, Ostrobothnia, Mainland Finland, 65280, Finland",
        "road": "Saratie",
        "house_number": null,
        "neighbourhood": null,
        "suburb": "Länsimetsä",
        "city_district": "Vaasa",
        "city": "Vaasa",
        "state": "Ostrobothnia",
        "postcode": "65280",
        "country": "Finland",
        "country_code": "fi"
      },
      "address": "Saratie, Vaasa, Ostrobothnia, Finland"
    },
    {
      "lat": 63.08140488598037,
      "lon": 21.667977351295463,
      "geoinfo": {
        "display_name": "Sähkötie, Strömberg Park, Huutoniemi, Vaasa, Vaasa sub-region, Ostrobothnia, Mainland Finland, 65320, Finland",
        "road": "Sähkötie",
        "house_number": null,
        "neighbourhood": null,
        "suburb": "Strömberg Park",
        "city_district": "Vaasa",
        "city": "Vaasa",
        "state": "Ostrobothnia",
        "postcode": "65320",
        "country": "Finland",
        "country_code": "fi"
      },
      "address": "Sähkötie, Vaasa, Ostrobothnia, Finland"
    },
    {
      "lat": 63.09088612056142,
      "lon": 21.650850118815267,
      "geoinfo": {
        "display_name": "Klemettilä, Vaasa, Ostrobothnia, Mainland Finland, 65350, Finland",
        "road": null,
        "house_number": null,
        "neighbourhood": null,
        "suburb": "Klemettilä",
        "city_district": "Vaasa",
        "city": "Vaasa",
        "state": "Ostrobothnia",
        "postcode": "65350",
        "country": "Finland",
        "country_code": "fi"
      },
      "address": "778, Klemettilä, Vaasa, Ostrobothnia, Mainland Finland, 65350, Finland"
    },
    {
      "lat": 63.07693441148226,
      "lon": 21.57066970302559,
      "geoinfo": {
        "display_name": "Myrgrundintie, Björsinkallio, Yttersundom, Vaasa, Ostrobothnia, Mainland Finland, 65170, Finland",
        "road": "Myrgrundintie",
        "house_number": null,
        "neighbourhood": null,
        "suburb": "Björsinkallio",
        "city_district": "Vaasa",
        "city": "Vaasa",
        "state": "Ostrobothnia",
        "postcode": "65170",
        "country": "Finland",
        "country_code": "fi"
      },
      "address": "169, Myrgrundintie, Björsinkallio, Yttersundom, Vaasa, Ostrobothnia, Mainland Finland, 65170, Finland"
    }
  ],
  "updated_at": "2025-10-19T03:55:42.516134+00:00",
  "_kind": "geo_samples"
}