{
  "country_code": "FI",
  "country": "Finland",
  "city": "Vihti",
  "geonameid": 631707,
  "target_addresses": 2,
  "samples": [
    {
      "lat": 60.434776946230535,
      "lon": 24.36684690745318,
      "geoinfo": {
        "display_name": "Myllykuja, Herrakunta, Vihti, Helsinki sub-region, Uusimaa, Mainland Finland, 03400, Finland",
        "road": "Myllykuja",
        "house_number": null,
        "neighbourhood": null,
        "suburb": null,
        "city_district": null,
        "city": "Vihti",
        "state": "Uusimaa",
        "postcode": "03400",
        "country": "Finland",
        "country_code": "fi"
      },
      "address": "Myllykuja, Vihti, Uusimaa, Finland"
    },
    {
      "lat": 60.430958749659176,
      "lon": 24.39286708546579,
      "geoinfo": {
        "display_name": "Saukonkoskentie, Herrakunta, Vihti, Helsinki sub-region, Uusimaa, Mainland Finland, Finland",
        "road": "Saukonkoskentie",
        "house_number": null,
        "neighbourhood": null,
        "suburb": null,
        "city_district": null,
        "city": "Vihti",
        "state": "Uusimaa",
        "postcode": null,
        "country": "Finland",
        "country_code": "fi"
      },
      "address": "Saukonkoskentie, Vihti, Uusimaa, Finland"
    },
    {
      "lat": 60.39870746619302,
      "lon": 24.325659397499873,
      "geoinfo": {
        "display_name": "Havusenkuja, Koivissilta, Vihti, Helsinki sub-region, Uusimaa, Mainland Finland, 03400, Finland",
        "road": "Havusenkuja",
        "house_number": null,
        "neighbourhood": null,
        "suburb": "Koivissilta",
        "city_district": null,
        "city": "Vihti",
        "state": "Uusimaa",
        "postcode": "03400",
        "country": "Finland",
        "country_code": "fi"
      },
      "address": "121, Havusenkuja, Koivissilta, Vihti, Helsinki sub-region, Uusimaa, Mainland Finland, 03400, Finland"
    },
    {
      "lat": 60.44128165129593,
      "lon": 24.362737555415837,
      "geoinfo": {
        "display_name": "Vanha Porintie, Olkkala, Vihti, Helsinki sub-region, Uusimaa, Mainland Finland, 03400, Finland",
        "road": "Vanha Porintie",
        "house_number": null,
        "neighbourhood": null,
        "suburb": null,
        "city_district": null,
        "city": "Vihti",
        "state": "Uusimaa",
        "postcode": "03400",
        "country": "Finland",
        "country_code": "fi"
      },
      "address": "604, Vanha Porintie, Olkkala, Vihti, Helsinki sub-region, Uusimaa, Mainland Finland, 03400, Finland"
    }
  ],
  "updated_at": "2025-10-19T05:03:52.102921+00:00",
  "_kind": "geo_samples"
}