{
  "country_code": "VC",
  "country": "Saint Vincent and the Grenadines",
  "city": "Kingstown",
  "geonameid": 3577887,
  "target_addresses": 50,
  "samples": [
    {
      "lat": 13.116960606786664,
      "lon": -61.239479397976524,
      "geoinfo": {
        "display_name": "Arnos Vale, Saint George, VC0100, Saint Vincent and the Grenadines",
        "road": null,
        "house_number": null,
        "neighbourhood": null,
        "suburb": null,
        "city_district": null,
        "city": "Arnos Vale",
        "state": null,
        "postcode": "VC0100",
        "country": "Saint Vincent and the Grenadines",
        "country_code": "vc"
      },
      "address": "Kingstown, Saint Vincent and the Grenadines"
    },
    {
      "lat": 13.125979942803466,
      "lon": -61.20666832159311,
      "geoinfo": {
        "display_name": "Fort Duvernette, Windward Highway, Arnos Vale, Villa, Calliaqua, Saint George, VC0100, Saint Vincent and the Grenadines",
        "road": "Windward Highway",
        "house_number": null,
        "neighbourhood": null,
        "suburb": null,
        "city_district": null,
        "city": "Calliaqua",
        "state": null,
        "postcode": "VC0100",
        "country": "Saint Vincent and the Grenadines",
        "country_code": "vc"
      },
      "address": "Windward Highway, Kingstown, Saint Vincent and the Grenadines"
    },
    {
      "lat": 13.169244268234534,
      "lon": -61.226120336061,
      "geoinfo": {
        "display_name": "Botanical Gardens, Largo Heights Road, New Montrose, Saint George, VC0100, Saint Vincent and the Grenadines",
        "road": "Largo Heights Road",
        "house_number": null,
        "neighbourhood": null,
        "suburb": null,
        "city_district": null,
        "city": "New Montrose",
        "state": null,
        "postcode": "VC0100",
        "country": "Saint Vincent and the Grenadines",
        "country_code": "vc"
      },
      "address": "Largo Heights Road, Kingstown, Saint Vincent and the Grenadines"
    },
    {
      "lat": 13.147615831069203,
      "lon": -61.227187239894604,
      "geoinfo": {
        "display_name": "Melting Pot, London Road, Sion Hill, Arnos Vale, Saint George, VC0100, Saint Vincent and the Grenadines",
        "road": "London Road",
        "house_number": null,
        "neighbourhood": null,
        "suburb": null,
        "city_district": null,
        "city": "Arnos Vale",
        "state": null,
        "postcode": "VC0100",
        "country": "Saint Vincent and the Grenadines",
        "country_code": "vc"
      },
      "address": "London Road, Kingstown, Saint Vincent and the Grenadines"
    },
    {
      "lat": 13.14959297846749,
      "lon": -61.20020041155633,
      "geoinfo": {
        "display_name": "Vigie Highway, Arnos Vale, Saint George, VC0100, Saint Vincent and the Grenadines",
        "road": "Vigie Highway",
        "house_number": null,
        "neighbourhood": null,
        "suburb": null,
        "city_district": null,
        "city": "Arnos Vale",
        "state": null,
        "postcode": "VC0100",
        "country": "Saint Vincent and the Grenadines",
        "country_code": "vc"
      },
      "address": "Vigie Highway, Kingstown, Saint Vincent and the Grenadines"
    },
    {
      "lat": 13.142669931480516,
      "lon": -61.194476448397786,
      "geoinfo": {
        "display_name": "College Road, Calliqua, Villa, Calliaqua, Saint George, VC0100, Saint Vincent and the Grenadines",
        "road": "College Road",
        "house_number": null,
        "neighbourhood": null,
        "suburb": null,
        "city_district": null,
        "city": "Calliaqua",
        "state": null,
        "postcode": "VC0100",
        "country": "Saint Vincent and the Grenadines",
        "country_code": "vc"
      },
      "address": "College Road, Kingstown, Saint Vincent and the Grenadines"
    },
    {
      "lat": 13.144126108755508,
      "lon": -61.22958126830492,
      "geoinfo": {
        "display_name": "Daisy Lane, Cane Garden, Arnos Vale, Saint George, VC0100, Saint Vincent and the Grenadines",
        "road": "Daisy Lane",
        "house_number": null,
        "neighbourhood": null,
        "suburb": null,
        "city_district": null,
        "city": "Arnos Vale",
        "state": null,
        "postcode": "VC0100",
        "country": "Saint Vincent and the Grenadines",
        "country_code": "vc"
      },
      "address": "Daisy Lane, Kingstown, Saint Vincent and the Grenadines"
    },
    {
      "lat": 13.143230185440238,
      "lon": -61.210353524913,
      "geoinfo": {
        "display_name": "Arnos Vale Playing Field, Stadium Road, Arnos Vale, Villa, Arnos Vale, Saint George, VC0100, Saint Vincent and the Grenadines",
        "road": "Stadium Road",
        "house_number": null,
        "neighbourhood": null,
        "suburb": null,
        "city_district": null,
        "city": "Arnos Vale",
        "state": null,
        "postcode": "VC0100",
        "country": "Saint Vincent and the Grenadines",
        "country_code": "vc"
      },
      "address": "Stadium Road, Kingstown, Saint Vincent and the Grenadines"
    },
    {
      "lat": 13.134181708148224,
      "lon": -61.22506731923918,
      "geoinfo": {
        "display_name": "Narscissus Avenue, Cane Garden, Arnos Vale, Saint George, VC0100, Saint Vincent and the Grenadines",
        "road": "Narscissus Avenue",
        "house_number": null,
        "neighbourhood": null,
        "suburb": null,
        "city_district": null,
        "city": "Arnos Vale",
        "state": null,
        "postcode": "VC0100",
        "country": "Saint Vincent and the Grenadines",
        "country_code": "vc"
      },
      "address": "Narscissus Avenue, Kingstown, Saint Vincent and the Grenadines"
    },
    {
      "lat": 13.15519418923775,
      "lon": -61.222638979516454,
      "geoinfo": {
        "display_name": "Grammar School Circle Road, Kingstown, Saint George, VC0100, Saint Vincent and the Grenadines",
        "road": "Grammar School Circle Road",
        "house_number": null,
        "neighbourhood": null,
        "suburb": null,
        "city_district": null,
        "city": "Kingstown",
        "state": null,
        "postcode": "VC0100",
        "country": "Saint Vincent and the Grenadines",
        "country_code": "vc"
      },
      "address": "Grammar School Circle Road, Kingstown, Saint Vincent and the Grenadines"
    },
    {
      "lat": 13.14166844642178,
      "lon": -61.22975585876789,
      "geoinfo": {
        "display_name": "Marigold Lane, Cane Garden, Arnos Vale, Saint George, VC0100, Saint Vincent and the Grenadines",
        "road": "Marigold Lane",
        "house_number": null,
        "neighbourhood": null,
        "suburb": null,
        "city_district": null,
        "city": "Arnos Vale",
        "state": null,
        "postcode": "VC0100",
        "country": "Saint Vincent and the Grenadines",
        "country_code": "vc"
      },
      "address": "Marigold Lane, Kingstown, Saint Vincent and the Grenadines"
    },
    {
      "lat": 13.145786961562505,
      "lon": -61.198673945567265,
      "geoinfo": {
        "display_name": "Villa Fountain Road, Villa, Arnos Vale, Saint George, VC0100, Saint Vincent and the Grenadines",
        "road": "Villa Fountain Road",
        "house_number": null,
        "neighbourhood": null,
        "suburb": null,
        "city_district": null,
        "city": "Arnos Vale",
        "state": null,
        "postcode": "VC0100",
        "country": "Saint Vincent and the Grenadines",
        "country_code": "vc"
      },
      "address": "Villa Fountain Road, Kingstown, Saint Vincent and the Grenadines"
    },
    {
      "lat": 13.161470569916238,
      "lon": -61.228340933649825,
      "geoinfo": {
        "display_name": "Level Gardens Road, New Montrose, Saint George, VC0100, Saint Vincent and the Grenadines",
        "road": "Level Gardens Road",
        "house_number": null,
        "neighbourhood": null,
        "suburb": null,
        "city_district": null,
        "city": "New Montrose",
        "state": null,
        "postcode": "VC0100",
        "country": "Saint Vincent and the Grenadines",
        "country_code": "vc"
      },
      "address": "Level Gardens Road, Kingstown, Saint Vincent and the Grenadines"
    },
    {
      "lat": 13.134057762314747,
      "lon": -61.22829797275881,
      "geoinfo": {
        "display_name": "Pouii Crescent, Cane Garden, Arnos Vale, Saint George, VC0100, Saint Vincent and the Grenadines",
        "road": "Pouii Crescent",
        "house_number": null,
        "neighbourhood": null,
        "suburb": null,
        "city_district": null,
        "city": "Arnos Vale",
        "state": null,
        "postcode": "VC0100",
        "country": "Saint Vincent and the Grenadines",
        "country_code": "vc"
      },
      "address": "Pouii Crescent, Kingstown, Saint Vincent and the Grenadines"
    },
    {
      "lat": 13.167080957468176,
      "lon": -61.22081844515097,
      "geoinfo": {
        "display_name": "Green Hill Road, New Montrose, Saint George, VC0100, Saint Vincent and the Grenadines",
        "road": "Green Hill Road",
        "house_number": null,
        "neighbourhood": null,
        "suburb": null,
        "city_district": null,
        "city": "New Montrose",
        "state": null,
        "postcode": "VC0100",
        "country": "Saint Vincent and the Grenadines",
        "country_code": "vc"
      },
      "address": "Green Hill Road, Kingstown, Saint Vincent and the Grenadines"
    },
    {
      "lat": 13.177700459684639,
      "lon": -61.245470196257884,
      "geoinfo": {
        "display_name": "Nelson Mandela Highway, Campden Park, Saint Andrew, VC0100, Saint Vincent and the Grenadines",
        "road": "Nelson Mandela Highway",
        "house_number": null,
        "neighbourhood": null,
        "suburb": null,
        "city_district": null,
        "city": "Campden Park",
        "state": null,
        "postcode": "VC0100",
        "country": "Saint Vincent and the Grenadines",
        "country_code": "vc"
      },
      "address": "Nelson Mandela Highway, Kingstown, Saint Vincent and the Grenadines"
    },
    {
      "lat": 13.152398361192363,
      "lon": -61.220906741904635,
      "geoinfo": {
        "display_name": "Frenches Road, Arnos Vale, Saint George, VC0100, Saint Vincent and the Grenadines",
        "road": "Frenches Road",
        "house_number": null,
        "neighbourhood": null,
        "suburb": null,
        "city_district": null,
        "city": "Arnos Vale",
        "state": null,
        "postcode": "VC0100",
        "country": "Saint Vincent and the Grenadines",
        "country_code": "vc"
      },
      "address": "Frenches Road, Kingstown, Saint Vincent and the Grenadines"
    },
    {
      "lat": 13.161900849432259,
      "lon": -61.20960984840952,
      "geoinfo": {
        "display_name": "Dorsetshire Hill Road, Arnos Vale, Saint George, VC0100, Saint Vincent and the Grenadines",
        "road": "Dorsetshire Hill Road",
        "house_number": null,
        "neighbourhood": null,
        "suburb": null,
        "city_district": null,
        "city": "Arnos Vale",
        "state": null,
        "postcode": "VC0100",
        "country": "Saint Vincent and the Grenadines",
        "country_code": "vc"
      },
      "address": "Dorsetshire Hill Road, Kingstown, Saint Vincent and the Grenadines"
    },
    {
      "lat": 13.143893418626838,
      "lon": -61.215817248637094,
      "geoinfo": {
        "display_name": "Sion Hill Playing Field, Roseau Village Road, Arnos Vale, Saint George, VC0100, Saint Vincent and the Grenadines",
        "road": "Roseau Village Road",
        "house_number": null,
        "neighbourhood": null,
        "suburb": null,
        "city_district": null,
        "city": "Arnos Vale",
        "state": null,
        "postcode": "VC0100",
        "country": "Saint Vincent and the Grenadines",
        "country_code": "vc"
      },
      "address": "Roseau Village Road, Kingstown, Saint Vincent and the Grenadines"
    },
    {
      "lat": 13.15797867095171,
      "lon": -61.218465502456084,
      "geoinfo": {
        "display_name": "Murray's Village Road, Arnos Vale, Saint George, VC0100, Saint Vincent and the Grenadines",
        "road": "Murray's Village Road",
        "house_number": null,
        "neighbourhood": null,
        "suburb": null,
        "city_district": null,
        "city": "Arnos Vale",
        "state": null,
        "postcode": "VC0100",
        "country": "Saint Vincent and the Grenadines",
        "country_code": "vc"
      },
      "address": "Murray's Village Road, Kingstown, Saint Vincent and the Grenadines"
    },
    {
      "lat": 13.16491178730113,
      "lon": -61.227726331078614,
      "geoinfo": {
        "display_name": "Botanical Gardens, Wilson Street, New Montrose, Saint George, VC0100, Saint Vincent and the Grenadines",
        "road": "Wilson Street",
        "house_number": null,
        "neighbourhood": null,
        "suburb": null,
        "city_district": null,
        "city": "New Montrose",
        "state": null,
        "postcode": "VC0100",
        "country": "Saint Vincent and the Grenadines",
        "country_code": "vc"
      },
      "address": "Wilson Street, Kingstown, Saint Vincent and the Grenadines"
    },
    {
      "lat": 13.153429928769883,
      "lon": -61.22932839099187,
      "geoinfo": {
        "display_name": "Higginson Street, Kingstown, Saint George, VC0100, Saint Vincent and the Grenadines",
        "road": "Higginson Street",
        "house_number": null,
        "neighbourhood": null,
        "suburb": null,
        "city_district": null,
        "city": "Kingstown",
        "state": null,
        "postcode": "VC0100",
        "country": "Saint Vincent and the Grenadines",
        "country_code": "vc"
      },
      "address": "Higginson Street, Kingstown, Saint Vincent and the Grenadines"
    },
    {
      "lat": 13.166712821763253,
      "lon": -61.23089202222719,
      "geoinfo": {
        "display_name": "Lewis Street, New Montrose, Saint George, VC0100, Saint Vincent and the Grenadines",
        "road": "Lewis Street",
        "house_number": null,
        "neighbourhood": null,
        "suburb": null,
        "city_district": null,
        "city": "New Montrose",
        "state": null,
        "postcode": "VC0100",
        "country": "Saint Vincent and the Grenadines",
        "country_code": "vc"
      },
      "address": "Lewis Street, Kingstown, Saint Vincent and the Grenadines"
    },
    {
      "lat": 13.132547599901809,
      "lon": -61.204813746002316,
      "geoinfo": {
        "display_name": "Indian Bay Petroglyphs, Rose Cottage Road, Villa, Calliaqua, Saint George, VC0100, Saint Vincent and the Grenadines",
        "road": "Rose Cottage Road",
        "house_number": null,
        "neighbourhood": null,
        "suburb": null,
        "city_district": null,
        "city": "Calliaqua",
        "state": null,
        "postcode": "VC0100",
        "country": "Saint Vincent and the Grenadines",
        "country_code": "vc"
      },
      "address": "Rose Cottage Road, Kingstown, Saint Vincent and the Grenadines"
    },
    {
      "lat": 13.164941495156434,
      "lon": -61.20595786391707,
      "geoinfo": {
        "display_name": "Queen's Drive, Arnos Vale, Saint George, VC0100, Saint Vincent and the Grenadines",
        "road": "Queen's Drive",
        "house_number": null,
        "neighbourhood": null,
        "suburb": null,
        "city_district": null,
        "city": "Arnos Vale",
        "state": null,
        "postcode": "VC0100",
        "country": "Saint Vincent and the Grenadines",
        "country_code": "vc"
      },
      "address": "Queen's Drive, Kingstown, Saint Vincent and the Grenadines"
    },
    {
      "lat": 13.134497472028633,
      "lon": -61.224734891739615,
      "geoinfo": {
        "display_name": "Narscissus Avenue, Cane Garden, Arnos Vale, Saint George, VC0100, Saint Vincent and the Grenadines",
        "road": "Narscissus Avenue",
        "house_number": null,
        "neighbourhood": null,
        "suburb": null,
        "city_district": null,
        "city": "Arnos Vale",
        "state": null,
        "postcode": "VC0100",
        "country": "Saint Vincent and the Grenadines",
        "country_code": "vc"
      },
      "address": "909, Narscissus Avenue, VC0100 Kingstown, Saint Vincent and the Grenadines"
    },
    {
      "lat": 13.181525853432147,
      "lon": -61.21319308954988,
      "geoinfo": {
        "display_name": "Kingstown, Saint George, VC0100, Saint Vincent and the Grenadines",
        "road": null,
        "house_number": null,
        "neighbourhood": null,
        "suburb": null,
        "city_district": null,
        "city": "Kingstown",
        "state": null,
        "postcode": "VC0100",
        "country": "Saint Vincent and the Grenadines",
        "country_code": "vc"
      },
      "address": "222, Kingstown, Saint George, VC0100, Saint Vincent and the Grenadines"
    },
    {
      "lat": 13.129812308334518,
      "lon": -61.20652427397642,
      "geoinfo": {
        "display_name": "Fort Duvernette, Windward Highway, Arnos Vale, Villa, Calliaqua, Saint George, VC0100, Saint Vincent and the Grenadines",
        "road": "Windward Highway",
        "house_number": null,
        "neighbourhood": null,
        "suburb": null,
        "city_district": null,
        "city": "Calliaqua",
        "state": null,
        "postcode": "VC0100",
        "country": "Saint Vincent and the Grenadines",
        "country_code": "vc"
      },
      "address": "311, Windward Highway, VC0100 Kingstown, Saint Vincent and the Grenadines"
    },
    {
      "lat": 13.153160850484973,
      "lon": -61.183880978202524,
      "geoinfo": {
        "display_name": "Fair Hall Road, Calliqua, Calder Ridge Gap, Calliaqua, Saint George, VC0100, Saint Vincent and the Grenadines",
        "road": "Fair Hall Road",
        "house_number": null,
        "neighbourhood": null,
        "suburb": null,
        "city_district": null,
        "city": "Calliaqua",
        "state": null,
        "postcode": "VC0100",
        "country": "Saint Vincent and the Grenadines",
        "country_code": "vc"
      },
      "address": "538, Fair Hall Road, Calliqua, Calder Ridge Gap, Calliaqua, Saint George, VC0100, Saint Vincent and the Grenadines"
    },
    {
      "lat": 13.179991083983463,
      "lon": -61.214524172266046,
      "geoinfo": {
        "display_name": "Kingstown, Saint George, VC0100, Saint Vincent and the Grenadines",
        "road": null,
        "house_number": null,
        "neighbourhood": null,
        "suburb": null,
        "city_district": null,
        "city": "Kingstown",
        "state": null,
        "postcode": "VC0100",
        "country": "Saint Vincent and the Grenadines",
        "country_code": "vc"
      },
      "address": "845, Kingstown, Saint George, VC0100, Saint Vincent and the Grenadines"
    },
    {
      "lat": 13.152146316406464,
      "lon": -61.229560720353376,
      "geoinfo": {
        "display_name": "Clothing Shop, Melville Street, Kingstown, Saint George, VC0100, Saint Vincent and the Grenadines",
        "road": "Melville Street",
        "house_number": null,
        "neighbourhood": null,
        "suburb": null,
        "city_district": null,
        "city": "Kingstown",
        "state": null,
        "postcode": "VC0100",
        "country": "Saint Vincent and the Grenadines",
        "country_code": "vc"
      },
      "address": "003, Melville Street, VC0100 Kingstown, Saint Vincent and the Grenadines"
    },
    {
      "lat": 13.137633886737824,
      "lon": -61.21347228014712,
      "geoinfo": {
        "display_name": "Arnos Vale Stadium, Stadium Road, Arnos Vale, Villa, Arnos Vale, Saint George, VC0100, Saint Vincent and the Grenadines",
        "road": "Stadium Road",
        "house_number": null,
        "neighbourhood": null,
        "suburb": null,
        "city_district": null,
        "city": "Arnos Vale",
        "state": null,
        "postcode": "VC0100",
        "country": "Saint Vincent and the Grenadines",
        "country_code": "vc"
      },
      "address": "390, Stadium Road, VC0100 Kingstown, Saint Vincent and the Grenadines"
    },
    {
      "lat": 13.19416797328429,
      "lon": -61.211866729252726,
      "geoinfo": {
        "display_name": "Campden Park, Saint Andrew, VC0100, Saint Vincent and the Grenadines",
        "road": null,
        "house_number": null,
        "neighbourhood": null,
        "suburb": null,
        "city_district": null,
        "city": "Campden Park",
        "state": null,
        "postcode": "VC0100",
        "country": "Saint Vincent and the Grenadines",
        "country_code": "vc"
      },
      "address": "516, VC0100 Kingstown, Saint Vincent and the Grenadines"
    },
    {
      "lat": 13.137584603114101,
      "lon": -61.19950289223493,
      "geoinfo": {
        "display_name": "Villa, Calliaqua, Saint George, VC0100, Saint Vincent and the Grenadines",
        "road": null,
        "house_number": null,
        "neighbourhood": null,
        "suburb": null,
        "city_district": null,
        "city": "Calliaqua",
        "state": null,
        "postcode": "VC0100",
        "country": "Saint Vincent and the Grenadines",
        "country_code": "vc"
      },
      "address": "735, Villa, Calliaqua, Saint George, VC0100, Saint Vincent and the Grenadines"
    },
    {
      "lat": 13.142940836516,
      "lon": -61.21418879743819,
      "geoinfo": {
        "display_name": "E. T. Joshua Airport, Stadium Road, Arnos Vale, Villa, Arnos Vale, Saint George, VC0100, Saint Vincent and the Grenadines",
        "road": "Stadium Road",
        "house_number": null,
        "neighbourhood": null,
        "suburb": null,
        "city_district": null,
        "city": "Arnos Vale",
        "state": null,
        "postcode": "VC0100",
        "country": "Saint Vincent and the Grenadines",
        "country_code": "vc"
      },
      "address": "844, Stadium Road, VC0100 Kingstown, Saint Vincent and the Grenadines"
    },
    {
      "lat": 13.149425791588365,
      "lon": -61.19690850363773,
      "geoinfo": {
        "display_name": "Calliaqua, Saint George, VC0100, Saint Vincent and the Grenadines",
        "road": null,
        "house_number": null,
        "neighbourhood": null,
        "suburb": null,
        "city_district": null,
        "city": "Calliaqua",
        "state": null,
        "postcode": "VC0100",
        "country": "Saint Vincent and the Grenadines",
        "country_code": "vc"
      },
      "address": "125, Calliaqua, Saint George, VC0100, Saint Vincent and the Grenadines"
    },
    {
      "lat": 13.183653840386324,
      "lon": -61.220396910450006,
      "geoinfo": {
        "display_name": "Kingstown, Saint George, VC0100, Saint Vincent and the Grenadines",
        "road": null,
        "house_number": null,
        "neighbourhood": null,
        "suburb": null,
        "city_district": null,
        "city": "Kingstown",
        "state": null,
        "postcode": "VC0100",
        "country": "Saint Vincent and the Grenadines",
        "country_code": "vc"
      },
      "address": "185, Kingstown, Saint George, VC0100, Saint Vincent and the Grenadines"
    }
  ],
  "updated_at": "2025-10-19T11:24:37.178539+00:00",
  "_kind": "geo_samples"
}