{
  "country_code": "PA",
  "country": "Panama",
  "city": "La Concepción",
  "geonameid": 3707899,
  "target_addresses": 4,
  "samples": [
    {
      "lat": 8.519648707030813,
      "lon": -82.62456146740423,
      "geoinfo": {
        "display_name": "Avenida 1a Norte, Residencial Santa Isabel, La Concepción, Bugaba, Chiriquí, Panama",
        "road": "Avenida 1a Norte",
        "house_number": null,
        "neighbourhood": null,
        "suburb": "Residencial Santa Isabel",
        "city_district": null,
        "city": "La Concepción",
        "state": "Chiriquí",
        "postcode": null,
        "country": "Panama",
        "country_code": "pa"
      },
      "address": "Avenida 1a Norte, La Concepción, Chiriquí, Panama"
    },
    {
      "lat": 8.534549175825623,
      "lon": -82.66482868523725,
      "geoinfo": {
        "display_name": "Sortová, Bugaba, Chiriquí, Panama",
        "road": null,
        "house_number": null,
        "neighbourhood": null,
        "suburb": null,
        "city_district": null,
        "city": "Sortová",
        "state": "Chiriquí",
        "postcode": null,
        "country": "Panama",
        "country_code": "pa"
      },
      "address": "La Concepción, Chiriquí, Panama"
    },
    {
      "lat": 8.5349706656877,
      "lon": -82.6414001394844,
      "geoinfo": {
        "display_name": "Avenida 4a Norte, Bajo del Cerro, La Concepción, Bugaba, Chiriquí, Panama",
        "road": "Avenida 4a Norte",
        "house_number": null,
        "neighbourhood": null,
        "suburb": null,
        "city_district": null,
        "city": "La Concepción",
        "state": "Chiriquí",
        "postcode": null,
        "country": "Panama",
        "country_code": "pa"
      },
      "address": "Avenida 4a Norte, La Concepción, Chiriquí, Panama"
    },
    {
      "lat": 8.514140524571227,
      "lon": -82.65174298803153,
      "geoinfo": {
        "display_name": "Ferrocarril de Chiriquí, Paradise Village, La Concepción, Bugaba, Chiriquí, Panama",
        "road": "Ferrocarril de Chiriquí",
        "house_number": null,
        "neighbourhood": null,
        "suburb": "Paradise Village",
        "city_district": null,
        "city": "La Concepción",
        "state": "Chiriquí",
        "postcode": null,
        "country": "Panama",
        "country_code": "pa"
      },
      "address": "Ferrocarril de Chiriquí, La Concepción, Chiriquí, Panama"
    },
    {
      "lat": 8.498641175476616,
      "lon": -82.5897968280263,
      "geoinfo": {
        "display_name": "La Guinea, Pedregal, Boquerón, Chiriquí, Panama",
        "road": null,
        "house_number": null,
        "neighbourhood": null,
        "suburb": null,
        "city_district": null,
        "city": "Pedregal",
        "state": "Chiriquí",
        "postcode": null,
        "country": "Panama",
        "country_code": "pa"
      },
      "address": "557, La Guinea, Pedregal, Boquerón, 69024 Chiriquí, Panama"
    },
    {
      "lat": 8.476907158431944,
      "lon": -82.62460435809228,
      "geoinfo": {
        "display_name": "Bugába, Bugaba, Chiriquí, Panama",
        "road": null,
        "house_number": null,
        "neighbourhood": null,
        "suburb": null,
        "city_district": null,
        "city": "Bugába",
        "state": "Chiriquí",
        "postcode": null,
        "country": "Panama",
        "country_code": "pa"
      },
      "address": "386, La Concepción, 23517 Chiriquí, Panama"
    },
    {
      "lat": 8.498139893640074,
      "lon": -82.61148377751245,
      "geoinfo": {
        "display_name": "Antiguas Vías del Ferrocarril, Barrio 20 de Enero, Bugába, Bugaba, Chiriquí, Panama",
        "road": "Antiguas Vías del Ferrocarril",
        "house_number": null,
        "neighbourhood": null,
        "suburb": "Barrio 20 de Enero",
        "city_district": null,
        "city": "Bugába",
        "state": "Chiriquí",
        "postcode": null,
        "country": "Panama",
        "country_code": "pa"
      },
      "address": "512, Antiguas Vías del Ferrocarril, La Concepción, 48675 Chiriquí, Panama"
    },
    {
      "lat": 8.518238671303761,
      "lon": -82.6610834625732,
      "geoinfo": {
        "display_name": "Virginia 4, La Concepción, Bugaba, Chiriquí, Panama",
        "road": null,
        "house_number": null,
        "neighbourhood": null,
        "suburb": "Virginia 4",
        "city_district": null,
        "city": "La Concepción",
        "state": "Chiriquí",
        "postcode": null,
        "country": "Panama",
        "country_code": "pa"
      },
      "address": "Virginia 4, La Concepción, Bugaba, 36497 Chiriquí, Panama"
    }
  ],
  "updated_at": "2025-10-19T06:29:26.700228+00:00",
  "_kind": "geo_samples"
}