{
  "country_code": "PA",
  "country": "Panama",
  "city": "Las Cumbres",
  "geonameid": 3706567,
  "target_addresses": 4,
  "samples": [
    {
      "lat": 9.104230573401466,
      "lon": -79.58121838080436,
      "geoinfo": {
        "display_name": "Chilibre, Distrito de Panamá, Panamá Province, Panama",
        "road": null,
        "house_number": null,
        "neighbourhood": null,
        "suburb": null,
        "city_district": null,
        "city": "Chilibre",
        "state": "Panamá Province",
        "postcode": null,
        "country": "Panama",
        "country_code": "pa"
      },
      "address": "Las Cumbres, Panamá Province, Panama"
    },
    {
      "lat": 9.069860153303996,
      "lon": -79.53480823425643,
      "geoinfo": {
        "display_name": "Las Cumbrecitas, Santa Librada Rural, Las Lajas, Las Cumbres, Distrito de Panamá, Panamá Province, Panama",
        "road": null,
        "house_number": null,
        "neighbourhood": "Las Cumbrecitas",
        "suburb": null,
        "city_district": null,
        "city": "Las Cumbres",
        "state": "Panamá Province",
        "postcode": null,
        "country": "Panama",
        "country_code": "pa"
      },
      "address": "Las Cumbrecitas, Las Cumbres, Panamá Province, Panama"
    },
    {
      "lat": 9.071996893691026,
      "lon": -79.52397477827711,
      "geoinfo": {
        "display_name": "Chiki Store, Calle Principal Chivo Chivo, Sonsonate, Santa Librada Rural, Las Cumbres, Distrito de Panamá, Panamá Province, Panama",
        "road": "Calle Principal Chivo Chivo",
        "house_number": null,
        "neighbourhood": "Sonsonate",
        "suburb": null,
        "city_district": null,
        "city": "Las Cumbres",
        "state": "Panamá Province",
        "postcode": null,
        "country": "Panama",
        "country_code": "pa"
      },
      "address": "Calle Principal Chivo Chivo, Las Cumbres, Panamá Province, Panama"
    },
    {
      "lat": 9.0857474185973,
      "lon": -79.52819058203985,
      "geoinfo": {
        "display_name": "Carretera Transístmica, Omar Torrijos, San Miguelito, Ernesto Córdoba Campos, Distrito de Panamá, Panamá Province, Panama",
        "road": "Carretera Transístmica",
        "house_number": null,
        "neighbourhood": "Omar Torrijos",
        "suburb": "San Miguelito",
        "city_district": null,
        "city": "Ernesto Córdoba Campos",
        "state": "Panamá Province",
        "postcode": null,
        "country": "Panama",
        "country_code": "pa"
      },
      "address": "Carretera Transístmica, Las Cumbres, Panamá Province, Panama"
    },
    {
      "lat": 9.115548014078357,
      "lon": -79.52510306965381,
      "geoinfo": {
        "display_name": "Calle 3, Cumbres del Norte, Alcalde Díaz, Distrito de Panamá, Panamá Province, Panama",
        "road": "Calle 3",
        "house_number": null,
        "neighbourhood": null,
        "suburb": null,
        "city_district": null,
        "city": "Alcalde Díaz",
        "state": "Panamá Province",
        "postcode": null,
        "country": "Panama",
        "country_code": "pa"
      },
      "address": "Calle 3, Cumbres del Norte, Alcalde Díaz, Distrito de Panamá, 65863 Panamá Province, Panama"
    },
    {
      "lat": 9.05177169821745,
      "lon": -79.53114770720529,
      "geoinfo": {
        "display_name": "Corredor Norte, Omar Torrijos, San Miguelito, Panama City, Panamá Province, 0818, Panama",
        "road": "Corredor Norte",
        "house_number": null,
        "neighbourhood": "Omar Torrijos",
        "suburb": "San Miguelito",
        "city_district": null,
        "city": "Panama City",
        "state": "Panamá Province",
        "postcode": "0818",
        "country": "Panama",
        "country_code": "pa"
      },
      "address": "634, Corredor Norte, Omar Torrijos, San Miguelito, Panama City, Panamá Province, 0818, Panama"
    },
    {
      "lat": 9.100934061833442,
      "lon": -79.56425787373281,
      "geoinfo": {
        "display_name": "Villa Grecia, Las Cumbres, Distrito de Panamá, Panamá Province, Panama",
        "road": null,
        "house_number": null,
        "neighbourhood": null,
        "suburb": null,
        "city_district": null,
        "city": "Las Cumbres",
        "state": "Panamá Province",
        "postcode": null,
        "country": "Panama",
        "country_code": "pa"
      },
      "address": "643, Villa Grecia, Las Cumbres, Distrito de Panamá, 06564 Panamá Province, Panama"
    },
    {
      "lat": 9.087518340807422,
      "lon": -79.52337647938539,
      "geoinfo": {
        "display_name": "Calle 14, Residencial La Alegría, Villa Zaita, Ernesto Córdoba Campos, Distrito de Panamá, Panamá Province, Panama",
        "road": "Calle 14",
        "house_number": null,
        "neighbourhood": "Villa Zaita",
        "suburb": null,
        "city_district": null,
        "city": "Ernesto Córdoba Campos",
        "state": "Panamá Province",
        "postcode": null,
        "country": "Panama",
        "country_code": "pa"
      },
      "address": "Calle 14, Residencial La Alegría, Villa Zaita, Ernesto Córdoba Campos, Distrito de Panamá, 60378 Panamá Province, Panama"
    }
  ],
  "updated_at": "2025-10-19T08:57:34.097486+00:00",
  "_kind": "geo_samples"
}