{
  "country_code": "PA",
  "country": "Panama",
  "city": "Nuevo Belén",
  "geonameid": 10180082,
  "target_addresses": 4,
  "samples": [
    {
      "lat": 9.100654080425976,
      "lon": -79.3872692698239,
      "geoinfo": {
        "display_name": "Carretera Panamericana, Altos de Tocumen, Tocumen, Distrito de Panamá, Panamá Province, Panama",
        "road": "Carretera Panamericana",
        "house_number": null,
        "neighbourhood": "Altos de Tocumen",
        "suburb": null,
        "city_district": null,
        "city": "Tocumen",
        "state": "Panamá Province",
        "postcode": null,
        "country": "Panama",
        "country_code": "pa"
      },
      "address": "346, Carretera Panamericana, Altos de Tocumen, Tocumen, Distrito de Panamá, 12363 Panamá Province, Panama"
    },
    {
      "lat": 9.080990274317955,
      "lon": -79.39008334630203,
      "geoinfo": {
        "display_name": "Torremolinos, Tocumen, Distrito de Panamá, Panamá Province, Panama",
        "road": null,
        "house_number": null,
        "neighbourhood": "Torremolinos",
        "suburb": null,
        "city_district": null,
        "city": "Tocumen",
        "state": "Panamá Province",
        "postcode": null,
        "country": "Panama",
        "country_code": "pa"
      },
      "address": "160, Torremolinos, Tocumen, Distrito de Panamá, 90932 Panamá Province, Panama"
    },
    {
      "lat": 9.086213089093262,
      "lon": -79.42540542855872,
      "geoinfo": {
        "display_name": "San Martín, Pedregal, Distrito de Panamá, Panamá Province, Panama",
        "road": null,
        "house_number": null,
        "neighbourhood": "San Martín",
        "suburb": null,
        "city_district": null,
        "city": "Pedregal",
        "state": "Panamá Province",
        "postcode": null,
        "country": "Panama",
        "country_code": "pa"
      },
      "address": "622, San Martín, Pedregal, Distrito de Panamá, 58108 Panamá Province, Panama"
    },
    {
      "lat": 9.09194036646185,
      "lon": -79.4154047713628,
      "geoinfo": {
        "display_name": "Las Mañanitas, Distrito de Panamá, Panamá Province, Panama",
        "road": null,
        "house_number": null,
        "neighbourhood": null,
        "suburb": null,
        "city_district": null,
        "city": "Las Mañanitas",
        "state": "Panamá Province",
        "postcode": null,
        "country": "Panama",
        "country_code": "pa"
      },
      "address": "067, Las Mañanitas, Distrito de Panamá, 85847 Panamá Province, Panama"
    }
  ],
  "updated_at": "2025-10-19T05:30:51.628859+00:00",
  "_kind": "geo_samples"
}