{
  "country_code": "PA",
  "country": "Panama",
  "city": "Panamá",
  "geonameid": 3703443,
  "target_addresses": 4,
  "samples": [
    {
      "lat": 8.958206718200099,
      "lon": -79.49358694784625,
      "geoinfo": {
        "display_name": "San Francisco, Distrito de Panamá, Panamá Province, 0816, Panama",
        "road": null,
        "house_number": null,
        "neighbourhood": null,
        "suburb": "San Francisco",
        "city_district": null,
        "city": "San Francisco",
        "state": "Panamá Province",
        "postcode": "0816",
        "country": "Panama",
        "country_code": "pa"
      },
      "address": "San Francisco, Panamá, Panamá Province, Panama"
    },
    {
      "lat": 8.985449879292846,
      "lon": -79.52498233001037,
      "geoinfo": {
        "display_name": "Banco La Hipotecaria, 192, Avenida Central España, El Cangrejo, Bella Vista, Distrito de Panamá, Panamá Province, 0807, Panama",
        "road": "Avenida Central España",
        "house_number": "192",
        "neighbourhood": null,
        "suburb": "Bella Vista",
        "city_district": null,
        "city": "Bella Vista",
        "state": "Panamá Province",
        "postcode": "0807",
        "country": "Panama",
        "country_code": "pa"
      },
      "address": "192 Avenida Central España, Panamá, Panamá Province, Panama"
    },
    {
      "lat": 9.006538038233016,
      "lon": -79.51357004021267,
      "geoinfo": {
        "display_name": "La Loma, Pueblo Nuevo, Distrito de Panamá, Panamá Province, 0801, Panama",
        "road": null,
        "house_number": null,
        "neighbourhood": null,
        "suburb": "Pueblo Nuevo",
        "city_district": null,
        "city": "Pueblo Nuevo",
        "state": "Panamá Province",
        "postcode": "0801",
        "country": "Panama",
        "country_code": "pa"
      },
      "address": "Pueblo Nuevo, Panamá, Panamá Province, Panama"
    },
    {
      "lat": 8.991891974233459,
      "lon": -79.49162984367427,
      "geoinfo": {
        "display_name": "Corredor Sur, Parque Lefevre, Distrito de Panamá, Panamá Province, 0801, Panama",
        "road": "Corredor Sur",
        "house_number": null,
        "neighbourhood": null,
        "suburb": "Parque Lefevre",
        "city_district": null,
        "city": "Parque Lefevre",
        "state": "Panamá Province",
        "postcode": "0801",
        "country": "Panama",
        "country_code": "pa"
      },
      "address": "Corredor Sur, Panamá, Panamá Province, Panama"
    },
    {
      "lat": 9.004957776321794,
      "lon": -79.5511499326872,
      "geoinfo": {
        "display_name": "Avenida de la Amistad, Ancón, Distrito de Panamá, Panamá Province, 0843, Panama",
        "road": "Avenida de la Amistad",
        "house_number": null,
        "neighbourhood": null,
        "suburb": null,
        "city_district": null,
        "city": "Ancón",
        "state": "Panamá Province",
        "postcode": "0843",
        "country": "Panama",
        "country_code": "pa"
      },
      "address": "865, Avenida de la Amistad, Ancón, Distrito de Panamá, Panamá Province, 0843, Panama"
    },
    {
      "lat": 9.031291919426849,
      "lon": -79.52859938774063,
      "geoinfo": {
        "display_name": "The Springs, Dorado Springs, The Springs, Ancón, Distrito de Panamá, Panamá Province, 0818, Panama",
        "road": "The Springs",
        "house_number": null,
        "neighbourhood": "Dorado Springs",
        "suburb": null,
        "city_district": null,
        "city": "Ancón",
        "state": "Panamá Province",
        "postcode": "0818",
        "country": "Panama",
        "country_code": "pa"
      },
      "address": "109, The Springs, Dorado Springs, The Springs, Ancón, Distrito de Panamá, Panamá Province, 0818, Panama"
    },
    {
      "lat": 8.994744161327299,
      "lon": -79.55894801381852,
      "geoinfo": {
        "display_name": "Courtyard 2, 2, Embassy Club, Ancón, Distrito de Panamá, Panamá Province, 0843, Panama",
        "road": "Embassy Club",
        "house_number": "2",
        "neighbourhood": null,
        "suburb": null,
        "city_district": null,
        "city": "Ancón",
        "state": "Panamá Province",
        "postcode": "0843",
        "country": "Panama",
        "country_code": "pa"
      },
      "address": "Courtyard 2, 2, Embassy Club, Ancón, Distrito de Panamá, Panamá Province, 0843, Panama"
    },
    {
      "lat": 8.978526896428724,
      "lon": -79.55138677444772,
      "geoinfo": {
        "display_name": "Calle Doctor Eligio Salas, Albrook, Ancón, Distrito de Panamá, Panamá Province, 0843, Panama",
        "road": "Calle Doctor Eligio Salas",
        "house_number": null,
        "neighbourhood": "Albrook",
        "suburb": null,
        "city_district": null,
        "city": "Ancón",
        "state": "Panamá Province",
        "postcode": "0843",
        "country": "Panama",
        "country_code": "pa"
      },
      "address": "562, Calle Doctor Eligio Salas, Albrook, Ancón, Distrito de Panamá, Panamá Province, 0843, Panama"
    }
  ],
  "updated_at": "2025-10-19T04:13:09.447109+00:00",
  "_kind": "geo_samples"
}