{
  "country_code": "PA",
  "country": "Panama",
  "city": "Parque Lefevre",
  "geonameid": 3703346,
  "target_addresses": 4,
  "samples": [
    {
      "lat": 9.020263236952887,
      "lon": -79.45099108397575,
      "geoinfo": {
        "display_name": "Juan Díaz, Distrito de Panamá, Panamá Province, Panama",
        "road": null,
        "house_number": null,
        "neighbourhood": null,
        "suburb": null,
        "city_district": null,
        "city": "Juan Díaz",
        "state": "Panamá Province",
        "postcode": null,
        "country": "Panama",
        "country_code": "pa"
      },
      "address": "Parque Lefevre, Panamá Province, Panama"
    },
    {
      "lat": 8.9898214812606,
      "lon": -79.49311263389863,
      "geoinfo": {
        "display_name": "Corredor Sur, San Francisco, Distrito de Panamá, Panamá Province, 0816, Panama",
        "road": "Corredor Sur",
        "house_number": null,
        "neighbourhood": null,
        "suburb": "San Francisco",
        "city_district": null,
        "city": "San Francisco",
        "state": "Panamá Province",
        "postcode": "0816",
        "country": "Panama",
        "country_code": "pa"
      },
      "address": "Corredor Sur, Parque Lefevre, Panamá Province, Panama"
    },
    {
      "lat": 9.024457753065306,
      "lon": -79.44457417574691,
      "geoinfo": {
        "display_name": "Juan Díaz, Distrito de Panamá, Panamá Province, Panama",
        "road": null,
        "house_number": null,
        "neighbourhood": null,
        "suburb": "Juan Díaz",
        "city_district": null,
        "city": "Juan Díaz",
        "state": "Panamá Province",
        "postcode": null,
        "country": "Panama",
        "country_code": "pa"
      },
      "address": "Juan Díaz, Parque Lefevre, Panamá Province, Panama"
    },
    {
      "lat": 9.024469817718257,
      "lon": -79.49389494621748,
      "geoinfo": {
        "display_name": "San Cristobal, Río Abajo, Distrito de Panamá, Panamá Province, 0801, Panama",
        "road": null,
        "house_number": null,
        "neighbourhood": "San Cristobal",
        "suburb": "Río Abajo",
        "city_district": null,
        "city": "Río Abajo",
        "state": "Panamá Province",
        "postcode": "0801",
        "country": "Panama",
        "country_code": "pa"
      },
      "address": "San Cristobal, Parque Lefevre, Panamá Province, Panama"
    },
    {
      "lat": 9.06055518765227,
      "lon": -79.47473840873663,
      "geoinfo": {
        "display_name": "Calle 1a, El Futuro, Arnulfo Arias, San Miguelito, Panama City, Panamá Province, Panama",
        "road": "Calle 1a",
        "house_number": null,
        "neighbourhood": "El Futuro",
        "suburb": "San Miguelito",
        "city_district": null,
        "city": "Panama City",
        "state": "Panamá Province",
        "postcode": null,
        "country": "Panama",
        "country_code": "pa"
      },
      "address": "Calle 1a, El Futuro, Arnulfo Arias, San Miguelito, Panama City, 16900 Panamá Province, Panama"
    },
    {
      "lat": 9.011061312406037,
      "lon": -79.48569097415952,
      "geoinfo": {
        "display_name": "Convento de San José, Calle Santo Domingo, Puente del Rey, Parque Lefevre, Distrito de Panamá, Panamá Province, 0801, Panama",
        "road": "Calle Santo Domingo",
        "house_number": null,
        "neighbourhood": "Puente del Rey",
        "suburb": "Parque Lefevre",
        "city_district": null,
        "city": "Parque Lefevre",
        "state": "Panamá Province",
        "postcode": "0801",
        "country": "Panama",
        "country_code": "pa"
      },
      "address": "700, Calle Santo Domingo, Parque Lefevre, 0801 Panamá Province, Panama"
    },
    {
      "lat": 9.011995165520618,
      "lon": -79.44477015428653,
      "geoinfo": {
        "display_name": "Acceso Muelle Salmón Rojo, S.A., Salmón Rojo, S.A., Juan Díaz, Distrito de Panamá, Panamá Province, Panama",
        "road": "Acceso Muelle Salmón Rojo, S.A.",
        "house_number": null,
        "neighbourhood": null,
        "suburb": null,
        "city_district": null,
        "city": "Juan Díaz",
        "state": "Panamá Province",
        "postcode": null,
        "country": "Panama",
        "country_code": "pa"
      },
      "address": "124, Acceso Muelle Salmón Rojo, S.A., Salmón Rojo, S.A., Juan Díaz, Distrito de Panamá, 20855 Panamá Province, Panama"
    },
    {
      "lat": 9.046930775419245,
      "lon": -79.4554857947268,
      "geoinfo": {
        "display_name": "El Laurel Villa Venus, San Pedro, Juan Díaz, Distrito de Panamá, Panamá Province, Panama",
        "road": null,
        "house_number": null,
        "neighbourhood": "El Laurel Villa Venus",
        "suburb": "Juan Díaz",
        "city_district": null,
        "city": "Juan Díaz",
        "state": "Panamá Province",
        "postcode": null,
        "country": "Panama",
        "country_code": "pa"
      },
      "address": "616, El Laurel Villa Venus, San Pedro, Juan Díaz, Distrito de Panamá, 53947 Panamá Province, Panama"
    }
  ],
  "updated_at": "2025-10-19T06:20:58.910215+00:00",
  "_kind": "geo_samples"
}