{
  "country_code": "PA",
  "country": "Panama",
  "city": "Pedregal",
  "geonameid": 3703227,
  "target_addresses": 4,
  "samples": [
    {
      "lat": 9.091472551786726,
      "lon": -79.43202874037563,
      "geoinfo": {
        "display_name": "Corredor Norte, El Naranjal, Pedregal, Distrito de Panamá, Panamá Province, Panama",
        "road": "Corredor Norte",
        "house_number": null,
        "neighbourhood": "El Naranjal",
        "suburb": null,
        "city_district": null,
        "city": "Pedregal",
        "state": "Panamá Province",
        "postcode": null,
        "country": "Panama",
        "country_code": "pa"
      },
      "address": "Corredor Norte, Pedregal, Panamá Province, Panama"
    },
    {
      "lat": 9.083007576127644,
      "lon": -79.4195701643562,
      "geoinfo": {
        "display_name": "Calle K San Joaquín, San Joaquín, Pedregal, Distrito de Panamá, Panamá Province, Panama",
        "road": "Calle K San Joaquín",
        "house_number": null,
        "neighbourhood": null,
        "suburb": null,
        "city_district": null,
        "city": "Pedregal",
        "state": "Panamá Province",
        "postcode": null,
        "country": "Panama",
        "country_code": "pa"
      },
      "address": "Calle K San Joaquín, Pedregal, Panamá Province, Panama"
    },
    {
      "lat": 9.096564612472916,
      "lon": -79.41992416801352,
      "geoinfo": {
        "display_name": "Pedregal, Distrito de Panamá, Panamá Province, Panama",
        "road": null,
        "house_number": null,
        "neighbourhood": null,
        "suburb": null,
        "city_district": null,
        "city": "Pedregal",
        "state": "Panamá Province",
        "postcode": null,
        "country": "Panama",
        "country_code": "pa"
      },
      "address": "Pedregal, Panamá Province, Panama"
    },
    {
      "lat": 9.03773926706413,
      "lon": -79.45142993451567,
      "geoinfo": {
        "display_name": "Juan Díaz, Distrito de Panamá, Panamá Province, Panama",
        "road": null,
        "house_number": null,
        "neighbourhood": null,
        "suburb": "Juan Díaz",
        "city_district": null,
        "city": "Juan Díaz",
        "state": "Panamá Province",
        "postcode": null,
        "country": "Panama",
        "country_code": "pa"
      },
      "address": "Juan Díaz, Pedregal, Panamá Province, Panama"
    },
    {
      "lat": 9.07334859363213,
      "lon": -79.43443879226133,
      "geoinfo": {
        "display_name": "Calle Villalobos, Buenos Aires, Pedregal, Distrito de Panamá, Panamá Province, Panama",
        "road": "Calle Villalobos",
        "house_number": null,
        "neighbourhood": "Buenos Aires",
        "suburb": null,
        "city_district": null,
        "city": "Pedregal",
        "state": "Panamá Province",
        "postcode": null,
        "country": "Panama",
        "country_code": "pa"
      },
      "address": "538, Calle Villalobos, Buenos Aires, Pedregal, Distrito de Panamá, 54725 Panamá Province, Panama"
    },
    {
      "lat": 9.048276301705602,
      "lon": -79.40444174779611,
      "geoinfo": {
        "display_name": "Calle 5-A, La Riviera, Don Bosco, Distrito de Panamá, Panamá Province, Panama",
        "road": "Calle 5-A",
        "house_number": null,
        "neighbourhood": "La Riviera",
        "suburb": "Don Bosco",
        "city_district": null,
        "city": "Don Bosco",
        "state": "Panamá Province",
        "postcode": null,
        "country": "Panama",
        "country_code": "pa"
      },
      "address": "Calle 5-A, La Riviera, Don Bosco, Distrito de Panamá, 35306 Panamá Province, Panama"
    },
    {
      "lat": 9.106799807989558,
      "lon": -79.40755209858014,
      "geoinfo": {
        "display_name": "Ciudad Jardín Las Mañanitas, Las Mañanitas, Distrito de Panamá, Panamá Province, Panama",
        "road": null,
        "house_number": null,
        "neighbourhood": "Ciudad Jardín Las Mañanitas",
        "suburb": null,
        "city_district": null,
        "city": "Las Mañanitas",
        "state": "Panamá Province",
        "postcode": null,
        "country": "Panama",
        "country_code": "pa"
      },
      "address": "436, Ciudad Jardín Las Mañanitas, Las Mañanitas, Distrito de Panamá, 21087 Panamá Province, Panama"
    },
    {
      "lat": 9.079993848217567,
      "lon": -79.39898561416935,
      "geoinfo": {
        "display_name": "Jorge Illueca, Tocumen, Distrito de Panamá, Panamá Province, Panama",
        "road": null,
        "house_number": null,
        "neighbourhood": "Jorge Illueca",
        "suburb": null,
        "city_district": null,
        "city": "Tocumen",
        "state": "Panamá Province",
        "postcode": null,
        "country": "Panama",
        "country_code": "pa"
      },
      "address": "241, Jorge Illueca, Tocumen, Distrito de Panamá, 95705 Panamá Province, Panama"
    }
  ],
  "updated_at": "2025-10-19T08:57:06.107263+00:00",
  "_kind": "geo_samples"
}