{
  "country_code": "GE",
  "country": "Georgia",
  "city": "Akhaltsikhe",
  "geonameid": 615860,
  "target_addresses": 32,
  "samples": [
    {
      "lat": 41.66587101392517,
      "lon": 42.96356256133932,
      "geoinfo": {
        "display_name": "Mikeltsminda, Akhaltsikhe Municipality, Samtskhe-Javakheti, Georgia",
        "road": null,
        "house_number": null,
        "neighbourhood": null,
        "suburb": null,
        "city_district": null,
        "city": "Mikeltsminda",
        "state": "Samtskhe-Javakheti",
        "postcode": null,
        "country": "Georgia",
        "country_code": "ge"
      },
      "address": "Akhaltsikhe, Samtskhe-Javakheti, Georgia"
    },
    {
      "lat": 41.64031944369767,
      "lon": 42.991215179165636,
      "geoinfo": {
        "display_name": "Public School #2, Aspindza Street, Kalakis Tsentraluri District, Akhaltsikhe, Akhaltsikhe Municipality, Samtskhe-Javakheti, 0800, Georgia",
        "road": "Aspindza Street",
        "house_number": null,
        "neighbourhood": null,
        "suburb": "Kalakis Tsentraluri District",
        "city_district": null,
        "city": "Akhaltsikhe",
        "state": "Samtskhe-Javakheti",
        "postcode": "0800",
        "country": "Georgia",
        "country_code": "ge"
      },
      "address": "Aspindza Street, Akhaltsikhe, Samtskhe-Javakheti, Georgia"
    },
    {
      "lat": 41.64102495443839,
      "lon": 42.94111887529341,
      "geoinfo": {
        "display_name": "Khashuri — Akhaltsikhe — Vale, Skhvilisi, Akhaltsikhe Municipality, Samtskhe-Javakheti, 0800, Georgia",
        "road": "Khashuri — Akhaltsikhe — Vale",
        "house_number": null,
        "neighbourhood": null,
        "suburb": null,
        "city_district": null,
        "city": "Skhvilisi",
        "state": "Samtskhe-Javakheti",
        "postcode": "0800",
        "country": "Georgia",
        "country_code": "ge"
      },
      "address": "Khashuri — Akhaltsikhe — Vale, Akhaltsikhe, Samtskhe-Javakheti, Georgia"
    },
    {
      "lat": 41.626852784739995,
      "lon": 43.008808558808305,
      "geoinfo": {
        "display_name": "შ 125, Akhaltsikhe Municipality, Samtskhe-Javakheti, 0800, Georgia",
        "road": "შ 125",
        "house_number": null,
        "neighbourhood": null,
        "suburb": null,
        "city_district": null,
        "city": null,
        "state": "Samtskhe-Javakheti",
        "postcode": "0800",
        "country": "Georgia",
        "country_code": "ge"
      },
      "address": "შ 125, Akhaltsikhe, Samtskhe-Javakheti, Georgia"
    },
    {
      "lat": 41.65241600178071,
      "lon": 42.98098330182172,
      "geoinfo": {
        "display_name": "Ivane Akhaltsikheli Street, Rabati District, Akhaltsikhe, Akhaltsikhe Municipality, Samtskhe-Javakheti, 0800, Georgia",
        "road": "Ivane Akhaltsikheli Street",
        "house_number": null,
        "neighbourhood": null,
        "suburb": "Rabati District",
        "city_district": null,
        "city": "Akhaltsikhe",
        "state": "Samtskhe-Javakheti",
        "postcode": "0800",
        "country": "Georgia",
        "country_code": "ge"
      },
      "address": "Ivane Akhaltsikheli Street, Akhaltsikhe, Samtskhe-Javakheti, Georgia"
    },
    {
      "lat": 41.642285084834704,
      "lon": 43.00211966975152,
      "geoinfo": {
        "display_name": "9th April Street, Shalva Akhaltsikheli District, Akhaltsikhe, Akhaltsikhe Municipality, Samtskhe-Javakheti, 0800, Georgia",
        "road": "9th April Street",
        "house_number": null,
        "neighbourhood": null,
        "suburb": "Shalva Akhaltsikheli District",
        "city_district": null,
        "city": "Akhaltsikhe",
        "state": "Samtskhe-Javakheti",
        "postcode": "0800",
        "country": "Georgia",
        "country_code": "ge"
      },
      "address": "9th April Street, Akhaltsikhe, 71589 Samtskhe-Javakheti, Georgia"
    },
    {
      "lat": 41.59806952498381,
      "lon": 42.97788418892113,
      "geoinfo": {
        "display_name": "Khaki, Akhaltsikhe Municipality, Samtskhe-Javakheti, 0800, Georgia",
        "road": null,
        "house_number": null,
        "neighbourhood": null,
        "suburb": null,
        "city_district": null,
        "city": "Khaki",
        "state": "Samtskhe-Javakheti",
        "postcode": "0800",
        "country": "Georgia",
        "country_code": "ge"
      },
      "address": "Akhaltsikhe, 42596 Samtskhe-Javakheti, Georgia"
    },
    {
      "lat": 41.61628728029781,
      "lon": 42.988037566881424,
      "geoinfo": {
        "display_name": "Akhaltsikhe, Akhaltsikhe Municipality, Samtskhe-Javakheti, 0800, Georgia",
        "road": null,
        "house_number": null,
        "neighbourhood": null,
        "suburb": null,
        "city_district": null,
        "city": "Akhaltsikhe",
        "state": "Samtskhe-Javakheti",
        "postcode": "0800",
        "country": "Georgia",
        "country_code": "ge"
      },
      "address": "Akhaltsikhe, Akhaltsikhe Municipality, Samtskhe-Javakheti, 0800, Georgia"
    },
    {
      "lat": 41.601637474426,
      "lon": 42.984371739564565,
      "geoinfo": {
        "display_name": "Khaki, Akhaltsikhe Municipality, Samtskhe-Javakheti, 0800, Georgia",
        "road": null,
        "house_number": null,
        "neighbourhood": null,
        "suburb": null,
        "city_district": null,
        "city": "Khaki",
        "state": "Samtskhe-Javakheti",
        "postcode": "0800",
        "country": "Georgia",
        "country_code": "ge"
      },
      "address": "Khaki, Akhaltsikhe Municipality, Samtskhe-Javakheti, 0800, Georgia"
    },
    {
      "lat": 41.659785037380935,
      "lon": 42.989238659779964,
      "geoinfo": {
        "display_name": "Akhaltsikhe Municipality, Samtskhe-Javakheti, 0800, Georgia",
        "road": null,
        "house_number": null,
        "neighbourhood": null,
        "suburb": null,
        "city_district": null,
        "city": null,
        "state": "Samtskhe-Javakheti",
        "postcode": "0800",
        "country": "Georgia",
        "country_code": "ge"
      },
      "address": "277, Akhaltsikhe Municipality, Samtskhe-Javakheti, 0800, Georgia"
    },
    {
      "lat": 41.66447137626562,
      "lon": 43.01131991403101,
      "geoinfo": {
        "display_name": "Klde, Akhaltsikhe Municipality, Samtskhe-Javakheti, Georgia",
        "road": null,
        "house_number": null,
        "neighbourhood": null,
        "suburb": null,
        "city_district": null,
        "city": "Klde",
        "state": "Samtskhe-Javakheti",
        "postcode": null,
        "country": "Georgia",
        "country_code": "ge"
      },
      "address": "213, Klde, Akhaltsikhe Municipality, 43140 Samtskhe-Javakheti, Georgia"
    },
    {
      "lat": 41.62025696881695,
      "lon": 42.96439085489576,
      "geoinfo": {
        "display_name": "Akhaltsikhe, Akhaltsikhe Municipality, Samtskhe-Javakheti, 0800, Georgia",
        "road": null,
        "house_number": null,
        "neighbourhood": null,
        "suburb": null,
        "city_district": null,
        "city": "Akhaltsikhe",
        "state": "Samtskhe-Javakheti",
        "postcode": "0800",
        "country": "Georgia",
        "country_code": "ge"
      },
      "address": "046, Akhaltsikhe, Akhaltsikhe Municipality, Samtskhe-Javakheti, 0800, Georgia"
    },
    {
      "lat": 41.61333435162486,
      "lon": 43.00924675240391,
      "geoinfo": {
        "display_name": "შ 125, Akhaltsikhe Municipality, Samtskhe-Javakheti, 0800, Georgia",
        "road": "შ 125",
        "house_number": null,
        "neighbourhood": null,
        "suburb": null,
        "city_district": null,
        "city": null,
        "state": "Samtskhe-Javakheti",
        "postcode": "0800",
        "country": "Georgia",
        "country_code": "ge"
      },
      "address": "შ 125, Akhaltsikhe Municipality, Samtskhe-Javakheti, 0800, Georgia"
    },
    {
      "lat": 41.614859492953215,
      "lon": 42.98329010642947,
      "geoinfo": {
        "display_name": "Akhaltsikhe, Akhaltsikhe Municipality, Samtskhe-Javakheti, 0800, Georgia",
        "road": null,
        "house_number": null,
        "neighbourhood": null,
        "suburb": null,
        "city_district": null,
        "city": "Akhaltsikhe",
        "state": "Samtskhe-Javakheti",
        "postcode": "0800",
        "country": "Georgia",
        "country_code": "ge"
      },
      "address": "763, Akhaltsikhe, Akhaltsikhe Municipality, Samtskhe-Javakheti, 0800, Georgia"
    },
    {
      "lat": 41.60974705960327,
      "lon": 43.02159442062785,
      "geoinfo": {
        "display_name": "შ 125, Akhaltsikhe Municipality, Samtskhe-Javakheti, 0800, Georgia",
        "road": "შ 125",
        "house_number": null,
        "neighbourhood": null,
        "suburb": null,
        "city_district": null,
        "city": null,
        "state": "Samtskhe-Javakheti",
        "postcode": "0800",
        "country": "Georgia",
        "country_code": "ge"
      },
      "address": "შ 125, Akhaltsikhe, 0800 Samtskhe-Javakheti, Georgia"
    },
    {
      "lat": 41.66582579364811,
      "lon": 42.989722597522324,
      "geoinfo": {
        "display_name": "Tatanisi, Akhaltsikhe Municipality, Samtskhe-Javakheti, 0800, Georgia",
        "road": null,
        "house_number": null,
        "neighbourhood": null,
        "suburb": null,
        "city_district": null,
        "city": "Tatanisi",
        "state": "Samtskhe-Javakheti",
        "postcode": "0800",
        "country": "Georgia",
        "country_code": "ge"
      },
      "address": "048, Tatanisi, Akhaltsikhe Municipality, Samtskhe-Javakheti, 0800, Georgia"
    },
    {
      "lat": 41.67742689412502,
      "lon": 42.97613722349425,
      "geoinfo": {
        "display_name": "Tsira, Akhaltsikhe Municipality, Samtskhe-Javakheti, Georgia",
        "road": null,
        "house_number": null,
        "neighbourhood": null,
        "suburb": null,
        "city_district": null,
        "city": "Tsira",
        "state": "Samtskhe-Javakheti",
        "postcode": null,
        "country": "Georgia",
        "country_code": "ge"
      },
      "address": "028, Tsira, Akhaltsikhe Municipality, 78969 Samtskhe-Javakheti, Georgia"
    },
    {
      "lat": 41.63365358157025,
      "lon": 42.99334095082801,
      "geoinfo": {
        "display_name": "Ilia Maisuradze Street, Marda District, Akhaltsikhe, Akhaltsikhe Municipality, Samtskhe-Javakheti, 0800, Georgia",
        "road": "Ilia Maisuradze Street",
        "house_number": null,
        "neighbourhood": null,
        "suburb": "Marda District",
        "city_district": null,
        "city": "Akhaltsikhe",
        "state": "Samtskhe-Javakheti",
        "postcode": "0800",
        "country": "Georgia",
        "country_code": "ge"
      },
      "address": "451, Ilia Maisuradze Street, Marda District, Akhaltsikhe, Akhaltsikhe Municipality, Samtskhe-Javakheti, 0800, Georgia"
    },
    {
      "lat": 41.64760281473181,
      "lon": 43.00594045335073,
      "geoinfo": {
        "display_name": "Mikheil Tamarashvili Street, Akhaltsikhe, Akhaltsikhe Municipality, Samtskhe-Javakheti, 0800, Georgia",
        "road": "Mikheil Tamarashvili Street",
        "house_number": null,
        "neighbourhood": null,
        "suburb": null,
        "city_district": null,
        "city": "Akhaltsikhe",
        "state": "Samtskhe-Javakheti",
        "postcode": "0800",
        "country": "Georgia",
        "country_code": "ge"
      },
      "address": "574, Mikheil Tamarashvili Street, Akhaltsikhe, Akhaltsikhe Municipality, Samtskhe-Javakheti, 0800, Georgia"
    },
    {
      "lat": 41.66697019180757,
      "lon": 42.964946888937064,
      "geoinfo": {
        "display_name": "Tsira, Akhaltsikhe Municipality, Samtskhe-Javakheti, Georgia",
        "road": null,
        "house_number": null,
        "neighbourhood": null,
        "suburb": null,
        "city_district": null,
        "city": "Tsira",
        "state": "Samtskhe-Javakheti",
        "postcode": null,
        "country": "Georgia",
        "country_code": "ge"
      },
      "address": "549, Tsira, Akhaltsikhe Municipality, 80434 Samtskhe-Javakheti, Georgia"
    },
    {
      "lat": 41.605984236560495,
      "lon": 42.98546174466991,
      "geoinfo": {
        "display_name": "Khaki, Akhaltsikhe Municipality, Samtskhe-Javakheti, 0800, Georgia",
        "road": null,
        "house_number": null,
        "neighbourhood": null,
        "suburb": null,
        "city_district": null,
        "city": "Khaki",
        "state": "Samtskhe-Javakheti",
        "postcode": "0800",
        "country": "Georgia",
        "country_code": "ge"
      },
      "address": "828, Khaki, Akhaltsikhe Municipality, Samtskhe-Javakheti, 0800, Georgia"
    },
    {
      "lat": 41.66540499029906,
      "lon": 42.95365043005694,
      "geoinfo": {
        "display_name": "Akhaltsikhe, Akhaltsikhe Municipality, Samtskhe-Javakheti, 0800, Georgia",
        "road": null,
        "house_number": null,
        "neighbourhood": null,
        "suburb": null,
        "city_district": null,
        "city": "Akhaltsikhe",
        "state": "Samtskhe-Javakheti",
        "postcode": "0800",
        "country": "Georgia",
        "country_code": "ge"
      },
      "address": "698, Akhaltsikhe, Akhaltsikhe Municipality, Samtskhe-Javakheti, 0800, Georgia"
    },
    {
      "lat": 41.62321914921433,
      "lon": 43.03634491222685,
      "geoinfo": {
        "display_name": "Akhaltsikhe — Ninotsminda, Minadze, Akhaltsikhe Municipality, Samtskhe-Javakheti, 0800, Georgia",
        "road": "Akhaltsikhe — Ninotsminda",
        "house_number": null,
        "neighbourhood": null,
        "suburb": null,
        "city_district": null,
        "city": "Minadze",
        "state": "Samtskhe-Javakheti",
        "postcode": "0800",
        "country": "Georgia",
        "country_code": "ge"
      },
      "address": "972, Akhaltsikhe — Ninotsminda, Minadze, Akhaltsikhe Municipality, Samtskhe-Javakheti, 0800, Georgia"
    },
    {
      "lat": 41.62437392648029,
      "lon": 42.96897370300079,
      "geoinfo": {
        "display_name": "Akhaltsikhe, Akhaltsikhe Municipality, Samtskhe-Javakheti, 0800, Georgia",
        "road": null,
        "house_number": null,
        "neighbourhood": null,
        "suburb": null,
        "city_district": null,
        "city": "Akhaltsikhe",
        "state": "Samtskhe-Javakheti",
        "postcode": "0800",
        "country": "Georgia",
        "country_code": "ge"
      },
      "address": "789, Akhaltsikhe, Akhaltsikhe Municipality, Samtskhe-Javakheti, 0800, Georgia"
    },
    {
      "lat": 41.61764712779844,
      "lon": 42.98350404043696,
      "geoinfo": {
        "display_name": "Akhaltsikhe, Akhaltsikhe Municipality, Samtskhe-Javakheti, 0800, Georgia",
        "road": null,
        "house_number": null,
        "neighbourhood": null,
        "suburb": null,
        "city_district": null,
        "city": "Akhaltsikhe",
        "state": "Samtskhe-Javakheti",
        "postcode": "0800",
        "country": "Georgia",
        "country_code": "ge"
      },
      "address": "403, Akhaltsikhe, Akhaltsikhe Municipality, Samtskhe-Javakheti, 0800, Georgia"
    },
    {
      "lat": 41.657892722302314,
      "lon": 43.03444030101741,
      "geoinfo": {
        "display_name": "Akhaltsikhe, Akhaltsikhe Municipality, Samtskhe-Javakheti, 0800, Georgia",
        "road": null,
        "house_number": null,
        "neighbourhood": null,
        "suburb": null,
        "city_district": null,
        "city": "Akhaltsikhe",
        "state": "Samtskhe-Javakheti",
        "postcode": "0800",
        "country": "Georgia",
        "country_code": "ge"
      },
      "address": "090, Akhaltsikhe, Akhaltsikhe Municipality, Samtskhe-Javakheti, 0800, Georgia"
    },
    {
      "lat": 41.62854521065059,
      "lon": 43.03939565497351,
      "geoinfo": {
        "display_name": "Akhaltsikhe Municipality, Samtskhe-Javakheti, 0800, Georgia",
        "road": null,
        "house_number": null,
        "neighbourhood": null,
        "suburb": null,
        "city_district": null,
        "city": null,
        "state": "Samtskhe-Javakheti",
        "postcode": "0800",
        "country": "Georgia",
        "country_code": "ge"
      },
      "address": "171, Akhaltsikhe Municipality, Samtskhe-Javakheti, 0800, Georgia"
    },
    {
      "lat": 41.641219678636496,
      "lon": 43.02846540603799,
      "geoinfo": {
        "display_name": "Akhaltsikhe — Ninotsminda, Akhaltsikhe Municipality, Samtskhe-Javakheti, 0800, Georgia",
        "road": "Akhaltsikhe — Ninotsminda",
        "house_number": null,
        "neighbourhood": null,
        "suburb": null,
        "city_district": null,
        "city": null,
        "state": "Samtskhe-Javakheti",
        "postcode": "0800",
        "country": "Georgia",
        "country_code": "ge"
      },
      "address": "027, Akhaltsikhe — Ninotsminda, Akhaltsikhe Municipality, Samtskhe-Javakheti, 0800, Georgia"
    },
    {
      "lat": 41.62688350472741,
      "lon": 42.988780308114386,
      "geoinfo": {
        "display_name": "Akhaltsikhe, Akhaltsikhe Municipality, Samtskhe-Javakheti, 0800, Georgia",
        "road": null,
        "house_number": null,
        "neighbourhood": null,
        "suburb": null,
        "city_district": null,
        "city": "Akhaltsikhe",
        "state": "Samtskhe-Javakheti",
        "postcode": "0800",
        "country": "Georgia",
        "country_code": "ge"
      },
      "address": "261, Akhaltsikhe, Akhaltsikhe Municipality, Samtskhe-Javakheti, 0800, Georgia"
    },
    {
      "lat": 41.67758748241783,
      "lon": 42.98800288160937,
      "geoinfo": {
        "display_name": "Tatanisi, Akhaltsikhe Municipality, Samtskhe-Javakheti, 0800, Georgia",
        "road": null,
        "house_number": null,
        "neighbourhood": null,
        "suburb": null,
        "city_district": null,
        "city": "Tatanisi",
        "state": "Samtskhe-Javakheti",
        "postcode": "0800",
        "country": "Georgia",
        "country_code": "ge"
      },
      "address": "268, Tatanisi, Akhaltsikhe Municipality, Samtskhe-Javakheti, 0800, Georgia"
    },
    {
      "lat": 41.64111522737296,
      "lon": 42.99990677704312,
      "geoinfo": {
        "display_name": "Tsminda Daviti Da Kostantines Street, Shalva Akhaltsikheli District, Akhaltsikhe, Akhaltsikhe Municipality, Samtskhe-Javakheti, 0800, Georgia",
        "road": "Tsminda Daviti Da Kostantines Street",
        "house_number": null,
        "neighbourhood": null,
        "suburb": "Shalva Akhaltsikheli District",
        "city_district": null,
        "city": "Akhaltsikhe",
        "state": "Samtskhe-Javakheti",
        "postcode": "0800",
        "country": "Georgia",
        "country_code": "ge"
      },
      "address": "798, Tsminda Daviti Da Kostantines Street, Shalva Akhaltsikheli District, Akhaltsikhe, Akhaltsikhe Municipality, Samtskhe-Javakheti, 0800, Georgia"
    },
    {
      "lat": 41.59657029283629,
      "lon": 42.99018641384828,
      "geoinfo": {
        "display_name": "Anda, Akhaltsikhe Municipality, Samtskhe-Javakheti, Georgia",
        "road": null,
        "house_number": null,
        "neighbourhood": null,
        "suburb": null,
        "city_district": null,
        "city": null,
        "state": "Samtskhe-Javakheti",
        "postcode": null,
        "country": "Georgia",
        "country_code": "ge"
      },
      "address": "586, Anda, Akhaltsikhe Municipality, 76470 Samtskhe-Javakheti, Georgia"
    },
    {
      "lat": 41.63642536298244,
      "lon": 42.945575595046996,
      "geoinfo": {
        "display_name": "Khashuri — Akhaltsikhe — Vale, Skhvilisi, Akhaltsikhe Municipality, Samtskhe-Javakheti, 0800, Georgia",
        "road": "Khashuri — Akhaltsikhe — Vale",
        "house_number": null,
        "neighbourhood": null,
        "suburb": null,
        "city_district": null,
        "city": "Skhvilisi",
        "state": "Samtskhe-Javakheti",
        "postcode": "0800",
        "country": "Georgia",
        "country_code": "ge"
      },
      "address": "031, Khashuri — Akhaltsikhe — Vale, Skhvilisi, Akhaltsikhe Municipality, Samtskhe-Javakheti, 0800, Georgia"
    }
  ],
  "updated_at": "2025-10-19T04:30:50.382804+00:00",
  "_kind": "geo_samples"
}