{
  "country_code": "GE",
  "country": "Georgia",
  "city": "Gori",
  "geonameid": 614455,
  "target_addresses": 6,
  "samples": [
    {
      "lat": 41.968794684978036,
      "lon": 44.06620922103069,
      "geoinfo": {
        "display_name": "плохая Off Road дорога на гору Бурети, Didi Gorijvari, Gori Municipality, Shida Kartli, 1400, Georgia",
        "road": "плохая Off Road дорога на гору Бурети",
        "house_number": null,
        "neighbourhood": null,
        "suburb": null,
        "city_district": null,
        "city": "Didi Gorijvari",
        "state": "Shida Kartli",
        "postcode": "1400",
        "country": "Georgia",
        "country_code": "ge"
      },
      "address": "плохая Off Road дорога на гору Бурети, Gori, Shida Kartli, Georgia"
    },
    {
      "lat": 42.02686314799389,
      "lon": 44.10528029732027,
      "geoinfo": {
        "display_name": "Kvemo Rekha, Rekha, Gori Municipality, Shida Kartli, 1400, Georgia",
        "road": null,
        "house_number": null,
        "neighbourhood": "Kvemo Rekha",
        "suburb": null,
        "city_district": null,
        "city": "Rekha",
        "state": "Shida Kartli",
        "postcode": "1400",
        "country": "Georgia",
        "country_code": "ge"
      },
      "address": "Kvemo Rekha, Gori, Shida Kartli, Georgia"
    },
    {
      "lat": 42.024301206478974,
      "lon": 44.08743877119709,
      "geoinfo": {
        "display_name": "შ 198, Otarsheni, Gori Municipality, Shida Kartli, 1400, Georgia",
        "road": "შ 198",
        "house_number": null,
        "neighbourhood": null,
        "suburb": null,
        "city_district": null,
        "city": "Otarsheni",
        "state": "Shida Kartli",
        "postcode": "1400",
        "country": "Georgia",
        "country_code": "ge"
      },
      "address": "შ 198, Gori, Shida Kartli, Georgia"
    },
    {
      "lat": 42.006151352513974,
      "lon": 44.108839103277255,
      "geoinfo": {
        "display_name": "Karaleti IDP-Settlement, Gori — Tskhinvali — Gupta — Java — Roki, Gori Municipality, Shida Kartli, 1400, Georgia",
        "road": "Gori — Tskhinvali — Gupta — Java — Roki",
        "house_number": null,
        "neighbourhood": null,
        "suburb": null,
        "city_district": null,
        "city": null,
        "state": "Shida Kartli",
        "postcode": "1400",
        "country": "Georgia",
        "country_code": "ge"
      },
      "address": "Gori — Tskhinvali — Gupta — Java — Roki, Gori, Shida Kartli, Georgia"
    },
    {
      "lat": 42.001121683029695,
      "lon": 44.1377376791289,
      "geoinfo": {
        "display_name": "წყარო, ლევან ზერეკიძის ქუჩა, Mtkvartskalmsheni Settlement, Gori Municipality, Shida Kartli, 1400, Georgia",
        "road": "ლევან ზერეკიძის ქუჩა",
        "house_number": null,
        "neighbourhood": "Mtkvartskalmsheni Settlement",
        "suburb": null,
        "city_district": null,
        "city": null,
        "state": "Shida Kartli",
        "postcode": "1400",
        "country": "Georgia",
        "country_code": "ge"
      },
      "address": "ლევან ზერეკიძის ქუჩა, Gori, Shida Kartli, Georgia"
    },
    {
      "lat": 41.98140020497369,
      "lon": 44.168919443351164,
      "geoinfo": {
        "display_name": "Locality Bambebi, Gori, Gori Municipality, Shida Kartli, 1400, Georgia",
        "road": null,
        "house_number": null,
        "neighbourhood": null,
        "suburb": null,
        "city_district": null,
        "city": "Gori",
        "state": "Shida Kartli",
        "postcode": "1400",
        "country": "Georgia",
        "country_code": "ge"
      },
      "address": "Gori, Shida Kartli, Georgia"
    },
    {
      "lat": 41.989054995319904,
      "lon": 44.131609558681134,
      "geoinfo": {
        "display_name": "წმინდა ეპისკოპოსი ალექსანდრეს ქუჩა, Berbuki IDP-Settlement, Gori, Gori Municipality, Shida Kartli, 1400, Georgia",
        "road": "წმინდა ეპისკოპოსი ალექსანდრეს ქუჩა",
        "house_number": null,
        "neighbourhood": null,
        "suburb": null,
        "city_district": null,
        "city": "Gori",
        "state": "Shida Kartli",
        "postcode": "1400",
        "country": "Georgia",
        "country_code": "ge"
      },
      "address": "481, წმინდა ეპისკოპოსი ალექსანდრეს ქუჩა, Berbuki IDP-Settlement, Gori, Gori Municipality, Shida Kartli, 1400, Georgia"
    },
    {
      "lat": 41.96852715594923,
      "lon": 44.072509249682255,
      "geoinfo": {
        "display_name": "плохая Off Road дорога на гору Бурети, Didi Gorijvari, Gori Municipality, Shida Kartli, 1400, Georgia",
        "road": "плохая Off Road дорога на гору Бурети",
        "house_number": null,
        "neighbourhood": null,
        "suburb": null,
        "city_district": null,
        "city": "Didi Gorijvari",
        "state": "Shida Kartli",
        "postcode": "1400",
        "country": "Georgia",
        "country_code": "ge"
      },
      "address": "550, плохая Off Road дорога на гору Бурети, Didi Gorijvari, Gori Municipality, Shida Kartli, 1400, Georgia"
    },
    {
      "lat": 42.00101198655194,
      "lon": 44.09698687319164,
      "geoinfo": {
        "display_name": "10ა, Gvedtsiteli Street, Tsminda Tskali, Gori, Gori Municipality, Shida Kartli, 1400, Georgia",
        "road": "Gvedtsiteli Street",
        "house_number": "10ა",
        "neighbourhood": null,
        "suburb": null,
        "city_district": null,
        "city": "Gori",
        "state": "Shida Kartli",
        "postcode": "1400",
        "country": "Georgia",
        "country_code": "ge"
      },
      "address": "10ა, Gvedtsiteli Street, Tsminda Tskali, Gori, Gori Municipality, Shida Kartli, 1400, Georgia"
    },
    {
      "lat": 41.99391132921078,
      "lon": 44.16421822673435,
      "geoinfo": {
        "display_name": "Locality Bambebi, Gori, Gori Municipality, Shida Kartli, 1400, Georgia",
        "road": null,
        "house_number": null,
        "neighbourhood": null,
        "suburb": null,
        "city_district": null,
        "city": "Gori",
        "state": "Shida Kartli",
        "postcode": "1400",
        "country": "Georgia",
        "country_code": "ge"
      },
      "address": "434, Locality Bambebi, Gori, Gori Municipality, Shida Kartli, 1400, Georgia"
    },
    {
      "lat": 42.00300670914248,
      "lon": 44.135748850917324,
      "geoinfo": {
        "display_name": "წყარო, ლევან ზერეკიძის ქუჩა, Mtkvartskalmsheni Settlement, Gori Municipality, Shida Kartli, 1400, Georgia",
        "road": "ლევან ზერეკიძის ქუჩა",
        "house_number": null,
        "neighbourhood": "Mtkvartskalmsheni Settlement",
        "suburb": null,
        "city_district": null,
        "city": null,
        "state": "Shida Kartli",
        "postcode": "1400",
        "country": "Georgia",
        "country_code": "ge"
      },
      "address": "094, ლევან ზერეკიძის ქუჩა, Gori, 1400 Shida Kartli, Georgia"
    },
    {
      "lat": 41.98933116374686,
      "lon": 44.090253484163256,
      "geoinfo": {
        "display_name": "Kombinati, Gori, Gori Municipality, Shida Kartli, 1400, Georgia",
        "road": null,
        "house_number": null,
        "neighbourhood": null,
        "suburb": "Kombinati",
        "city_district": null,
        "city": "Gori",
        "state": "Shida Kartli",
        "postcode": "1400",
        "country": "Georgia",
        "country_code": "ge"
      },
      "address": "293, Kombinati, Gori, Gori Municipality, Shida Kartli, 1400, Georgia"
    }
  ],
  "updated_at": "2025-10-19T04:24:45.288491+00:00",
  "_kind": "geo_samples"
}