{
  "country_code": "GE",
  "country": "Georgia",
  "city": "Marneuli",
  "geonameid": 613074,
  "target_addresses": 6,
  "samples": [
    {
      "lat": 41.503459711086506,
      "lon": 44.84787804906579,
      "geoinfo": {
        "display_name": "Marneuli Municipality, Lower Kartli, 3000, Georgia",
        "road": null,
        "house_number": null,
        "neighbourhood": null,
        "suburb": null,
        "city_district": null,
        "city": null,
        "state": "Lower Kartli",
        "postcode": "3000",
        "country": "Georgia",
        "country_code": "ge"
      },
      "address": "Marneuli, Lower Kartli, Georgia"
    },
    {
      "lat": 41.457557980590416,
      "lon": 44.84106007486065,
      "geoinfo": {
        "display_name": "შ 163, Sabirkendi, Marneuli Municipality, Lower Kartli, 3000, Georgia",
        "road": "შ 163",
        "house_number": null,
        "neighbourhood": null,
        "suburb": null,
        "city_district": null,
        "city": "Sabirkendi",
        "state": "Lower Kartli",
        "postcode": "3000",
        "country": "Georgia",
        "country_code": "ge"
      },
      "address": "შ 163, Marneuli, Lower Kartli, Georgia"
    },
    {
      "lat": 41.507780392399745,
      "lon": 44.75648618555054,
      "geoinfo": {
        "display_name": "მარნეული-თეთრიწყარო-წალკა, Khaishi, Marneuli Municipality, Lower Kartli, 3000, Georgia",
        "road": "მარნეული-თეთრიწყარო-წალკა",
        "house_number": null,
        "neighbourhood": null,
        "suburb": null,
        "city_district": null,
        "city": "Khaishi",
        "state": "Lower Kartli",
        "postcode": "3000",
        "country": "Georgia",
        "country_code": "ge"
      },
      "address": "მარნეული-თეთრიწყარო-წალკა, Marneuli, Lower Kartli, Georgia"
    },
    {
      "lat": 41.48182926998519,
      "lon": 44.79300085443595,
      "geoinfo": {
        "display_name": "Nikoloz Musxelishvili 1 Dead end, Marneuli, Marneuli Municipality, Lower Kartli, 3000, Georgia",
        "road": "Nikoloz Musxelishvili 1 Dead end",
        "house_number": null,
        "neighbourhood": null,
        "suburb": null,
        "city_district": null,
        "city": "Marneuli",
        "state": "Lower Kartli",
        "postcode": "3000",
        "country": "Georgia",
        "country_code": "ge"
      },
      "address": "Nikoloz Musxelishvili 1 Dead end, Marneuli, Lower Kartli, Georgia"
    },
    {
      "lat": 41.51918872180673,
      "lon": 44.78513118891735,
      "geoinfo": {
        "display_name": "Ponichala — Marneuli — Guguti, Jandari, Marneuli Municipality, Lower Kartli, 3000, Georgia",
        "road": "Ponichala — Marneuli — Guguti",
        "house_number": null,
        "neighbourhood": null,
        "suburb": null,
        "city_district": null,
        "city": null,
        "state": "Lower Kartli",
        "postcode": "3000",
        "country": "Georgia",
        "country_code": "ge"
      },
      "address": "Ponichala — Marneuli — Guguti, Marneuli, Lower Kartli, Georgia"
    },
    {
      "lat": 41.45005050633438,
      "lon": 44.811676521826016,
      "geoinfo": {
        "display_name": "Marneuli — Sadakhlo, Tsereteli, Marneuli Municipality, Lower Kartli, 3000, Georgia",
        "road": "Marneuli — Sadakhlo",
        "house_number": null,
        "neighbourhood": null,
        "suburb": null,
        "city_district": null,
        "city": "Tsereteli",
        "state": "Lower Kartli",
        "postcode": "3000",
        "country": "Georgia",
        "country_code": "ge"
      },
      "address": "Marneuli — Sadakhlo, Marneuli, Lower Kartli, Georgia"
    },
    {
      "lat": 41.48907126780912,
      "lon": 44.85262635612166,
      "geoinfo": {
        "display_name": "Marneuli Municipality, Lower Kartli, 3000, Georgia",
        "road": null,
        "house_number": null,
        "neighbourhood": null,
        "suburb": null,
        "city_district": null,
        "city": null,
        "state": "Lower Kartli",
        "postcode": "3000",
        "country": "Georgia",
        "country_code": "ge"
      },
      "address": "666, Marneuli Municipality, Lower Kartli, 3000, Georgia"
    },
    {
      "lat": 41.52809879346921,
      "lon": 44.81038045765769,
      "geoinfo": {
        "display_name": "Tetritskaro Municipality, Lower Kartli, Georgia",
        "road": null,
        "house_number": null,
        "neighbourhood": null,
        "suburb": null,
        "city_district": null,
        "city": null,
        "state": "Lower Kartli",
        "postcode": null,
        "country": "Georgia",
        "country_code": "ge"
      },
      "address": "404, Marneuli, 58221 Lower Kartli, Georgia"
    },
    {
      "lat": 41.4876418540863,
      "lon": 44.806737034226835,
      "geoinfo": {
        "display_name": "Marneuli, Revaz Lagidze street, Marneuli, Marneuli Municipality, Lower Kartli, 3000, Georgia",
        "road": "Revaz Lagidze street",
        "house_number": null,
        "neighbourhood": null,
        "suburb": null,
        "city_district": null,
        "city": "Marneuli",
        "state": "Lower Kartli",
        "postcode": "3000",
        "country": "Georgia",
        "country_code": "ge"
      },
      "address": "608, Revaz Lagidze street, Marneuli, 3000 Lower Kartli, Georgia"
    },
    {
      "lat": 41.46699067611018,
      "lon": 44.79913174322115,
      "geoinfo": {
        "display_name": "Marneuli Air Base, Merab Kostava Street, Marneuli, Marneuli Municipality, Lower Kartli, 3000, Georgia",
        "road": "Merab Kostava Street",
        "house_number": null,
        "neighbourhood": null,
        "suburb": null,
        "city_district": null,
        "city": "Marneuli",
        "state": "Lower Kartli",
        "postcode": "3000",
        "country": "Georgia",
        "country_code": "ge"
      },
      "address": "734, Merab Kostava Street, Marneuli, 3000 Lower Kartli, Georgia"
    },
    {
      "lat": 41.50214383491344,
      "lon": 44.75044867832862,
      "geoinfo": {
        "display_name": "მარნეული-თეთრიწყარო-წალკა, Khaishi, Marneuli Municipality, Lower Kartli, 3000, Georgia",
        "road": "მარნეული-თეთრიწყარო-წალკა",
        "house_number": null,
        "neighbourhood": null,
        "suburb": null,
        "city_district": null,
        "city": "Khaishi",
        "state": "Lower Kartli",
        "postcode": "3000",
        "country": "Georgia",
        "country_code": "ge"
      },
      "address": "588, მარნეული-თეთრიწყარო-წალკა, Khaishi, Marneuli Municipality, Lower Kartli, 3000, Georgia"
    },
    {
      "lat": 41.462057615192684,
      "lon": 44.784176292612514,
      "geoinfo": {
        "display_name": "Marneuli Municipality, Lower Kartli, 3000, Georgia",
        "road": null,
        "house_number": null,
        "neighbourhood": null,
        "suburb": null,
        "city_district": null,
        "city": null,
        "state": "Lower Kartli",
        "postcode": "3000",
        "country": "Georgia",
        "country_code": "ge"
      },
      "address": "045, Marneuli Municipality, Lower Kartli, 3000, Georgia"
    }
  ],
  "updated_at": "2025-10-19T02:46:17.423345+00:00",
  "_kind": "geo_samples"
}