{
  "country_code": "GE",
  "country": "Georgia",
  "city": "Poti",
  "geonameid": 612366,
  "target_addresses": 6,
  "samples": [
    {
      "lat": 42.16444166792079,
      "lon": 41.674235461123786,
      "geoinfo": {
        "display_name": "Nabada, Poti, Samegrelo-Upper Svaneti, 4400, Georgia",
        "road": null,
        "house_number": null,
        "neighbourhood": null,
        "suburb": "Nabada",
        "city_district": null,
        "city": "Poti",
        "state": "Samegrelo-Upper Svaneti",
        "postcode": "4400",
        "country": "Georgia",
        "country_code": "ge"
      },
      "address": "Nabada, Poti, Samegrelo-Upper Svaneti, Georgia"
    },
    {
      "lat": 42.11482052389221,
      "lon": 41.68872590112288,
      "geoinfo": {
        "display_name": "Mikhail Lermontov Street, Maltaqva, Poti, Samegrelo-Upper Svaneti, 4400, Georgia",
        "road": "Mikhail Lermontov Street",
        "house_number": null,
        "neighbourhood": null,
        "suburb": "Maltaqva",
        "city_district": null,
        "city": "Poti",
        "state": "Samegrelo-Upper Svaneti",
        "postcode": "4400",
        "country": "Georgia",
        "country_code": "ge"
      },
      "address": "Mikhail Lermontov Street, Poti, Samegrelo-Upper Svaneti, Georgia"
    },
    {
      "lat": 42.12850452030958,
      "lon": 41.68619122432017,
      "geoinfo": {
        "display_name": "Constitution Street, Maltaqva, Poti, Samegrelo-Upper Svaneti, 4400, Georgia",
        "road": "Constitution Street",
        "house_number": null,
        "neighbourhood": null,
        "suburb": "Maltaqva",
        "city_district": null,
        "city": "Poti",
        "state": "Samegrelo-Upper Svaneti",
        "postcode": "4400",
        "country": "Georgia",
        "country_code": "ge"
      },
      "address": "Constitution Street, Poti, Samegrelo-Upper Svaneti, Georgia"
    },
    {
      "lat": 42.1246670072745,
      "lon": 41.62101999310964,
      "geoinfo": {
        "display_name": "Georgia",
        "road": null,
        "house_number": null,
        "neighbourhood": null,
        "suburb": null,
        "city_district": null,
        "city": null,
        "state": null,
        "postcode": null,
        "country": "Georgia",
        "country_code": "ge"
      },
      "address": "Poti, Samegrelo-Upper Svaneti, Georgia"
    },
    {
      "lat": 42.15303326319976,
      "lon": 41.67403623275334,
      "geoinfo": {
        "display_name": "Elada Street, Nabada, Poti, Samegrelo-Upper Svaneti, 4400, Georgia",
        "road": "Elada Street",
        "house_number": null,
        "neighbourhood": null,
        "suburb": "Nabada",
        "city_district": null,
        "city": "Poti",
        "state": "Samegrelo-Upper Svaneti",
        "postcode": "4400",
        "country": "Georgia",
        "country_code": "ge"
      },
      "address": "Elada Street, Poti, Samegrelo-Upper Svaneti, Georgia"
    },
    {
      "lat": 42.182907263115716,
      "lon": 41.680079386102086,
      "geoinfo": {
        "display_name": "Nabati Street, Nabada, Poti, Samegrelo-Upper Svaneti, 4400, Georgia",
        "road": "Nabati Street",
        "house_number": null,
        "neighbourhood": null,
        "suburb": "Nabada",
        "city_district": null,
        "city": "Poti",
        "state": "Samegrelo-Upper Svaneti",
        "postcode": "4400",
        "country": "Georgia",
        "country_code": "ge"
      },
      "address": "Nabati Street, Poti, Samegrelo-Upper Svaneti, Georgia"
    },
    {
      "lat": 42.14066416524008,
      "lon": 41.68057729238286,
      "geoinfo": {
        "display_name": "Konstantine Leselidze Street, Center, Poti, Samegrelo-Upper Svaneti, 4400, Georgia",
        "road": "Konstantine Leselidze Street",
        "house_number": null,
        "neighbourhood": null,
        "suburb": "Center",
        "city_district": null,
        "city": "Poti",
        "state": "Samegrelo-Upper Svaneti",
        "postcode": "4400",
        "country": "Georgia",
        "country_code": "ge"
      },
      "address": "122, Konstantine Leselidze Street, Center, Poti, Samegrelo-Upper Svaneti, 4400, Georgia"
    },
    {
      "lat": 42.105861446681104,
      "lon": 41.683454057183944,
      "geoinfo": {
        "display_name": "free camping, Mikhail Lermontov Street, Maltaqva, Poti, Samegrelo-Upper Svaneti, 4400, Georgia",
        "road": "Mikhail Lermontov Street",
        "house_number": null,
        "neighbourhood": null,
        "suburb": "Maltaqva",
        "city_district": null,
        "city": "Poti",
        "state": "Samegrelo-Upper Svaneti",
        "postcode": "4400",
        "country": "Georgia",
        "country_code": "ge"
      },
      "address": "445, Mikhail Lermontov Street, Poti, 4400 Samegrelo-Upper Svaneti, Georgia"
    },
    {
      "lat": 42.15170827961712,
      "lon": 41.731117251514945,
      "geoinfo": {
        "display_name": "Patara Poti, პატარა ფოთი, Khobi Municipality, Samegrelo-Upper Svaneti, Georgia",
        "road": null,
        "house_number": null,
        "neighbourhood": null,
        "suburb": null,
        "city_district": null,
        "city": "პატარა ფოთი",
        "state": "Samegrelo-Upper Svaneti",
        "postcode": null,
        "country": "Georgia",
        "country_code": "ge"
      },
      "address": "662, Patara Poti, პატარა ფოთი, Khobi Municipality, 92846 Samegrelo-Upper Svaneti, Georgia"
    },
    {
      "lat": 42.16499764398453,
      "lon": 41.65485754313184,
      "geoinfo": {
        "display_name": "Ivane Javakhishvili Street, Nabada, Poti, Samegrelo-Upper Svaneti, 4400, Georgia",
        "road": "Ivane Javakhishvili Street",
        "house_number": null,
        "neighbourhood": null,
        "suburb": "Nabada",
        "city_district": null,
        "city": "Poti",
        "state": "Samegrelo-Upper Svaneti",
        "postcode": "4400",
        "country": "Georgia",
        "country_code": "ge"
      },
      "address": "641, Ivane Javakhishvili Street, Nabada, Poti, Samegrelo-Upper Svaneti, 4400, Georgia"
    },
    {
      "lat": 42.158616061993904,
      "lon": 41.70289263631559,
      "geoinfo": {
        "display_name": "Merab Kostava Street, Center, Poti, Samegrelo-Upper Svaneti, 4400, Georgia",
        "road": "Merab Kostava Street",
        "house_number": null,
        "neighbourhood": null,
        "suburb": "Center",
        "city_district": null,
        "city": "Poti",
        "state": "Samegrelo-Upper Svaneti",
        "postcode": "4400",
        "country": "Georgia",
        "country_code": "ge"
      },
      "address": "381, Merab Kostava Street, Center, Poti, Samegrelo-Upper Svaneti, 4400, Georgia"
    },
    {
      "lat": 42.12011464973003,
      "lon": 41.71550666585083,
      "geoinfo": {
        "display_name": "Khobi Municipality, Samegrelo-Upper Svaneti, 5800, Georgia",
        "road": null,
        "house_number": null,
        "neighbourhood": null,
        "suburb": null,
        "city_district": null,
        "city": null,
        "state": "Samegrelo-Upper Svaneti",
        "postcode": "5800",
        "country": "Georgia",
        "country_code": "ge"
      },
      "address": "362, Poti, 5800 Samegrelo-Upper Svaneti, Georgia"
    }
  ],
  "updated_at": "2025-10-19T04:24:41.408039+00:00",
  "_kind": "geo_samples"
}