{
  "country_code": "GE",
  "country": "Georgia",
  "city": "Samtredia",
  "geonameid": 612126,
  "target_addresses": 6,
  "samples": [
    {
      "lat": 42.13494657545344,
      "lon": 42.28065534030102,
      "geoinfo": {
        "display_name": "Gautskinari, Abasha Municipality, Samegrelo-Upper Svaneti, 0200, Georgia",
        "road": null,
        "house_number": null,
        "neighbourhood": null,
        "suburb": null,
        "city_district": null,
        "city": "Gautskinari",
        "state": "Samegrelo-Upper Svaneti",
        "postcode": "0200",
        "country": "Georgia",
        "country_code": "ge"
      },
      "address": "Samtredia, Samegrelo-Upper Svaneti, Georgia"
    },
    {
      "lat": 42.145813991519326,
      "lon": 42.35645449152861,
      "geoinfo": {
        "display_name": "Etserdzveli-Samtredia, Samtredia, Samtredia Municipality, Imereti, 3900, Georgia",
        "road": null,
        "house_number": null,
        "neighbourhood": null,
        "suburb": "Etserdzveli-Samtredia",
        "city_district": null,
        "city": "Samtredia",
        "state": "Imereti",
        "postcode": "3900",
        "country": "Georgia",
        "country_code": "ge"
      },
      "address": "Etserdzveli-Samtredia, Samtredia, Imereti, Georgia"
    },
    {
      "lat": 42.14805019725903,
      "lon": 42.3380916267772,
      "geoinfo": {
        "display_name": "Samtredia, Samtredia Municipality, Imereti, 3900, Georgia",
        "road": null,
        "house_number": null,
        "neighbourhood": null,
        "suburb": null,
        "city_district": null,
        "city": "Samtredia",
        "state": "Imereti",
        "postcode": "3900",
        "country": "Georgia",
        "country_code": "ge"
      },
      "address": "Samtredia, Imereti, Georgia"
    },
    {
      "lat": 42.162890127987794,
      "lon": 42.36706556654068,
      "geoinfo": {
        "display_name": "Public School #6 named after Marlen Baramia, David Aghmashenebeli Street, Etserdzveli-Samtredia, Samtredia, Samtredia Municipality, Imereti, 3900, Georgia",
        "road": "David Aghmashenebeli Street",
        "house_number": null,
        "neighbourhood": null,
        "suburb": "Etserdzveli-Samtredia",
        "city_district": null,
        "city": "Samtredia",
        "state": "Imereti",
        "postcode": "3900",
        "country": "Georgia",
        "country_code": "ge"
      },
      "address": "David Aghmashenebeli Street, Samtredia, Imereti, Georgia"
    },
    {
      "lat": 42.148032294210275,
      "lon": 42.326594218734975,
      "geoinfo": {
        "display_name": "Amiran Bakhtadze Street, Samtredia, Samtredia Municipality, Imereti, 3900, Georgia",
        "road": "Amiran Bakhtadze Street",
        "house_number": null,
        "neighbourhood": null,
        "suburb": null,
        "city_district": null,
        "city": "Samtredia",
        "state": "Imereti",
        "postcode": "3900",
        "country": "Georgia",
        "country_code": "ge"
      },
      "address": "Amiran Bakhtadze Street, Samtredia, Imereti, Georgia"
    },
    {
      "lat": 42.1864538866489,
      "lon": 42.33798738346039,
      "geoinfo": {
        "display_name": "Republic 3rd Dead End, Samtredia, Samtredia Municipality, Imereti, 3900, Georgia",
        "road": "Republic 3rd Dead End",
        "house_number": null,
        "neighbourhood": null,
        "suburb": null,
        "city_district": null,
        "city": "Samtredia",
        "state": "Imereti",
        "postcode": "3900",
        "country": "Georgia",
        "country_code": "ge"
      },
      "address": "Republic 3rd Dead End, Samtredia, Imereti, Georgia"
    },
    {
      "lat": 42.151550642882405,
      "lon": 42.27877432389992,
      "geoinfo": {
        "display_name": "Tkhmelari, Abasha Municipality, Samegrelo-Upper Svaneti, 0200, Georgia",
        "road": null,
        "house_number": null,
        "neighbourhood": null,
        "suburb": null,
        "city_district": null,
        "city": "Tkhmelari",
        "state": "Samegrelo-Upper Svaneti",
        "postcode": "0200",
        "country": "Georgia",
        "country_code": "ge"
      },
      "address": "708, Samtredia, 0200 Samegrelo-Upper Svaneti, Georgia"
    },
    {
      "lat": 42.175701866688996,
      "lon": 42.29332749942041,
      "geoinfo": {
        "display_name": "Sanapiro 1st Dead End, Samtredia, Samtredia Municipality, Imereti, 3900, Georgia",
        "road": "Sanapiro 1st Dead End",
        "house_number": null,
        "neighbourhood": null,
        "suburb": null,
        "city_district": null,
        "city": "Samtredia",
        "state": "Imereti",
        "postcode": "3900",
        "country": "Georgia",
        "country_code": "ge"
      },
      "address": "Sanapiro 1st Dead End, Samtredia, Samtredia Municipality, Imereti, 3900, Georgia"
    },
    {
      "lat": 42.162180984983245,
      "lon": 42.281706326679334,
      "geoinfo": {
        "display_name": "Tkhmelari, Abasha Municipality, Samegrelo-Upper Svaneti, 0200, Georgia",
        "road": null,
        "house_number": null,
        "neighbourhood": null,
        "suburb": null,
        "city_district": null,
        "city": "Tkhmelari",
        "state": "Samegrelo-Upper Svaneti",
        "postcode": "0200",
        "country": "Georgia",
        "country_code": "ge"
      },
      "address": "177, Samtredia, 0200 Samegrelo-Upper Svaneti, Georgia"
    },
    {
      "lat": 42.15949534363103,
      "lon": 42.392218833299744,
      "geoinfo": {
        "display_name": "Tbilisi — Senaki — Leselidze, Etserdzveli-Samtredia, Akhalsopeli, Samtredia Municipality, Imereti, 3900, Georgia",
        "road": "Tbilisi — Senaki — Leselidze",
        "house_number": null,
        "neighbourhood": null,
        "suburb": "Etserdzveli-Samtredia",
        "city_district": null,
        "city": "Akhalsopeli",
        "state": "Imereti",
        "postcode": "3900",
        "country": "Georgia",
        "country_code": "ge"
      },
      "address": "463, Tbilisi — Senaki — Leselidze, Etserdzveli-Samtredia, Akhalsopeli, Samtredia Municipality, Imereti, 3900, Georgia"
    },
    {
      "lat": 42.132480487168266,
      "lon": 42.34352950739472,
      "geoinfo": {
        "display_name": "Samtredia — Lanchkhuti — Grigoleti, Samtredia, Samtredia Municipality, Imereti, 3900, Georgia",
        "road": "Samtredia — Lanchkhuti — Grigoleti",
        "house_number": null,
        "neighbourhood": null,
        "suburb": null,
        "city_district": null,
        "city": "Samtredia",
        "state": "Imereti",
        "postcode": "3900",
        "country": "Georgia",
        "country_code": "ge"
      },
      "address": "528, Samtredia — Lanchkhuti — Grigoleti, Samtredia, Samtredia Municipality, Imereti, 3900, Georgia"
    },
    {
      "lat": 42.16755096420725,
      "lon": 42.32012982920538,
      "geoinfo": {
        "display_name": "Ivane Nikoleishvili Street, Samtredia, Samtredia Municipality, Imereti, 3900, Georgia",
        "road": "Ivane Nikoleishvili Street",
        "house_number": null,
        "neighbourhood": null,
        "suburb": null,
        "city_district": null,
        "city": "Samtredia",
        "state": "Imereti",
        "postcode": "3900",
        "country": "Georgia",
        "country_code": "ge"
      },
      "address": "967, Ivane Nikoleishvili Street, Samtredia, Samtredia Municipality, Imereti, 3900, Georgia"
    }
  ],
  "updated_at": "2025-10-19T04:24:16.709804+00:00",
  "_kind": "geo_samples"
}