{
  "country_code": "GE",
  "country": "Georgia",
  "city": "Telavi",
  "geonameid": 611694,
  "target_addresses": 6,
  "samples": [
    {
      "lat": 41.93812922827778,
      "lon": 45.475236698460236,
      "geoinfo": {
        "display_name": "Telavi, Telavi Municipality, Kakheti, 2200, Georgia",
        "road": null,
        "house_number": null,
        "neighbourhood": null,
        "suburb": null,
        "city_district": null,
        "city": "Telavi",
        "state": "Kakheti",
        "postcode": "2200",
        "country": "Georgia",
        "country_code": "ge"
      },
      "address": "Telavi, Kakheti, Georgia"
    },
    {
      "lat": 41.95553428806117,
      "lon": 45.484787722545214,
      "geoinfo": {
        "display_name": "„აჩინებულის/მაწანწარას“ სამეკლესიანი ბაზილიკა, Alazani Ave, Telavi, Telavi Municipality, Kakheti, 2200, Georgia",
        "road": "Alazani Ave",
        "house_number": null,
        "neighbourhood": null,
        "suburb": null,
        "city_district": null,
        "city": "Telavi",
        "state": "Kakheti",
        "postcode": "2200",
        "country": "Georgia",
        "country_code": "ge"
      },
      "address": "Alazani Ave, Telavi, Kakheti, Georgia"
    },
    {
      "lat": 41.921531270502804,
      "lon": 45.48810370075359,
      "geoinfo": {
        "display_name": "33, Kurdghelauri Street, Telavi, Telavi Municipality, Kakheti, 2200, Georgia",
        "road": "Kurdghelauri Street",
        "house_number": "33",
        "neighbourhood": null,
        "suburb": null,
        "city_district": null,
        "city": "Telavi",
        "state": "Kakheti",
        "postcode": "2200",
        "country": "Georgia",
        "country_code": "ge"
      },
      "address": "33 Kurdghelauri Street, Telavi, Kakheti, Georgia"
    },
    {
      "lat": 41.917332375987506,
      "lon": 45.42903321825614,
      "geoinfo": {
        "display_name": "ვარდისუბანის ნათლისმცემელი, ვარდისუბნის აღმართ-ჩელენჯი, Telavi Municipality, Kakheti, 2200, Georgia",
        "road": "ვარდისუბნის აღმართ-ჩელენჯი",
        "house_number": null,
        "neighbourhood": null,
        "suburb": null,
        "city_district": null,
        "city": null,
        "state": "Kakheti",
        "postcode": "2200",
        "country": "Georgia",
        "country_code": "ge"
      },
      "address": "ვარდისუბნის აღმართ-ჩელენჯი, Telavi, Kakheti, Georgia"
    },
    {
      "lat": 41.910910267756854,
      "lon": 45.52186114649868,
      "geoinfo": {
        "display_name": "Sadguri Street, Telavi Municipality, Kakheti, 2200, Georgia",
        "road": "Sadguri Street",
        "house_number": null,
        "neighbourhood": null,
        "suburb": null,
        "city_district": null,
        "city": null,
        "state": "Kakheti",
        "postcode": "2200",
        "country": "Georgia",
        "country_code": "ge"
      },
      "address": "Sadguri Street, Telavi, Kakheti, Georgia"
    },
    {
      "lat": 41.889033999142335,
      "lon": 45.49395046426015,
      "geoinfo": {
        "display_name": "ბარბარეს ეკლესია, Niko Muskhelishvili Street, Telavi, Telavi Municipality, Kakheti, 2200, Georgia",
        "road": "Niko Muskhelishvili Street",
        "house_number": null,
        "neighbourhood": null,
        "suburb": null,
        "city_district": null,
        "city": "Telavi",
        "state": "Kakheti",
        "postcode": "2200",
        "country": "Georgia",
        "country_code": "ge"
      },
      "address": "Niko Muskhelishvili Street, Telavi, Kakheti, Georgia"
    },
    {
      "lat": 41.93019617877187,
      "lon": 45.42545800786435,
      "geoinfo": {
        "display_name": "Vardisubani, Telavi Municipality, Kakheti, 2200, Georgia",
        "road": null,
        "house_number": null,
        "neighbourhood": null,
        "suburb": null,
        "city_district": null,
        "city": "Vardisubani",
        "state": "Kakheti",
        "postcode": "2200",
        "country": "Georgia",
        "country_code": "ge"
      },
      "address": "553, Vardisubani, Telavi Municipality, Kakheti, 2200, Georgia"
    },
    {
      "lat": 41.90314302225693,
      "lon": 45.52241636500527,
      "geoinfo": {
        "display_name": "Kisiskhevi, Telavi Municipality, Kakheti, 2200, Georgia",
        "road": null,
        "house_number": null,
        "neighbourhood": null,
        "suburb": null,
        "city_district": null,
        "city": "Kisiskhevi",
        "state": "Kakheti",
        "postcode": "2200",
        "country": "Georgia",
        "country_code": "ge"
      },
      "address": "129, Kisiskhevi, Telavi Municipality, Kakheti, 2200, Georgia"
    },
    {
      "lat": 41.91099159089226,
      "lon": 45.48945540195518,
      "geoinfo": {
        "display_name": "Telavi, Telavi Municipality, Kakheti, 2200, Georgia",
        "road": null,
        "house_number": null,
        "neighbourhood": null,
        "suburb": null,
        "city_district": null,
        "city": "Telavi",
        "state": "Kakheti",
        "postcode": "2200",
        "country": "Georgia",
        "country_code": "ge"
      },
      "address": "223, Telavi, Telavi Municipality, Kakheti, 2200, Georgia"
    },
    {
      "lat": 41.93280332156373,
      "lon": 45.47756710958504,
      "geoinfo": {
        "display_name": "38ა, Alazani Avenue, Telavi, Telavi Municipality, Kakheti, 2200, Georgia",
        "road": "Alazani Avenue",
        "house_number": "38ა",
        "neighbourhood": null,
        "suburb": null,
        "city_district": null,
        "city": "Telavi",
        "state": "Kakheti",
        "postcode": "2200",
        "country": "Georgia",
        "country_code": "ge"
      },
      "address": "38ა, Alazani Avenue, Telavi, Telavi Municipality, Kakheti, 2200, Georgia"
    },
    {
      "lat": 41.95032637814878,
      "lon": 45.43780087601383,
      "geoinfo": {
        "display_name": "Karajala, Telavi Municipality, Kakheti, 2200, Georgia",
        "road": null,
        "house_number": null,
        "neighbourhood": null,
        "suburb": null,
        "city_district": null,
        "city": "Karajala",
        "state": "Kakheti",
        "postcode": "2200",
        "country": "Georgia",
        "country_code": "ge"
      },
      "address": "193, Karajala, Telavi Municipality, Kakheti, 2200, Georgia"
    },
    {
      "lat": 41.90741031152682,
      "lon": 45.511552502467225,
      "geoinfo": {
        "display_name": "Shalauri, Telavi Municipality, Kakheti, 2200, Georgia",
        "road": null,
        "house_number": null,
        "neighbourhood": null,
        "suburb": null,
        "city_district": null,
        "city": "Shalauri",
        "state": "Kakheti",
        "postcode": "2200",
        "country": "Georgia",
        "country_code": "ge"
      },
      "address": "491, Shalauri, Telavi Municipality, Kakheti, 2200, Georgia"
    }
  ],
  "updated_at": "2025-10-19T02:45:50.906585+00:00",
  "_kind": "geo_samples"
}