{
  "country_code": "GE",
  "country": "Georgia",
  "city": "Zugdidi",
  "geonameid": 610824,
  "target_addresses": 6,
  "samples": [
    {
      "lat": 42.542156424911454,
      "lon": 41.9001168468612,
      "geoinfo": {
        "display_name": "Chkhoushi, Zugdidi Municipality, Samegrelo-Upper Svaneti, 2100, Georgia",
        "road": null,
        "house_number": null,
        "neighbourhood": null,
        "suburb": null,
        "city_district": null,
        "city": "Chkhoushi",
        "state": "Samegrelo-Upper Svaneti",
        "postcode": "2100",
        "country": "Georgia",
        "country_code": "ge"
      },
      "address": "Zugdidi, Samegrelo-Upper Svaneti, Georgia"
    },
    {
      "lat": 42.471074622037236,
      "lon": 41.86408520700815,
      "geoinfo": {
        "display_name": "კოსტავას ქუჩა, Chitatskari, Zugdidi Municipality, Samegrelo-Upper Svaneti, 2100, Georgia",
        "road": "კოსტავას ქუჩა",
        "house_number": null,
        "neighbourhood": null,
        "suburb": null,
        "city_district": null,
        "city": "Chitatskari",
        "state": "Samegrelo-Upper Svaneti",
        "postcode": "2100",
        "country": "Georgia",
        "country_code": "ge"
      },
      "address": "კოსტავას ქუჩა, Zugdidi, Samegrelo-Upper Svaneti, Georgia"
    },
    {
      "lat": 42.47237056461968,
      "lon": 41.83786270504615,
      "geoinfo": {
        "display_name": "Tbilisi — Senaki — Leselidze, Matskhovriskari, Chitatskari, Zugdidi Municipality, Samegrelo-Upper Svaneti, 2100, Georgia",
        "road": "Tbilisi — Senaki — Leselidze",
        "house_number": null,
        "neighbourhood": null,
        "suburb": "Matskhovriskari",
        "city_district": null,
        "city": "Chitatskari",
        "state": "Samegrelo-Upper Svaneti",
        "postcode": "2100",
        "country": "Georgia",
        "country_code": "ge"
      },
      "address": "Tbilisi — Senaki — Leselidze, Zugdidi, Samegrelo-Upper Svaneti, Georgia"
    },
    {
      "lat": 42.53623249751265,
      "lon": 41.883656371478445,
      "geoinfo": {
        "display_name": "Parnavaz Mepe Street, Egrisi, Zugdidi, Zugdidi Municipality, Samegrelo-Upper Svaneti, 2100, Georgia",
        "road": "Parnavaz Mepe Street",
        "house_number": null,
        "neighbourhood": null,
        "suburb": "Egrisi",
        "city_district": null,
        "city": "Zugdidi",
        "state": "Samegrelo-Upper Svaneti",
        "postcode": "2100",
        "country": "Georgia",
        "country_code": "ge"
      },
      "address": "Parnavaz Mepe Street, Zugdidi, Samegrelo-Upper Svaneti, Georgia"
    },
    {
      "lat": 42.46663628948712,
      "lon": 41.84846035863906,
      "geoinfo": {
        "display_name": "Perero Town Hall, ნარმანიას ქუჩა, Chitatskari, Zugdidi Municipality, Samegrelo-Upper Svaneti, 2100, Georgia",
        "road": "ნარმანიას ქუჩა",
        "house_number": null,
        "neighbourhood": null,
        "suburb": null,
        "city_district": null,
        "city": "Chitatskari",
        "state": "Samegrelo-Upper Svaneti",
        "postcode": "2100",
        "country": "Georgia",
        "country_code": "ge"
      },
      "address": "ნარმანიას ქუჩა, Zugdidi, Samegrelo-Upper Svaneti, Georgia"
    },
    {
      "lat": 42.51030155182337,
      "lon": 41.882289762195924,
      "geoinfo": {
        "display_name": "Sh 84, Odishi, Zugdidi, Zugdidi Municipality, Samegrelo-Upper Svaneti, 2100, Georgia",
        "road": "Sh 84",
        "house_number": null,
        "neighbourhood": null,
        "suburb": "Odishi",
        "city_district": null,
        "city": "Zugdidi",
        "state": "Samegrelo-Upper Svaneti",
        "postcode": "2100",
        "country": "Georgia",
        "country_code": "ge"
      },
      "address": "Sh 84, Zugdidi, Samegrelo-Upper Svaneti, Georgia"
    },
    {
      "lat": 42.50406289796192,
      "lon": 41.9236468254539,
      "geoinfo": {
        "display_name": "Uchashona, Zugdidi Municipality, Samegrelo-Upper Svaneti, 2100, Georgia",
        "road": null,
        "house_number": null,
        "neighbourhood": null,
        "suburb": null,
        "city_district": null,
        "city": "Uchashona",
        "state": "Samegrelo-Upper Svaneti",
        "postcode": "2100",
        "country": "Georgia",
        "country_code": "ge"
      },
      "address": "899, Uchashona, Zugdidi Municipality, Samegrelo-Upper Svaneti, 2100, Georgia"
    },
    {
      "lat": 42.55135071276032,
      "lon": 41.86488710478372,
      "geoinfo": {
        "display_name": "Rukhi, Zugdidi Municipality, Samegrelo-Upper Svaneti, 2100, Georgia",
        "road": null,
        "house_number": null,
        "neighbourhood": null,
        "suburb": null,
        "city_district": null,
        "city": "Rukhi",
        "state": "Samegrelo-Upper Svaneti",
        "postcode": "2100",
        "country": "Georgia",
        "country_code": "ge"
      },
      "address": "448, Rukhi, Zugdidi Municipality, Samegrelo-Upper Svaneti, 2100, Georgia"
    },
    {
      "lat": 42.503763014153144,
      "lon": 41.82290215681946,
      "geoinfo": {
        "display_name": "Ingiri, Zugdidi Municipality, Samegrelo-Upper Svaneti, 2100, Georgia",
        "road": null,
        "house_number": null,
        "neighbourhood": null,
        "suburb": null,
        "city_district": null,
        "city": "Ingiri",
        "state": "Samegrelo-Upper Svaneti",
        "postcode": "2100",
        "country": "Georgia",
        "country_code": "ge"
      },
      "address": "541, Ingiri, Zugdidi Municipality, Samegrelo-Upper Svaneti, 2100, Georgia"
    },
    {
      "lat": 42.51141399243375,
      "lon": 41.83141043852659,
      "geoinfo": {
        "display_name": "Vakhtang Gorgasali Street, Enguri, Zugdidi, Zugdidi Municipality, Samegrelo-Upper Svaneti, 2100, Georgia",
        "road": "Vakhtang Gorgasali Street",
        "house_number": null,
        "neighbourhood": null,
        "suburb": "Enguri",
        "city_district": null,
        "city": "Zugdidi",
        "state": "Samegrelo-Upper Svaneti",
        "postcode": "2100",
        "country": "Georgia",
        "country_code": "ge"
      },
      "address": "132, Vakhtang Gorgasali Street, Enguri, Zugdidi, Zugdidi Municipality, Samegrelo-Upper Svaneti, 2100, Georgia"
    },
    {
      "lat": 42.49376917868056,
      "lon": 41.899131748894305,
      "geoinfo": {
        "display_name": "Akhalsopeli, Zugdidi Municipality, Samegrelo-Upper Svaneti, 2100, Georgia",
        "road": null,
        "house_number": null,
        "neighbourhood": null,
        "suburb": null,
        "city_district": null,
        "city": "Akhalsopeli",
        "state": "Samegrelo-Upper Svaneti",
        "postcode": "2100",
        "country": "Georgia",
        "country_code": "ge"
      },
      "address": "593, Akhalsopeli, Zugdidi Municipality, Samegrelo-Upper Svaneti, 2100, Georgia"
    },
    {
      "lat": 42.51147061597759,
      "lon": 41.90273416497304,
      "geoinfo": {
        "display_name": "Zugdidi Municipality, Samegrelo-Upper Svaneti, 2100, Georgia",
        "road": null,
        "house_number": null,
        "neighbourhood": null,
        "suburb": null,
        "city_district": null,
        "city": null,
        "state": "Samegrelo-Upper Svaneti",
        "postcode": "2100",
        "country": "Georgia",
        "country_code": "ge"
      },
      "address": "304, Zugdidi Municipality, Samegrelo-Upper Svaneti, 2100, Georgia"
    }
  ],
  "updated_at": "2025-10-19T02:44:59.007802+00:00",
  "_kind": "geo_samples"
}