{
  "country_code": "VI",
  "country": "U.S. Virgin Islands",
  "city": "Saint Croix",
  "geonameid": 4796512,
  "target_addresses": 50,
  "samples": [
    {
      "lat": 17.750851151760187,
      "lon": -64.77024709696639,
      "geoinfo": {
        "display_name": "Northside Road, La Reine, Body Slob North, Saint Croix District, United States Virgin Islands, 00851, United States",
        "road": "Northside Road",
        "house_number": null,
        "neighbourhood": "La Reine",
        "suburb": null,
        "city_district": null,
        "city": null,
        "state": "United States Virgin Islands",
        "postcode": "00851",
        "country": "United States",
        "country_code": "us"
      },
      "address": "130, Northside Road, Saint Croix, 00851 United States Virgin Islands, U.S. Virgin Islands"
    },
    {
      "lat": 17.697860516923587,
      "lon": -64.71874253520355,
      "geoinfo": {
        "display_name": "Wacho Beach, Saint Croix District, United States Virgin Islands, 00823, United States",
        "road": null,
        "house_number": null,
        "neighbourhood": null,
        "suburb": null,
        "city_district": null,
        "city": null,
        "state": "United States Virgin Islands",
        "postcode": "00823",
        "country": "United States",
        "country_code": "us"
      },
      "address": "907, Saint Croix, 00823 United States Virgin Islands, U.S. Virgin Islands"
    },
    {
      "lat": 17.70316167966908,
      "lon": -64.71005342091394,
      "geoinfo": {
        "display_name": "Wacho Beach, Saint Croix District, United States Virgin Islands, 00823, United States",
        "road": null,
        "house_number": null,
        "neighbourhood": null,
        "suburb": null,
        "city_district": null,
        "city": null,
        "state": "United States Virgin Islands",
        "postcode": "00823",
        "country": "United States",
        "country_code": "us"
      },
      "address": "806, Saint Croix, 00823 United States Virgin Islands, U.S. Virgin Islands"
    },
    {
      "lat": 17.748538981584563,
      "lon": -64.76688815023785,
      "geoinfo": {
        "display_name": "Windsor, Saint Croix District, United States Virgin Islands, 00822, United States",
        "road": null,
        "house_number": null,
        "neighbourhood": null,
        "suburb": null,
        "city_district": null,
        "city": null,
        "state": "United States Virgin Islands",
        "postcode": "00822",
        "country": "United States",
        "country_code": "us"
      },
      "address": "690, Saint Croix, 00822 United States Virgin Islands, U.S. Virgin Islands"
    },
    {
      "lat": 17.71666697777222,
      "lon": -64.75561526571478,
      "geoinfo": {
        "display_name": "Hope Road, Hope, Saint Croix District, United States Virgin Islands, 00823, United States",
        "road": "Hope Road",
        "house_number": null,
        "neighbourhood": "Hope",
        "suburb": null,
        "city_district": null,
        "city": null,
        "state": "United States Virgin Islands",
        "postcode": "00823",
        "country": "United States",
        "country_code": "us"
      },
      "address": "741, Hope Road, Saint Croix, 00823 United States Virgin Islands, U.S. Virgin Islands"
    },
    {
      "lat": 17.717782947828503,
      "lon": -64.7151310014277,
      "geoinfo": {
        "display_name": "Granard Road, Granard, Corn Hill, Saint Croix District, United States Virgin Islands, 00823, United States",
        "road": "Granard Road",
        "house_number": null,
        "neighbourhood": "Granard",
        "suburb": null,
        "city_district": null,
        "city": null,
        "state": "United States Virgin Islands",
        "postcode": "00823",
        "country": "United States",
        "country_code": "us"
      },
      "address": "192, Granard Road, Saint Croix, 00823 United States Virgin Islands, U.S. Virgin Islands"
    },
    {
      "lat": 17.683954109935062,
      "lon": -64.73963614890931,
      "geoinfo": {
        "display_name": "Saint Croix District, United States Virgin Islands, United States",
        "road": null,
        "house_number": null,
        "neighbourhood": null,
        "suburb": null,
        "city_district": null,
        "city": null,
        "state": "United States Virgin Islands",
        "postcode": null,
        "country": "United States",
        "country_code": "us"
      },
      "address": "012, Saint Croix, 15525 United States Virgin Islands, U.S. Virgin Islands"
    },
    {
      "lat": 17.721178507011818,
      "lon": -64.75080260926026,
      "geoinfo": {
        "display_name": "562, East Ridge Road, Cottage, Saint Croix District, United States Virgin Islands, 00820, United States",
        "road": "East Ridge Road",
        "house_number": "562",
        "neighbourhood": "Cottage",
        "suburb": null,
        "city_district": null,
        "city": null,
        "state": "United States Virgin Islands",
        "postcode": "00820",
        "country": "United States",
        "country_code": "us"
      },
      "address": "562, East Ridge Road, Saint Croix, 00820 United States Virgin Islands, U.S. Virgin Islands"
    },
    {
      "lat": 17.719497157773827,
      "lon": -64.71241052671412,
      "geoinfo": {
        "display_name": "Granard Road, Granard, Corn Hill, Saint Croix District, United States Virgin Islands, 00823, United States",
        "road": "Granard Road",
        "house_number": null,
        "neighbourhood": "Granard",
        "suburb": null,
        "city_district": null,
        "city": null,
        "state": "United States Virgin Islands",
        "postcode": "00823",
        "country": "United States",
        "country_code": "us"
      },
      "address": "585, Granard Road, Saint Croix, 00823 United States Virgin Islands, U.S. Virgin Islands"
    },
    {
      "lat": 17.716378141202455,
      "lon": -64.76254304414769,
      "geoinfo": {
        "display_name": "Hope Road, Hope, Saint Croix District, United States Virgin Islands, 00822, United States",
        "road": "Hope Road",
        "house_number": null,
        "neighbourhood": "Hope",
        "suburb": null,
        "city_district": null,
        "city": null,
        "state": "United States Virgin Islands",
        "postcode": "00822",
        "country": "United States",
        "country_code": "us"
      },
      "address": "377, Hope Road, Saint Croix, 00822 United States Virgin Islands, U.S. Virgin Islands"
    },
    {
      "lat": 17.695238983385853,
      "lon": -64.74847768964848,
      "geoinfo": {
        "display_name": "Clifton Hill Road, Limetree Bay Refinery, Annaberg and Shannon Grove, Saint Croix District, United States Virgin Islands, 00822, United States",
        "road": "Clifton Hill Road",
        "house_number": null,
        "neighbourhood": "Annaberg and Shannon Grove",
        "suburb": null,
        "city_district": null,
        "city": null,
        "state": "United States Virgin Islands",
        "postcode": "00822",
        "country": "United States",
        "country_code": "us"
      },
      "address": "523, Clifton Hill Road, Saint Croix, 00822 United States Virgin Islands, U.S. Virgin Islands"
    },
    {
      "lat": 17.705236008823366,
      "lon": -64.74670464188323,
      "geoinfo": {
        "display_name": "Jerusalem and Figtree Hill, Saint Croix District, United States Virgin Islands, 00823, United States",
        "road": null,
        "house_number": null,
        "neighbourhood": "Jerusalem and Figtree Hill",
        "suburb": null,
        "city_district": null,
        "city": null,
        "state": "United States Virgin Islands",
        "postcode": "00823",
        "country": "United States",
        "country_code": "us"
      },
      "address": "992, Jerusalem and Figtree Hill, Saint Croix, 00823 United States Virgin Islands, U.S. Virgin Islands"
    },
    {
      "lat": 17.724198418179107,
      "lon": -64.78898900574522,
      "geoinfo": {
        "display_name": "Queen Mary Highway / Centerline Road, Lower Love, Kingshill, Saint Croix District, United States Virgin Islands, 00851, United States",
        "road": "Queen Mary Highway / Centerline Road",
        "house_number": null,
        "neighbourhood": "Lower Love",
        "suburb": null,
        "city_district": null,
        "city": null,
        "state": "United States Virgin Islands",
        "postcode": "00851",
        "country": "United States",
        "country_code": "us"
      },
      "address": "242, Queen Mary Highway / Centerline Road, Saint Croix, 00851 United States Virgin Islands, U.S. Virgin Islands"
    },
    {
      "lat": 17.75370939764763,
      "lon": -64.72087364285727,
      "geoinfo": {
        "display_name": "Golden Rock, Little Princess North, Saint Croix District, United States Virgin Islands, 00824, United States",
        "road": null,
        "house_number": null,
        "neighbourhood": "Golden Rock",
        "suburb": null,
        "city_district": null,
        "city": null,
        "state": "United States Virgin Islands",
        "postcode": "00824",
        "country": "United States",
        "country_code": "us"
      },
      "address": "470, Golden Rock, Saint Croix, 00824 United States Virgin Islands, U.S. Virgin Islands"
    },
    {
      "lat": 17.747582707326572,
      "lon": -64.71237678730283,
      "geoinfo": {
        "display_name": "180, West Street, Friedensthal, Christiansted, Saint Croix District, United States Virgin Islands, 00820, United States",
        "road": "West Street",
        "house_number": "180",
        "neighbourhood": "Friedensthal",
        "suburb": null,
        "city_district": null,
        "city": "Christiansted",
        "state": "United States Virgin Islands",
        "postcode": "00820",
        "country": "United States",
        "country_code": "us"
      },
      "address": "180, West Street, Saint Croix, 00820 United States Virgin Islands, U.S. Virgin Islands"
    },
    {
      "lat": 17.75471759119779,
      "lon": -64.74358571808048,
      "geoinfo": {
        "display_name": "Sion Farm, Saint Croix District, United States Virgin Islands, 00823, United States",
        "road": null,
        "house_number": null,
        "neighbourhood": null,
        "suburb": "Sion Farm",
        "city_district": null,
        "city": null,
        "state": "United States Virgin Islands",
        "postcode": "00823",
        "country": "United States",
        "country_code": "us"
      },
      "address": "516, Sion Farm, Saint Croix, 00823 United States Virgin Islands, U.S. Virgin Islands"
    },
    {
      "lat": 17.73091058118092,
      "lon": -64.76137793533518,
      "geoinfo": {
        "display_name": "284, Kaira Avenue, Strawberry Hill Historic District, Saint Croix District, United States Virgin Islands, 00820, United States",
        "road": "Kaira Avenue",
        "house_number": "284",
        "neighbourhood": "Strawberry Hill Historic District",
        "suburb": null,
        "city_district": null,
        "city": null,
        "state": "United States Virgin Islands",
        "postcode": "00820",
        "country": "United States",
        "country_code": "us"
      },
      "address": "284, Kaira Avenue, Saint Croix, 00820 United States Virgin Islands, U.S. Virgin Islands"
    },
    {
      "lat": 17.722599105859466,
      "lon": -64.76378817132121,
      "geoinfo": {
        "display_name": "Melvin H. Evans Highway, Clifton Hill, Allandale, Saint Croix District, United States Virgin Islands, 00822, United States",
        "road": "Melvin H. Evans Highway",
        "house_number": null,
        "neighbourhood": "Clifton Hill",
        "suburb": null,
        "city_district": null,
        "city": null,
        "state": "United States Virgin Islands",
        "postcode": "00822",
        "country": "United States",
        "country_code": "us"
      },
      "address": "715, Melvin H. Evans Highway, Saint Croix, 00822 United States Virgin Islands, U.S. Virgin Islands"
    },
    {
      "lat": 17.756485930351523,
      "lon": -64.75332692612172,
      "geoinfo": {
        "display_name": "Claude A. Benjamin Memorial Drive, Sunny Isle Shopping Center, Montpellier, Saint Croix District, United States Virgin Islands, 00822, United States",
        "road": "Claude A. Benjamin Memorial Drive",
        "house_number": null,
        "neighbourhood": null,
        "suburb": null,
        "city_district": null,
        "city": null,
        "state": "United States Virgin Islands",
        "postcode": "00822",
        "country": "United States",
        "country_code": "us"
      },
      "address": "451, Claude A. Benjamin Memorial Drive, Saint Croix, 00822 United States Virgin Islands, U.S. Virgin Islands"
    },
    {
      "lat": 17.699545420244668,
      "lon": -64.73178861013189,
      "geoinfo": {
        "display_name": "Canegarden Hill, Canegarden, Saint Croix District, United States Virgin Islands, 00823, United States",
        "road": null,
        "house_number": null,
        "neighbourhood": null,
        "suburb": null,
        "city_district": null,
        "city": null,
        "state": "United States Virgin Islands",
        "postcode": "00823",
        "country": "United States",
        "country_code": "us"
      },
      "address": "996, Saint Croix, 00823 United States Virgin Islands, U.S. Virgin Islands"
    },
    {
      "lat": 17.71437677528253,
      "lon": -64.73719332719439,
      "geoinfo": {
        "display_name": "Humbug, Work and Rest, Saint Croix District, United States Virgin Islands, 00823, United States",
        "road": null,
        "house_number": null,
        "neighbourhood": "Humbug",
        "suburb": null,
        "city_district": null,
        "city": null,
        "state": "United States Virgin Islands",
        "postcode": "00823",
        "country": "United States",
        "country_code": "us"
      },
      "address": "746, Humbug, Saint Croix, 00823 United States Virgin Islands, U.S. Virgin Islands"
    },
    {
      "lat": 17.732879260582845,
      "lon": -64.76946450893904,
      "geoinfo": {
        "display_name": "Mesple Street, La Reine, Body Slob North, Saint Croix District, United States Virgin Islands, 00822, United States",
        "road": "Mesple Street",
        "house_number": null,
        "neighbourhood": "La Reine",
        "suburb": null,
        "city_district": null,
        "city": null,
        "state": "United States Virgin Islands",
        "postcode": "00822",
        "country": "United States",
        "country_code": "us"
      },
      "address": "980, Mesple Street, Saint Croix, 00822 United States Virgin Islands, U.S. Virgin Islands"
    },
    {
      "lat": 17.703579274921424,
      "lon": -64.76852539710798,
      "geoinfo": {
        "display_name": "Clifton Hill Road, Limetree Bay Refinery, Annaberg and Shannon Grove, Saint Croix District, United States Virgin Islands, 00822, United States",
        "road": "Clifton Hill Road",
        "house_number": null,
        "neighbourhood": "Annaberg and Shannon Grove",
        "suburb": null,
        "city_district": null,
        "city": null,
        "state": "United States Virgin Islands",
        "postcode": "00822",
        "country": "United States",
        "country_code": "us"
      },
      "address": "077, Clifton Hill Road, Saint Croix, 00822 United States Virgin Islands, U.S. Virgin Islands"
    },
    {
      "lat": 17.757237776697263,
      "lon": -64.71438701603797,
      "geoinfo": {
        "display_name": "West Street, Friedensthal, Christiansted, Saint Croix District, United States Virgin Islands, 00821, United States",
        "road": "West Street",
        "house_number": null,
        "neighbourhood": "Friedensthal",
        "suburb": null,
        "city_district": null,
        "city": "Christiansted",
        "state": "United States Virgin Islands",
        "postcode": "00821",
        "country": "United States",
        "country_code": "us"
      },
      "address": "031, West Street, Saint Croix, 00821 United States Virgin Islands, U.S. Virgin Islands"
    },
    {
      "lat": 17.74601336568615,
      "lon": -64.71346037781338,
      "geoinfo": {
        "display_name": "Fangselet Road, Richmond, Christiansted, Saint Croix District, United States Virgin Islands, 00821, United States",
        "road": "Fangselet Road",
        "house_number": null,
        "neighbourhood": "Richmond",
        "suburb": null,
        "city_district": null,
        "city": "Christiansted",
        "state": "United States Virgin Islands",
        "postcode": "00821",
        "country": "United States",
        "country_code": "us"
      },
      "address": "085, Fangselet Road, Saint Croix, 00821 United States Virgin Islands, U.S. Virgin Islands"
    },
    {
      "lat": 17.69703513283619,
      "lon": -64.71809760523773,
      "geoinfo": {
        "display_name": "Wacho Beach, Saint Croix District, United States Virgin Islands, 00823, United States",
        "road": null,
        "house_number": null,
        "neighbourhood": null,
        "suburb": null,
        "city_district": null,
        "city": null,
        "state": "United States Virgin Islands",
        "postcode": "00823",
        "country": "United States",
        "country_code": "us"
      },
      "address": "546, Saint Croix, 00823 United States Virgin Islands, U.S. Virgin Islands"
    },
    {
      "lat": 17.716545539175872,
      "lon": -64.70449035293107,
      "geoinfo": {
        "display_name": "Lowry Hill Road / Southside Road, Humbug, Fareham, Saint Croix District, United States Virgin Islands, 00824, United States",
        "road": "Lowry Hill Road / Southside Road",
        "house_number": null,
        "neighbourhood": "Humbug",
        "suburb": null,
        "city_district": null,
        "city": null,
        "state": "United States Virgin Islands",
        "postcode": "00824",
        "country": "United States",
        "country_code": "us"
      },
      "address": "214, Lowry Hill Road / Southside Road, Saint Croix, 00824 United States Virgin Islands, U.S. Virgin Islands"
    },
    {
      "lat": 17.76274156399743,
      "lon": -64.77620901646489,
      "geoinfo": {
        "display_name": "One Love Trail, Clairmont, Saint Croix District, United States Virgin Islands, 00851, United States",
        "road": "One Love Trail",
        "house_number": null,
        "neighbourhood": null,
        "suburb": null,
        "city_district": null,
        "city": null,
        "state": "United States Virgin Islands",
        "postcode": "00851",
        "country": "United States",
        "country_code": "us"
      },
      "address": "858, One Love Trail, Saint Croix, 00851 United States Virgin Islands, U.S. Virgin Islands"
    },
    {
      "lat": 17.73605123265543,
      "lon": -64.77794061013208,
      "geoinfo": {
        "display_name": "Mayor General Jean Augustine Romney Memorial Drive, Fredensborg, Saint Croix District, United States Virgin Islands, 00851, United States",
        "road": "Mayor General Jean Augustine Romney Memorial Drive",
        "house_number": null,
        "neighbourhood": null,
        "suburb": null,
        "city_district": null,
        "city": null,
        "state": "United States Virgin Islands",
        "postcode": "00851",
        "country": "United States",
        "country_code": "us"
      },
      "address": "298, Mayor General Jean Augustine Romney Memorial Drive, Saint Croix, 00851 United States Virgin Islands, U.S. Virgin Islands"
    },
    {
      "lat": 17.721187217231297,
      "lon": -64.76531828553928,
      "geoinfo": {
        "display_name": "Hope Road, Hope, Saint Croix District, United States Virgin Islands, 00822, United States",
        "road": "Hope Road",
        "house_number": null,
        "neighbourhood": "Hope",
        "suburb": null,
        "city_district": null,
        "city": null,
        "state": "United States Virgin Islands",
        "postcode": "00822",
        "country": "United States",
        "country_code": "us"
      },
      "address": "669, Hope Road, Saint Croix, 00822 United States Virgin Islands, U.S. Virgin Islands"
    },
    {
      "lat": 17.692833979910954,
      "lon": -64.72394396090284,
      "geoinfo": {
        "display_name": "Canegarden Hill, Canegarden, Saint Croix District, United States Virgin Islands, 00823, United States",
        "road": null,
        "house_number": null,
        "neighbourhood": null,
        "suburb": null,
        "city_district": null,
        "city": null,
        "state": "United States Virgin Islands",
        "postcode": "00823",
        "country": "United States",
        "country_code": "us"
      },
      "address": "736, Saint Croix, 00823 United States Virgin Islands, U.S. Virgin Islands"
    },
    {
      "lat": 17.733582790467217,
      "lon": -64.74911602330896,
      "geoinfo": {
        "display_name": "Governor Juan F. Luis Hospital and Medical Center, 4007, Osprey Drive, Diamond, Christiansted, Saint Croix District, United States Virgin Islands, 00820, United States",
        "road": "Osprey Drive",
        "house_number": "4007",
        "neighbourhood": "Diamond",
        "suburb": null,
        "city_district": null,
        "city": "Christiansted",
        "state": "United States Virgin Islands",
        "postcode": "00820",
        "country": "United States",
        "country_code": "us"
      },
      "address": "4007, Osprey Drive, Saint Croix, 00820 United States Virgin Islands, U.S. Virgin Islands"
    },
    {
      "lat": 17.73830864736574,
      "lon": -64.73156009502488,
      "geoinfo": {
        "display_name": "Constitution Hill, Saint Croix District, United States Virgin Islands, 00823, United States",
        "road": null,
        "house_number": null,
        "neighbourhood": "Constitution Hill",
        "suburb": null,
        "city_district": null,
        "city": null,
        "state": "United States Virgin Islands",
        "postcode": "00823",
        "country": "United States",
        "country_code": "us"
      },
      "address": "822, Constitution Hill, Saint Croix, 00823 United States Virgin Islands, U.S. Virgin Islands"
    },
    {
      "lat": 17.730674248767208,
      "lon": -64.77698075253706,
      "geoinfo": {
        "display_name": "Queen Street, La Reine, Body Slob North, Saint Croix District, United States Virgin Islands, 00822, United States",
        "road": "Queen Street",
        "house_number": null,
        "neighbourhood": "La Reine",
        "suburb": null,
        "city_district": null,
        "city": null,
        "state": "United States Virgin Islands",
        "postcode": "00822",
        "country": "United States",
        "country_code": "us"
      },
      "address": "144, Queen Street, Saint Croix, 00822 United States Virgin Islands, U.S. Virgin Islands"
    },
    {
      "lat": 17.69703119197901,
      "lon": -64.74165889836974,
      "geoinfo": {
        "display_name": "Canegarden Hill, Canegarden, Saint Croix District, United States Virgin Islands, 00823, United States",
        "road": null,
        "house_number": null,
        "neighbourhood": null,
        "suburb": null,
        "city_district": null,
        "city": null,
        "state": "United States Virgin Islands",
        "postcode": "00823",
        "country": "United States",
        "country_code": "us"
      },
      "address": "129, Saint Croix, 00823 United States Virgin Islands, U.S. Virgin Islands"
    },
    {
      "lat": 17.73371006935427,
      "lon": -64.73066723314975,
      "geoinfo": {
        "display_name": "Constitution Hill Road, Anna's Hope, Beeston Hill, Saint Croix District, United States Virgin Islands, 00823, United States",
        "road": "Constitution Hill Road",
        "house_number": null,
        "neighbourhood": "Anna's Hope",
        "suburb": null,
        "city_district": null,
        "city": null,
        "state": "United States Virgin Islands",
        "postcode": "00823",
        "country": "United States",
        "country_code": "us"
      },
      "address": "717, Constitution Hill Road, Saint Croix, 00823 United States Virgin Islands, U.S. Virgin Islands"
    },
    {
      "lat": 17.743195835479032,
      "lon": -64.790489252834,
      "geoinfo": {
        "display_name": "8, Powell - Drummond Avenue, Northcentral, Saint Croix District, United States Virgin Islands, 00850, United States",
        "road": "Powell - Drummond Avenue",
        "house_number": "8",
        "neighbourhood": null,
        "suburb": "Northcentral",
        "city_district": null,
        "city": null,
        "state": "United States Virgin Islands",
        "postcode": "00850",
        "country": "United States",
        "country_code": "us"
      },
      "address": "8, Powell - Drummond Avenue, Saint Croix, 00850 United States Virgin Islands, U.S. Virgin Islands"
    },
    {
      "lat": 17.704891138036462,
      "lon": -64.74685893554332,
      "geoinfo": {
        "display_name": "Limetree Bay Refinery, Saint Croix District, United States Virgin Islands, United States",
        "road": null,
        "house_number": null,
        "neighbourhood": null,
        "suburb": null,
        "city_district": null,
        "city": null,
        "state": "United States Virgin Islands",
        "postcode": null,
        "country": "United States",
        "country_code": "us"
      },
      "address": "792, Saint Croix, 95211 United States Virgin Islands, U.S. Virgin Islands"
    },
    {
      "lat": 17.739932988971503,
      "lon": -64.7709553244006,
      "geoinfo": {
        "display_name": "Sunset Road, La Reine, Body Slob North, Saint Croix District, United States Virgin Islands, 00822, United States",
        "road": "Sunset Road",
        "house_number": null,
        "neighbourhood": "La Reine",
        "suburb": null,
        "city_district": null,
        "city": null,
        "state": "United States Virgin Islands",
        "postcode": "00822",
        "country": "United States",
        "country_code": "us"
      },
      "address": "167, Sunset Road, Saint Croix, 00822 United States Virgin Islands, U.S. Virgin Islands"
    },
    {
      "lat": 17.743100791620595,
      "lon": -64.76459892820564,
      "geoinfo": {
        "display_name": "Limetree, Bonne Esperance, Saint Croix District, United States Virgin Islands, 00822, United States",
        "road": null,
        "house_number": null,
        "neighbourhood": "Limetree",
        "suburb": null,
        "city_district": null,
        "city": null,
        "state": "United States Virgin Islands",
        "postcode": "00822",
        "country": "United States",
        "country_code": "us"
      },
      "address": "424, Limetree, Saint Croix, 00822 United States Virgin Islands, U.S. Virgin Islands"
    },
    {
      "lat": 17.72302547464207,
      "lon": -64.75009761478896,
      "geoinfo": {
        "display_name": "Cottage, Saint Croix District, United States Virgin Islands, 00823, United States",
        "road": null,
        "house_number": null,
        "neighbourhood": "Cottage",
        "suburb": null,
        "city_district": null,
        "city": null,
        "state": "United States Virgin Islands",
        "postcode": "00823",
        "country": "United States",
        "country_code": "us"
      },
      "address": "779, Cottage, Saint Croix, 00823 United States Virgin Islands, U.S. Virgin Islands"
    },
    {
      "lat": 17.713544852623617,
      "lon": -64.73403886622272,
      "geoinfo": {
        "display_name": "Humbug, Work and Rest, Saint Croix District, United States Virgin Islands, 00823, United States",
        "road": null,
        "house_number": null,
        "neighbourhood": "Humbug",
        "suburb": null,
        "city_district": null,
        "city": null,
        "state": "United States Virgin Islands",
        "postcode": "00823",
        "country": "United States",
        "country_code": "us"
      },
      "address": "607, Humbug, Saint Croix, 00823 United States Virgin Islands, U.S. Virgin Islands"
    },
    {
      "lat": 17.744552059519503,
      "lon": -64.73202923970764,
      "geoinfo": {
        "display_name": "Golden Rock, Little Princess South, Saint Croix District, United States Virgin Islands, 00823, United States",
        "road": null,
        "house_number": null,
        "neighbourhood": "Golden Rock",
        "suburb": null,
        "city_district": null,
        "city": null,
        "state": "United States Virgin Islands",
        "postcode": "00823",
        "country": "United States",
        "country_code": "us"
      },
      "address": "983, Golden Rock, Saint Croix, 00823 United States Virgin Islands, U.S. Virgin Islands"
    },
    {
      "lat": 17.71124335537383,
      "lon": -64.71482803733078,
      "geoinfo": {
        "display_name": "Lowry Hill Road / Southside Road, Humbug, Fareham, Saint Croix District, United States Virgin Islands, 00824, United States",
        "road": "Lowry Hill Road / Southside Road",
        "house_number": null,
        "neighbourhood": "Humbug",
        "suburb": null,
        "city_district": null,
        "city": null,
        "state": "United States Virgin Islands",
        "postcode": "00824",
        "country": "United States",
        "country_code": "us"
      },
      "address": "198, Lowry Hill Road / Southside Road, Saint Croix, 00824 United States Virgin Islands, U.S. Virgin Islands"
    },
    {
      "lat": 17.707926365465553,
      "lon": -64.7312095488289,
      "geoinfo": {
        "display_name": "Humbug, Canegarden, Saint Croix District, United States Virgin Islands, 00823, United States",
        "road": null,
        "house_number": null,
        "neighbourhood": "Humbug",
        "suburb": null,
        "city_district": null,
        "city": null,
        "state": "United States Virgin Islands",
        "postcode": "00823",
        "country": "United States",
        "country_code": "us"
      },
      "address": "942, Humbug, Saint Croix, 00823 United States Virgin Islands, U.S. Virgin Islands"
    },
    {
      "lat": 17.757621843686966,
      "lon": -64.751316625207,
      "geoinfo": {
        "display_name": "Montpellier, Saint Croix District, United States Virgin Islands, 00822, United States",
        "road": null,
        "house_number": null,
        "neighbourhood": null,
        "suburb": null,
        "city_district": null,
        "city": null,
        "state": "United States Virgin Islands",
        "postcode": "00822",
        "country": "United States",
        "country_code": "us"
      },
      "address": "925, Saint Croix, 00822 United States Virgin Islands, U.S. Virgin Islands"
    },
    {
      "lat": 17.752185034939654,
      "lon": -64.74461530342414,
      "geoinfo": {
        "display_name": "Rattan Road, Mary's Fancy, Bellevue, Saint Croix District, United States Virgin Islands, 00823, United States",
        "road": "Rattan Road",
        "house_number": null,
        "neighbourhood": "Mary's Fancy",
        "suburb": null,
        "city_district": null,
        "city": null,
        "state": "United States Virgin Islands",
        "postcode": "00823",
        "country": "United States",
        "country_code": "us"
      },
      "address": "909, Rattan Road, Saint Croix, 00823 United States Virgin Islands, U.S. Virgin Islands"
    },
    {
      "lat": 17.763757905458462,
      "lon": -64.75843403261611,
      "geoinfo": {
        "display_name": "Montpellier, Saint Croix District, United States Virgin Islands, 00851, United States",
        "road": null,
        "house_number": null,
        "neighbourhood": null,
        "suburb": null,
        "city_district": null,
        "city": null,
        "state": "United States Virgin Islands",
        "postcode": "00851",
        "country": "United States",
        "country_code": "us"
      },
      "address": "684, Saint Croix, 00851 United States Virgin Islands, U.S. Virgin Islands"
    },
    {
      "lat": 17.74059268341942,
      "lon": -64.78521129326353,
      "geoinfo": {
        "display_name": "Mon Bijou Road, Fredensborg, Saint Croix District, United States Virgin Islands, 00851, United States",
        "road": "Mon Bijou Road",
        "house_number": null,
        "neighbourhood": null,
        "suburb": null,
        "city_district": null,
        "city": null,
        "state": "United States Virgin Islands",
        "postcode": "00851",
        "country": "United States",
        "country_code": "us"
      },
      "address": "206, Mon Bijou Road, Saint Croix, 00851 United States Virgin Islands, U.S. Virgin Islands"
    }
  ],
  "updated_at": "2025-10-19T06:42:28.015107+00:00",
  "_kind": "geo_samples"
}