{
  "country_code": "NL",
  "country": "The Netherlands",
  "city": "Korrewegwijk",
  "geonameid": 2752420,
  "target_addresses": 3,
  "samples": [
    {
      "lat": 53.23090219253969,
      "lon": 6.572679834226587,
      "geoinfo": {
        "display_name": "36b, Diephuisstraat, Professorenbuurt, Korrewegwijk, Oude wijken, Groningen, Netherlands, 9714 GX, Netherlands",
        "road": "Diephuisstraat",
        "house_number": "36b",
        "neighbourhood": "Professorenbuurt",
        "suburb": "Oude wijken",
        "city_district": null,
        "city": "Groningen",
        "state": "Groningen",
        "postcode": "9714 GX",
        "country": "Netherlands",
        "country_code": "nl"
      },
      "address": "36b Diephuisstraat, Korrewegwijk, Groningen, The Netherlands"
    },
    {
      "lat": 53.19283588976205,
      "lon": 6.569198696642021,
      "geoinfo": {
        "display_name": "Dorhout Advocaten, 98, Van Ketwich Verschuurlaan, De Wijert South, De Wijert, South, Groningen, Netherlands, 9721 SW, Netherlands",
        "road": "Van Ketwich Verschuurlaan",
        "house_number": "98",
        "neighbourhood": "De Wijert South",
        "suburb": "South",
        "city_district": null,
        "city": "Groningen",
        "state": "Groningen",
        "postcode": "9721 SW",
        "country": "Netherlands",
        "country_code": "nl"
      },
      "address": "Dorhout Advocaten, 98, Van Ketwich Verschuurlaan, De Wijert South, De Wijert, South, Groningen, Netherlands, 9721 SW, Netherlands"
    },
    {
      "lat": 53.21075469844404,
      "lon": 6.522139276308993,
      "geoinfo": {
        "display_name": "Hoendiep, Westpark, West, Groningen, Netherlands, 9743 AR, Netherlands",
        "road": "Hoendiep",
        "house_number": null,
        "neighbourhood": "Westpark",
        "suburb": "West",
        "city_district": null,
        "city": "Groningen",
        "state": "Groningen",
        "postcode": "9743 AR",
        "country": "Netherlands",
        "country_code": "nl"
      },
      "address": "871, Hoendiep, Westpark, West, Groningen, Netherlands, 9743 AR, Netherlands"
    }
  ],
  "updated_at": "2025-10-19T05:59:34.747772+00:00",
  "_kind": "geo_samples"
}