{
  "country_code": "MG",
  "country": "Madagascar",
  "city": "Antananarivo",
  "geonameid": 1070940,
  "target_addresses": 4,
  "samples": [
    {
      "lat": -18.89210608523078,
      "lon": 47.51817848993327,
      "geoinfo": {
        "display_name": "Lycée catholique Fo Masin'i Jesoa Tsaramasay, Boulevard de l'Europe, Tsaramasay, Ankazomanga, Antananarivo, Analamanga, Province d’Antananarivo, 101, Madagascar",
        "road": "Boulevard de l'Europe",
        "house_number": null,
        "neighbourhood": "Tsaramasay",
        "suburb": "Ankazomanga",
        "city_district": null,
        "city": "Antananarivo",
        "state": "Analamanga",
        "postcode": "101",
        "country": "Madagascar",
        "country_code": "mg"
      },
      "address": "Boulevard de l'Europe, Antananarivo, Analamanga, Madagascar"
    },
    {
      "lat": -18.893406626968513,
      "lon": 47.51059555496858,
      "geoinfo": {
        "display_name": "Rocade Andohatapenaka, Antsalovana, Ankazomanga, Antananarivo, Analamanga, Province d’Antananarivo, 101, Madagascar",
        "road": "Rocade Andohatapenaka",
        "house_number": null,
        "neighbourhood": "Antsalovana",
        "suburb": "Ankazomanga",
        "city_district": null,
        "city": "Antananarivo",
        "state": "Analamanga",
        "postcode": "101",
        "country": "Madagascar",
        "country_code": "mg"
      },
      "address": "401, Rocade Andohatapenaka, Antsalovana, Ankazomanga, Antananarivo, Analamanga, Province d’Antananarivo, 101, Madagascar"
    },
    {
      "lat": -18.948824140264872,
      "lon": 47.557560127775034,
      "geoinfo": {
        "display_name": "Ankadiaivo, Ankadindratombo, District d'Antananarivo Avaradrano, Analamanga, Province d’Antananarivo, 103, Madagascar",
        "road": null,
        "house_number": null,
        "neighbourhood": "Ankadiaivo",
        "suburb": "Ankadindratombo",
        "city_district": null,
        "city": null,
        "state": "Analamanga",
        "postcode": "103",
        "country": "Madagascar",
        "country_code": "mg"
      },
      "address": "055, Ankadiaivo, Antananarivo, 103 Analamanga, Madagascar"
    },
    {
      "lat": -18.9123790838557,
      "lon": 47.57341298768955,
      "geoinfo": {
        "display_name": "Rocade d'Iarivo, Amoronakona, Ikianja, Ambohipeno, District d'Antananarivo Avaradrano, Analamanga, Province d’Antananarivo, 103, Madagascar",
        "road": "Rocade d'Iarivo",
        "house_number": null,
        "neighbourhood": "Amoronakona",
        "suburb": "Ikianja",
        "city_district": null,
        "city": "Ambohipeno",
        "state": "Analamanga",
        "postcode": "103",
        "country": "Madagascar",
        "country_code": "mg"
      },
      "address": "041, Rocade d'Iarivo, Antananarivo, 103 Analamanga, Madagascar"
    }
  ],
  "updated_at": "2025-10-19T05:43:27.349538+00:00",
  "_kind": "geo_samples"
}