{
  "country_code": "SS",
  "country": "South Sudan",
  "city": "Rumbek",
  "geonameid": 367927,
  "target_addresses": 7,
  "samples": [
    {
      "lat": 6.812288332285481,
      "lon": 29.657733237325065,
      "geoinfo": {
        "display_name": "Rumbek, Rumbek Centre, Lakes, South Sudan",
        "road": null,
        "house_number": null,
        "neighbourhood": null,
        "suburb": null,
        "city_district": null,
        "city": "Rumbek",
        "state": "Lakes",
        "postcode": null,
        "country": "South Sudan",
        "country_code": "ss"
      },
      "address": "Rumbek, Lakes, South Sudan"
    },
    {
      "lat": 6.779035888660765,
      "lon": 29.674541358240536,
      "geoinfo": {
        "display_name": "Juba-Rumbek-Bentiu Highway, Rumbek, Rumbek Centre, Lakes, South Sudan",
        "road": "Juba-Rumbek-Bentiu Highway",
        "house_number": null,
        "neighbourhood": null,
        "suburb": null,
        "city_district": null,
        "city": "Rumbek",
        "state": "Lakes",
        "postcode": null,
        "country": "South Sudan",
        "country_code": "ss"
      },
      "address": "Juba-Rumbek-Bentiu Highway, Rumbek, Lakes, South Sudan"
    },
    {
      "lat": 6.780374485952671,
      "lon": 29.701543661409154,
      "geoinfo": {
        "display_name": "Rumbek-Akot Road, Pacong, Rumbek Centre, Lakes, South Sudan",
        "road": "Rumbek-Akot Road",
        "house_number": null,
        "neighbourhood": null,
        "suburb": null,
        "city_district": null,
        "city": "Pacong",
        "state": "Lakes",
        "postcode": null,
        "country": "South Sudan",
        "country_code": "ss"
      },
      "address": "Rumbek-Akot Road, Rumbek, Lakes, South Sudan"
    },
    {
      "lat": 6.8263699545019705,
      "lon": 29.66830126489777,
      "geoinfo": {
        "display_name": "Rumbek Airport, Rumbek-Cueibet, Rumbek, Rumbek Centre, Lakes, South Sudan",
        "road": "Rumbek-Cueibet",
        "house_number": null,
        "neighbourhood": null,
        "suburb": null,
        "city_district": null,
        "city": "Rumbek",
        "state": "Lakes",
        "postcode": null,
        "country": "South Sudan",
        "country_code": "ss"
      },
      "address": "Rumbek-Cueibet, Rumbek, Lakes, South Sudan"
    },
    {
      "lat": 6.816679941802183,
      "lon": 29.663941536441495,
      "geoinfo": {
        "display_name": "Rumbek-Tonj Road, Rumbek, Rumbek Centre, Lakes, South Sudan",
        "road": "Rumbek-Tonj Road",
        "house_number": null,
        "neighbourhood": null,
        "suburb": null,
        "city_district": null,
        "city": "Rumbek",
        "state": "Lakes",
        "postcode": null,
        "country": "South Sudan",
        "country_code": "ss"
      },
      "address": "Rumbek-Tonj Road, Rumbek, Lakes, South Sudan"
    },
    {
      "lat": 6.802391031609089,
      "lon": 29.720781105229932,
      "geoinfo": {
        "display_name": "Awuk, Rumbek Centre, Lakes, South Sudan",
        "road": null,
        "house_number": null,
        "neighbourhood": null,
        "suburb": null,
        "city_district": null,
        "city": "Awuk",
        "state": "Lakes",
        "postcode": null,
        "country": "South Sudan",
        "country_code": "ss"
      },
      "address": "281, Awuk, Rumbek Centre, 03516 Lakes, South Sudan"
    },
    {
      "lat": 6.773617838409014,
      "lon": 29.65572797949377,
      "geoinfo": {
        "display_name": "Rumbek, Rumbek Centre, Lakes, South Sudan",
        "road": null,
        "house_number": null,
        "neighbourhood": null,
        "suburb": null,
        "city_district": null,
        "city": "Rumbek",
        "state": "Lakes",
        "postcode": null,
        "country": "South Sudan",
        "country_code": "ss"
      },
      "address": "928, Rumbek, Rumbek Centre, 05749 Lakes, South Sudan"
    },
    {
      "lat": 6.832356028139814,
      "lon": 29.641039869786542,
      "geoinfo": {
        "display_name": "Rumbek-Tonj Road, Rumbek, Rumbek Centre, Lakes, South Sudan",
        "road": "Rumbek-Tonj Road",
        "house_number": null,
        "neighbourhood": null,
        "suburb": null,
        "city_district": null,
        "city": "Rumbek",
        "state": "Lakes",
        "postcode": null,
        "country": "South Sudan",
        "country_code": "ss"
      },
      "address": "173, Rumbek-Tonj Road, Rumbek, Rumbek Centre, 09113 Lakes, South Sudan"
    },
    {
      "lat": 6.815789234006172,
      "lon": 29.718532518992614,
      "geoinfo": {
        "display_name": "Awuk, Rumbek Centre, Lakes, South Sudan",
        "road": null,
        "house_number": null,
        "neighbourhood": null,
        "suburb": null,
        "city_district": null,
        "city": "Awuk",
        "state": "Lakes",
        "postcode": null,
        "country": "South Sudan",
        "country_code": "ss"
      },
      "address": "391, Awuk, Rumbek Centre, 06115 Lakes, South Sudan"
    },
    {
      "lat": 6.78305172609564,
      "lon": 29.65129203843688,
      "geoinfo": {
        "display_name": "Rumbek, Rumbek Centre, Lakes, South Sudan",
        "road": null,
        "house_number": null,
        "neighbourhood": null,
        "suburb": null,
        "city_district": null,
        "city": "Rumbek",
        "state": "Lakes",
        "postcode": null,
        "country": "South Sudan",
        "country_code": "ss"
      },
      "address": "384, Rumbek, Rumbek Centre, 54465 Lakes, South Sudan"
    },
    {
      "lat": 6.834178726588211,
      "lon": 29.656959887258814,
      "geoinfo": {
        "display_name": "Rumbek, Rumbek Centre, Lakes, South Sudan",
        "road": null,
        "house_number": null,
        "neighbourhood": null,
        "suburb": null,
        "city_district": null,
        "city": "Rumbek",
        "state": "Lakes",
        "postcode": null,
        "country": "South Sudan",
        "country_code": "ss"
      },
      "address": "205, Rumbek, Rumbek Centre, 19724 Lakes, South Sudan"
    },
    {
      "lat": 6.802513254871646,
      "lon": 29.648856873615305,
      "geoinfo": {
        "display_name": "Rumbek, Rumbek Centre, Lakes, South Sudan",
        "road": null,
        "house_number": null,
        "neighbourhood": null,
        "suburb": null,
        "city_district": null,
        "city": "Rumbek",
        "state": "Lakes",
        "postcode": null,
        "country": "South Sudan",
        "country_code": "ss"
      },
      "address": "772, Rumbek, Rumbek Centre, 63326 Lakes, South Sudan"
    }
  ],
  "updated_at": "2025-10-19T09:47:43.584545+00:00",
  "_kind": "geo_samples"
}