{
  "country_code": "AE",
  "country": "United Arab Emirates",
  "city": "Abu Dhabi",
  "geonameid": 292968,
  "target_addresses": 2,
  "samples": [
    {
      "lat": 24.478398794876952,
      "lon": 54.38391166662193,
      "geoinfo": {
        "display_name": "67, Hafeet Street, Al Nahyan, Abu Dhabi, Abu Dhabi Emirate, 22227, United Arab Emirates",
        "road": "Hafeet Street",
        "house_number": "67",
        "neighbourhood": null,
        "suburb": "Al Nahyan",
        "city_district": null,
        "city": "Abu Dhabi",
        "state": "Abu Dhabi Emirate",
        "postcode": "22227",
        "country": "United Arab Emirates",
        "country_code": "ae"
      },
      "address": "67 Hafeet Street, Abu Dhabi, Abu Dhabi Emirate, United Arab Emirates"
    },
    {
      "lat": 24.470000863353555,
      "lon": 54.4004489381359,
      "geoinfo": {
        "display_name": "Sheikha Fatima bint Mubarak Street, Qasr El Bahr, Abu Dhabi, Abu Dhabi Emirate, United Arab Emirates",
        "road": "Sheikha Fatima bint Mubarak Street",
        "house_number": null,
        "neighbourhood": null,
        "suburb": "Qasr El Bahr",
        "city_district": null,
        "city": "Abu Dhabi",
        "state": "Abu Dhabi Emirate",
        "postcode": null,
        "country": "United Arab Emirates",
        "country_code": "ae"
      },
      "address": "Sheikha Fatima bint Mubarak Street, Abu Dhabi, Abu Dhabi Emirate, United Arab Emirates"
    },
    {
      "lat": 24.438540598745213,
      "lon": 54.40377083218159,
      "geoinfo": {
        "display_name": "93, Jabir Bin Abi Sa'sa'ah Street, Hadbat Al Za'faranah, Abu Dhabi, Abu Dhabi Emirate, 22417, United Arab Emirates",
        "road": "Jabir Bin Abi Sa'sa'ah Street",
        "house_number": "93",
        "neighbourhood": null,
        "suburb": "Hadbat Al Za'faranah",
        "city_district": null,
        "city": "Abu Dhabi",
        "state": "Abu Dhabi Emirate",
        "postcode": "22417",
        "country": "United Arab Emirates",
        "country_code": "ae"
      },
      "address": "93, Jabir Bin Abi Sa'sa'ah Street, Hadbat Al Za'faranah, Abu Dhabi, Abu Dhabi Emirate, 22417, United Arab Emirates"
    },
    {
      "lat": 24.452457923976333,
      "lon": 54.356048034460926,
      "geoinfo": {
        "display_name": "9, Al Fintas Street, Al Rawdah, Al Bateen, Abu Dhabi, Abu Dhabi Emirate, 20019, United Arab Emirates",
        "road": "Al Fintas Street",
        "house_number": "9",
        "neighbourhood": "Al Rawdah",
        "suburb": "Al Bateen",
        "city_district": null,
        "city": "Abu Dhabi",
        "state": "Abu Dhabi Emirate",
        "postcode": "20019",
        "country": "United Arab Emirates",
        "country_code": "ae"
      },
      "address": "9, Al Fintas Street, Al Rawdah, Al Bateen, Abu Dhabi, Abu Dhabi Emirate, 20019, United Arab Emirates"
    }
  ],
  "updated_at": "2025-10-19T02:25:24.653416+00:00",
  "_kind": "geo_samples"
}