{
  "country_code": "AE",
  "country": "United Arab Emirates",
  "city": "Dubai Silicon Oasis",
  "geonameid": 13118424,
  "target_addresses": 2,
  "samples": [
    {
      "lat": 25.114866642878077,
      "lon": 55.43642984363302,
      "geoinfo": {
        "display_name": "Al Ruwayyah 3, Dubai, United Arab Emirates",
        "road": null,
        "house_number": null,
        "neighbourhood": null,
        "suburb": "Al Ruwayyah 3",
        "city_district": null,
        "city": null,
        "state": "Dubai",
        "postcode": null,
        "country": "United Arab Emirates",
        "country_code": "ae"
      },
      "address": "Al Ruwayyah 3, Dubai Silicon Oasis, Dubai, United Arab Emirates"
    },
    {
      "lat": 25.150881193015497,
      "lon": 55.37893827855244,
      "geoinfo": {
        "display_name": "31 Street, Nad Al Sheba, Dubai, United Arab Emirates",
        "road": "31 Street",
        "house_number": null,
        "neighbourhood": null,
        "suburb": "Nad Al Sheba",
        "city_district": null,
        "city": null,
        "state": "Dubai",
        "postcode": null,
        "country": "United Arab Emirates",
        "country_code": "ae"
      },
      "address": "31 Street, Dubai Silicon Oasis, Dubai, United Arab Emirates"
    },
    {
      "lat": 25.103883643234603,
      "lon": 55.35280761373666,
      "geoinfo": {
        "display_name": "Sheikh Mohammed Bin Zayed Road, Liwan, City of Arabia, Dubai, United Arab Emirates",
        "road": "Sheikh Mohammed Bin Zayed Road",
        "house_number": null,
        "neighbourhood": "Liwan",
        "suburb": "City of Arabia",
        "city_district": null,
        "city": null,
        "state": "Dubai",
        "postcode": null,
        "country": "United Arab Emirates",
        "country_code": "ae"
      },
      "address": "Sheikh Mohammed Bin Zayed Road, Dubai Silicon Oasis, Dubai, United Arab Emirates"
    },
    {
      "lat": 25.086836585485035,
      "lon": 55.41439047498933,
      "geoinfo": {
        "display_name": "Al Ruwayyah 3, Dubai, United Arab Emirates",
        "road": null,
        "house_number": null,
        "neighbourhood": null,
        "suburb": "Al Ruwayyah 3",
        "city_district": null,
        "city": null,
        "state": "Dubai",
        "postcode": null,
        "country": "United Arab Emirates",
        "country_code": "ae"
      },
      "address": "Al Ruwayyah 3, 64707 Dubai, United Arab Emirates"
    },
    {
      "lat": 25.107019844045848,
      "lon": 55.410572304245036,
      "geoinfo": {
        "display_name": "Al Ruwayyah 2, Dubai, United Arab Emirates",
        "road": null,
        "house_number": null,
        "neighbourhood": null,
        "suburb": "Al Ruwayyah 2",
        "city_district": null,
        "city": null,
        "state": "Dubai",
        "postcode": null,
        "country": "United Arab Emirates",
        "country_code": "ae"
      },
      "address": "Al Ruwayyah 2, 61837 Dubai, United Arab Emirates"
    }
  ],
  "updated_at": "2025-10-19T00:46:24.284009+00:00",
  "_kind": "geo_samples"
}