{
  "country_code": "AE",
  "country": "United Arab Emirates",
  "city": "Dubai",
  "geonameid": 292223,
  "target_addresses": 2,
  "samples": [
    {
      "lat": 25.04356541219741,
      "lon": 55.319477666173746,
      "geoinfo": {
        "display_name": "Emirates Road, Town Square Dubai, Al Yalayis 2, Dubai, United Arab Emirates",
        "road": "Emirates Road",
        "house_number": null,
        "neighbourhood": null,
        "suburb": "Al Yalayis 2",
        "city_district": null,
        "city": null,
        "state": "Dubai",
        "postcode": null,
        "country": "United Arab Emirates",
        "country_code": "ae"
      },
      "address": "Emirates Road, Dubai, Dubai, United Arab Emirates"
    },
    {
      "lat": 25.08750220046748,
      "lon": 55.266168764093656,
      "geoinfo": {
        "display_name": "Hadaeq Sheikh Mohammed Bin Rashid, Dubai, United Arab Emirates",
        "road": null,
        "house_number": null,
        "neighbourhood": null,
        "suburb": "Hadaeq Sheikh Mohammed Bin Rashid",
        "city_district": null,
        "city": null,
        "state": "Dubai",
        "postcode": null,
        "country": "United Arab Emirates",
        "country_code": "ae"
      },
      "address": "Hadaeq Sheikh Mohammed Bin Rashid, Dubai, Dubai, United Arab Emirates"
    },
    {
      "lat": 25.081434742826843,
      "lon": 55.29839226497753,
      "geoinfo": {
        "display_name": "Legends, Al Barari, Dubai, United Arab Emirates",
        "road": null,
        "house_number": null,
        "neighbourhood": null,
        "suburb": "Al Barari",
        "city_district": null,
        "city": null,
        "state": "Dubai",
        "postcode": null,
        "country": "United Arab Emirates",
        "country_code": "ae"
      },
      "address": "169, Legends, Al Barari, 19893 Dubai, United Arab Emirates"
    },
    {
      "lat": 25.05977259971628,
      "lon": 55.338628658278516,
      "geoinfo": {
        "display_name": "Emirates Road, Umm Nahad 2/Madinat Hind 2, Dubai, United Arab Emirates",
        "road": "Emirates Road",
        "house_number": null,
        "neighbourhood": null,
        "suburb": "Umm Nahad 2/Madinat Hind 2",
        "city_district": null,
        "city": null,
        "state": "Dubai",
        "postcode": null,
        "country": "United Arab Emirates",
        "country_code": "ae"
      },
      "address": "Emirates Road, Umm Nahad 2/Madinat Hind 2, Dubai, United Arab Emirates"
    }
  ],
  "updated_at": "2025-10-19T00:46:57.214629+00:00",
  "_kind": "geo_samples"
}