{
  "country_code": "AE",
  "country": "United Arab Emirates",
  "city": "Dubai International Financial Centre",
  "geonameid": 8541977,
  "target_addresses": 2,
  "samples": [
    {
      "lat": 25.205640627631485,
      "lon": 55.29710086417659,
      "geoinfo": {
        "display_name": "شارع زعبيل, Za'abeel, Za'abeel 2, Zabeel, Dubai, United Arab Emirates",
        "road": "شارع زعبيل",
        "house_number": null,
        "neighbourhood": "Za'abeel",
        "suburb": "Za'abeel 2",
        "city_district": null,
        "city": "Dubai",
        "state": "Dubai",
        "postcode": null,
        "country": "United Arab Emirates",
        "country_code": "ae"
      },
      "address": "شارع زعبيل, Dubai International Financial Centre, Dubai, United Arab Emirates"
    },
    {
      "lat": 25.244787882232107,
      "lon": 55.265263687314956,
      "geoinfo": {
        "display_name": "Bur Dubai, Al Mina, Dubai, United Arab Emirates",
        "road": null,
        "house_number": null,
        "neighbourhood": "Bur Dubai",
        "suburb": "Al Mina",
        "city_district": null,
        "city": "Dubai",
        "state": "Dubai",
        "postcode": null,
        "country": "United Arab Emirates",
        "country_code": "ae"
      },
      "address": "Bur Dubai, Dubai International Financial Centre, Dubai, United Arab Emirates"
    },
    {
      "lat": 25.21785099005395,
      "lon": 55.27308015449515,
      "geoinfo": {
        "display_name": "24b Street, Al Satwa, Dubai, United Arab Emirates",
        "road": "24b Street",
        "house_number": null,
        "neighbourhood": null,
        "suburb": "Al Satwa",
        "city_district": null,
        "city": "Dubai",
        "state": "Dubai",
        "postcode": null,
        "country": "United Arab Emirates",
        "country_code": "ae"
      },
      "address": "24b Street, Al Satwa, 18734 Dubai, United Arab Emirates"
    },
    {
      "lat": 25.23895121481346,
      "lon": 55.31120965935888,
      "geoinfo": {
        "display_name": "Kuwait Street, Bur Dubai, Oud Metha, Dubai, United Arab Emirates",
        "road": "Kuwait Street",
        "house_number": null,
        "neighbourhood": "Bur Dubai",
        "suburb": "Oud Metha",
        "city_district": null,
        "city": "Dubai",
        "state": "Dubai",
        "postcode": null,
        "country": "United Arab Emirates",
        "country_code": "ae"
      },
      "address": "321, Kuwait Street, Bur Dubai, Oud Metha, 68303 Dubai, United Arab Emirates"
    }
  ],
  "updated_at": "2025-10-19T02:24:30.422889+00:00",
  "_kind": "geo_samples"
}