{
  "country_code": "AE",
  "country": "United Arab Emirates",
  "city": "Khawr Fakkān",
  "geonameid": 291696,
  "target_addresses": 2,
  "samples": [
    {
      "lat": 25.33274212493096,
      "lon": 56.374145233406914,
      "geoinfo": {
        "display_name": "Al Khaledya, Lulayyah, Khor Fakkan, Sharjah Emirate, United Arab Emirates",
        "road": null,
        "house_number": null,
        "neighbourhood": null,
        "suburb": "Al Khaledya",
        "city_district": null,
        "city": "Lulayyah",
        "state": "Sharjah Emirate",
        "postcode": null,
        "country": "United Arab Emirates",
        "country_code": "ae"
      },
      "address": "Al Khaledya, Khawr Fakkān, Sharjah Emirate, United Arab Emirates"
    },
    {
      "lat": 25.350522112644157,
      "lon": 56.32083946801814,
      "geoinfo": {
        "display_name": "Khorfakkan Road, Ar Rufaysah, Khor Fakkan, Sharjah Emirate, United Arab Emirates",
        "road": "Khorfakkan Road",
        "house_number": null,
        "neighbourhood": null,
        "suburb": null,
        "city_district": null,
        "city": "Khor Fakkan",
        "state": "Sharjah Emirate",
        "postcode": null,
        "country": "United Arab Emirates",
        "country_code": "ae"
      },
      "address": "Khorfakkan Road, Khawr Fakkān, Sharjah Emirate, United Arab Emirates"
    },
    {
      "lat": 25.33047381641551,
      "lon": 56.309433316077524,
      "geoinfo": {
        "display_name": "Al Qadsia, Ar Rufaysah, Khor Fakkan, Sharjah Emirate, United Arab Emirates",
        "road": null,
        "house_number": null,
        "neighbourhood": null,
        "suburb": "Al Qadsia",
        "city_district": null,
        "city": "Khor Fakkan",
        "state": "Sharjah Emirate",
        "postcode": null,
        "country": "United Arab Emirates",
        "country_code": "ae"
      },
      "address": "921, Al Qadsia, Ar Rufaysah, Khor Fakkan, 34743 Sharjah Emirate, United Arab Emirates"
    },
    {
      "lat": 25.360426627729325,
      "lon": 56.379192206220104,
      "geoinfo": {
        "display_name": "Al Khaledya, Lulayyah, Khor Fakkan, Sharjah Emirate, United Arab Emirates",
        "road": null,
        "house_number": null,
        "neighbourhood": null,
        "suburb": "Al Khaledya",
        "city_district": null,
        "city": "Lulayyah",
        "state": "Sharjah Emirate",
        "postcode": null,
        "country": "United Arab Emirates",
        "country_code": "ae"
      },
      "address": "029, Al Khaledya, Lulayyah, Khor Fakkan, 90131 Sharjah Emirate, United Arab Emirates"
    }
  ],
  "updated_at": "2025-10-19T02:23:53.619935+00:00",
  "_kind": "geo_samples"
}