{
  "country_code": "AE",
  "country": "United Arab Emirates",
  "city": "Nāyf",
  "geonameid": 8226485,
  "target_addresses": 2,
  "samples": [
    {
      "lat": 25.239858317839314,
      "lon": 55.31455463745438,
      "geoinfo": {
        "display_name": "The Indian High School, 9 Street, Bur Dubai, Oud Metha, Dubai, United Arab Emirates",
        "road": "9 Street",
        "house_number": null,
        "neighbourhood": "Bur Dubai",
        "suburb": "Oud Metha",
        "city_district": null,
        "city": "Dubai",
        "state": "Dubai",
        "postcode": null,
        "country": "United Arab Emirates",
        "country_code": "ae"
      },
      "address": "9 Street, Nāyf, Dubai, United Arab Emirates"
    },
    {
      "lat": 25.294501999832125,
      "lon": 55.324096010594864,
      "geoinfo": {
        "display_name": "Waterfront Market, Al Khaleej Street, Deira, Corniche Deira, Deira, Dubai, United Arab Emirates",
        "road": "Al Khaleej Street",
        "house_number": null,
        "neighbourhood": "Deira",
        "suburb": "Corniche Deira",
        "city_district": null,
        "city": "Deira",
        "state": "Dubai",
        "postcode": null,
        "country": "United Arab Emirates",
        "country_code": "ae"
      },
      "address": "Al Khaleej Street, Nāyf, Dubai, United Arab Emirates"
    },
    {
      "lat": 25.25288356694519,
      "lon": 55.28646786252611,
      "geoinfo": {
        "display_name": "Kuwait Street, Bur Dubai, Al Raffa, Dubai, United Arab Emirates",
        "road": "Kuwait Street",
        "house_number": null,
        "neighbourhood": "Bur Dubai",
        "suburb": "Al Raffa",
        "city_district": null,
        "city": "Dubai",
        "state": "Dubai",
        "postcode": null,
        "country": "United Arab Emirates",
        "country_code": "ae"
      },
      "address": "001, Kuwait Street, Bur Dubai, Al Raffa, 89782 Dubai, United Arab Emirates"
    },
    {
      "lat": 25.275820651724818,
      "lon": 55.30296900617849,
      "geoinfo": {
        "display_name": "Al Khaleej Street, Deira, Al Corniche, Corniche Deira, Deira, Dubai, United Arab Emirates",
        "road": "Al Khaleej Street",
        "house_number": null,
        "neighbourhood": "Deira",
        "suburb": "Al Corniche",
        "city_district": null,
        "city": "Deira",
        "state": "Dubai",
        "postcode": null,
        "country": "United Arab Emirates",
        "country_code": "ae"
      },
      "address": "158, Al Khaleej Street, Deira, Al Corniche, Corniche Deira, Deira, 54067 Dubai, United Arab Emirates"
    }
  ],
  "updated_at": "2025-10-19T02:24:03.115927+00:00",
  "_kind": "geo_samples"
}