{
  "country_code": "AE",
  "country": "United Arab Emirates",
  "city": "Zayed City",
  "geonameid": 291580,
  "target_addresses": 13,
  "samples": [
    {
      "lat": 23.65698033803313,
      "lon": 53.71244910392643,
      "geoinfo": {
        "display_name": "7, Al Bahjah Street, Madinat Zayed, Zayed City, Al Dhafrah Region, Abu Dhabi Emirate, 10044, United Arab Emirates",
        "road": "Al Bahjah Street",
        "house_number": "7",
        "neighbourhood": null,
        "suburb": null,
        "city_district": null,
        "city": "Zayed City",
        "state": "Abu Dhabi Emirate",
        "postcode": "10044",
        "country": "United Arab Emirates",
        "country_code": "ae"
      },
      "address": "7 Al Bahjah Street, Zayed City, Abu Dhabi Emirate, United Arab Emirates"
    },
    {
      "lat": 23.66054526308779,
      "lon": 53.73242755934934,
      "geoinfo": {
        "display_name": "9, Al Lanj Street, Madinat Zayed, Zayed City, Al Dhafrah Region, Abu Dhabi Emirate, 10040, United Arab Emirates",
        "road": "Al Lanj Street",
        "house_number": "9",
        "neighbourhood": null,
        "suburb": null,
        "city_district": null,
        "city": "Zayed City",
        "state": "Abu Dhabi Emirate",
        "postcode": "10040",
        "country": "United Arab Emirates",
        "country_code": "ae"
      },
      "address": "9 Al Lanj Street, Zayed City, Abu Dhabi Emirate, United Arab Emirates"
    },
    {
      "lat": 23.63726492463093,
      "lon": 53.72951471399629,
      "geoinfo": {
        "display_name": "Al Afnan Street, Madinat Zayed, Zayed City, Al Dhafrah Region, Abu Dhabi Emirate, United Arab Emirates",
        "road": "Al Afnan Street",
        "house_number": null,
        "neighbourhood": null,
        "suburb": null,
        "city_district": null,
        "city": "Zayed City",
        "state": "Abu Dhabi Emirate",
        "postcode": null,
        "country": "United Arab Emirates",
        "country_code": "ae"
      },
      "address": "Al Afnan Street, Zayed City, Abu Dhabi Emirate, United Arab Emirates"
    },
    {
      "lat": 23.61669415074673,
      "lon": 53.68253538425969,
      "geoinfo": {
        "display_name": "Zayed City, Al Dhafrah Region, Abu Dhabi Emirate, United Arab Emirates",
        "road": null,
        "house_number": null,
        "neighbourhood": null,
        "suburb": null,
        "city_district": null,
        "city": "Zayed City",
        "state": "Abu Dhabi Emirate",
        "postcode": null,
        "country": "United Arab Emirates",
        "country_code": "ae"
      },
      "address": "Zayed City, 07061 Abu Dhabi Emirate, United Arab Emirates"
    },
    {
      "lat": 23.687921515102786,
      "lon": 53.69612119030427,
      "geoinfo": {
        "display_name": "Al Riyoum Street, Madinat Zayed, Zayed City, Al Dhafrah Region, Abu Dhabi Emirate, United Arab Emirates",
        "road": "Al Riyoum Street",
        "house_number": null,
        "neighbourhood": null,
        "suburb": null,
        "city_district": null,
        "city": "Zayed City",
        "state": "Abu Dhabi Emirate",
        "postcode": null,
        "country": "United Arab Emirates",
        "country_code": "ae"
      },
      "address": "Al Riyoum Street, Zayed City, 40136 Abu Dhabi Emirate, United Arab Emirates"
    },
    {
      "lat": 23.624357104774848,
      "lon": 53.66953729609109,
      "geoinfo": {
        "display_name": "Zayed City, Al Dhafrah Region, Abu Dhabi Emirate, United Arab Emirates",
        "road": null,
        "house_number": null,
        "neighbourhood": null,
        "suburb": null,
        "city_district": null,
        "city": "Zayed City",
        "state": "Abu Dhabi Emirate",
        "postcode": null,
        "country": "United Arab Emirates",
        "country_code": "ae"
      },
      "address": "Zayed City, Al Dhafrah Region, 52351 Abu Dhabi Emirate, United Arab Emirates"
    },
    {
      "lat": 23.681293500240926,
      "lon": 53.70291075157111,
      "geoinfo": {
        "display_name": "Al Tayyarah Street, Madinat Zayed, Zayed City, Al Dhafrah Region, Abu Dhabi Emirate, United Arab Emirates",
        "road": "Al Tayyarah Street",
        "house_number": null,
        "neighbourhood": null,
        "suburb": null,
        "city_district": null,
        "city": "Zayed City",
        "state": "Abu Dhabi Emirate",
        "postcode": null,
        "country": "United Arab Emirates",
        "country_code": "ae"
      },
      "address": "Al Tayyarah Street, Madinat Zayed, Zayed City, Al Dhafrah Region, 11270 Abu Dhabi Emirate, United Arab Emirates"
    },
    {
      "lat": 23.640691135760935,
      "lon": 53.7126822072883,
      "geoinfo": {
        "display_name": "Ghabat Al Dhafrah Street, Madinat Zayed, Zayed City, Al Dhafrah Region, Abu Dhabi Emirate, United Arab Emirates",
        "road": "Ghabat Al Dhafrah Street",
        "house_number": null,
        "neighbourhood": null,
        "suburb": null,
        "city_district": null,
        "city": "Zayed City",
        "state": "Abu Dhabi Emirate",
        "postcode": null,
        "country": "United Arab Emirates",
        "country_code": "ae"
      },
      "address": "246, Ghabat Al Dhafrah Street, Madinat Zayed, Zayed City, Al Dhafrah Region, 11794 Abu Dhabi Emirate, United Arab Emirates"
    },
    {
      "lat": 23.651451820274573,
      "lon": 53.69508596311658,
      "geoinfo": {
        "display_name": "30, Al Luluah Street, Madinat Zayed, Zayed City, Al Dhafrah Region, Abu Dhabi Emirate, 10049, United Arab Emirates",
        "road": "Al Luluah Street",
        "house_number": "30",
        "neighbourhood": null,
        "suburb": null,
        "city_district": null,
        "city": "Zayed City",
        "state": "Abu Dhabi Emirate",
        "postcode": "10049",
        "country": "United Arab Emirates",
        "country_code": "ae"
      },
      "address": "30, Al Luluah Street, Madinat Zayed, Zayed City, Al Dhafrah Region, Abu Dhabi Emirate, 10049, United Arab Emirates"
    },
    {
      "lat": 23.66214358192951,
      "lon": 53.71005321627943,
      "geoinfo": {
        "display_name": "Al Haramein Street, Madinat Zayed, Zayed City, Al Dhafrah Region, Abu Dhabi Emirate, United Arab Emirates",
        "road": "Al Haramein Street",
        "house_number": null,
        "neighbourhood": null,
        "suburb": null,
        "city_district": null,
        "city": "Zayed City",
        "state": "Abu Dhabi Emirate",
        "postcode": null,
        "country": "United Arab Emirates",
        "country_code": "ae"
      },
      "address": "765, Al Haramein Street, Madinat Zayed, Zayed City, Al Dhafrah Region, 80108 Abu Dhabi Emirate, United Arab Emirates"
    },
    {
      "lat": 23.65506426530885,
      "lon": 53.67341327739537,
      "geoinfo": {
        "display_name": "Mohammed Khalaf Al Mazrouei Street, Madinat Zayed, Zayed City, Al Dhafrah Region, Abu Dhabi Emirate, United Arab Emirates",
        "road": "Mohammed Khalaf Al Mazrouei Street",
        "house_number": null,
        "neighbourhood": null,
        "suburb": null,
        "city_district": null,
        "city": "Zayed City",
        "state": "Abu Dhabi Emirate",
        "postcode": null,
        "country": "United Arab Emirates",
        "country_code": "ae"
      },
      "address": "130, Mohammed Khalaf Al Mazrouei Street, Madinat Zayed, Zayed City, Al Dhafrah Region, 87559 Abu Dhabi Emirate, United Arab Emirates"
    },
    {
      "lat": 23.673706405006403,
      "lon": 53.700118346888935,
      "geoinfo": {
        "display_name": "69, Al Ajaweed Street, Madinat Zayed, Zayed City, Al Dhafrah Region, Abu Dhabi Emirate, 10010, United Arab Emirates",
        "road": "Al Ajaweed Street",
        "house_number": "69",
        "neighbourhood": null,
        "suburb": null,
        "city_district": null,
        "city": "Zayed City",
        "state": "Abu Dhabi Emirate",
        "postcode": "10010",
        "country": "United Arab Emirates",
        "country_code": "ae"
      },
      "address": "69, Al Ajaweed Street, Madinat Zayed, Zayed City, Al Dhafrah Region, Abu Dhabi Emirate, 10010, United Arab Emirates"
    },
    {
      "lat": 23.621872933885843,
      "lon": 53.70483097173281,
      "geoinfo": {
        "display_name": "Um Khannur Street, Madinat Zayed, Zayed City, Al Dhafrah Region, Abu Dhabi Emirate, United Arab Emirates",
        "road": "Um Khannur Street",
        "house_number": null,
        "neighbourhood": null,
        "suburb": null,
        "city_district": null,
        "city": "Zayed City",
        "state": "Abu Dhabi Emirate",
        "postcode": null,
        "country": "United Arab Emirates",
        "country_code": "ae"
      },
      "address": "665, Um Khannur Street, Madinat Zayed, Zayed City, Al Dhafrah Region, 80003 Abu Dhabi Emirate, United Arab Emirates"
    }
  ],
  "updated_at": "2025-10-19T03:03:45.545523+00:00",
  "_kind": "geo_samples"
}