{
  "country_code": "BH",
  "country": "Bahrain",
  "city": "Al Muharraq",
  "geonameid": 290332,
  "target_addresses": 13,
  "samples": [
    {
      "lat": 26.271942638695908,
      "lon": 50.57562825659771,
      "geoinfo": {
        "display_name": "Diplomatic Area, Manama, Capital Governorate, 317, Bahrain",
        "road": null,
        "house_number": null,
        "neighbourhood": null,
        "suburb": "Diplomatic Area",
        "city_district": null,
        "city": "Manama",
        "state": "Capital Governorate",
        "postcode": "317",
        "country": "Bahrain",
        "country_code": "bh"
      },
      "address": "665, Diplomatic Area, Manama, Capital Governorate, 317, Bahrain"
    },
    {
      "lat": 26.25397073667495,
      "lon": 50.61483969797141,
      "geoinfo": {
        "display_name": "Al Sagha Mosque, Shaikh Abdulla Bin Hamad Avenue, Muharraq, Muharraq Governorate, 210, Bahrain",
        "road": "Shaikh Abdulla Bin Hamad Avenue",
        "house_number": null,
        "neighbourhood": null,
        "suburb": null,
        "city_district": null,
        "city": "Muharraq",
        "state": "Muharraq Governorate",
        "postcode": "210",
        "country": "Bahrain",
        "country_code": "bh"
      },
      "address": "794, Shaikh Abdulla Bin Hamad Avenue, Al Muharraq, 210 Muharraq Governorate, Bahrain"
    },
    {
      "lat": 26.270803880685534,
      "lon": 50.6469167274528,
      "geoinfo": {
        "display_name": "Muharraq, Muharraq Governorate, 253, Bahrain",
        "road": null,
        "house_number": null,
        "neighbourhood": null,
        "suburb": null,
        "city_district": null,
        "city": "Muharraq",
        "state": "Muharraq Governorate",
        "postcode": "253",
        "country": "Bahrain",
        "country_code": "bh"
      },
      "address": "121, Al Muharraq, 253 Muharraq Governorate, Bahrain"
    },
    {
      "lat": 26.266156789012022,
      "lon": 50.568467997005385,
      "geoinfo": {
        "display_name": "Diplomatic Area, Manama, Capital Governorate, 317, Bahrain",
        "road": null,
        "house_number": null,
        "neighbourhood": null,
        "suburb": "Diplomatic Area",
        "city_district": null,
        "city": "Manama",
        "state": "Capital Governorate",
        "postcode": "317",
        "country": "Bahrain",
        "country_code": "bh"
      },
      "address": "194, Diplomatic Area, Manama, Capital Governorate, 317, Bahrain"
    },
    {
      "lat": 26.238323897037734,
      "lon": 50.6355084557898,
      "geoinfo": {
        "display_name": "Road 4812, Halat Al-Sletah, Muharraq, Muharraq Governorate, 1234, Bahrain",
        "road": "Road 4812",
        "house_number": null,
        "neighbourhood": null,
        "suburb": "Halat Al-Sletah",
        "city_district": null,
        "city": "Muharraq",
        "state": "Muharraq Governorate",
        "postcode": "1234",
        "country": "Bahrain",
        "country_code": "bh"
      },
      "address": "Road 4812, Al Muharraq, 1234 Muharraq Governorate, Bahrain"
    },
    {
      "lat": 26.28882587180019,
      "lon": 50.58029591228842,
      "geoinfo": {
        "display_name": "Busaiteen, Muharraq Governorate, 225, Bahrain",
        "road": null,
        "house_number": null,
        "neighbourhood": null,
        "suburb": null,
        "city_district": null,
        "city": "Busaiteen",
        "state": "Muharraq Governorate",
        "postcode": "225",
        "country": "Bahrain",
        "country_code": "bh"
      },
      "address": "018, Al Muharraq, 225 Muharraq Governorate, Bahrain"
    },
    {
      "lat": 26.24418207221406,
      "lon": 50.61533921637498,
      "geoinfo": {
        "display_name": "Alnikhba Gate Food Stuff, Road 1601, Muharraq, Muharraq Governorate, 210, Bahrain",
        "road": "Road 1601",
        "house_number": null,
        "neighbourhood": null,
        "suburb": null,
        "city_district": null,
        "city": "Muharraq",
        "state": "Muharraq Governorate",
        "postcode": "210",
        "country": "Bahrain",
        "country_code": "bh"
      },
      "address": "Road 1601, Al Muharraq, 210 Muharraq Governorate, Bahrain"
    },
    {
      "lat": 26.224163327186705,
      "lon": 50.64253335709604,
      "geoinfo": {
        "display_name": "Sheikh Khalifa Bin Salman Causeway, Muharraq, Muharraq Governorate, 111, Bahrain",
        "road": "Sheikh Khalifa Bin Salman Causeway",
        "house_number": null,
        "neighbourhood": null,
        "suburb": null,
        "city_district": null,
        "city": "Muharraq",
        "state": "Muharraq Governorate",
        "postcode": "111",
        "country": "Bahrain",
        "country_code": "bh"
      },
      "address": "045, Sheikh Khalifa Bin Salman Causeway, Al Muharraq, 111 Muharraq Governorate, Bahrain"
    },
    {
      "lat": 26.23589493441379,
      "lon": 50.5831335772187,
      "geoinfo": {
        "display_name": "Road 653, رأس رمان, Manama, Capital Governorate, 306, Bahrain",
        "road": "Road 653",
        "house_number": null,
        "neighbourhood": null,
        "suburb": "رأس رمان",
        "city_district": null,
        "city": "Manama",
        "state": "Capital Governorate",
        "postcode": "306",
        "country": "Bahrain",
        "country_code": "bh"
      },
      "address": "Road 653, رأس رمان, Manama, Capital Governorate, 306, Bahrain"
    },
    {
      "lat": 26.26981861086915,
      "lon": 50.592034381883366,
      "geoinfo": {
        "display_name": "Muharraq Ring Road, Al Dair, Muharraq Governorate, 225, Bahrain",
        "road": "Muharraq Ring Road",
        "house_number": null,
        "neighbourhood": null,
        "suburb": null,
        "city_district": null,
        "city": "Al Dair",
        "state": "Muharraq Governorate",
        "postcode": "225",
        "country": "Bahrain",
        "country_code": "bh"
      },
      "address": "124, Muharraq Ring Road, Al Dair, Muharraq Governorate, 225, Bahrain"
    },
    {
      "lat": 26.253988522560977,
      "lon": 50.645193982287886,
      "geoinfo": {
        "display_name": "Road 4409, Arad, Al-Hidd, Muharraq Governorate, 109, Bahrain",
        "road": "Road 4409",
        "house_number": null,
        "neighbourhood": null,
        "suburb": "Arad",
        "city_district": null,
        "city": "Al-Hidd",
        "state": "Muharraq Governorate",
        "postcode": "109",
        "country": "Bahrain",
        "country_code": "bh"
      },
      "address": "Road 4409, Al Muharraq, 109 Muharraq Governorate, Bahrain"
    },
    {
      "lat": 26.245117024095148,
      "lon": 50.6225583813731,
      "geoinfo": {
        "display_name": "مطعم الصيادين, Road 1655, Muharraq, Muharraq Governorate, 210, Bahrain",
        "road": "Road 1655",
        "house_number": null,
        "neighbourhood": null,
        "suburb": null,
        "city_district": null,
        "city": "Muharraq",
        "state": "Muharraq Governorate",
        "postcode": "210",
        "country": "Bahrain",
        "country_code": "bh"
      },
      "address": "Road 1655, Al Muharraq, 210 Muharraq Governorate, Bahrain"
    },
    {
      "lat": 26.273899918789382,
      "lon": 50.62482620145385,
      "geoinfo": {
        "display_name": "Road 2409, Muharraq, Muharraq Governorate, 204, Bahrain",
        "road": "Road 2409",
        "house_number": null,
        "neighbourhood": null,
        "suburb": null,
        "city_district": null,
        "city": "Muharraq",
        "state": "Muharraq Governorate",
        "postcode": "204",
        "country": "Bahrain",
        "country_code": "bh"
      },
      "address": "Road 2409, Al Muharraq, 204 Muharraq Governorate, Bahrain"
    }
  ],
  "updated_at": "2025-10-19T02:59:33.705644+00:00",
  "_kind": "geo_samples"
}