{
  "country_code": "BH",
  "country": "Bahrain",
  "city": "Madīnat ‘Īsá",
  "geonameid": 290187,
  "target_addresses": 13,
  "samples": [
    {
      "lat": 26.15827715375858,
      "lon": 50.522432913602316,
      "geoinfo": {
        "display_name": "Road 3407, A'ali, Northern Governorate, 000, Bahrain",
        "road": "Road 3407",
        "house_number": null,
        "neighbourhood": null,
        "suburb": null,
        "city_district": null,
        "city": "A'ali",
        "state": "Northern Governorate",
        "postcode": "000",
        "country": "Bahrain",
        "country_code": "bh"
      },
      "address": "Road 3407, Madīnat ‘Īsá, Northern Governorate, Bahrain"
    },
    {
      "lat": 26.187654200473553,
      "lon": 50.5358509169113,
      "geoinfo": {
        "display_name": "Shaikh Salman Highway, السهلة الشمالية, A'ali, Northern Governorate, 701, Bahrain",
        "road": "Shaikh Salman Highway",
        "house_number": null,
        "neighbourhood": null,
        "suburb": "السهلة الشمالية",
        "city_district": null,
        "city": "A'ali",
        "state": "Northern Governorate",
        "postcode": "701",
        "country": "Bahrain",
        "country_code": "bh"
      },
      "address": "Shaikh Salman Highway, Madīnat ‘Īsá, Northern Governorate, Bahrain"
    },
    {
      "lat": 26.169554909711294,
      "lon": 50.57501465320398,
      "geoinfo": {
        "display_name": "Road 2946, جرداب, Capital Governorate, 814, Bahrain",
        "road": "Road 2946",
        "house_number": null,
        "neighbourhood": null,
        "suburb": null,
        "city_district": null,
        "city": "جرداب",
        "state": "Capital Governorate",
        "postcode": "814",
        "country": "Bahrain",
        "country_code": "bh"
      },
      "address": "Road 2946, Madīnat ‘Īsá, Capital Governorate, Bahrain"
    },
    {
      "lat": 26.17068306710631,
      "lon": 50.53568179904841,
      "geoinfo": {
        "display_name": "Al Nakhil Street, Zayed Town, Isa Town, Southern Governorate, 000, Bahrain",
        "road": "Al Nakhil Street",
        "house_number": null,
        "neighbourhood": "Zayed Town",
        "suburb": null,
        "city_district": null,
        "city": "Isa Town",
        "state": "Southern Governorate",
        "postcode": "000",
        "country": "Bahrain",
        "country_code": "bh"
      },
      "address": "Al Nakhil Street, Madīnat ‘Īsá, Southern Governorate, Bahrain"
    },
    {
      "lat": 26.157066647542575,
      "lon": 50.586837772895564,
      "geoinfo": {
        "display_name": "Road 4394, كمبوند رأس سند, Sanad, Capital Governorate, 743, Bahrain",
        "road": "Road 4394",
        "house_number": null,
        "neighbourhood": "كمبوند رأس سند",
        "suburb": null,
        "city_district": null,
        "city": "Sanad",
        "state": "Capital Governorate",
        "postcode": "743",
        "country": "Bahrain",
        "country_code": "bh"
      },
      "address": "Road 4394, Madīnat ‘Īsá, Capital Governorate, Bahrain"
    },
    {
      "lat": 26.21463491618934,
      "lon": 50.53844970225959,
      "geoinfo": {
        "display_name": "Road 25, عين الدار, Jid Hafs, Capital Governorate, 406, Bahrain",
        "road": "Road 25",
        "house_number": null,
        "neighbourhood": null,
        "suburb": "عين الدار",
        "city_district": null,
        "city": "Jid Hafs",
        "state": "Capital Governorate",
        "postcode": "406",
        "country": "Bahrain",
        "country_code": "bh"
      },
      "address": "Road 25, Madīnat ‘Īsá, Capital Governorate, Bahrain"
    },
    {
      "lat": 26.18340822867286,
      "lon": 50.547464938001035,
      "geoinfo": {
        "display_name": "Road 561, الكورة, Capital Governorate, 802, Bahrain",
        "road": "Road 561",
        "house_number": null,
        "neighbourhood": null,
        "suburb": null,
        "city_district": null,
        "city": "الكورة",
        "state": "Capital Governorate",
        "postcode": "802",
        "country": "Bahrain",
        "country_code": "bh"
      },
      "address": "Road 561, Madīnat ‘Īsá, Capital Governorate, Bahrain"
    },
    {
      "lat": 26.20942202184912,
      "lon": 50.53307472249332,
      "geoinfo": {
        "display_name": "Road 3341, السهلة الشمالية, جبلة حبشي, Northern Governorate, 431, Bahrain",
        "road": "Road 3341",
        "house_number": null,
        "neighbourhood": null,
        "suburb": "السهلة الشمالية",
        "city_district": null,
        "city": "جبلة حبشي",
        "state": "Northern Governorate",
        "postcode": "431",
        "country": "Bahrain",
        "country_code": "bh"
      },
      "address": "Road 3341, Madīnat ‘Īsá, Northern Governorate, Bahrain"
    },
    {
      "lat": 26.146454785055447,
      "lon": 50.51801875130513,
      "geoinfo": {
        "display_name": "Road 4603, Riffa, Southern Governorate, 973, Bahrain",
        "road": "Road 4603",
        "house_number": null,
        "neighbourhood": null,
        "suburb": null,
        "city_district": null,
        "city": "Riffa",
        "state": "Southern Governorate",
        "postcode": "973",
        "country": "Bahrain",
        "country_code": "bh"
      },
      "address": "Road 4603, Madīnat ‘Īsá, Southern Governorate, Bahrain"
    },
    {
      "lat": 26.21326486170196,
      "lon": 50.530082817713655,
      "geoinfo": {
        "display_name": "Road 3364, السهلة الشمالية, جبلة حبشي, Northern Governorate, 431, Bahrain",
        "road": "Road 3364",
        "house_number": null,
        "neighbourhood": null,
        "suburb": "السهلة الشمالية",
        "city_district": null,
        "city": "جبلة حبشي",
        "state": "Northern Governorate",
        "postcode": "431",
        "country": "Bahrain",
        "country_code": "bh"
      },
      "address": "Road 3364, Madīnat ‘Īsá, Northern Governorate, Bahrain"
    },
    {
      "lat": 26.169185042565953,
      "lon": 50.576820422337725,
      "geoinfo": {
        "display_name": "Road 2961, جرداب, Capital Governorate, 814, Bahrain",
        "road": "Road 2961",
        "house_number": null,
        "neighbourhood": null,
        "suburb": null,
        "city_district": null,
        "city": "جرداب",
        "state": "Capital Governorate",
        "postcode": "814",
        "country": "Bahrain",
        "country_code": "bh"
      },
      "address": "Road 2961, Madīnat ‘Īsá, Capital Governorate, Bahrain"
    },
    {
      "lat": 26.157511645060424,
      "lon": 50.53233065763226,
      "geoinfo": {
        "display_name": "Road 3207, A'ali, Northern Governorate, 000, Bahrain",
        "road": "Road 3207",
        "house_number": null,
        "neighbourhood": null,
        "suburb": null,
        "city_district": null,
        "city": "A'ali",
        "state": "Northern Governorate",
        "postcode": "000",
        "country": "Bahrain",
        "country_code": "bh"
      },
      "address": "Road 3207, Madīnat ‘Īsá, Northern Governorate, Bahrain"
    },
    {
      "lat": 26.212379686898267,
      "lon": 50.532738512574376,
      "geoinfo": {
        "display_name": "مسجد الإمام علي (ع) (البناية), Road 3139, جبلة حبشي, Northern Governorate, 431, Bahrain",
        "road": "Road 3139",
        "house_number": null,
        "neighbourhood": null,
        "suburb": null,
        "city_district": null,
        "city": "جبلة حبشي",
        "state": "Northern Governorate",
        "postcode": "431",
        "country": "Bahrain",
        "country_code": "bh"
      },
      "address": "Road 3139, Madīnat ‘Īsá, Northern Governorate, Bahrain"
    },
    {
      "lat": 26.190896845564808,
      "lon": 50.51016352716993,
      "geoinfo": {
        "display_name": "Road 5772, Abu Quwah, Northern Governorate, 449, Bahrain",
        "road": "Road 5772",
        "house_number": null,
        "neighbourhood": null,
        "suburb": null,
        "city_district": null,
        "city": "Abu Quwah",
        "state": "Northern Governorate",
        "postcode": "449",
        "country": "Bahrain",
        "country_code": "bh"
      },
      "address": "Road 5772, Madīnat ‘Īsá, 449 Northern Governorate, Bahrain"
    },
    {
      "lat": 26.175848522002276,
      "lon": 50.540766931615686,
      "geoinfo": {
        "display_name": "Isa Town Gate Flyover, Zayed Town, Isa Town, Southern Governorate, 000, Bahrain",
        "road": "Isa Town Gate Flyover",
        "house_number": null,
        "neighbourhood": "Zayed Town",
        "suburb": null,
        "city_district": null,
        "city": "Isa Town",
        "state": "Southern Governorate",
        "postcode": "000",
        "country": "Bahrain",
        "country_code": "bh"
      },
      "address": "351, Isa Town Gate Flyover, Madīnat ‘Īsá, 000 Southern Governorate, Bahrain"
    },
    {
      "lat": 26.191946398174156,
      "lon": 50.58888568093447,
      "geoinfo": {
        "display_name": "Shaikh Jaber Al Ahmed Al Subah Highway, Umm Al Hassam, Manama, Capital Governorate, 3044, Bahrain",
        "road": "Shaikh Jaber Al Ahmed Al Subah Highway",
        "house_number": null,
        "neighbourhood": null,
        "suburb": "Umm Al Hassam",
        "city_district": null,
        "city": "Manama",
        "state": "Capital Governorate",
        "postcode": "3044",
        "country": "Bahrain",
        "country_code": "bh"
      },
      "address": "596, Shaikh Jaber Al Ahmed Al Subah Highway, Umm Al Hassam, Manama, Capital Governorate, 3044, Bahrain"
    },
    {
      "lat": 26.14557362006852,
      "lon": 50.57895171637219,
      "geoinfo": {
        "display_name": "Road 4563, Sanad, Capital Governorate, 745, Bahrain",
        "road": "Road 4563",
        "house_number": null,
        "neighbourhood": null,
        "suburb": null,
        "city_district": null,
        "city": "Sanad",
        "state": "Capital Governorate",
        "postcode": "745",
        "country": "Bahrain",
        "country_code": "bh"
      },
      "address": "Road 4563, Madīnat ‘Īsá, 745 Capital Governorate, Bahrain"
    },
    {
      "lat": 26.180527609400112,
      "lon": 50.52309134207623,
      "geoinfo": {
        "display_name": "Modern Rent a Car, Avenue 8, Salmabad, Northern Governorate, 000, Bahrain",
        "road": "Avenue 8",
        "house_number": null,
        "neighbourhood": null,
        "suburb": null,
        "city_district": null,
        "city": "Salmabad",
        "state": "Northern Governorate",
        "postcode": "000",
        "country": "Bahrain",
        "country_code": "bh"
      },
      "address": "Modern Rent a Car, Avenue 8, Salmabad, Northern Governorate, 000, Bahrain"
    },
    {
      "lat": 26.20005010240574,
      "lon": 50.58418160799916,
      "geoinfo": {
        "display_name": "Bu Ghazal, Manama, Capital Governorate, 320, Bahrain",
        "road": null,
        "house_number": null,
        "neighbourhood": null,
        "suburb": "Bu Ghazal",
        "city_district": null,
        "city": "Manama",
        "state": "Capital Governorate",
        "postcode": "320",
        "country": "Bahrain",
        "country_code": "bh"
      },
      "address": "802, Bu Ghazal, Manama, Capital Governorate, 320, Bahrain"
    },
    {
      "lat": 26.17537083998369,
      "lon": 50.58678000434013,
      "geoinfo": {
        "display_name": "Manama, Capital Governorate, 3044, Bahrain",
        "road": null,
        "house_number": null,
        "neighbourhood": null,
        "suburb": null,
        "city_district": null,
        "city": "Manama",
        "state": "Capital Governorate",
        "postcode": "3044",
        "country": "Bahrain",
        "country_code": "bh"
      },
      "address": "650, Manama, Capital Governorate, 3044, Bahrain"
    },
    {
      "lat": 26.147333043825142,
      "lon": 50.54662308184533,
      "geoinfo": {
        "display_name": "Riffa, Southern Governorate, 973, Bahrain",
        "road": null,
        "house_number": null,
        "neighbourhood": null,
        "suburb": null,
        "city_district": null,
        "city": "Riffa",
        "state": "Southern Governorate",
        "postcode": "973",
        "country": "Bahrain",
        "country_code": "bh"
      },
      "address": "140, Madīnat ‘Īsá, 973 Southern Governorate, Bahrain"
    },
    {
      "lat": 26.174503488702218,
      "lon": 50.55690050373708,
      "geoinfo": {
        "display_name": "Road 1214, Isa Town, Southern Governorate, 814, Bahrain",
        "road": "Road 1214",
        "house_number": null,
        "neighbourhood": null,
        "suburb": null,
        "city_district": null,
        "city": "Isa Town",
        "state": "Southern Governorate",
        "postcode": "814",
        "country": "Bahrain",
        "country_code": "bh"
      },
      "address": "Road 1214, Madīnat ‘Īsá, 814 Southern Governorate, Bahrain"
    },
    {
      "lat": 26.19724710166871,
      "lon": 50.55269684346426,
      "geoinfo": {
        "display_name": "Avenue 13, السهلة الجنوبية, قرية عذاري, Capital Governorate, 701, Bahrain",
        "road": "Avenue 13",
        "house_number": null,
        "neighbourhood": null,
        "suburb": "السهلة الجنوبية",
        "city_district": null,
        "city": "قرية عذاري",
        "state": "Capital Governorate",
        "postcode": "701",
        "country": "Bahrain",
        "country_code": "bh"
      },
      "address": "Avenue 13, Madīnat ‘Īsá, 701 Capital Governorate, Bahrain"
    },
    {
      "lat": 26.207883585395507,
      "lon": 50.5350696625118,
      "geoinfo": {
        "display_name": "Shela Avenue, عين الدار, Jid Hafs, Capital Governorate, 431, Bahrain",
        "road": "Shela Avenue",
        "house_number": null,
        "neighbourhood": null,
        "suburb": "عين الدار",
        "city_district": null,
        "city": "Jid Hafs",
        "state": "Capital Governorate",
        "postcode": "431",
        "country": "Bahrain",
        "country_code": "bh"
      },
      "address": "621, Shela Avenue, عين الدار, Jid Hafs, Capital Governorate, 431, Bahrain"
    },
    {
      "lat": 26.18851639542519,
      "lon": 50.59017447425475,
      "geoinfo": {
        "display_name": "Shaikh Jaber Al Ahmed Al Subah Highway, Umm Al Hassam, Manama, Capital Governorate, 3044, Bahrain",
        "road": "Shaikh Jaber Al Ahmed Al Subah Highway",
        "house_number": null,
        "neighbourhood": null,
        "suburb": "Umm Al Hassam",
        "city_district": null,
        "city": "Manama",
        "state": "Capital Governorate",
        "postcode": "3044",
        "country": "Bahrain",
        "country_code": "bh"
      },
      "address": "951, Shaikh Jaber Al Ahmed Al Subah Highway, Umm Al Hassam, Manama, Capital Governorate, 3044, Bahrain"
    },
    {
      "lat": 26.186512128267925,
      "lon": 50.55534911948495,
      "geoinfo": {
        "display_name": "Road 754, Tubli, Capital Governorate, 802, Bahrain",
        "road": "Road 754",
        "house_number": null,
        "neighbourhood": null,
        "suburb": null,
        "city_district": null,
        "city": "Tubli",
        "state": "Capital Governorate",
        "postcode": "802",
        "country": "Bahrain",
        "country_code": "bh"
      },
      "address": "Road 754, Madīnat ‘Īsá, 802 Capital Governorate, Bahrain"
    }
  ],
  "updated_at": "2025-10-19T02:39:14.872659+00:00",
  "_kind": "geo_samples"
}