{
  "country_code": "AR",
  "country": "Argentina",
  "city": "Añatuya",
  "geonameid": 3865840,
  "target_addresses": 3,
  "samples": [
    {
      "lat": -28.439200108313976,
      "lon": -62.8163335351445,
      "geoinfo": {
        "display_name": "Departamento General Taboada, Santiago del Estero, G3743, Argentina",
        "road": null,
        "house_number": null,
        "neighbourhood": null,
        "suburb": null,
        "city_district": null,
        "city": null,
        "state": "Santiago del Estero",
        "postcode": "G3743",
        "country": "Argentina",
        "country_code": "ar"
      },
      "address": "Añatuya, Santiago del Estero, Argentina"
    },
    {
      "lat": -28.450297913555605,
      "lon": -62.81221335829817,
      "geoinfo": {
        "display_name": "Ruta Provincial 7, Miel de Palo, Departamento General Taboada, Santiago del Estero, G3743, Argentina",
        "road": "Ruta Provincial 7",
        "house_number": null,
        "neighbourhood": null,
        "suburb": null,
        "city_district": null,
        "city": null,
        "state": "Santiago del Estero",
        "postcode": "G3743",
        "country": "Argentina",
        "country_code": "ar"
      },
      "address": "Ruta Provincial 7, Miel de Palo, Departamento General Taboada, Santiago del Estero, G3743, Argentina"
    },
    {
      "lat": -28.45390798870147,
      "lon": -62.8393721504246,
      "geoinfo": {
        "display_name": "Manuel Estrada, Barrio Manzione, Añatuya, Municipio de Añatuya, Departamento General Taboada, Santiago del Estero, G3743, Argentina",
        "road": "Manuel Estrada",
        "house_number": null,
        "neighbourhood": "Barrio Manzione",
        "suburb": null,
        "city_district": null,
        "city": "Añatuya",
        "state": "Santiago del Estero",
        "postcode": "G3743",
        "country": "Argentina",
        "country_code": "ar"
      },
      "address": "263, Manuel Estrada, Barrio Manzione, Añatuya, Municipio de Añatuya, Departamento General Taboada, Santiago del Estero, G3743, Argentina"
    }
  ],
  "updated_at": "2025-10-19T03:13:38.624420+00:00",
  "_kind": "geo_samples"
}