{
  "country_code": "AR",
  "country": "Argentina",
  "city": "La Rioja",
  "geonameid": 3848950,
  "target_addresses": 3,
  "samples": [
    {
      "lat": -29.447331258395753,
      "lon": -66.85920836901442,
      "geoinfo": {
        "display_name": "Pichana, Mis Montañas, La Rioja, Departamento Capital, La Rioja, F5300, Argentina",
        "road": "Pichana",
        "house_number": null,
        "neighbourhood": "Mis Montañas",
        "suburb": null,
        "city_district": null,
        "city": "La Rioja",
        "state": "La Rioja",
        "postcode": "F5300",
        "country": "Argentina",
        "country_code": "ar"
      },
      "address": "Pichana, La Rioja, La Rioja, Argentina"
    },
    {
      "lat": -29.39610044977738,
      "lon": -66.81247156308358,
      "geoinfo": {
        "display_name": "Ruta Nacional 38 Monseñor Angelelli, La Rioja, Departamento Capital, La Rioja, F5300, Argentina",
        "road": "Ruta Nacional 38 Monseñor Angelelli",
        "house_number": null,
        "neighbourhood": null,
        "suburb": null,
        "city_district": null,
        "city": "La Rioja",
        "state": "La Rioja",
        "postcode": "F5300",
        "country": "Argentina",
        "country_code": "ar"
      },
      "address": "Ruta Nacional 38 Monseñor Angelelli, La Rioja, Departamento Capital, La Rioja, F5300, Argentina"
    },
    {
      "lat": -29.412156718763764,
      "lon": -66.80747512581318,
      "geoinfo": {
        "display_name": "Ciudad de Parana, La Rioja, Departamento Capital, La Rioja, F5300, Argentina",
        "road": "Ciudad de Parana",
        "house_number": null,
        "neighbourhood": null,
        "suburb": null,
        "city_district": null,
        "city": "La Rioja",
        "state": "La Rioja",
        "postcode": "F5300",
        "country": "Argentina",
        "country_code": "ar"
      },
      "address": "514, Ciudad de Parana, La Rioja, Departamento Capital, La Rioja, F5300, Argentina"
    }
  ],
  "updated_at": "2025-10-19T03:13:22.628905+00:00",
  "_kind": "geo_samples"
}