{
  "country_code": "BN",
  "country": "Brunei",
  "city": "Bandar Seri Begawan",
  "geonameid": 1820906,
  "target_addresses": 13,
  "samples": [
    {
      "lat": 4.90024003541949,
      "lon": 114.94106295283694,
      "geoinfo": {
        "display_name": "Jabatan Perkhidmatan Air, Simpang 15, Tasek Lama, Bandar Seri Begawan, Mukim Kianggeh, Brunei-Muara District, BA1411, Brunei",
        "road": "Simpang 15",
        "house_number": null,
        "neighbourhood": null,
        "suburb": "Tasek Lama",
        "city_district": null,
        "city": "Bandar Seri Begawan",
        "state": null,
        "postcode": "BA1411",
        "country": "Brunei",
        "country_code": "bn"
      },
      "address": "Simpang 15, Bandar Seri Begawan, Brunei"
    },
    {
      "lat": 4.9153092969656145,
      "lon": 114.9680462787549,
      "geoinfo": {
        "display_name": "Diplomatic Enclave, Bandar Seri Begawan, Mukim Kianggeh, Brunei-Muara District, BA1210, Brunei",
        "road": null,
        "house_number": null,
        "neighbourhood": null,
        "suburb": "Diplomatic Enclave",
        "city_district": null,
        "city": "Bandar Seri Begawan",
        "state": null,
        "postcode": "BA1210",
        "country": "Brunei",
        "country_code": "bn"
      },
      "address": "Diplomatic Enclave, Bandar Seri Begawan, Brunei"
    },
    {
      "lat": 4.910507035617921,
      "lon": 114.92998060228766,
      "geoinfo": {
        "display_name": "Jalan Perdana Menteri, Kumbang Pasang, Bandar Seri Begawan, Mukim Kianggeh, Brunei-Muara District, BA1511, Brunei",
        "road": "Jalan Perdana Menteri",
        "house_number": null,
        "neighbourhood": null,
        "suburb": "Kumbang Pasang",
        "city_district": null,
        "city": "Bandar Seri Begawan",
        "state": null,
        "postcode": "BA1511",
        "country": "Brunei",
        "country_code": "bn"
      },
      "address": "Jalan Perdana Menteri, Bandar Seri Begawan, Brunei"
    },
    {
      "lat": 4.927349021578321,
      "lon": 114.96493957735274,
      "geoinfo": {
        "display_name": "4, Simpang 396-70-13, Sungai Akar, Bandar Seri Begawan, Mukim Berakas B, Brunei-Muara District, BC4115, Brunei",
        "road": "Simpang 396-70-13",
        "house_number": "4",
        "neighbourhood": null,
        "suburb": null,
        "city_district": null,
        "city": "Bandar Seri Begawan",
        "state": null,
        "postcode": "BC4115",
        "country": "Brunei",
        "country_code": "bn"
      },
      "address": "4 Simpang 396-70-13, Bandar Seri Begawan, Brunei"
    },
    {
      "lat": 4.8758882008494995,
      "lon": 114.91252733831547,
      "geoinfo": {
        "display_name": "Telanai, Bandar Seri Begawan, Mukim Kilanas, Brunei-Muara District, BA2312, Brunei",
        "road": null,
        "house_number": null,
        "neighbourhood": null,
        "suburb": null,
        "city_district": null,
        "city": "Bandar Seri Begawan",
        "state": null,
        "postcode": "BA2312",
        "country": "Brunei",
        "country_code": "bn"
      },
      "address": "Bandar Seri Begawan, Brunei"
    },
    {
      "lat": 4.915824725411916,
      "lon": 114.9552645843887,
      "geoinfo": {
        "display_name": "Jalan Duta, Diplomatic Enclave, Bandar Seri Begawan, Mukim Kianggeh, Brunei-Muara District, BA1210, Brunei",
        "road": "Jalan Duta",
        "house_number": null,
        "neighbourhood": null,
        "suburb": "Diplomatic Enclave",
        "city_district": null,
        "city": "Bandar Seri Begawan",
        "state": null,
        "postcode": "BA1210",
        "country": "Brunei",
        "country_code": "bn"
      },
      "address": "Jalan Duta, Bandar Seri Begawan, Brunei"
    },
    {
      "lat": 4.877376040784902,
      "lon": 114.92221174438993,
      "geoinfo": {
        "display_name": "Tumasek, Bandar Seri Begawan, Mukim Kianggeh, Brunei-Muara District, BA2112, Brunei",
        "road": null,
        "house_number": null,
        "neighbourhood": "Tumasek",
        "suburb": null,
        "city_district": null,
        "city": "Bandar Seri Begawan",
        "state": null,
        "postcode": "BA2112",
        "country": "Brunei",
        "country_code": "bn"
      },
      "address": "Tumasek, Bandar Seri Begawan, Brunei"
    },
    {
      "lat": 4.909357433025592,
      "lon": 114.9104198500195,
      "geoinfo": {
        "display_name": "Jalan Gadong, Pangkalan Gadong, Bandar Seri Begawan, Mukim Gadong B, Brunei-Muara District, BE3519, Brunei",
        "road": "Jalan Gadong",
        "house_number": null,
        "neighbourhood": "Pangkalan Gadong",
        "suburb": null,
        "city_district": null,
        "city": "Bandar Seri Begawan",
        "state": null,
        "postcode": "BE3519",
        "country": "Brunei",
        "country_code": "bn"
      },
      "address": "Jalan Gadong, Bandar Seri Begawan, Brunei"
    },
    {
      "lat": 4.879110705431369,
      "lon": 114.92018877006473,
      "geoinfo": {
        "display_name": "Dayang Siti Aisah Apartment, 9, Simpang 204, Tumasek, Bandar Seri Begawan, Mukim Kianggeh, Brunei-Muara District, BA2112, Brunei",
        "road": "Simpang 204",
        "house_number": "9",
        "neighbourhood": "Tumasek",
        "suburb": null,
        "city_district": null,
        "city": "Bandar Seri Begawan",
        "state": null,
        "postcode": "BA2112",
        "country": "Brunei",
        "country_code": "bn"
      },
      "address": "9 Simpang 204, Bandar Seri Begawan, Brunei"
    },
    {
      "lat": 4.918158454996201,
      "lon": 114.9207034208956,
      "geoinfo": {
        "display_name": "3, Simpang 100, Pangkalan Gadong, Bandar Seri Begawan, Mukim Gadong B, Brunei-Muara District, BE3619, Brunei",
        "road": "Simpang 100",
        "house_number": "3",
        "neighbourhood": "Pangkalan Gadong",
        "suburb": null,
        "city_district": null,
        "city": "Bandar Seri Begawan",
        "state": null,
        "postcode": "BE3619",
        "country": "Brunei",
        "country_code": "bn"
      },
      "address": "3 Simpang 100, Bandar Seri Begawan, Brunei"
    },
    {
      "lat": 4.917710310062902,
      "lon": 114.91733635556838,
      "geoinfo": {
        "display_name": "Simpang 128-21, Pangkalan Gadong, Bandar Seri Begawan, Mukim Gadong B, Brunei-Muara District, BE3619, Brunei",
        "road": "Simpang 128-21",
        "house_number": null,
        "neighbourhood": "Pangkalan Gadong",
        "suburb": null,
        "city_district": null,
        "city": "Bandar Seri Begawan",
        "state": null,
        "postcode": "BE3619",
        "country": "Brunei",
        "country_code": "bn"
      },
      "address": "Simpang 128-21, Bandar Seri Begawan, Brunei"
    },
    {
      "lat": 4.886605758030455,
      "lon": 114.9565840133016,
      "geoinfo": {
        "display_name": "Simpang 67, Subok, Bandar Seri Begawan, Mukim Kota Batu, Brunei-Muara District, BD2717, Brunei",
        "road": "Simpang 67",
        "house_number": null,
        "neighbourhood": null,
        "suburb": "Subok",
        "city_district": null,
        "city": "Bandar Seri Begawan",
        "state": null,
        "postcode": "BD2717",
        "country": "Brunei",
        "country_code": "bn"
      },
      "address": "Simpang 67, Bandar Seri Begawan, Brunei"
    },
    {
      "lat": 4.917338147525631,
      "lon": 114.95958562342314,
      "geoinfo": {
        "display_name": "Simpang 336-52-38, Diplomatic Enclave, Bandar Seri Begawan, Mukim Kianggeh, Brunei-Muara District, BA1210, Brunei",
        "road": "Simpang 336-52-38",
        "house_number": null,
        "neighbourhood": null,
        "suburb": "Diplomatic Enclave",
        "city_district": null,
        "city": "Bandar Seri Begawan",
        "state": null,
        "postcode": "BA1210",
        "country": "Brunei",
        "country_code": "bn"
      },
      "address": "Simpang 336-52-38, Bandar Seri Begawan, Brunei"
    },
    {
      "lat": 4.902076006815729,
      "lon": 114.92738783092632,
      "geoinfo": {
        "display_name": "Senja, Jalan Komersial Kiulap, Kiulap, Bandar Seri Begawan, Mukim Gadong B, Brunei-Muara District, BE1518, Brunei",
        "road": "Jalan Komersial Kiulap",
        "house_number": null,
        "neighbourhood": null,
        "suburb": null,
        "city_district": null,
        "city": "Bandar Seri Begawan",
        "state": null,
        "postcode": "BE1518",
        "country": "Brunei",
        "country_code": "bn"
      },
      "address": "770, Jalan Komersial Kiulap, BE1518 Bandar Seri Begawan, Brunei"
    },
    {
      "lat": 4.881264276040893,
      "lon": 114.9807804677791,
      "geoinfo": {
        "display_name": "Buang Tawar, Mukim Kota Batu, Brunei-Muara District, Brunei",
        "road": null,
        "house_number": null,
        "neighbourhood": null,
        "suburb": null,
        "city_district": null,
        "city": null,
        "state": null,
        "postcode": null,
        "country": "Brunei",
        "country_code": "bn"
      },
      "address": "598, 76523 Bandar Seri Begawan, Brunei"
    },
    {
      "lat": 4.8806762668611325,
      "lon": 114.96905938196264,
      "geoinfo": {
        "display_name": "Brunei Darussalam Maritime Museum, Jalan Muzium Teknologi Melayu, Kota Batu, Bandar Seri Begawan, Mukim Kota Batu, Brunei-Muara District, BD1517, Brunei",
        "road": "Jalan Muzium Teknologi Melayu",
        "house_number": null,
        "neighbourhood": null,
        "suburb": "Kota Batu",
        "city_district": null,
        "city": "Bandar Seri Begawan",
        "state": null,
        "postcode": "BD1517",
        "country": "Brunei",
        "country_code": "bn"
      },
      "address": "060, Jalan Muzium Teknologi Melayu, BD1517 Bandar Seri Begawan, Brunei"
    },
    {
      "lat": 4.87898020724398,
      "lon": 114.98321768184687,
      "geoinfo": {
        "display_name": "Menunggol, Mukim Kota Batu, Brunei-Muara District, BD4317, Brunei",
        "road": null,
        "house_number": null,
        "neighbourhood": null,
        "suburb": null,
        "city_district": null,
        "city": "Menunggol",
        "state": null,
        "postcode": "BD4317",
        "country": "Brunei",
        "country_code": "bn"
      },
      "address": "452, BD4317 Bandar Seri Begawan, Brunei"
    },
    {
      "lat": 4.924821742930115,
      "lon": 114.95776553575642,
      "geoinfo": {
        "display_name": "Ministry of Culture, Youth and Sports, Simpang 336-17, Diplomatic Enclave, Bandar Seri Begawan, Mukim Kianggeh, Brunei-Muara District, BA1210, Brunei",
        "road": "Simpang 336-17",
        "house_number": null,
        "neighbourhood": null,
        "suburb": "Diplomatic Enclave",
        "city_district": null,
        "city": "Bandar Seri Begawan",
        "state": null,
        "postcode": "BA1210",
        "country": "Brunei",
        "country_code": "bn"
      },
      "address": "Simpang 336-17, Bandar Seri Begawan, Brunei"
    },
    {
      "lat": 4.925214268743718,
      "lon": 114.91405539419137,
      "geoinfo": {
        "display_name": "Simpang 217, Lapangan Terbang Antarabangsa Brunei, Rimba, Mukim Gadong A, Brunei-Muara District, BE3619, Brunei",
        "road": "Simpang 217",
        "house_number": null,
        "neighbourhood": null,
        "suburb": "Lapangan Terbang Antarabangsa Brunei",
        "city_district": null,
        "city": "Rimba",
        "state": null,
        "postcode": "BE3619",
        "country": "Brunei",
        "country_code": "bn"
      },
      "address": "Simpang 217, Lapangan Terbang Antarabangsa Brunei, Rimba, Mukim Gadong A, Brunei-Muara District, BE3619, Brunei"
    },
    {
      "lat": 4.885489533684761,
      "lon": 114.91046331655332,
      "geoinfo": {
        "display_name": "Simpang 152, Kiarong, Bandar Seri Begawan, Mukim Gadong B, Brunei-Muara District, BE1118, Brunei",
        "road": "Simpang 152",
        "house_number": null,
        "neighbourhood": null,
        "suburb": null,
        "city_district": null,
        "city": "Bandar Seri Begawan",
        "state": null,
        "postcode": "BE1118",
        "country": "Brunei",
        "country_code": "bn"
      },
      "address": "Simpang 152, Kiarong, Bandar Seri Begawan, Mukim Gadong B, Brunei-Muara District, BE1118, Brunei"
    },
    {
      "lat": 4.897439408036704,
      "lon": 114.93433816469768,
      "geoinfo": {
        "display_name": "Jalan Jame 'Asr, Pusar Ulak, Bandar Seri Begawan, Mukim Kianggeh, Brunei-Muara District, BE1518, Brunei",
        "road": "Jalan Jame 'Asr",
        "house_number": null,
        "neighbourhood": null,
        "suburb": "Pusar Ulak",
        "city_district": null,
        "city": "Bandar Seri Begawan",
        "state": null,
        "postcode": "BE1518",
        "country": "Brunei",
        "country_code": "bn"
      },
      "address": "661, Jalan Jame 'Asr, Pusar Ulak, Bandar Seri Begawan, Mukim Kianggeh, Brunei-Muara District, BE1518, Brunei"
    },
    {
      "lat": 4.881758388254674,
      "lon": 114.95715670856569,
      "geoinfo": {
        "display_name": "Simpang 74, Subok, Bandar Seri Begawan, Mukim Kota Batu, Brunei-Muara District, BD2717, Brunei",
        "road": "Simpang 74",
        "house_number": null,
        "neighbourhood": null,
        "suburb": "Subok",
        "city_district": null,
        "city": "Bandar Seri Begawan",
        "state": null,
        "postcode": "BD2717",
        "country": "Brunei",
        "country_code": "bn"
      },
      "address": "Simpang 74, Subok, Bandar Seri Begawan, Mukim Kota Batu, Brunei-Muara District, BD2717, Brunei"
    },
    {
      "lat": 4.889968576773395,
      "lon": 114.90876854409399,
      "geoinfo": {
        "display_name": "Jalan Beribi, Kiarong, Bandar Seri Begawan, Mukim Gadong B, Brunei-Muara District, BE1118, Brunei",
        "road": "Jalan Beribi",
        "house_number": null,
        "neighbourhood": null,
        "suburb": null,
        "city_district": null,
        "city": "Bandar Seri Begawan",
        "state": null,
        "postcode": "BE1118",
        "country": "Brunei",
        "country_code": "bn"
      },
      "address": "998, Jalan Beribi, Kiarong, Bandar Seri Begawan, Mukim Gadong B, Brunei-Muara District, BE1118, Brunei"
    },
    {
      "lat": 4.916876025664212,
      "lon": 114.97355693832363,
      "geoinfo": {
        "display_name": "Belimbing, Bandar Seri Begawan, Mukim Kota Batu, Brunei-Muara District, BD2917, Brunei",
        "road": null,
        "house_number": null,
        "neighbourhood": null,
        "suburb": "Belimbing",
        "city_district": null,
        "city": "Bandar Seri Begawan",
        "state": null,
        "postcode": "BD2917",
        "country": "Brunei",
        "country_code": "bn"
      },
      "address": "414, Belimbing, Bandar Seri Begawan, Mukim Kota Batu, Brunei-Muara District, BD2917, Brunei"
    },
    {
      "lat": 4.890565310639735,
      "lon": 114.904505162979,
      "geoinfo": {
        "display_name": "2, Simpang 46-39-8-14, Beribi, Bandar Seri Begawan, Mukim Gadong B, Brunei-Muara District, BE1118, Brunei",
        "road": "Simpang 46-39-8-14",
        "house_number": "2",
        "neighbourhood": null,
        "suburb": null,
        "city_district": null,
        "city": "Bandar Seri Begawan",
        "state": null,
        "postcode": "BE1118",
        "country": "Brunei",
        "country_code": "bn"
      },
      "address": "2, Simpang 46-39-8-14, Beribi, Bandar Seri Begawan, Mukim Gadong B, Brunei-Muara District, BE1118, Brunei"
    },
    {
      "lat": 4.87378454871083,
      "lon": 114.95395821995515,
      "geoinfo": {
        "display_name": "Simpang 222, Sungai Lampai, Bandar Seri Begawan, Mukim Kota Batu, Brunei-Muara District, BD1117, Brunei",
        "road": "Simpang 222",
        "house_number": null,
        "neighbourhood": null,
        "suburb": "Sungai Lampai",
        "city_district": null,
        "city": "Bandar Seri Begawan",
        "state": null,
        "postcode": "BD1117",
        "country": "Brunei",
        "country_code": "bn"
      },
      "address": "Simpang 222, Sungai Lampai, Bandar Seri Begawan, Mukim Kota Batu, Brunei-Muara District, BD1117, Brunei"
    }
  ],
  "updated_at": "2025-10-19T02:48:55.744946+00:00",
  "_kind": "geo_samples"
}