{
  "country_code": "BN",
  "country": "Brunei",
  "city": "Kuala Belait",
  "geonameid": 1820491,
  "target_addresses": 13,
  "samples": [
    {
      "lat": 4.5605179907291316,
      "lon": 114.25231146584882,
      "geoinfo": {
        "display_name": "Kampong Sungai Melilit, Mukim Kuala Belait, Belait District, Brunei",
        "road": null,
        "house_number": null,
        "neighbourhood": null,
        "suburb": null,
        "city_district": null,
        "city": null,
        "state": null,
        "postcode": null,
        "country": "Brunei",
        "country_code": "bn"
      },
      "address": "Kuala Belait, Brunei"
    },
    {
      "lat": 4.60441134786835,
      "lon": 114.25686540700053,
      "geoinfo": {
        "display_name": "Simpang 628, E1 Housing, Panaga, Mukim Seria, Belait District, KB4533, Brunei",
        "road": "Simpang 628",
        "house_number": null,
        "neighbourhood": null,
        "suburb": null,
        "city_district": null,
        "city": "Panaga",
        "state": null,
        "postcode": "KB4533",
        "country": "Brunei",
        "country_code": "bn"
      },
      "address": "Simpang 628, Kuala Belait, Brunei"
    },
    {
      "lat": 4.563879696211372,
      "lon": 114.2662293048329,
      "geoinfo": {
        "display_name": "Jalan Mumong, Kampong Mumong, Mukim Kuala Belait, Belait District, KB4533, Brunei",
        "road": "Jalan Mumong",
        "house_number": null,
        "neighbourhood": null,
        "suburb": null,
        "city_district": null,
        "city": null,
        "state": null,
        "postcode": "KB4533",
        "country": "Brunei",
        "country_code": "bn"
      },
      "address": "Jalan Mumong, Kuala Belait, Brunei"
    },
    {
      "lat": 4.599117319270815,
      "lon": 114.23777576607597,
      "geoinfo": {
        "display_name": "Simpang 345, Kampong Pandan C, Kuala Belait, Mukim Kuala Belait, Belait District, KA1931, Brunei",
        "road": "Simpang 345",
        "house_number": null,
        "neighbourhood": "Kampong Pandan C",
        "suburb": null,
        "city_district": null,
        "city": "Kuala Belait",
        "state": null,
        "postcode": "KA1931",
        "country": "Brunei",
        "country_code": "bn"
      },
      "address": "Simpang 345, Kuala Belait, Brunei"
    },
    {
      "lat": 4.573051164666091,
      "lon": 114.21709619216563,
      "geoinfo": {
        "display_name": "Simpang 84-70-78, Kampong Mumong, Kuala Belait, Mukim Kuala Belait, Belait District, KA1931, Brunei",
        "road": "Simpang 84-70-78",
        "house_number": null,
        "neighbourhood": null,
        "suburb": null,
        "city_district": null,
        "city": "Kuala Belait",
        "state": null,
        "postcode": "KA1931",
        "country": "Brunei",
        "country_code": "bn"
      },
      "address": "Simpang 84-70-78, Kuala Belait, Brunei"
    },
    {
      "lat": 4.5902997208623,
      "lon": 114.22149242051451,
      "geoinfo": {
        "display_name": "Simpang 194, Kampong Pandan, Kuala Belait, Mukim Kuala Belait, Belait District, KA1931, Brunei",
        "road": "Simpang 194",
        "house_number": null,
        "neighbourhood": null,
        "suburb": null,
        "city_district": null,
        "city": "Kuala Belait",
        "state": null,
        "postcode": "KA1931",
        "country": "Brunei",
        "country_code": "bn"
      },
      "address": "Simpang 194, Kuala Belait, Brunei"
    },
    {
      "lat": 4.589180276981637,
      "lon": 114.20965418910423,
      "geoinfo": {
        "display_name": "Simpang 78, Kampong Pandan, Kuala Belait, Mukim Kuala Belait, Belait District, KA1931, Brunei",
        "road": "Simpang 78",
        "house_number": null,
        "neighbourhood": null,
        "suburb": null,
        "city_district": null,
        "city": "Kuala Belait",
        "state": null,
        "postcode": "KA1931",
        "country": "Brunei",
        "country_code": "bn"
      },
      "address": "Simpang 78, Kuala Belait, Brunei"
    },
    {
      "lat": 4.580751532388369,
      "lon": 114.21439437977018,
      "geoinfo": {
        "display_name": "Simpang 55, Kampong Pandan, Kuala Belait, Mukim Kuala Belait, Belait District, KA1931, Brunei",
        "road": "Simpang 55",
        "house_number": null,
        "neighbourhood": null,
        "suburb": null,
        "city_district": null,
        "city": "Kuala Belait",
        "state": null,
        "postcode": "KA1931",
        "country": "Brunei",
        "country_code": "bn"
      },
      "address": "Simpang 55, Kuala Belait, Brunei"
    },
    {
      "lat": 4.584917996940579,
      "lon": 114.22891005559548,
      "geoinfo": {
        "display_name": "Simpang 54, Kampong Pandan B, Kuala Belait, Mukim Kuala Belait, Belait District, KA1931, Brunei",
        "road": "Simpang 54",
        "house_number": null,
        "neighbourhood": "Kampong Pandan B",
        "suburb": null,
        "city_district": null,
        "city": "Kuala Belait",
        "state": null,
        "postcode": "KA1931",
        "country": "Brunei",
        "country_code": "bn"
      },
      "address": "Simpang 54, Kuala Belait, Brunei"
    },
    {
      "lat": 4.588187842672913,
      "lon": 114.20401588821697,
      "geoinfo": {
        "display_name": "Simpang 24-14, Kuala Belait, Mukim Kuala Belait, Belait District, KA1131, Brunei",
        "road": "Simpang 24-14",
        "house_number": null,
        "neighbourhood": null,
        "suburb": null,
        "city_district": null,
        "city": "Kuala Belait",
        "state": null,
        "postcode": "KA1131",
        "country": "Brunei",
        "country_code": "bn"
      },
      "address": "Simpang 24-14, Kuala Belait, Brunei"
    },
    {
      "lat": 4.5784182219834575,
      "lon": 114.1887613523064,
      "geoinfo": {
        "display_name": "Jalan Sungai, Kuala Belait, Mukim Kuala Belait, Belait District, KA2331, Brunei",
        "road": "Jalan Sungai",
        "house_number": null,
        "neighbourhood": null,
        "suburb": null,
        "city_district": null,
        "city": "Kuala Belait",
        "state": null,
        "postcode": "KA2331",
        "country": "Brunei",
        "country_code": "bn"
      },
      "address": "Jalan Sungai, Kuala Belait, Brunei"
    },
    {
      "lat": 4.581444249284459,
      "lon": 114.23862958580015,
      "geoinfo": {
        "display_name": "Simpang 314, Kampong Mumong B, Kuala Belait, Mukim Kuala Belait, Belait District, KA1931, Brunei",
        "road": "Simpang 314",
        "house_number": null,
        "neighbourhood": "Kampong Mumong B",
        "suburb": null,
        "city_district": null,
        "city": "Kuala Belait",
        "state": null,
        "postcode": "KA1931",
        "country": "Brunei",
        "country_code": "bn"
      },
      "address": "Simpang 314, Kuala Belait, Brunei"
    },
    {
      "lat": 4.575793470242218,
      "lon": 114.19512166392092,
      "geoinfo": {
        "display_name": "Jalan Panglima, Kuala Belait, Mukim Kuala Belait, Belait District, KA1131, Brunei",
        "road": "Jalan Panglima",
        "house_number": null,
        "neighbourhood": null,
        "suburb": null,
        "city_district": null,
        "city": "Kuala Belait",
        "state": null,
        "postcode": "KA1131",
        "country": "Brunei",
        "country_code": "bn"
      },
      "address": "Jalan Panglima, Kuala Belait, Brunei"
    }
  ],
  "updated_at": "2025-10-16T10:55:46.009354+00:00",
  "_kind": "geo_samples"
}