{
  "country_code": "BN",
  "country": "Brunei",
  "city": "Sengkurong",
  "geonameid": 1820575,
  "target_addresses": 13,
  "samples": [
    {
      "lat": 4.917679339025625,
      "lon": 114.8587047337205,
      "geoinfo": {
        "display_name": "Tungku-Jerudong Highway, Peninjau, Mukim Sengkurong, Brunei-Muara District, BG1721, Brunei",
        "road": "Tungku-Jerudong Highway",
        "house_number": null,
        "neighbourhood": null,
        "suburb": null,
        "city_district": null,
        "city": "Peninjau",
        "state": null,
        "postcode": "BG1721",
        "country": "Brunei",
        "country_code": "bn"
      },
      "address": "Tungku-Jerudong Highway, Sengkurong, Brunei"
    },
    {
      "lat": 4.903928267616059,
      "lon": 114.79501288951171,
      "geoinfo": {
        "display_name": "Jerudong, Mukim Sengkurong, Brunei-Muara District, BG3122, Brunei",
        "road": null,
        "house_number": null,
        "neighbourhood": null,
        "suburb": null,
        "city_district": null,
        "city": "Jerudong",
        "state": null,
        "postcode": "BG3122",
        "country": "Brunei",
        "country_code": "bn"
      },
      "address": "Sengkurong, Brunei"
    },
    {
      "lat": 4.878132118670435,
      "lon": 114.85020030670036,
      "geoinfo": {
        "display_name": "11, Simpang 10, Mulaut, Sengkurong, Mukim Sengkurong, Brunei-Muara District, BG2121, Brunei",
        "road": "Simpang 10",
        "house_number": "11",
        "neighbourhood": null,
        "suburb": "Mulaut",
        "city_district": null,
        "city": "Sengkurong",
        "state": null,
        "postcode": "BG2121",
        "country": "Brunei",
        "country_code": "bn"
      },
      "address": "11 Simpang 10, Sengkurong, Brunei"
    },
    {
      "lat": 4.867219970837655,
      "lon": 114.83253497370676,
      "geoinfo": {
        "display_name": "Simpang 1761-52, Tanjong Nangka, Mukim Sengkurong, Brunei-Muara District, BG2321, Brunei",
        "road": "Simpang 1761-52",
        "house_number": null,
        "neighbourhood": null,
        "suburb": null,
        "city_district": null,
        "city": "Tanjong Nangka",
        "state": null,
        "postcode": "BG2321",
        "country": "Brunei",
        "country_code": "bn"
      },
      "address": "Simpang 1761-52, Sengkurong, Brunei"
    },
    {
      "lat": 4.8784045815078505,
      "lon": 114.84662616636732,
      "geoinfo": {
        "display_name": "Simpang 133, Mulaut, Sengkurong, Mukim Sengkurong, Brunei-Muara District, BG2121, Brunei",
        "road": "Simpang 133",
        "house_number": null,
        "neighbourhood": null,
        "suburb": "Mulaut",
        "city_district": null,
        "city": "Sengkurong",
        "state": null,
        "postcode": "BG2121",
        "country": "Brunei",
        "country_code": "bn"
      },
      "address": "Simpang 133, Sengkurong, Brunei"
    },
    {
      "lat": 4.909292216872616,
      "lon": 114.84972653659563,
      "geoinfo": {
        "display_name": "Simpang 124-122-60, Selayun, Mukim Sengkurong, Brunei-Muara District, BG1721, Brunei",
        "road": "Simpang 124-122-60",
        "house_number": null,
        "neighbourhood": null,
        "suburb": null,
        "city_district": null,
        "city": "Selayun",
        "state": null,
        "postcode": "BG1721",
        "country": "Brunei",
        "country_code": "bn"
      },
      "address": "Simpang 124-122-60, Sengkurong, Brunei"
    },
    {
      "lat": 4.861505415803798,
      "lon": 114.8268377808186,
      "geoinfo": {
        "display_name": "Simpang 71-27, Kulapis, Mukim Sengkurong, Brunei-Muara District, BG2521, Brunei",
        "road": "Simpang 71-27",
        "house_number": null,
        "neighbourhood": null,
        "suburb": null,
        "city_district": null,
        "city": "Kulapis",
        "state": null,
        "postcode": "BG2521",
        "country": "Brunei",
        "country_code": "bn"
      },
      "address": "Simpang 71-27, Sengkurong, Brunei"
    },
    {
      "lat": 4.848626841700768,
      "lon": 114.84455756591342,
      "geoinfo": {
        "display_name": "Jalan Mulaut-Limau Manis, Masin, Mukim Pangkalan Batu, Brunei-Muara District, BH3223, Brunei",
        "road": "Jalan Mulaut-Limau Manis",
        "house_number": null,
        "neighbourhood": null,
        "suburb": null,
        "city_district": null,
        "city": "Masin",
        "state": null,
        "postcode": "BH3223",
        "country": "Brunei",
        "country_code": "bn"
      },
      "address": "Jalan Mulaut-Limau Manis, Sengkurong, Brunei"
    },
    {
      "lat": 4.9126172950089355,
      "lon": 114.85502039731409,
      "geoinfo": {
        "display_name": "Simpang 124-122-27, Selayun, Mukim Sengkurong, Brunei-Muara District, BG1721, Brunei",
        "road": "Simpang 124-122-27",
        "house_number": null,
        "neighbourhood": null,
        "suburb": null,
        "city_district": null,
        "city": "Selayun",
        "state": null,
        "postcode": "BG1721",
        "country": "Brunei",
        "country_code": "bn"
      },
      "address": "Simpang 124-122-27, Sengkurong, Brunei"
    },
    {
      "lat": 4.87469122152591,
      "lon": 114.83181530783298,
      "geoinfo": {
        "display_name": "12, Simpang 1761-115, Tanjong Nangka, Mukim Sengkurong, Brunei-Muara District, BG2321, Brunei",
        "road": "Simpang 1761-115",
        "house_number": "12",
        "neighbourhood": null,
        "suburb": null,
        "city_district": null,
        "city": "Tanjong Nangka",
        "state": null,
        "postcode": "BG2321",
        "country": "Brunei",
        "country_code": "bn"
      },
      "address": "12 Simpang 1761-115, Sengkurong, Brunei"
    },
    {
      "lat": 4.857266336844545,
      "lon": 114.86224886675406,
      "geoinfo": {
        "display_name": "13, Simpang 53, Kilanas, Mukim Kilanas, Brunei-Muara District, BF2520, Brunei",
        "road": "Simpang 53",
        "house_number": "13",
        "neighbourhood": null,
        "suburb": null,
        "city_district": null,
        "city": "Kilanas",
        "state": null,
        "postcode": "BF2520",
        "country": "Brunei",
        "country_code": "bn"
      },
      "address": "13 Simpang 53, Sengkurong, Brunei"
    },
    {
      "lat": 4.871998264297759,
      "lon": 114.80926605082809,
      "geoinfo": {
        "display_name": "Simpang 50, Katimahar, Mukim Sengkurong, Brunei-Muara District, BG2721, Brunei",
        "road": "Simpang 50",
        "house_number": null,
        "neighbourhood": null,
        "suburb": null,
        "city_district": null,
        "city": "Katimahar",
        "state": null,
        "postcode": "BG2721",
        "country": "Brunei",
        "country_code": "bn"
      },
      "address": "Simpang 50, Sengkurong, Brunei"
    },
    {
      "lat": 4.881194268145602,
      "lon": 114.84314366740874,
      "geoinfo": {
        "display_name": "13, Simpang 66-6, Mulaut, Sengkurong, Mukim Sengkurong, Brunei-Muara District, BG2121, Brunei",
        "road": "Simpang 66-6",
        "house_number": "13",
        "neighbourhood": null,
        "suburb": "Mulaut",
        "city_district": null,
        "city": "Sengkurong",
        "state": null,
        "postcode": "BG2121",
        "country": "Brunei",
        "country_code": "bn"
      },
      "address": "13 Simpang 66-6, Sengkurong, Brunei"
    },
    {
      "lat": 4.917273070452546,
      "lon": 114.81785329230259,
      "geoinfo": {
        "display_name": "Jerudong, Mukim Sengkurong, Brunei-Muara District, BG3122, Brunei",
        "road": null,
        "house_number": null,
        "neighbourhood": null,
        "suburb": null,
        "city_district": null,
        "city": "Jerudong",
        "state": null,
        "postcode": "BG3122",
        "country": "Brunei",
        "country_code": "bn"
      },
      "address": "301, Jerudong, Mukim Sengkurong, Brunei-Muara District, BG3122, Brunei"
    },
    {
      "lat": 4.89009081583389,
      "lon": 114.8433632562761,
      "geoinfo": {
        "display_name": "Simpang 95, Sengkurong A, Sengkurong, Mukim Sengkurong, Brunei-Muara District, BG1121, Brunei",
        "road": "Simpang 95",
        "house_number": null,
        "neighbourhood": null,
        "suburb": "Sengkurong A",
        "city_district": null,
        "city": "Sengkurong",
        "state": null,
        "postcode": "BG1121",
        "country": "Brunei",
        "country_code": "bn"
      },
      "address": "Simpang 95, Sengkurong A, Sengkurong, Mukim Sengkurong, Brunei-Muara District, BG1121, Brunei"
    },
    {
      "lat": 4.864799937328755,
      "lon": 114.81040802093293,
      "geoinfo": {
        "display_name": "Jalan Kecil Paya Teriti, Katimahar, Mukim Sengkurong, Brunei-Muara District, BG2721, Brunei",
        "road": "Jalan Kecil Paya Teriti",
        "house_number": null,
        "neighbourhood": null,
        "suburb": null,
        "city_district": null,
        "city": "Katimahar",
        "state": null,
        "postcode": "BG2721",
        "country": "Brunei",
        "country_code": "bn"
      },
      "address": "222, Jalan Kecil Paya Teriti, Katimahar, Mukim Sengkurong, Brunei-Muara District, BG2721, Brunei"
    },
    {
      "lat": 4.885265848712606,
      "lon": 114.8758650580758,
      "geoinfo": {
        "display_name": "69, Simpang 842-68, Jangsak, Mukim Kilanas, Brunei-Muara District, BF2720, Brunei",
        "road": "Simpang 842-68",
        "house_number": "69",
        "neighbourhood": null,
        "suburb": null,
        "city_district": null,
        "city": "Jangsak",
        "state": null,
        "postcode": "BF2720",
        "country": "Brunei",
        "country_code": "bn"
      },
      "address": "Simpang 842-68, Sengkurong, Brunei"
    },
    {
      "lat": 4.921734268940326,
      "lon": 114.81270658292289,
      "geoinfo": {
        "display_name": "Muara–Tutong Highway, Jerudong, Mukim Sengkurong, Brunei-Muara District, BG3122, Brunei",
        "road": "Muara–Tutong Highway",
        "house_number": null,
        "neighbourhood": null,
        "suburb": null,
        "city_district": null,
        "city": "Jerudong",
        "state": null,
        "postcode": "BG3122",
        "country": "Brunei",
        "country_code": "bn"
      },
      "address": "247, Muara–Tutong Highway, Jerudong, Mukim Sengkurong, Brunei-Muara District, BG3122, Brunei"
    },
    {
      "lat": 4.907448777278777,
      "lon": 114.83223477853274,
      "geoinfo": {
        "display_name": "3, Simpang 265-33-27, Jerudong, Mukim Sengkurong, Brunei-Muara District, BG1321, Brunei",
        "road": "Simpang 265-33-27",
        "house_number": "3",
        "neighbourhood": null,
        "suburb": null,
        "city_district": null,
        "city": "Jerudong",
        "state": null,
        "postcode": "BG1321",
        "country": "Brunei",
        "country_code": "bn"
      },
      "address": "3, Simpang 265-33-27, Jerudong, Mukim Sengkurong, Brunei-Muara District, BG1321, Brunei"
    },
    {
      "lat": 4.913984129346156,
      "lon": 114.81304001733939,
      "geoinfo": {
        "display_name": "Jerudong, Mukim Sengkurong, Brunei-Muara District, BG3122, Brunei",
        "road": null,
        "house_number": null,
        "neighbourhood": null,
        "suburb": null,
        "city_district": null,
        "city": "Jerudong",
        "state": null,
        "postcode": "BG3122",
        "country": "Brunei",
        "country_code": "bn"
      },
      "address": "835, Jerudong, Mukim Sengkurong, Brunei-Muara District, BG3122, Brunei"
    },
    {
      "lat": 4.893652056842323,
      "lon": 114.82483972565339,
      "geoinfo": {
        "display_name": "Tanjong Nangka, Mukim Sengkurong, Brunei-Muara District, BG2321, Brunei",
        "road": null,
        "house_number": null,
        "neighbourhood": null,
        "suburb": null,
        "city_district": null,
        "city": "Tanjong Nangka",
        "state": null,
        "postcode": "BG2321",
        "country": "Brunei",
        "country_code": "bn"
      },
      "address": "947, Tanjong Nangka, Mukim Sengkurong, Brunei-Muara District, BG2321, Brunei"
    },
    {
      "lat": 4.906076362232148,
      "lon": 114.82949045694559,
      "geoinfo": {
        "display_name": "Jerudong, Mukim Sengkurong, Brunei-Muara District, BG1321, Brunei",
        "road": null,
        "house_number": null,
        "neighbourhood": null,
        "suburb": null,
        "city_district": null,
        "city": "Jerudong",
        "state": null,
        "postcode": "BG1321",
        "country": "Brunei",
        "country_code": "bn"
      },
      "address": "859, Jerudong, Mukim Sengkurong, Brunei-Muara District, BG1321, Brunei"
    },
    {
      "lat": 4.888946544036533,
      "lon": 114.85860595876352,
      "geoinfo": {
        "display_name": "Simpang 1280-8, Tanjong Bunut, Mukim Kilanas, Brunei-Muara District, BF2920, Brunei",
        "road": "Simpang 1280-8",
        "house_number": null,
        "neighbourhood": null,
        "suburb": null,
        "city_district": null,
        "city": "Tanjong Bunut",
        "state": null,
        "postcode": "BF2920",
        "country": "Brunei",
        "country_code": "bn"
      },
      "address": "Simpang 1280-8, Sengkurong, Brunei"
    },
    {
      "lat": 4.901436362156039,
      "lon": 114.85006368277371,
      "geoinfo": {
        "display_name": "81, Jalan Sengkurong B, Selayun, Mukim Sengkurong, Brunei-Muara District, BG1721, Brunei",
        "road": "Jalan Sengkurong B",
        "house_number": "81",
        "neighbourhood": null,
        "suburb": null,
        "city_district": null,
        "city": "Selayun",
        "state": null,
        "postcode": "BG1721",
        "country": "Brunei",
        "country_code": "bn"
      },
      "address": "81, Jalan Sengkurong B, Selayun, Mukim Sengkurong, Brunei-Muara District, BG1721, Brunei"
    },
    {
      "lat": 4.907774693803241,
      "lon": 114.83340210230128,
      "geoinfo": {
        "display_name": "15, Simpang 253, Jerudong, Mukim Sengkurong, Brunei-Muara District, BG1321, Brunei",
        "road": "Simpang 253",
        "house_number": "15",
        "neighbourhood": null,
        "suburb": null,
        "city_district": null,
        "city": "Jerudong",
        "state": null,
        "postcode": "BG1321",
        "country": "Brunei",
        "country_code": "bn"
      },
      "address": "15, Simpang 253, Jerudong, Mukim Sengkurong, Brunei-Muara District, BG1321, Brunei"
    },
    {
      "lat": 4.844494333760756,
      "lon": 114.85498413896033,
      "geoinfo": {
        "display_name": "Simpang 525, Bengkurong, Masin, Mukim Pangkalan Batu, Brunei-Muara District, BH2723, Brunei",
        "road": "Simpang 525",
        "house_number": null,
        "neighbourhood": null,
        "suburb": "Bengkurong",
        "city_district": null,
        "city": "Masin",
        "state": null,
        "postcode": "BH2723",
        "country": "Brunei",
        "country_code": "bn"
      },
      "address": "Simpang 525, BH2723 Sengkurong, Brunei"
    }
  ],
  "updated_at": "2025-10-19T02:42:12.163319+00:00",
  "_kind": "geo_samples"
}