{
  "country_code": "BN",
  "country": "Brunei",
  "city": "Seria",
  "geonameid": 1820187,
  "target_addresses": 13,
  "samples": [
    {
      "lat": 4.620459224439764,
      "lon": 114.3590352177314,
      "geoinfo": {
        "display_name": "Simpang 71-22-9-17-25, Kampong Sungai Bera, Mukim Seria, Belait District, KB1133, Brunei",
        "road": "Simpang 71-22-9-17-25",
        "house_number": null,
        "neighbourhood": null,
        "suburb": null,
        "city_district": null,
        "city": "Kampong Sungai Bera",
        "state": null,
        "postcode": "KB1133",
        "country": "Brunei",
        "country_code": "bn"
      },
      "address": "Simpang 71-22-9-17-25, Seria, Brunei"
    },
    {
      "lat": 4.612707259529393,
      "lon": 114.29333275590876,
      "geoinfo": {
        "display_name": "Jalan Utara, Panaga, Mukim Seria, Belait District, KB4533, Brunei",
        "road": "Jalan Utara",
        "house_number": null,
        "neighbourhood": null,
        "suburb": null,
        "city_district": null,
        "city": "Panaga",
        "state": null,
        "postcode": "KB4533",
        "country": "Brunei",
        "country_code": "bn"
      },
      "address": "Jalan Utara, Seria, Brunei"
    },
    {
      "lat": 4.610845957925338,
      "lon": 114.32924573624436,
      "geoinfo": {
        "display_name": "Jalan Sultan Hashim, Pekan Seria Kawasan 1, Seria, Mukim Seria, Belait District, KB1133, Brunei",
        "road": "Jalan Sultan Hashim",
        "house_number": null,
        "neighbourhood": null,
        "suburb": "Pekan Seria Kawasan 1",
        "city_district": null,
        "city": "Seria",
        "state": null,
        "postcode": "KB1133",
        "country": "Brunei",
        "country_code": "bn"
      },
      "address": "Jalan Sultan Hashim, Seria, Brunei"
    },
    {
      "lat": 4.643183274873401,
      "lon": 114.32530798909501,
      "geoinfo": {
        "display_name": "Belait District, Brunei",
        "road": null,
        "house_number": null,
        "neighbourhood": null,
        "suburb": null,
        "city_district": null,
        "city": null,
        "state": null,
        "postcode": null,
        "country": "Brunei",
        "country_code": "bn"
      },
      "address": "Seria, Brunei"
    },
    {
      "lat": 4.598156355057303,
      "lon": 114.28360662890721,
      "geoinfo": {
        "display_name": "Simpang 751, Panaga, Mukim Seria, Belait District, KB4533, Brunei",
        "road": "Simpang 751",
        "house_number": null,
        "neighbourhood": null,
        "suburb": null,
        "city_district": null,
        "city": "Panaga",
        "state": null,
        "postcode": "KB4533",
        "country": "Brunei",
        "country_code": "bn"
      },
      "address": "Simpang 751, Seria, Brunei"
    },
    {
      "lat": 4.604315903605959,
      "lon": 114.31502341532413,
      "geoinfo": {
        "display_name": "Hornbill School, Simpang 121, Panaga, Mukim Seria, Belait District, KB2733, Brunei",
        "road": "Simpang 121",
        "house_number": null,
        "neighbourhood": null,
        "suburb": null,
        "city_district": null,
        "city": "Panaga",
        "state": null,
        "postcode": "KB2733",
        "country": "Brunei",
        "country_code": "bn"
      },
      "address": "Simpang 121, Seria, Brunei"
    },
    {
      "lat": 4.596692168801291,
      "lon": 114.34676855811419,
      "geoinfo": {
        "display_name": "Seria–Belait Highway, Perumahan Negara Lorong Tengah, Mukim Seria, Belait District, KB1133, Brunei",
        "road": "Seria–Belait Highway",
        "house_number": null,
        "neighbourhood": "Perumahan Negara Lorong Tengah",
        "suburb": null,
        "city_district": null,
        "city": null,
        "state": null,
        "postcode": "KB1133",
        "country": "Brunei",
        "country_code": "bn"
      },
      "address": "Seria–Belait Highway, Seria, Brunei"
    },
    {
      "lat": 4.62655078453769,
      "lon": 114.3383964972335,
      "geoinfo": {
        "display_name": "Jalan Tengah, G18 Housing, Pekan Seria Kawasan 2, Seria, Mukim Seria, Belait District, KB2733, Brunei",
        "road": "Jalan Tengah",
        "house_number": null,
        "neighbourhood": null,
        "suburb": "Pekan Seria Kawasan 2",
        "city_district": null,
        "city": "Seria",
        "state": null,
        "postcode": "KB2733",
        "country": "Brunei",
        "country_code": "bn"
      },
      "address": "Jalan Tengah, Seria, Brunei"
    },
    {
      "lat": 4.597326049902522,
      "lon": 114.33339052618227,
      "geoinfo": {
        "display_name": "Jalan Lorong 3 Barat, Perumahan Negara Lorong Tengah, Pekan Seria Kawasan 1, Seria, Mukim Seria, Belait District, KB1133, Brunei",
        "road": "Jalan Lorong 3 Barat",
        "house_number": null,
        "neighbourhood": "Perumahan Negara Lorong Tengah",
        "suburb": "Pekan Seria Kawasan 1",
        "city_district": null,
        "city": "Seria",
        "state": null,
        "postcode": "KB1133",
        "country": "Brunei",
        "country_code": "bn"
      },
      "address": "Jalan Lorong 3 Barat, Seria, Brunei"
    },
    {
      "lat": 4.601641601565499,
      "lon": 114.28137784249012,
      "geoinfo": {
        "display_name": "15, Simpang 343, F7 Housing, Panaga, Mukim Seria, Belait District, KB4533, Brunei",
        "road": "Simpang 343",
        "house_number": "15",
        "neighbourhood": null,
        "suburb": null,
        "city_district": null,
        "city": "Panaga",
        "state": null,
        "postcode": "KB4533",
        "country": "Brunei",
        "country_code": "bn"
      },
      "address": "15 Simpang 343, Seria, Brunei"
    },
    {
      "lat": 4.595450402748164,
      "lon": 114.29099677468272,
      "geoinfo": {
        "display_name": "Simpang 90, G9 Housing, Panaga, Mukim Seria, Belait District, KB4533, Brunei",
        "road": "Simpang 90",
        "house_number": null,
        "neighbourhood": null,
        "suburb": null,
        "city_district": null,
        "city": "Panaga",
        "state": null,
        "postcode": "KB4533",
        "country": "Brunei",
        "country_code": "bn"
      },
      "address": "Simpang 90, Seria, Brunei"
    },
    {
      "lat": 4.615234407298084,
      "lon": 114.35793126137102,
      "geoinfo": {
        "display_name": "Simpang 71-21-10, Kampong Sungai Bera, Mukim Seria, Belait District, KB1133, Brunei",
        "road": "Simpang 71-21-10",
        "house_number": null,
        "neighbourhood": null,
        "suburb": null,
        "city_district": null,
        "city": "Kampong Sungai Bera",
        "state": null,
        "postcode": "KB1133",
        "country": "Brunei",
        "country_code": "bn"
      },
      "address": "Simpang 71-21-10, Seria, Brunei"
    },
    {
      "lat": 4.606105284691971,
      "lon": 114.28280365684401,
      "geoinfo": {
        "display_name": "17, Simpang 316, E8 Housing, Panaga, Mukim Seria, Belait District, KB4533, Brunei",
        "road": "Simpang 316",
        "house_number": "17",
        "neighbourhood": null,
        "suburb": null,
        "city_district": null,
        "city": "Panaga",
        "state": null,
        "postcode": "KB4533",
        "country": "Brunei",
        "country_code": "bn"
      },
      "address": "17 Simpang 316, Seria, Brunei"
    },
    {
      "lat": 4.5750183750966675,
      "lon": 114.34538780165045,
      "geoinfo": {
        "display_name": "Badas, Mukim Seria, Belait District, Brunei",
        "road": null,
        "house_number": null,
        "neighbourhood": null,
        "suburb": null,
        "city_district": null,
        "city": null,
        "state": null,
        "postcode": null,
        "country": "Brunei",
        "country_code": "bn"
      },
      "address": "919, Badas, Mukim Seria, 72441 Belait District, Brunei"
    },
    {
      "lat": 4.5838235351740115,
      "lon": 114.31910866310484,
      "geoinfo": {
        "display_name": "Badas, Mukim Seria, Belait District, Brunei",
        "road": null,
        "house_number": null,
        "neighbourhood": null,
        "suburb": null,
        "city_district": null,
        "city": null,
        "state": null,
        "postcode": null,
        "country": "Brunei",
        "country_code": "bn"
      },
      "address": "363, Badas, Mukim Seria, 54249 Belait District, Brunei"
    },
    {
      "lat": 4.569622203673785,
      "lon": 114.34037028169884,
      "geoinfo": {
        "display_name": "Badas, Mukim Seria, Belait District, Brunei",
        "road": null,
        "house_number": null,
        "neighbourhood": null,
        "suburb": null,
        "city_district": null,
        "city": null,
        "state": null,
        "postcode": null,
        "country": "Brunei",
        "country_code": "bn"
      },
      "address": "968, Badas, Mukim Seria, 93924 Belait District, Brunei"
    },
    {
      "lat": 4.577117489203034,
      "lon": 114.34345545129032,
      "geoinfo": {
        "display_name": "Badas, Mukim Seria, Belait District, Brunei",
        "road": null,
        "house_number": null,
        "neighbourhood": null,
        "suburb": null,
        "city_district": null,
        "city": null,
        "state": null,
        "postcode": null,
        "country": "Brunei",
        "country_code": "bn"
      },
      "address": "253, Badas, Mukim Seria, 17704 Belait District, Brunei"
    },
    {
      "lat": 4.590488424766953,
      "lon": 114.36571769166656,
      "geoinfo": {
        "display_name": "Badas, Mukim Seria, Belait District, Brunei",
        "road": null,
        "house_number": null,
        "neighbourhood": null,
        "suburb": null,
        "city_district": null,
        "city": null,
        "state": null,
        "postcode": null,
        "country": "Brunei",
        "country_code": "bn"
      },
      "address": "466, Badas, Mukim Seria, 19025 Belait District, Brunei"
    }
  ],
  "updated_at": "2025-10-19T02:50:06.675063+00:00",
  "_kind": "geo_samples"
}