{
  "country_code": "BN",
  "country": "Brunei",
  "city": "Tutong",
  "geonameid": 1820071,
  "target_addresses": 13,
  "samples": [
    {
      "lat": 4.774719502236226,
      "lon": 114.63011931492314,
      "geoinfo": {
        "display_name": "Kampong Kandang, Mukim Pekan Tutong, Tutong District, TA3741, Brunei",
        "road": null,
        "house_number": null,
        "neighbourhood": null,
        "suburb": null,
        "city_district": null,
        "city": null,
        "state": null,
        "postcode": "TA3741",
        "country": "Brunei",
        "country_code": "bn"
      },
      "address": "Tutong, Brunei"
    },
    {
      "lat": 4.811094552791379,
      "lon": 114.64053583958915,
      "geoinfo": {
        "display_name": "Jalan Pengasing Pantai Seri Kenangan, Sengkarai Village, Mukim Pekan Tutong, Tutong District, TA2341, Brunei",
        "road": "Jalan Pengasing Pantai Seri Kenangan",
        "house_number": null,
        "neighbourhood": null,
        "suburb": null,
        "city_district": null,
        "city": "Sengkarai Village",
        "state": null,
        "postcode": "TA2341",
        "country": "Brunei",
        "country_code": "bn"
      },
      "address": "Jalan Pengasing Pantai Seri Kenangan, Tutong, Brunei"
    },
    {
      "lat": 4.826871309903226,
      "lon": 114.686717686856,
      "geoinfo": {
        "display_name": "Muara–Tutong Highway, Kampong Tanah Burok, Penanjong Village, Mukim Pekan Tutong, Tutong District, TB1141, Brunei",
        "road": "Muara–Tutong Highway",
        "house_number": null,
        "neighbourhood": "Kampong Tanah Burok",
        "suburb": null,
        "city_district": null,
        "city": "Penanjong Village",
        "state": null,
        "postcode": "TB1141",
        "country": "Brunei",
        "country_code": "bn"
      },
      "address": "Muara–Tutong Highway, Tutong, Brunei"
    },
    {
      "lat": 4.7619066102188885,
      "lon": 114.64194056649343,
      "geoinfo": {
        "display_name": "Tutong–Telisai Highway, Kampong Tanjong Maya, Mukim Tanjong Maya, Tutong District, TA2341, Brunei",
        "road": "Tutong–Telisai Highway",
        "house_number": null,
        "neighbourhood": null,
        "suburb": null,
        "city_district": null,
        "city": "Kampong Tanjong Maya",
        "state": null,
        "postcode": "TA2341",
        "country": "Brunei",
        "country_code": "bn"
      },
      "address": "Tutong–Telisai Highway, Tutong, Brunei"
    },
    {
      "lat": 4.811116705723232,
      "lon": 114.66317181836735,
      "geoinfo": {
        "display_name": "Sufri Bolkiah Secondary School, Simpang 123, Bukit Bendera, Tutong, Mukim Pekan Tutong, Tutong District, TA1341, Brunei",
        "road": "Simpang 123",
        "house_number": null,
        "neighbourhood": "Bukit Bendera",
        "suburb": null,
        "city_district": null,
        "city": "Tutong",
        "state": null,
        "postcode": "TA1341",
        "country": "Brunei",
        "country_code": "bn"
      },
      "address": "Simpang 123, Tutong, Brunei"
    },
    {
      "lat": 4.798799377877959,
      "lon": 114.63255148201574,
      "geoinfo": {
        "display_name": "Simpang 283, Kampong Penabai, Mukim Pekan Tutong, Tutong District, TA3341, Brunei",
        "road": "Simpang 283",
        "house_number": null,
        "neighbourhood": null,
        "suburb": null,
        "city_district": null,
        "city": "Kampong Penabai",
        "state": null,
        "postcode": "TA3341",
        "country": "Brunei",
        "country_code": "bn"
      },
      "address": "Simpang 283, Tutong, Brunei"
    },
    {
      "lat": 4.799247071329002,
      "lon": 114.64876674519329,
      "geoinfo": {
        "display_name": "Jalan Simpang Tiga Sengkarai, Sengkarai Village, Mukim Pekan Tutong, Tutong District, TA2341, Brunei",
        "road": "Jalan Simpang Tiga Sengkarai",
        "house_number": null,
        "neighbourhood": null,
        "suburb": null,
        "city_district": null,
        "city": "Sengkarai Village",
        "state": null,
        "postcode": "TA2341",
        "country": "Brunei",
        "country_code": "bn"
      },
      "address": "Jalan Simpang Tiga Sengkarai, Tutong, Brunei"
    },
    {
      "lat": 4.784080405533199,
      "lon": 114.65302122432544,
      "geoinfo": {
        "display_name": "Land Transport Department, Simpang 333, Mukim Tanjong Maya, Tutong District, TA2341, Brunei",
        "road": "Simpang 333",
        "house_number": null,
        "neighbourhood": null,
        "suburb": null,
        "city_district": null,
        "city": null,
        "state": null,
        "postcode": "TA2341",
        "country": "Brunei",
        "country_code": "bn"
      },
      "address": "Simpang 333, Tutong, Brunei"
    },
    {
      "lat": 4.816099854570634,
      "lon": 114.68914147375823,
      "geoinfo": {
        "display_name": "Simpang 384, Kampong Keriam, Mukim Keriam, Tutong District, TB1141, Brunei",
        "road": "Simpang 384",
        "house_number": null,
        "neighbourhood": null,
        "suburb": null,
        "city_district": null,
        "city": "Kampong Keriam",
        "state": null,
        "postcode": "TB1141",
        "country": "Brunei",
        "country_code": "bn"
      },
      "address": "Simpang 384, Tutong, Brunei"
    },
    {
      "lat": 4.812851101338415,
      "lon": 114.67520908667062,
      "geoinfo": {
        "display_name": "218, Jalan Tutong, Kampong Tanah Burok, Kampong Panchor Papan, Mukim Pekan Tutong, Tutong District, TB1141, Brunei",
        "road": "Jalan Tutong",
        "house_number": "218",
        "neighbourhood": "Kampong Tanah Burok",
        "suburb": null,
        "city_district": null,
        "city": "Kampong Panchor Papan",
        "state": null,
        "postcode": "TB1141",
        "country": "Brunei",
        "country_code": "bn"
      },
      "address": "218 Jalan Tutong, Tutong, Brunei"
    },
    {
      "lat": 4.811402298345881,
      "lon": 114.6897311889137,
      "geoinfo": {
        "display_name": "Keriam Primary School, 462, Jalan Tutong, Kampong Keriam, Mukim Keriam, Tutong District, TB1141, Brunei",
        "road": "Jalan Tutong",
        "house_number": "462",
        "neighbourhood": null,
        "suburb": null,
        "city_district": null,
        "city": "Kampong Keriam",
        "state": null,
        "postcode": "TB1141",
        "country": "Brunei",
        "country_code": "bn"
      },
      "address": "462 Jalan Tutong, Tutong, Brunei"
    },
    {
      "lat": 4.83394978970066,
      "lon": 114.66375199896565,
      "geoinfo": {
        "display_name": "Tutong Kem, Mukim Pekan Tutong, Tutong District, TA1341, Brunei",
        "road": null,
        "house_number": null,
        "neighbourhood": null,
        "suburb": "Tutong Kem",
        "city_district": null,
        "city": null,
        "state": null,
        "postcode": "TA1341",
        "country": "Brunei",
        "country_code": "bn"
      },
      "address": "Tutong Kem, Tutong, Brunei"
    },
    {
      "lat": 4.789937310216431,
      "lon": 114.61612408279186,
      "geoinfo": {
        "display_name": "Jalan Kuala Tutong, Kampong Penabai, Mukim Pekan Tutong, Tutong District, TA3341, Brunei",
        "road": "Jalan Kuala Tutong",
        "house_number": null,
        "neighbourhood": null,
        "suburb": null,
        "city_district": null,
        "city": "Kampong Penabai",
        "state": null,
        "postcode": "TA3341",
        "country": "Brunei",
        "country_code": "bn"
      },
      "address": "Jalan Kuala Tutong, Tutong, Brunei"
    }
  ],
  "updated_at": "2025-10-16T10:54:11.970460+00:00",
  "_kind": "geo_samples"
}