{
  "country_code": "KH",
  "country": "Cambodia",
  "city": "Battambang",
  "geonameid": 1831797,
  "target_addresses": 4,
  "samples": [
    {
      "lat": 13.131328442454123,
      "lon": 103.198266047256,
      "geoinfo": {
        "display_name": "Sangkat Sla Kaet, Battambang, 021402, Cambodia",
        "road": null,
        "house_number": null,
        "neighbourhood": null,
        "suburb": null,
        "city_district": null,
        "city": "Sangkat Sla Kaet",
        "state": "Battambang",
        "postcode": "021402",
        "country": "Cambodia",
        "country_code": "kh"
      },
      "address": "Battambang, Battambang, Cambodia"
    },
    {
      "lat": 13.097722253107618,
      "lon": 103.2085274500819,
      "geoinfo": {
        "display_name": "Street 614, Battambang, 021402, Cambodia",
        "road": "Street 614",
        "house_number": null,
        "neighbourhood": null,
        "suburb": null,
        "city_district": null,
        "city": "Battambang",
        "state": "Battambang",
        "postcode": "021402",
        "country": "Cambodia",
        "country_code": "kh"
      },
      "address": "Street 614, Battambang, Battambang, Cambodia"
    },
    {
      "lat": 13.12942995424398,
      "lon": 103.19762133074859,
      "geoinfo": {
        "display_name": "Street 530, Battambang, 021402, Cambodia",
        "road": "Street 530",
        "house_number": null,
        "neighbourhood": null,
        "suburb": null,
        "city_district": null,
        "city": "Battambang",
        "state": "Battambang",
        "postcode": "021402",
        "country": "Cambodia",
        "country_code": "kh"
      },
      "address": "Street 530, Battambang, Battambang, Cambodia"
    },
    {
      "lat": 13.101693826639764,
      "lon": 103.21887857872515,
      "geoinfo": {
        "display_name": "Wat Moha Kunakod, Street 609, Sangkat Ratanak, Battambang, 021402, Cambodia",
        "road": "Street 609",
        "house_number": null,
        "neighbourhood": null,
        "suburb": null,
        "city_district": null,
        "city": "Sangkat Ratanak",
        "state": "Battambang",
        "postcode": "021402",
        "country": "Cambodia",
        "country_code": "kh"
      },
      "address": "Street 609, Battambang, Battambang, Cambodia"
    },
    {
      "lat": 13.116220373494668,
      "lon": 103.2187972352249,
      "geoinfo": {
        "display_name": "Khum Norea, Sangkae, Battambang, 021402, Cambodia",
        "road": null,
        "house_number": null,
        "neighbourhood": null,
        "suburb": null,
        "city_district": null,
        "city": "Khum Norea",
        "state": "Battambang",
        "postcode": "021402",
        "country": "Cambodia",
        "country_code": "kh"
      },
      "address": "028, Khum Norea, Sangkae, Battambang, 021402, Cambodia"
    },
    {
      "lat": 13.134688985938068,
      "lon": 103.20596565366124,
      "geoinfo": {
        "display_name": "Battambang, 021402, Cambodia",
        "road": null,
        "house_number": null,
        "neighbourhood": null,
        "suburb": null,
        "city_district": null,
        "city": "Battambang",
        "state": "Battambang",
        "postcode": "021402",
        "country": "Cambodia",
        "country_code": "kh"
      },
      "address": "564, Battambang, 021402 Battambang, Cambodia"
    },
    {
      "lat": 13.088622840547155,
      "lon": 103.16236807800077,
      "geoinfo": {
        "display_name": "Battambang, 021402, Cambodia",
        "road": null,
        "house_number": null,
        "neighbourhood": null,
        "suburb": null,
        "city_district": null,
        "city": "Battambang",
        "state": "Battambang",
        "postcode": "021402",
        "country": "Cambodia",
        "country_code": "kh"
      },
      "address": "356, Battambang, 021402 Battambang, Cambodia"
    },
    {
      "lat": 13.081580552963388,
      "lon": 103.19512374041499,
      "geoinfo": {
        "display_name": "Battambang, 021402, Cambodia",
        "road": null,
        "house_number": null,
        "neighbourhood": null,
        "suburb": null,
        "city_district": null,
        "city": "Battambang",
        "state": "Battambang",
        "postcode": "021402",
        "country": "Cambodia",
        "country_code": "kh"
      },
      "address": "128, Battambang, 021402 Battambang, Cambodia"
    }
  ],
  "updated_at": "2025-10-19T07:33:22.977468+00:00",
  "_kind": "geo_samples"
}