{
  "country_code": "KH",
  "country": "Cambodia",
  "city": "Kampong Speu",
  "geonameid": 1831133,
  "target_addresses": 4,
  "samples": [
    {
      "lat": 11.43896638337149,
      "lon": 104.5447995449356,
      "geoinfo": {
        "display_name": "Chbar Mon City, Samraong Tong, Kampong Speu, 050115, Cambodia",
        "road": null,
        "house_number": null,
        "neighbourhood": null,
        "suburb": null,
        "city_district": null,
        "city": "Chbar Mon City",
        "state": "Kampong Speu",
        "postcode": "050115",
        "country": "Cambodia",
        "country_code": "kh"
      },
      "address": "Kampong Speu, Kampong Speu, Cambodia"
    },
    {
      "lat": 11.45353618732628,
      "lon": 104.55475294932151,
      "geoinfo": {
        "display_name": "Phnom Penh - Sihanoukville Expressway, Chbar Mon City, Kampong Speu, 050115, Cambodia",
        "road": "Phnom Penh - Sihanoukville Expressway",
        "house_number": null,
        "neighbourhood": null,
        "suburb": null,
        "city_district": null,
        "city": "Chbar Mon City",
        "state": "Kampong Speu",
        "postcode": "050115",
        "country": "Cambodia",
        "country_code": "kh"
      },
      "address": "Phnom Penh - Sihanoukville Expressway, Kampong Speu, Kampong Speu, Cambodia"
    },
    {
      "lat": 11.424860316049088,
      "lon": 104.49482821427064,
      "geoinfo": {
        "display_name": "Samraong Tong, Kampong Speu, Cambodia",
        "road": null,
        "house_number": null,
        "neighbourhood": null,
        "suburb": null,
        "city_district": null,
        "city": null,
        "state": "Kampong Speu",
        "postcode": null,
        "country": "Cambodia",
        "country_code": "kh"
      },
      "address": "267, Kampong Speu, 15864 Kampong Speu, Cambodia"
    },
    {
      "lat": 11.448797341275439,
      "lon": 104.4885502630745,
      "geoinfo": {
        "display_name": "Chbar Mon City, Kampong Speu, Cambodia",
        "road": null,
        "house_number": null,
        "neighbourhood": null,
        "suburb": null,
        "city_district": null,
        "city": "Chbar Mon City",
        "state": "Kampong Speu",
        "postcode": null,
        "country": "Cambodia",
        "country_code": "kh"
      },
      "address": "163, Chbar Mon City, 85627 Kampong Speu, Cambodia"
    },
    {
      "lat": 11.440455833834678,
      "lon": 104.51142082246311,
      "geoinfo": {
        "display_name": "Chbar Mon City, Samraong Tong, Kampong Speu, Cambodia",
        "road": null,
        "house_number": null,
        "neighbourhood": null,
        "suburb": null,
        "city_district": null,
        "city": "Chbar Mon City",
        "state": "Kampong Speu",
        "postcode": null,
        "country": "Cambodia",
        "country_code": "kh"
      },
      "address": "539, Kampong Speu, 50428 Kampong Speu, Cambodia"
    },
    {
      "lat": 11.477130355332338,
      "lon": 104.53284158855894,
      "geoinfo": {
        "display_name": "Chbar Mon City, Samraong Tong, Kampong Speu, 050115, Cambodia",
        "road": null,
        "house_number": null,
        "neighbourhood": null,
        "suburb": null,
        "city_district": null,
        "city": "Chbar Mon City",
        "state": "Kampong Speu",
        "postcode": "050115",
        "country": "Cambodia",
        "country_code": "kh"
      },
      "address": "709, Kampong Speu, 050115 Kampong Speu, Cambodia"
    }
  ],
  "updated_at": "2025-10-19T03:29:12.491448+00:00",
  "_kind": "geo_samples"
}