{
  "country_code": "KH",
  "country": "Cambodia",
  "city": "Kampong Cham",
  "geonameid": 1831173,
  "target_addresses": 4,
  "samples": [
    {
      "lat": 11.963479638386364,
      "lon": 105.4691980136774,
      "geoinfo": {
        "display_name": "Kaoh Paen Ka, Kampong Siem, Kampong Cham, Cambodia",
        "road": null,
        "house_number": null,
        "neighbourhood": null,
        "suburb": null,
        "city_district": null,
        "city": "Kaoh Paen Ka",
        "state": "Kampong Cham",
        "postcode": null,
        "country": "Cambodia",
        "country_code": "kh"
      },
      "address": "Kampong Cham, Kampong Cham, Cambodia"
    },
    {
      "lat": 11.96965984065517,
      "lon": 105.47049921341593,
      "geoinfo": {
        "display_name": "Preaek Chik, Tboung Khmum, Tbong Khmum, Cambodia",
        "road": null,
        "house_number": null,
        "neighbourhood": null,
        "suburb": null,
        "city_district": null,
        "city": "Tboung Khmum",
        "state": "Tbong Khmum",
        "postcode": null,
        "country": "Cambodia",
        "country_code": "kh"
      },
      "address": "Kampong Cham, Tbong Khmum, Cambodia"
    },
    {
      "lat": 12.000887158148636,
      "lon": 105.48206613173713,
      "geoinfo": {
        "display_name": "308, Chirou Kraom Ti Muoy, Tboung Khmum, Tbong Khmum, Cambodia",
        "road": "308",
        "house_number": null,
        "neighbourhood": null,
        "suburb": null,
        "city_district": null,
        "city": "Tboung Khmum",
        "state": "Tbong Khmum",
        "postcode": null,
        "country": "Cambodia",
        "country_code": "kh"
      },
      "address": "308, Kampong Cham, Tbong Khmum, Cambodia"
    },
    {
      "lat": 12.026435273964175,
      "lon": 105.43656992221054,
      "geoinfo": {
        "display_name": "Kampong Cham Airfield, National Highway 7, Kampong Siem, Kampong Cham, Cambodia",
        "road": "National Highway 7",
        "house_number": null,
        "neighbourhood": null,
        "suburb": null,
        "city_district": null,
        "city": "Kampong Siem",
        "state": "Kampong Cham",
        "postcode": null,
        "country": "Cambodia",
        "country_code": "kh"
      },
      "address": "National Highway 7, Kampong Cham, Kampong Cham, Cambodia"
    },
    {
      "lat": 12.003132884464058,
      "lon": 105.46563595447047,
      "geoinfo": {
        "display_name": "Kampong Cham, Cambodia",
        "road": null,
        "house_number": null,
        "neighbourhood": null,
        "suburb": null,
        "city_district": null,
        "city": "Kampong Cham",
        "state": "Kampong Cham",
        "postcode": null,
        "country": "Cambodia",
        "country_code": "kh"
      },
      "address": "073, Kampong Cham, 21656 Kampong Cham, Cambodia"
    },
    {
      "lat": 12.00293923807233,
      "lon": 105.42566764157436,
      "geoinfo": {
        "display_name": "Kampong Siem, Kampong Cham, Cambodia",
        "road": null,
        "house_number": null,
        "neighbourhood": null,
        "suburb": null,
        "city_district": null,
        "city": "Kampong Siem",
        "state": "Kampong Cham",
        "postcode": null,
        "country": "Cambodia",
        "country_code": "kh"
      },
      "address": "109, Kampong Siem, 07299 Kampong Cham, Cambodia"
    },
    {
      "lat": 12.008275636314801,
      "lon": 105.49364449574065,
      "geoinfo": {
        "display_name": "Chirou Kraom Ti Pir, Tboung Khmum, Tbong Khmum, Cambodia",
        "road": null,
        "house_number": null,
        "neighbourhood": null,
        "suburb": null,
        "city_district": null,
        "city": "Tboung Khmum",
        "state": "Tbong Khmum",
        "postcode": null,
        "country": "Cambodia",
        "country_code": "kh"
      },
      "address": "885, Chirou Kraom Ti Pir, Tboung Khmum, 20850 Tbong Khmum, Cambodia"
    },
    {
      "lat": 12.023876173616818,
      "lon": 105.45098076504713,
      "geoinfo": {
        "display_name": "Kampong Siem, Kampong Cham, Cambodia",
        "road": null,
        "house_number": null,
        "neighbourhood": null,
        "suburb": null,
        "city_district": null,
        "city": "Kampong Siem",
        "state": "Kampong Cham",
        "postcode": null,
        "country": "Cambodia",
        "country_code": "kh"
      },
      "address": "122, Kampong Siem, 94683 Kampong Cham, Cambodia"
    }
  ],
  "updated_at": "2025-10-19T03:29:29.278084+00:00",
  "_kind": "geo_samples"
}