{
  "country_code": "KH",
  "country": "Cambodia",
  "city": "Paoy Paet",
  "geonameid": 1830194,
  "target_addresses": 4,
  "samples": [
    {
      "lat": 13.615680662917159,
      "lon": 102.56901119204886,
      "geoinfo": {
        "display_name": "3646, บ้านโคกสะแบง, Fak Huai, Aranyaprathet District, Sa Kaeo Province, Thailand",
        "road": "3646",
        "house_number": null,
        "neighbourhood": null,
        "suburb": null,
        "city_district": null,
        "city": "บ้านโคกสะแบง",
        "state": null,
        "postcode": null,
        "country": "Thailand",
        "country_code": "th"
      },
      "address": "3646, Paoy Paet, Cambodia"
    },
    {
      "lat": 13.640793774832918,
      "lon": 102.57748003556989,
      "geoinfo": {
        "display_name": "Phum Kilo Lek Buon, Poipet, Paoy Paet, Bantey Meanchey, Cambodia",
        "road": null,
        "house_number": null,
        "neighbourhood": null,
        "suburb": null,
        "city_district": null,
        "city": "Poipet",
        "state": "Bantey Meanchey",
        "postcode": null,
        "country": "Cambodia",
        "country_code": "kh"
      },
      "address": "Paoy Paet, Bantey Meanchey, Cambodia"
    },
    {
      "lat": 13.671832834946345,
      "lon": 102.58194754438985,
      "geoinfo": {
        "display_name": "Poipet, Paoy Paet, Bantey Meanchey, Cambodia",
        "road": null,
        "house_number": null,
        "neighbourhood": null,
        "suburb": null,
        "city_district": null,
        "city": "Poipet",
        "state": "Bantey Meanchey",
        "postcode": null,
        "country": "Cambodia",
        "country_code": "kh"
      },
      "address": "974, Poipet, Paoy Paet, 07827 Bantey Meanchey, Cambodia"
    },
    {
      "lat": 13.681911830663584,
      "lon": 102.59964702997232,
      "geoinfo": {
        "display_name": "Poipet, Paoy Paet, Bantey Meanchey, Cambodia",
        "road": null,
        "house_number": null,
        "neighbourhood": null,
        "suburb": null,
        "city_district": null,
        "city": "Poipet",
        "state": "Bantey Meanchey",
        "postcode": null,
        "country": "Cambodia",
        "country_code": "kh"
      },
      "address": "751, Poipet, Paoy Paet, 40683 Bantey Meanchey, Cambodia"
    },
    {
      "lat": 13.65082415475273,
      "lon": 102.56204204478388,
      "geoinfo": {
        "display_name": "Sangkat Poipet, Poipet, Paoy Paet, Bantey Meanchey, Cambodia",
        "road": null,
        "house_number": null,
        "neighbourhood": null,
        "suburb": "Sangkat Poipet",
        "city_district": null,
        "city": "Poipet",
        "state": "Bantey Meanchey",
        "postcode": null,
        "country": "Cambodia",
        "country_code": "kh"
      },
      "address": "232, Sangkat Poipet, Poipet, Paoy Paet, 20826 Bantey Meanchey, Cambodia"
    },
    {
      "lat": 13.666568892929593,
      "lon": 102.60392133613006,
      "geoinfo": {
        "display_name": "Poipet, Paoy Paet, Bantey Meanchey, Cambodia",
        "road": null,
        "house_number": null,
        "neighbourhood": null,
        "suburb": null,
        "city_district": null,
        "city": "Poipet",
        "state": "Bantey Meanchey",
        "postcode": null,
        "country": "Cambodia",
        "country_code": "kh"
      },
      "address": "111, Poipet, Paoy Paet, 58246 Bantey Meanchey, Cambodia"
    }
  ],
  "updated_at": "2025-10-19T03:55:17.674476+00:00",
  "_kind": "geo_samples"
}