{
  "country_code": "KH",
  "country": "Cambodia",
  "city": "Phumĭ Âmpĭl Leu",
  "geonameid": 1830040,
  "target_addresses": 16,
  "samples": [
    {
      "lat": 12.044720589654414,
      "lon": 105.43592819148586,
      "geoinfo": {
        "display_name": "Kampong Siem, Kampong Cham, Cambodia",
        "road": null,
        "house_number": null,
        "neighbourhood": null,
        "suburb": null,
        "city_district": null,
        "city": "Kampong Siem",
        "state": "Kampong Cham",
        "postcode": null,
        "country": "Cambodia",
        "country_code": "kh"
      },
      "address": "Kampong Siem, 03104 Kampong Cham, Cambodia"
    },
    {
      "lat": 12.032048981870611,
      "lon": 105.40277301076686,
      "geoinfo": {
        "display_name": "Kampong Siem, Kampong Cham, Cambodia",
        "road": null,
        "house_number": null,
        "neighbourhood": null,
        "suburb": null,
        "city_district": null,
        "city": "Kampong Siem",
        "state": "Kampong Cham",
        "postcode": null,
        "country": "Cambodia",
        "country_code": "kh"
      },
      "address": "Kampong Siem, 03008 Kampong Cham, Cambodia"
    },
    {
      "lat": 11.990801849182558,
      "lon": 105.4296437028573,
      "geoinfo": {
        "display_name": "Kampong Siem, Kampong Cham, Cambodia",
        "road": null,
        "house_number": null,
        "neighbourhood": null,
        "suburb": null,
        "city_district": null,
        "city": null,
        "state": "Kampong Cham",
        "postcode": null,
        "country": "Cambodia",
        "country_code": "kh"
      },
      "address": "Kampong Siem, 74907 Kampong Cham, Cambodia"
    },
    {
      "lat": 12.022982571154584,
      "lon": 105.4203039064985,
      "geoinfo": {
        "display_name": "Kampong Siem, Kampong Cham, Cambodia",
        "road": null,
        "house_number": null,
        "neighbourhood": null,
        "suburb": null,
        "city_district": null,
        "city": "Kampong Siem",
        "state": "Kampong Cham",
        "postcode": null,
        "country": "Cambodia",
        "country_code": "kh"
      },
      "address": "211, Kampong Siem, 49335 Kampong Cham, Cambodia"
    },
    {
      "lat": 12.017473278114945,
      "lon": 105.45553920222049,
      "geoinfo": {
        "display_name": "Kampong Siem, Kampong Cham, Cambodia",
        "road": null,
        "house_number": null,
        "neighbourhood": null,
        "suburb": null,
        "city_district": null,
        "city": null,
        "state": "Kampong Cham",
        "postcode": null,
        "country": "Cambodia",
        "country_code": "kh"
      },
      "address": "563, Kampong Siem, 65591 Kampong Cham, Cambodia"
    },
    {
      "lat": 12.042498528807995,
      "lon": 105.4213185583301,
      "geoinfo": {
        "display_name": "Kauksralao, Kampong Siem, Kampong Cham, Cambodia",
        "road": null,
        "house_number": null,
        "neighbourhood": null,
        "suburb": null,
        "city_district": null,
        "city": "Kauksralao",
        "state": "Kampong Cham",
        "postcode": null,
        "country": "Cambodia",
        "country_code": "kh"
      },
      "address": "978, Kauksralao, Kampong Siem, 89283 Kampong Cham, Cambodia"
    },
    {
      "lat": 12.038345563286539,
      "lon": 105.45585037386049,
      "geoinfo": {
        "display_name": "Kampong Siem, Kampong Cham, Cambodia",
        "road": null,
        "house_number": null,
        "neighbourhood": null,
        "suburb": null,
        "city_district": null,
        "city": "Kampong Siem",
        "state": "Kampong Cham",
        "postcode": null,
        "country": "Cambodia",
        "country_code": "kh"
      },
      "address": "759, Kampong Siem, 13478 Kampong Cham, Cambodia"
    },
    {
      "lat": 11.997430294100313,
      "lon": 105.44060441949094,
      "geoinfo": {
        "display_name": "Kampong Siem, Kampong Cham, Cambodia",
        "road": null,
        "house_number": null,
        "neighbourhood": null,
        "suburb": null,
        "city_district": null,
        "city": "Kampong Siem",
        "state": "Kampong Cham",
        "postcode": null,
        "country": "Cambodia",
        "country_code": "kh"
      },
      "address": "235, Kampong Siem, 23502 Kampong Cham, Cambodia"
    },
    {
      "lat": 12.012797668048714,
      "lon": 105.43883446552302,
      "geoinfo": {
        "display_name": "Kampong Siem, Kampong Cham, Cambodia",
        "road": null,
        "house_number": null,
        "neighbourhood": null,
        "suburb": null,
        "city_district": null,
        "city": "Kampong Siem",
        "state": "Kampong Cham",
        "postcode": null,
        "country": "Cambodia",
        "country_code": "kh"
      },
      "address": "278, Kampong Siem, 80544 Kampong Cham, Cambodia"
    },
    {
      "lat": 12.016727164886467,
      "lon": 105.42271076570928,
      "geoinfo": {
        "display_name": "National Highway 7, Kampong Siem, Kampong Cham, Cambodia",
        "road": "National Highway 7",
        "house_number": null,
        "neighbourhood": null,
        "suburb": null,
        "city_district": null,
        "city": "Kampong Siem",
        "state": "Kampong Cham",
        "postcode": null,
        "country": "Cambodia",
        "country_code": "kh"
      },
      "address": "National Highway 7, Kampong Siem, 57208 Kampong Cham, Cambodia"
    },
    {
      "lat": 12.019228485430629,
      "lon": 105.42670735422261,
      "geoinfo": {
        "display_name": "Kampong Siem, Kampong Cham, Cambodia",
        "road": null,
        "house_number": null,
        "neighbourhood": null,
        "suburb": null,
        "city_district": null,
        "city": "Kampong Siem",
        "state": "Kampong Cham",
        "postcode": null,
        "country": "Cambodia",
        "country_code": "kh"
      },
      "address": "389, Kampong Siem, 79925 Kampong Cham, Cambodia"
    },
    {
      "lat": 12.024972448929597,
      "lon": 105.44189708168827,
      "geoinfo": {
        "display_name": "Kampong Siem, Kampong Cham, Cambodia",
        "road": null,
        "house_number": null,
        "neighbourhood": null,
        "suburb": null,
        "city_district": null,
        "city": "Kampong Siem",
        "state": "Kampong Cham",
        "postcode": null,
        "country": "Cambodia",
        "country_code": "kh"
      },
      "address": "366, Kampong Siem, 75077 Kampong Cham, Cambodia"
    },
    {
      "lat": 12.022386781230427,
      "lon": 105.47566705290626,
      "geoinfo": {
        "display_name": "Kampong Siem, Kampong Cham, Cambodia",
        "road": null,
        "house_number": null,
        "neighbourhood": null,
        "suburb": null,
        "city_district": null,
        "city": null,
        "state": "Kampong Cham",
        "postcode": null,
        "country": "Cambodia",
        "country_code": "kh"
      },
      "address": "307, Kampong Siem, 76810 Kampong Cham, Cambodia"
    },
    {
      "lat": 12.021994377641308,
      "lon": 105.43579607742448,
      "geoinfo": {
        "display_name": "Kampong Siem, Kampong Cham, Cambodia",
        "road": null,
        "house_number": null,
        "neighbourhood": null,
        "suburb": null,
        "city_district": null,
        "city": "Kampong Siem",
        "state": "Kampong Cham",
        "postcode": null,
        "country": "Cambodia",
        "country_code": "kh"
      },
      "address": "524, Kampong Siem, 18923 Kampong Cham, Cambodia"
    },
    {
      "lat": 12.008632554582471,
      "lon": 105.41160008006962,
      "geoinfo": {
        "display_name": "Kampong Siem, Kampong Cham, Cambodia",
        "road": null,
        "house_number": null,
        "neighbourhood": null,
        "suburb": null,
        "city_district": null,
        "city": "Kampong Siem",
        "state": "Kampong Cham",
        "postcode": null,
        "country": "Cambodia",
        "country_code": "kh"
      },
      "address": "739, Kampong Siem, 52529 Kampong Cham, Cambodia"
    },
    {
      "lat": 11.988871971475126,
      "lon": 105.41702071890836,
      "geoinfo": {
        "display_name": "Kampong Siem, Kampong Cham, Cambodia",
        "road": null,
        "house_number": null,
        "neighbourhood": null,
        "suburb": null,
        "city_district": null,
        "city": "Kampong Siem",
        "state": "Kampong Cham",
        "postcode": null,
        "country": "Cambodia",
        "country_code": "kh"
      },
      "address": "282, Kampong Siem, 83429 Kampong Cham, Cambodia"
    }
  ],
  "updated_at": "2025-10-19T05:11:44.558898+00:00",
  "_kind": "geo_samples"
}