{
  "country_code": "KH",
  "country": "Cambodia",
  "city": "Sisophon",
  "geonameid": 1822207,
  "target_addresses": 4,
  "samples": [
    {
      "lat": 13.55500559799226,
      "lon": 102.96313719687838,
      "geoinfo": {
        "display_name": "National Highway 5, Sisophon, Serei Saophoan, Bantey Meanchey, Cambodia",
        "road": "National Highway 5",
        "house_number": null,
        "neighbourhood": null,
        "suburb": null,
        "city_district": null,
        "city": "Sisophon",
        "state": "Bantey Meanchey",
        "postcode": null,
        "country": "Cambodia",
        "country_code": "kh"
      },
      "address": "National Highway 5, Sisophon, Bantey Meanchey, Cambodia"
    },
    {
      "lat": 13.566652789831663,
      "lon": 102.96199222528084,
      "geoinfo": {
        "display_name": "Sisophon, Serei Saophoan, Bantey Meanchey, Cambodia",
        "road": null,
        "house_number": null,
        "neighbourhood": null,
        "suburb": null,
        "city_district": null,
        "city": "Sisophon",
        "state": "Bantey Meanchey",
        "postcode": null,
        "country": "Cambodia",
        "country_code": "kh"
      },
      "address": "Sisophon, Bantey Meanchey, Cambodia"
    },
    {
      "lat": 13.549276252347946,
      "lon": 102.9761302876879,
      "geoinfo": {
        "display_name": "National Highway 5, Sisophon, Mongkol Borei, Bantey Meanchey, Cambodia",
        "road": "National Highway 5",
        "house_number": null,
        "neighbourhood": null,
        "suburb": null,
        "city_district": null,
        "city": "Sisophon",
        "state": "Bantey Meanchey",
        "postcode": null,
        "country": "Cambodia",
        "country_code": "kh"
      },
      "address": "National Highway 5, Sisophon, Mongkol Borei, 07268 Bantey Meanchey, Cambodia"
    },
    {
      "lat": 13.62932650968084,
      "lon": 102.9796302102592,
      "geoinfo": {
        "display_name": "Phum Pongro, Sangkat Kampong Svay, Serei Saophoan, Bantey Meanchey, Cambodia",
        "road": null,
        "house_number": null,
        "neighbourhood": null,
        "suburb": null,
        "city_district": null,
        "city": "Sangkat Kampong Svay",
        "state": "Bantey Meanchey",
        "postcode": null,
        "country": "Cambodia",
        "country_code": "kh"
      },
      "address": "521, Phum Pongro, Sangkat Kampong Svay, Serei Saophoan, 15291 Bantey Meanchey, Cambodia"
    },
    {
      "lat": 13.577573811204957,
      "lon": 102.93395339400666,
      "geoinfo": {
        "display_name": "Phum Banoy, Sisophon, Serei Saophoan, Bantey Meanchey, Cambodia",
        "road": null,
        "house_number": null,
        "neighbourhood": null,
        "suburb": null,
        "city_district": null,
        "city": "Sisophon",
        "state": "Bantey Meanchey",
        "postcode": null,
        "country": "Cambodia",
        "country_code": "kh"
      },
      "address": "882, Phum Banoy, Sisophon, Serei Saophoan, 67996 Bantey Meanchey, Cambodia"
    },
    {
      "lat": 13.597896847700712,
      "lon": 102.97519905176368,
      "geoinfo": {
        "display_name": "Sisophon, Serei Saophoan, Bantey Meanchey, Cambodia",
        "road": null,
        "house_number": null,
        "neighbourhood": null,
        "suburb": null,
        "city_district": null,
        "city": "Sisophon",
        "state": "Bantey Meanchey",
        "postcode": null,
        "country": "Cambodia",
        "country_code": "kh"
      },
      "address": "997, Sisophon, Serei Saophoan, 11791 Bantey Meanchey, Cambodia"
    }
  ],
  "updated_at": "2025-10-19T07:32:15.759005+00:00",
  "_kind": "geo_samples"
}