{
  "country_code": "KE",
  "country": "Kenya",
  "city": "Moyale",
  "geonameid": 186180,
  "target_addresses": 3,
  "samples": [
    {
      "lat": 3.548116295296763,
      "lon": 39.09443574900682,
      "geoinfo": {
        "display_name": "Borena, Oromia Region, Ethiopia",
        "road": null,
        "house_number": null,
        "neighbourhood": null,
        "suburb": null,
        "city_district": null,
        "city": null,
        "state": "Oromia Region",
        "postcode": null,
        "country": "Ethiopia",
        "country_code": "et"
      },
      "address": "Moyale, Oromia Region, Kenya"
    },
    {
      "lat": 3.5026849048068867,
      "lon": 39.08499665705254,
      "geoinfo": {
        "display_name": "Mansile, Burji Manyatta, Golobo ward, Moyale, Marsabit County, Kenya",
        "road": null,
        "house_number": null,
        "neighbourhood": null,
        "suburb": null,
        "city_district": null,
        "city": "Golobo ward",
        "state": "Marsabit County",
        "postcode": null,
        "country": "Kenya",
        "country_code": "ke"
      },
      "address": "115, Moyale, 67562 Marsabit County, Kenya"
    },
    {
      "lat": 3.5197895427806585,
      "lon": 39.09308160401181,
      "geoinfo": {
        "display_name": "Mansile, Burji Manyatta, Golobo ward, Moyale, Marsabit County, Kenya",
        "road": null,
        "house_number": null,
        "neighbourhood": null,
        "suburb": null,
        "city_district": null,
        "city": "Golobo ward",
        "state": "Marsabit County",
        "postcode": null,
        "country": "Kenya",
        "country_code": "ke"
      },
      "address": "288, Moyale, 87269 Marsabit County, Kenya"
    },
    {
      "lat": 3.517509278558001,
      "lon": 39.07439871639625,
      "geoinfo": {
        "display_name": "Burji Manyatta, Golobo ward, Moyale, Marsabit County, Kenya",
        "road": null,
        "house_number": null,
        "neighbourhood": null,
        "suburb": null,
        "city_district": null,
        "city": "Golobo ward",
        "state": "Marsabit County",
        "postcode": null,
        "country": "Kenya",
        "country_code": "ke"
      },
      "address": "686, Burji Manyatta, Golobo ward, Moyale, 33703 Marsabit County, Kenya"
    }
  ],
  "updated_at": "2025-10-19T05:06:58.840936+00:00",
  "_kind": "geo_samples"
}