{
  "country_code": "CH",
  "country": "Switzerland",
  "city": "Bulle",
  "geonameid": 2661337,
  "target_addresses": 2,
  "samples": [
    {
      "lat": 46.61606287706307,
      "lon": 7.040212791295385,
      "geoinfo": {
        "display_name": "Halle des fêtes de la Landi, 95, Route de la Pâla, Bulle, Gruyère District, Fribourg, 1630, Switzerland",
        "road": "Route de la Pâla",
        "house_number": "95",
        "neighbourhood": null,
        "suburb": null,
        "city_district": null,
        "city": "Bulle",
        "state": "Fribourg",
        "postcode": "1630",
        "country": "Switzerland",
        "country_code": "ch"
      },
      "address": "95 Route de la Pâla, Bulle, Fribourg, Switzerland"
    },
    {
      "lat": 46.608416396434464,
      "lon": 7.119357207758089,
      "geoinfo": {
        "display_name": "Gorges de la Jogne, 189, Broc, Gruyère District, Fribourg, 1653, Switzerland",
        "road": "189",
        "house_number": null,
        "neighbourhood": null,
        "suburb": null,
        "city_district": null,
        "city": "Broc",
        "state": "Fribourg",
        "postcode": "1653",
        "country": "Switzerland",
        "country_code": "ch"
      },
      "address": "189, Bulle, Fribourg, Switzerland"
    },
    {
      "lat": 46.64858382299693,
      "lon": 7.073714813895458,
      "geoinfo": {
        "display_name": "3, Route des Chesaux, Echarlens, Gruyère District, Fribourg, 1646, Switzerland",
        "road": "Route des Chesaux",
        "house_number": "3",
        "neighbourhood": null,
        "suburb": null,
        "city_district": null,
        "city": "Echarlens",
        "state": "Fribourg",
        "postcode": "1646",
        "country": "Switzerland",
        "country_code": "ch"
      },
      "address": "3, Route des Chesaux, Echarlens, Gruyère District, Fribourg, 1646, Switzerland"
    },
    {
      "lat": 46.6302982704438,
      "lon": 7.026496494734364,
      "geoinfo": {
        "display_name": "93, La Fisquetta, Vuadens, Gruyère District, Fribourg, 1628, Switzerland",
        "road": "La Fisquetta",
        "house_number": "93",
        "neighbourhood": null,
        "suburb": null,
        "city_district": null,
        "city": "Vuadens",
        "state": "Fribourg",
        "postcode": "1628",
        "country": "Switzerland",
        "country_code": "ch"
      },
      "address": "93, La Fisquetta, Vuadens, Gruyère District, Fribourg, 1628, Switzerland"
    }
  ],
  "updated_at": "2025-10-19T03:30:21.524991+00:00",
  "_kind": "geo_samples"
}