{
  "country_code": "CH",
  "country": "Switzerland",
  "city": "Cham",
  "geonameid": 2661228,
  "target_addresses": 2,
  "samples": [
    {
      "lat": 47.20572786738935,
      "lon": 8.420671740251347,
      "geoinfo": {
        "display_name": "Huob, Hünenberg, Zug, 6332, Switzerland",
        "road": "Huob",
        "house_number": null,
        "neighbourhood": null,
        "suburb": null,
        "city_district": null,
        "city": "Hünenberg",
        "state": "Zug",
        "postcode": "6332",
        "country": "Switzerland",
        "country_code": "ch"
      },
      "address": "Huob, Cham, Zug, Switzerland"
    },
    {
      "lat": 47.150008678294995,
      "lon": 8.451090086744966,
      "geoinfo": {
        "display_name": "Golfpark Holzhäusern, 1, Langackerstrasse, Sankt Wendelin, Zweiern, Holzhäusern, Risch-Rotkreuz, Zug, 6343, Switzerland",
        "road": "Langackerstrasse",
        "house_number": "1",
        "neighbourhood": "Sankt Wendelin",
        "suburb": null,
        "city_district": null,
        "city": "Risch-Rotkreuz",
        "state": "Zug",
        "postcode": "6343",
        "country": "Switzerland",
        "country_code": "ch"
      },
      "address": "1 Langackerstrasse, Cham, Zug, Switzerland"
    },
    {
      "lat": 47.226208229362555,
      "lon": 8.471471385345906,
      "geoinfo": {
        "display_name": "Langacher, Knonau, Bezirk Affoltern, Zurich, 8934, Switzerland",
        "road": "Langacher",
        "house_number": null,
        "neighbourhood": null,
        "suburb": null,
        "city_district": null,
        "city": "Knonau",
        "state": "Zurich",
        "postcode": "8934",
        "country": "Switzerland",
        "country_code": "ch"
      },
      "address": "270, Langacher, Knonau, Bezirk Affoltern, Zurich, 8934, Switzerland"
    },
    {
      "lat": 47.162031938909536,
      "lon": 8.44984908348318,
      "geoinfo": {
        "display_name": "Alznachstrasse, Langrüti, Risch-Rotkreuz, Zug, 6333, Switzerland",
        "road": "Alznachstrasse",
        "house_number": null,
        "neighbourhood": null,
        "suburb": null,
        "city_district": null,
        "city": "Risch-Rotkreuz",
        "state": "Zug",
        "postcode": "6333",
        "country": "Switzerland",
        "country_code": "ch"
      },
      "address": "774, Alznachstrasse, Langrüti, Risch-Rotkreuz, Zug, 6333, Switzerland"
    }
  ],
  "updated_at": "2025-10-19T03:07:48.775513+00:00",
  "_kind": "geo_samples"
}