{
  "country_code": "CH",
  "country": "Switzerland",
  "city": "Genève",
  "geonameid": 2660646,
  "target_addresses": 2,
  "samples": [
    {
      "lat": 46.19476492509579,
      "lon": 6.126547948108081,
      "geoinfo": {
        "display_name": "Rampe Quidort, Petit-Lancy, Lancy, Geneva, 1227, Switzerland",
        "road": "Rampe Quidort",
        "house_number": null,
        "neighbourhood": null,
        "suburb": "Petit-Lancy",
        "city_district": null,
        "city": "Lancy",
        "state": "Geneva",
        "postcode": "1227",
        "country": "Switzerland",
        "country_code": "ch"
      },
      "address": "Rampe Quidort, Genève, Geneva, Switzerland"
    },
    {
      "lat": 46.16068873619778,
      "lon": 6.161529539029746,
      "geoinfo": {
        "display_name": "Chemin de la Grande-Mer, Troinex, Geneva, 1256, Switzerland",
        "road": "Chemin de la Grande-Mer",
        "house_number": null,
        "neighbourhood": null,
        "suburb": null,
        "city_district": null,
        "city": "Troinex",
        "state": "Geneva",
        "postcode": "1256",
        "country": "Switzerland",
        "country_code": "ch"
      },
      "address": "Chemin de la Grande-Mer, Genève, Geneva, Switzerland"
    },
    {
      "lat": 46.238828230229906,
      "lon": 6.109827696459667,
      "geoinfo": {
        "display_name": "Geneva International Airport, Route de Ferney, Le Grand-Saconnex, Geneva, 1218, Switzerland",
        "road": "Route de Ferney",
        "house_number": null,
        "neighbourhood": null,
        "suburb": null,
        "city_district": null,
        "city": "Le Grand-Saconnex",
        "state": "Geneva",
        "postcode": "1218",
        "country": "Switzerland",
        "country_code": "ch"
      },
      "address": "885, Route de Ferney, Genève, 1218 Geneva, Switzerland"
    },
    {
      "lat": 46.22410676724227,
      "lon": 6.110824018087063,
      "geoinfo": {
        "display_name": "Chemin Terroux, Vernier, Geneva, 1220, Switzerland",
        "road": "Chemin Terroux",
        "house_number": null,
        "neighbourhood": null,
        "suburb": null,
        "city_district": null,
        "city": "Vernier",
        "state": "Geneva",
        "postcode": "1220",
        "country": "Switzerland",
        "country_code": "ch"
      },
      "address": "023, Chemin Terroux, Vernier, Geneva, 1220, Switzerland"
    }
  ],
  "updated_at": "2025-10-19T03:12:03.490742+00:00",
  "_kind": "geo_samples"
}