{
  "country_code": "CH",
  "country": "Switzerland",
  "city": "Kriens",
  "geonameid": 2660104,
  "target_addresses": 2,
  "samples": [
    {
      "lat": 47.04047156603644,
      "lon": 8.246046567844552,
      "geoinfo": {
        "display_name": "Rengglochstrasse, Littau, Lucerne, 6012, Switzerland",
        "road": "Rengglochstrasse",
        "house_number": null,
        "neighbourhood": null,
        "suburb": "Littau",
        "city_district": null,
        "city": "Lucerne",
        "state": "Lucerne",
        "postcode": "6012",
        "country": "Switzerland",
        "country_code": "ch"
      },
      "address": "Rengglochstrasse, Kriens, Lucerne, Switzerland"
    },
    {
      "lat": 47.04612321651118,
      "lon": 8.223551669016311,
      "geoinfo": {
        "display_name": "K10, Landegg, Malters, Lucerne, 6102, Switzerland",
        "road": "K10",
        "house_number": null,
        "neighbourhood": null,
        "suburb": null,
        "city_district": null,
        "city": "Malters",
        "state": "Lucerne",
        "postcode": "6102",
        "country": "Switzerland",
        "country_code": "ch"
      },
      "address": "K10, Kriens, Lucerne, Switzerland"
    },
    {
      "lat": 47.00637242069003,
      "lon": 8.25932045439046,
      "geoinfo": {
        "display_name": "Kesselstrasse, Naturfreundehaus, Kriens, Lucerne, 6012, Switzerland",
        "road": "Kesselstrasse",
        "house_number": null,
        "neighbourhood": null,
        "suburb": null,
        "city_district": null,
        "city": "Kriens",
        "state": "Lucerne",
        "postcode": "6012",
        "country": "Switzerland",
        "country_code": "ch"
      },
      "address": "104, Kesselstrasse, Naturfreundehaus, Kriens, Lucerne, 6012, Switzerland"
    },
    {
      "lat": 47.045014461383516,
      "lon": 8.27934941667966,
      "geoinfo": {
        "display_name": "Schwyzerhüsliweg, Böschenhof, Kriens, Lucerne, 6010, Switzerland",
        "road": "Schwyzerhüsliweg",
        "house_number": null,
        "neighbourhood": null,
        "suburb": null,
        "city_district": null,
        "city": "Kriens",
        "state": "Lucerne",
        "postcode": "6010",
        "country": "Switzerland",
        "country_code": "ch"
      },
      "address": "642, Schwyzerhüsliweg, Böschenhof, Kriens, Lucerne, 6010, Switzerland"
    }
  ],
  "updated_at": "2025-10-19T01:44:08.069706+00:00",
  "_kind": "geo_samples"
}