{
  "country_code": "CH",
  "country": "Switzerland",
  "city": "Lausanne",
  "geonameid": 2659994,
  "target_addresses": 2,
  "samples": [
    {
      "lat": 46.48385437152486,
      "lon": 6.646865602830025,
      "geoinfo": {
        "display_name": "Pully, District de Lavaux-Oron, Vaud, Switzerland",
        "road": null,
        "house_number": null,
        "neighbourhood": null,
        "suburb": null,
        "city_district": null,
        "city": "Pully",
        "state": "Vaud",
        "postcode": null,
        "country": "Switzerland",
        "country_code": "ch"
      },
      "address": "Lausanne, Vaud, Switzerland"
    },
    {
      "lat": 46.53705023792847,
      "lon": 6.639462107519007,
      "geoinfo": {
        "display_name": "Chemin des Celtes, Lausanne, District de Lausanne, Vaud, 1018, Switzerland",
        "road": "Chemin des Celtes",
        "house_number": null,
        "neighbourhood": null,
        "suburb": null,
        "city_district": null,
        "city": "Lausanne",
        "state": "Vaud",
        "postcode": "1018",
        "country": "Switzerland",
        "country_code": "ch"
      },
      "address": "Chemin des Celtes, Lausanne, Vaud, Switzerland"
    },
    {
      "lat": 46.51625419754121,
      "lon": 6.601751842819524,
      "geoinfo": {
        "display_name": "Sentier des Ruines-Romaines, Maison Olympique, Lausanne, District de Lausanne, Vaud, 1007, Switzerland",
        "road": "Sentier des Ruines-Romaines",
        "house_number": null,
        "neighbourhood": null,
        "suburb": null,
        "city_district": null,
        "city": "Lausanne",
        "state": "Vaud",
        "postcode": "1007",
        "country": "Switzerland",
        "country_code": "ch"
      },
      "address": "065, Sentier des Ruines-Romaines, Maison Olympique, Lausanne, District de Lausanne, Vaud, 1007, Switzerland"
    },
    {
      "lat": 46.51173535445985,
      "lon": 6.5753183030226525,
      "geoinfo": {
        "display_name": "Chemin des Pierrettes, Quartier Lac, Saint-Sulpice, District de l'Ouest lausannois, Vaud, 1025, Switzerland",
        "road": "Chemin des Pierrettes",
        "house_number": null,
        "neighbourhood": null,
        "suburb": null,
        "city_district": null,
        "city": "Saint-Sulpice",
        "state": "Vaud",
        "postcode": "1025",
        "country": "Switzerland",
        "country_code": "ch"
      },
      "address": "970, Chemin des Pierrettes, Quartier Lac, Saint-Sulpice, District de l'Ouest lausannois, Vaud, 1025, Switzerland"
    }
  ],
  "updated_at": "2025-10-19T01:43:56.295775+00:00",
  "_kind": "geo_samples"
}