{
  "country_code": "CH",
  "country": "Switzerland",
  "city": "Locarno",
  "geonameid": 2659869,
  "target_addresses": 2,
  "samples": [
    {
      "lat": 46.17668804803114,
      "lon": 8.778158679425896,
      "geoinfo": {
        "display_name": "Via Monte Bré, Locarno Monti, Brè sopra Locarno, Locarno, Circolo di Locarno, Distretto di Locarno, Ticino, 6605, Switzerland",
        "road": "Via Monte Bré",
        "house_number": null,
        "neighbourhood": null,
        "suburb": "Locarno Monti",
        "city_district": null,
        "city": "Locarno",
        "state": "Ticino",
        "postcode": "6605",
        "country": "Switzerland",
        "country_code": "ch"
      },
      "address": "Via Monte Bré, Locarno, Ticino, Switzerland"
    },
    {
      "lat": 46.20216982315211,
      "lon": 8.767436501223017,
      "geoinfo": {
        "display_name": "Strada forestale Vallone, Locarno Monti, Brè sopra Locarno, Locarno, Circolo di Locarno, Distretto di Locarno, Ticino, 6605, Switzerland",
        "road": "Strada forestale Vallone",
        "house_number": null,
        "neighbourhood": null,
        "suburb": "Locarno Monti",
        "city_district": null,
        "city": "Locarno",
        "state": "Ticino",
        "postcode": "6605",
        "country": "Switzerland",
        "country_code": "ch"
      },
      "address": "Strada forestale Vallone, Locarno, Ticino, Switzerland"
    },
    {
      "lat": 46.21092158754544,
      "lon": 8.781885832972634,
      "geoinfo": {
        "display_name": "La Faèda, Avegno Gordevio, Circolo della Maggia, Distretto di Vallemaggia, Ticino, 6670, Switzerland",
        "road": null,
        "house_number": null,
        "neighbourhood": null,
        "suburb": null,
        "city_district": null,
        "city": "Avegno Gordevio",
        "state": "Ticino",
        "postcode": "6670",
        "country": "Switzerland",
        "country_code": "ch"
      },
      "address": "069, La Faèda, Avegno Gordevio, Circolo della Maggia, Distretto di Vallemaggia, Ticino, 6670, Switzerland"
    },
    {
      "lat": 46.1531351098432,
      "lon": 8.775002937135854,
      "geoinfo": {
        "display_name": "18, Via Arch. Pisoni, Ascona, Circolo dell'Isole, Distretto di Locarno, Ticino, 6612, Switzerland",
        "road": "Via Arch. Pisoni",
        "house_number": "18",
        "neighbourhood": null,
        "suburb": null,
        "city_district": null,
        "city": "Ascona",
        "state": "Ticino",
        "postcode": "6612",
        "country": "Switzerland",
        "country_code": "ch"
      },
      "address": "18, Via Arch. Pisoni, Ascona, Circolo dell'Isole, Distretto di Locarno, Ticino, 6612, Switzerland"
    }
  ],
  "updated_at": "2025-10-19T03:24:47.789010+00:00",
  "_kind": "geo_samples"
}