{
  "country_code": "CH",
  "country": "Switzerland",
  "city": "Lugano",
  "geonameid": 2659836,
  "target_addresses": 2,
  "samples": [
    {
      "lat": 46.01061137493851,
      "lon": 8.939850671661981,
      "geoinfo": {
        "display_name": "Via Nosedo, Massagno, Circolo di Vezia, Distretto di Lugano, Ticino, 6903, Switzerland",
        "road": "Via Nosedo",
        "house_number": null,
        "neighbourhood": null,
        "suburb": null,
        "city_district": null,
        "city": "Massagno",
        "state": "Ticino",
        "postcode": "6903",
        "country": "Switzerland",
        "country_code": "ch"
      },
      "address": "Via Nosedo, Lugano, Ticino, Switzerland"
    },
    {
      "lat": 46.028402486256475,
      "lon": 8.982326960412482,
      "geoinfo": {
        "display_name": "Via Torcìn, Soragno, Circolo di Lugano est, Lugano, Distretto di Lugano, Ticino, 6964, Switzerland",
        "road": "Via Torcìn",
        "house_number": null,
        "neighbourhood": null,
        "suburb": "Soragno",
        "city_district": "Circolo di Lugano est",
        "city": "Lugano",
        "state": "Ticino",
        "postcode": "6964",
        "country": "Switzerland",
        "country_code": "ch"
      },
      "address": "Via Torcìn, Lugano, Ticino, Switzerland"
    },
    {
      "lat": 46.0281222569294,
      "lon": 8.970278519486948,
      "geoinfo": {
        "display_name": "40d, Via Giovanni Maraini, Pregassona, Circolo di Lugano est, Lugano, Distretto di Lugano, Ticino, 6963, Switzerland",
        "road": "Via Giovanni Maraini",
        "house_number": "40d",
        "neighbourhood": null,
        "suburb": "Pregassona",
        "city_district": "Circolo di Lugano est",
        "city": "Lugano",
        "state": "Ticino",
        "postcode": "6963",
        "country": "Switzerland",
        "country_code": "ch"
      },
      "address": "40d, Via Giovanni Maraini, Pregassona, Circolo di Lugano est, Lugano, Distretto di Lugano, Ticino, 6963, Switzerland"
    },
    {
      "lat": 46.015780639881335,
      "lon": 8.955048018179136,
      "geoinfo": {
        "display_name": "29, Via Trevano, Molino Nuovo, Lugano, Circolo di Lugano ovest, Distretto di Lugano, Ticino, 6900, Switzerland",
        "road": "Via Trevano",
        "house_number": "29",
        "neighbourhood": null,
        "suburb": "Molino Nuovo",
        "city_district": null,
        "city": "Lugano",
        "state": "Ticino",
        "postcode": "6900",
        "country": "Switzerland",
        "country_code": "ch"
      },
      "address": "29, Via Trevano, Molino Nuovo, Lugano, Circolo di Lugano ovest, Distretto di Lugano, Ticino, 6900, Switzerland"
    }
  ],
  "updated_at": "2025-10-19T03:11:31.510953+00:00",
  "_kind": "geo_samples"
}