{
  "country_code": "CH",
  "country": "Switzerland",
  "city": "Schwyz",
  "geonameid": 2658665,
  "target_addresses": 2,
  "samples": [
    {
      "lat": 47.03954349444741,
      "lon": 8.660256985987909,
      "geoinfo": {
        "display_name": "4, W체rzstrasse, Mangelegg, Stoffels, Schwyz, 6340, Switzerland",
        "road": "W체rzstrasse",
        "house_number": "4",
        "neighbourhood": "Mangelegg",
        "suburb": null,
        "city_district": null,
        "city": "Schwyz",
        "state": "Schwyz",
        "postcode": "6340",
        "country": "Switzerland",
        "country_code": "ch"
      },
      "address": "4 W체rzstrasse, Schwyz, Schwyz, Switzerland"
    },
    {
      "lat": 47.010436724618735,
      "lon": 8.694362170535362,
      "geoinfo": {
        "display_name": "Ibergereggstrasse, Handgruobi, Uf Ibrig, Schwyz, 6432, Switzerland",
        "road": "Ibergereggstrasse",
        "house_number": null,
        "neighbourhood": null,
        "suburb": null,
        "city_district": null,
        "city": "Schwyz",
        "state": "Schwyz",
        "postcode": "6432",
        "country": "Switzerland",
        "country_code": "ch"
      },
      "address": "Ibergereggstrasse, Schwyz, Schwyz, Switzerland"
    },
    {
      "lat": 47.02040587632798,
      "lon": 8.606182292569935,
      "geoinfo": {
        "display_name": "R채nggen, Bergstrasse, Lauerz, Schwyz, 6424, Switzerland",
        "road": "Bergstrasse",
        "house_number": null,
        "neighbourhood": null,
        "suburb": null,
        "city_district": null,
        "city": "Lauerz",
        "state": "Schwyz",
        "postcode": "6424",
        "country": "Switzerland",
        "country_code": "ch"
      },
      "address": "642, Bergstrasse, Schwyz, 6424 Schwyz, Switzerland"
    },
    {
      "lat": 46.988553518139135,
      "lon": 8.624469265651669,
      "geoinfo": {
        "display_name": "Golf Club Axenstein, 11, Axenstein, Morschach, Schwyz, 6443, Switzerland",
        "road": "Axenstein",
        "house_number": "11",
        "neighbourhood": null,
        "suburb": null,
        "city_district": null,
        "city": "Morschach",
        "state": "Schwyz",
        "postcode": "6443",
        "country": "Switzerland",
        "country_code": "ch"
      },
      "address": "Golf Club Axenstein, 11, Axenstein, Morschach, Schwyz, 6443, Switzerland"
    }
  ],
  "updated_at": "2025-10-19T03:08:44.992651+00:00",
  "_kind": "geo_samples"
}