{
  "country_code": "CH",
  "country": "Switzerland",
  "city": "Sitten",
  "geonameid": 2658576,
  "target_addresses": 2,
  "samples": [
    {
      "lat": 46.22800226638423,
      "lon": 7.341101089333696,
      "geoinfo": {
        "display_name": "Rue de Lausanne, Sion, Wallis, 1950, Switzerland",
        "road": "Rue de Lausanne",
        "house_number": null,
        "neighbourhood": null,
        "suburb": null,
        "city_district": "Sion",
        "city": "Sion",
        "state": "Wallis",
        "postcode": "1950",
        "country": "Switzerland",
        "country_code": "ch"
      },
      "address": "Rue de Lausanne, Sitten, Wallis, Switzerland"
    },
    {
      "lat": 46.236574358649044,
      "lon": 7.3681113646023455,
      "geoinfo": {
        "display_name": "Chemin de la Poudrière, Sion, Wallis, 1950, Switzerland",
        "road": "Chemin de la Poudrière",
        "house_number": null,
        "neighbourhood": null,
        "suburb": null,
        "city_district": "Sion",
        "city": "Sion",
        "state": "Wallis",
        "postcode": "1950",
        "country": "Switzerland",
        "country_code": "ch"
      },
      "address": "Chemin de la Poudrière, Sitten, Wallis, Switzerland"
    },
    {
      "lat": 46.26259201581142,
      "lon": 7.376627684500251,
      "geoinfo": {
        "display_name": "5b, Route de Comolire, Grimisuat, Sion, Wallis, 1971, Switzerland",
        "road": "Route de Comolire",
        "house_number": "5b",
        "neighbourhood": null,
        "suburb": null,
        "city_district": null,
        "city": "Grimisuat",
        "state": "Wallis",
        "postcode": "1971",
        "country": "Switzerland",
        "country_code": "ch"
      },
      "address": "5b, Route de Comolire, Grimisuat, Sion, Wallis, 1971, Switzerland"
    },
    {
      "lat": 46.24098701737916,
      "lon": 7.417069111195413,
      "geoinfo": {
        "display_name": "10, Promenade des Berges, Préjeux, Molignon, Uvrier, Sion, Wallis, 1958, Switzerland",
        "road": "Promenade des Berges",
        "house_number": "10",
        "neighbourhood": "Préjeux",
        "suburb": null,
        "city_district": null,
        "city": "Sion",
        "state": "Wallis",
        "postcode": "1958",
        "country": "Switzerland",
        "country_code": "ch"
      },
      "address": "10, Promenade des Berges, Sitten, 1958 Wallis, Switzerland"
    }
  ],
  "updated_at": "2025-10-19T03:10:53.807055+00:00",
  "_kind": "geo_samples"
}