{
  "country_code": "CH",
  "country": "Switzerland",
  "city": "Solothurn",
  "geonameid": 2658564,
  "target_addresses": 2,
  "samples": [
    {
      "lat": 47.18360558187483,
      "lon": 7.579388760924198,
      "geoinfo": {
        "display_name": "19, Grüttstrasse, Derendingen, Bezirk Wasseramt, Amtei Bucheggberg-Wasseramt, Solothurn, 4552, Switzerland",
        "road": "Grüttstrasse",
        "house_number": "19",
        "neighbourhood": null,
        "suburb": null,
        "city_district": null,
        "city": "Derendingen",
        "state": "Solothurn",
        "postcode": "4552",
        "country": "Switzerland",
        "country_code": "ch"
      },
      "address": "19 Grüttstrasse, Solothurn, Solothurn, Switzerland"
    },
    {
      "lat": 47.21464067020308,
      "lon": 7.493452521468914,
      "geoinfo": {
        "display_name": "8d, Winkelgasse, Dorfmatt, Schäfershof, Bellach, Bezirk Lebern, Amtei Solothurn-Lebern, Solothurn, 4512, Switzerland",
        "road": "Winkelgasse",
        "house_number": "8d",
        "neighbourhood": "Dorfmatt",
        "suburb": null,
        "city_district": null,
        "city": "Bellach",
        "state": "Solothurn",
        "postcode": "4512",
        "country": "Switzerland",
        "country_code": "ch"
      },
      "address": "8d Winkelgasse, Solothurn, Solothurn, Switzerland"
    },
    {
      "lat": 47.1791625620799,
      "lon": 7.535569951471401,
      "geoinfo": {
        "display_name": "46, Paradiesstrasse, Ammannsegg, Lohn-Ammannsegg, Bezirk Wasseramt, Amtei Bucheggberg-Wasseramt, Solothurn, 4573, Switzerland",
        "road": "Paradiesstrasse",
        "house_number": "46",
        "neighbourhood": null,
        "suburb": null,
        "city_district": null,
        "city": "Lohn-Ammannsegg",
        "state": "Solothurn",
        "postcode": "4573",
        "country": "Switzerland",
        "country_code": "ch"
      },
      "address": "46, Paradiesstrasse, Ammannsegg, Lohn-Ammannsegg, Bezirk Wasseramt, Amtei Bucheggberg-Wasseramt, Solothurn, 4573, Switzerland"
    },
    {
      "lat": 47.226485563384784,
      "lon": 7.532087374990873,
      "geoinfo": {
        "display_name": "21, Verenastrasse, Einsiedelei, Rüttenen, Bezirk Lebern, Amtei Solothurn-Lebern, Solothurn, 4522, Switzerland",
        "road": "Verenastrasse",
        "house_number": "21",
        "neighbourhood": null,
        "suburb": null,
        "city_district": null,
        "city": "Rüttenen",
        "state": "Solothurn",
        "postcode": "4522",
        "country": "Switzerland",
        "country_code": "ch"
      },
      "address": "21, Verenastrasse, Einsiedelei, Rüttenen, Bezirk Lebern, Amtei Solothurn-Lebern, Solothurn, 4522, Switzerland"
    }
  ],
  "updated_at": "2025-10-19T01:43:49.212952+00:00",
  "_kind": "geo_samples"
}