{
  "country_code": "CH",
  "country": "Switzerland",
  "city": "Winterthur",
  "geonameid": 2657970,
  "target_addresses": 6,
  "samples": [
    {
      "lat": 47.51735705214573,
      "lon": 8.696373944029984,
      "geoinfo": {
        "display_name": "Speckweg, Lerchenbühl, Wülflingen, Winterthur, Bezirk Winterthur, Zurich, 8408, Switzerland",
        "road": "Speckweg",
        "house_number": null,
        "neighbourhood": null,
        "suburb": "Wülflingen",
        "city_district": null,
        "city": "Winterthur",
        "state": "Zurich",
        "postcode": "8408",
        "country": "Switzerland",
        "country_code": "ch"
      },
      "address": "Speckweg, Winterthur, Zurich, Switzerland"
    },
    {
      "lat": 47.49127616321364,
      "lon": 8.771216471001342,
      "geoinfo": {
        "display_name": "Schönenbergerweg, Sonnenberg, Seen, Winterthur, Bezirk Winterthur, Zurich, 8405, Switzerland",
        "road": "Schönenbergerweg",
        "house_number": null,
        "neighbourhood": null,
        "suburb": "Seen",
        "city_district": null,
        "city": "Winterthur",
        "state": "Zurich",
        "postcode": "8405",
        "country": "Switzerland",
        "country_code": "ch"
      },
      "address": "Schönenbergerweg, Winterthur, Zurich, Switzerland"
    },
    {
      "lat": 47.49842666083106,
      "lon": 8.67796140326088,
      "geoinfo": {
        "display_name": "Bäume als Lebensraum und Landschaftsgestalter, Rispelweg, Neuburg, Wülflingen, Winterthur, Bezirk Winterthur, Zurich, 8408, Switzerland",
        "road": "Rispelweg",
        "house_number": null,
        "neighbourhood": null,
        "suburb": "Wülflingen",
        "city_district": null,
        "city": "Winterthur",
        "state": "Zurich",
        "postcode": "8408",
        "country": "Switzerland",
        "country_code": "ch"
      },
      "address": "210, Rispelweg, Winterthur, 8408 Zurich, Switzerland"
    },
    {
      "lat": 47.483728988571244,
      "lon": 8.77537651549675,
      "geoinfo": {
        "display_name": "65, Florenstrasse, Stocken, Seen, Gotzenwil, Winterthur, Bezirk Winterthur, Zurich, 8405, Switzerland",
        "road": "Florenstrasse",
        "house_number": "65",
        "neighbourhood": "Stocken",
        "suburb": "Seen",
        "city_district": null,
        "city": "Winterthur",
        "state": "Zurich",
        "postcode": "8405",
        "country": "Switzerland",
        "country_code": "ch"
      },
      "address": "65, Florenstrasse, Stocken, Seen, Gotzenwil, Winterthur, Bezirk Winterthur, Zurich, 8405, Switzerland"
    },
    {
      "lat": 47.50703795768941,
      "lon": 8.7731478627214,
      "geoinfo": {
        "display_name": "3, Gernstrasse, Hegi, Oberwinterthur, Winterthur, Bezirk Winterthur, Zurich, 8409, Switzerland",
        "road": "Gernstrasse",
        "house_number": "3",
        "neighbourhood": null,
        "suburb": "Oberwinterthur",
        "city_district": null,
        "city": "Winterthur",
        "state": "Zurich",
        "postcode": "8409",
        "country": "Switzerland",
        "country_code": "ch"
      },
      "address": "3, Gernstrasse, Hegi, Oberwinterthur, Winterthur, Bezirk Winterthur, Zurich, 8409, Switzerland"
    },
    {
      "lat": 47.52914857506201,
      "lon": 8.75577682005385,
      "geoinfo": {
        "display_name": "A1, Untere Breite, Oberwinterthur, Reutlingen, Winterthur, Bezirk Winterthur, Zurich, 8404, Switzerland",
        "road": "A1",
        "house_number": null,
        "neighbourhood": null,
        "suburb": "Oberwinterthur",
        "city_district": null,
        "city": "Winterthur",
        "state": "Zurich",
        "postcode": "8404",
        "country": "Switzerland",
        "country_code": "ch"
      },
      "address": "A1, Untere Breite, Oberwinterthur, Reutlingen, Winterthur, Bezirk Winterthur, Zurich, 8404, Switzerland"
    }
  ],
  "updated_at": "2025-10-19T03:43:29.640714+00:00",
  "_kind": "geo_samples"
}