{
  "country_code": "CH",
  "country": "Switzerland",
  "city": "Zürich (Kreis 11) / Oerlikon",
  "geonameid": 2659310,
  "target_addresses": 6,
  "samples": [
    {
      "lat": 47.39818654701317,
      "lon": 8.542781161869119,
      "geoinfo": {
        "display_name": "Irchel nature trail 01, Schaffhauserstrasse, Unterstrass, Kreis 6, Zurich, District Zurich, Zurich, 8057, Switzerland",
        "road": "Schaffhauserstrasse",
        "house_number": null,
        "neighbourhood": null,
        "suburb": "Unterstrass",
        "city_district": null,
        "city": "Zurich",
        "state": "Zurich",
        "postcode": "8057",
        "country": "Switzerland",
        "country_code": "ch"
      },
      "address": "Schaffhauserstrasse, Zürich (Kreis 11) / Oerlikon, Zurich, Switzerland"
    },
    {
      "lat": 47.38576288821219,
      "lon": 8.547917271147886,
      "geoinfo": {
        "display_name": "5, Winterthurerstrasse, Oberstrass, Kreis 6, Zurich, District Zurich, Zurich, 8006, Switzerland",
        "road": "Winterthurerstrasse",
        "house_number": "5",
        "neighbourhood": null,
        "suburb": "Oberstrass",
        "city_district": null,
        "city": "Zurich",
        "state": "Zurich",
        "postcode": "8006",
        "country": "Switzerland",
        "country_code": "ch"
      },
      "address": "5 Winterthurerstrasse, Zürich (Kreis 11) / Oerlikon, Zurich, Switzerland"
    },
    {
      "lat": 47.44850121411714,
      "lon": 8.554452501816035,
      "geoinfo": {
        "display_name": "Weststrasse, Kloten, Bezirk Bülach, Zurich, 8302, Switzerland",
        "road": "Weststrasse",
        "house_number": null,
        "neighbourhood": null,
        "suburb": null,
        "city_district": null,
        "city": "Kloten",
        "state": "Zurich",
        "postcode": "8302",
        "country": "Switzerland",
        "country_code": "ch"
      },
      "address": "179, Weststrasse, Kloten, Bezirk Bülach, Zurich, 8302, Switzerland"
    },
    {
      "lat": 47.433111367486816,
      "lon": 8.57033768381432,
      "geoinfo": {
        "display_name": "32, Wallisellerstrasse, Glattpark, Glattbrugg, Opfikon, Bezirk Bülach, Zurich, 8152, Switzerland",
        "road": "Wallisellerstrasse",
        "house_number": "32",
        "neighbourhood": null,
        "suburb": "Glattpark",
        "city_district": null,
        "city": "Glattbrugg",
        "state": "Zurich",
        "postcode": "8152",
        "country": "Switzerland",
        "country_code": "ch"
      },
      "address": "32, Wallisellerstrasse, Glattpark, Glattbrugg, Opfikon, Bezirk Bülach, Zurich, 8152, Switzerland"
    },
    {
      "lat": 47.435969977035825,
      "lon": 8.564621070894905,
      "geoinfo": {
        "display_name": "1, Soldbachstrasse, Glattbrugg, Opfikon, Bezirk Bülach, Zurich, 8152, Switzerland",
        "road": "Soldbachstrasse",
        "house_number": "1",
        "neighbourhood": null,
        "suburb": null,
        "city_district": null,
        "city": "Glattbrugg",
        "state": "Zurich",
        "postcode": "8152",
        "country": "Switzerland",
        "country_code": "ch"
      },
      "address": "1, Soldbachstrasse, Glattbrugg, Opfikon, Bezirk Bülach, Zurich, 8152, Switzerland"
    },
    {
      "lat": 47.427168171107326,
      "lon": 8.59150577844039,
      "geoinfo": {
        "display_name": "Seewadel Weg, Wallisellen, Bezirk Bülach, Zurich, 8304, Switzerland",
        "road": "Seewadel Weg",
        "house_number": null,
        "neighbourhood": null,
        "suburb": null,
        "city_district": null,
        "city": "Wallisellen",
        "state": "Zurich",
        "postcode": "8304",
        "country": "Switzerland",
        "country_code": "ch"
      },
      "address": "241, Seewadel Weg, Wallisellen, Bezirk Bülach, Zurich, 8304, Switzerland"
    }
  ],
  "updated_at": "2025-10-19T03:44:05.754469+00:00",
  "_kind": "geo_samples"
}