{
  "country_code": "CH",
  "country": "Switzerland",
  "city": "Zürich (Kreis 9) / Altstetten",
  "geonameid": 6295513,
  "target_addresses": 2,
  "samples": [
    {
      "lat": 47.37135781919157,
      "lon": 8.524910832836822,
      "geoinfo": {
        "display_name": "Coop Pronto, 55, Birmensdorferstrasse, Werd, Kreis 4, Zurich, District Zurich, Zurich, 8004, Switzerland",
        "road": "Birmensdorferstrasse",
        "house_number": "55",
        "neighbourhood": null,
        "suburb": "Kreis 4",
        "city_district": null,
        "city": "Zurich",
        "state": "Zurich",
        "postcode": "8004",
        "country": "Switzerland",
        "country_code": "ch"
      },
      "address": "55 Birmensdorferstrasse, Zürich (Kreis 9) / Altstetten, Zurich, Switzerland"
    },
    {
      "lat": 47.37082429163553,
      "lon": 8.490952934393736,
      "geoinfo": {
        "display_name": "68, In der Ey, Albisrieden, Kreis 9, Zurich, District Zurich, Zurich, 8047, Switzerland",
        "road": "In der Ey",
        "house_number": "68",
        "neighbourhood": null,
        "suburb": "Albisrieden",
        "city_district": null,
        "city": "Zurich",
        "state": "Zurich",
        "postcode": "8047",
        "country": "Switzerland",
        "country_code": "ch"
      },
      "address": "68 In der Ey, Zürich (Kreis 9) / Altstetten, Zurich, Switzerland"
    },
    {
      "lat": 47.39670748467793,
      "lon": 8.467801096934886,
      "geoinfo": {
        "display_name": "Postzentrum Mülligen, 161, Zürcherstrasse, Schlieren, Bezirk Dietikon, Zurich, 8952, Switzerland",
        "road": "Zürcherstrasse",
        "house_number": "161",
        "neighbourhood": null,
        "suburb": null,
        "city_district": null,
        "city": "Schlieren",
        "state": "Zurich",
        "postcode": "8952",
        "country": "Switzerland",
        "country_code": "ch"
      },
      "address": "Postzentrum Mülligen, 161, Zürcherstrasse, Schlieren, Bezirk Dietikon, Zurich, 8952, Switzerland"
    },
    {
      "lat": 47.37757301251053,
      "lon": 8.525868582229746,
      "geoinfo": {
        "display_name": "Hohlstrasse, Langstrasse, Kreis 4, Zurich, District Zurich, Zurich, 8004, Switzerland",
        "road": "Hohlstrasse",
        "house_number": null,
        "neighbourhood": null,
        "suburb": "Kreis 4",
        "city_district": null,
        "city": "Zurich",
        "state": "Zurich",
        "postcode": "8004",
        "country": "Switzerland",
        "country_code": "ch"
      },
      "address": "007, Hohlstrasse, Zürich (Kreis 9) / Altstetten, Zurich, Switzerland"
    }
  ],
  "updated_at": "2025-10-19T01:27:03.785434+00:00",
  "_kind": "geo_samples"
}