{
  "country_code": "CH",
  "country": "Switzerland",
  "city": "Zürich (Kreis 6) / Unterstrass",
  "geonameid": 6295504,
  "target_addresses": 2,
  "samples": [
    {
      "lat": 47.397216759174704,
      "lon": 8.534966370335953,
      "geoinfo": {
        "display_name": "74, Zeppelinstrasse, Unterstrass, Kreis 6, Zurich, District Zurich, Zurich, 8057, Switzerland",
        "road": "Zeppelinstrasse",
        "house_number": "74",
        "neighbourhood": null,
        "suburb": "Unterstrass",
        "city_district": null,
        "city": "Zurich",
        "state": "Zurich",
        "postcode": "8057",
        "country": "Switzerland",
        "country_code": "ch"
      },
      "address": "74 Zeppelinstrasse, Zürich (Kreis 6) / Unterstrass, Zurich, Switzerland"
    },
    {
      "lat": 47.4043157951889,
      "lon": 8.477852767159721,
      "geoinfo": {
        "display_name": "Kloster-Fahr-Weg, Höngg, Kreis 10, Oberengstringen, Bezirk Dietikon, Zurich, 8102, Switzerland",
        "road": "Kloster-Fahr-Weg",
        "house_number": null,
        "neighbourhood": null,
        "suburb": "Höngg",
        "city_district": null,
        "city": "Oberengstringen",
        "state": "Zurich",
        "postcode": "8102",
        "country": "Switzerland",
        "country_code": "ch"
      },
      "address": "Kloster-Fahr-Weg, Zürich (Kreis 6) / Unterstrass, Zurich, Switzerland"
    },
    {
      "lat": 47.39117313105677,
      "lon": 8.58772946500958,
      "geoinfo": {
        "display_name": "Martin-Krieg-Gedenkweg, Stettbach, Dübendorf, Bezirk Uster, Zurich, 8051, Switzerland",
        "road": "Martin-Krieg-Gedenkweg",
        "house_number": null,
        "neighbourhood": null,
        "suburb": "Stettbach",
        "city_district": null,
        "city": "Dübendorf",
        "state": "Zurich",
        "postcode": "8051",
        "country": "Switzerland",
        "country_code": "ch"
      },
      "address": "321, Martin-Krieg-Gedenkweg, Stettbach, Dübendorf, Bezirk Uster, Zurich, 8051, Switzerland"
    },
    {
      "lat": 47.42130771598367,
      "lon": 8.556539447436656,
      "geoinfo": {
        "display_name": "Thurgauerstrasse, Glattpark, Glattbrugg, Opfikon, Bezirk Bülach, Zurich, 8152, Switzerland",
        "road": "Thurgauerstrasse",
        "house_number": null,
        "neighbourhood": null,
        "suburb": "Glattpark",
        "city_district": null,
        "city": "Glattbrugg",
        "state": "Zurich",
        "postcode": "8152",
        "country": "Switzerland",
        "country_code": "ch"
      },
      "address": "181, Thurgauerstrasse, Glattpark, Glattbrugg, Opfikon, Bezirk Bülach, Zurich, 8152, Switzerland"
    }
  ],
  "updated_at": "2025-10-19T01:44:38.640738+00:00",
  "_kind": "geo_samples"
}