{
  "country_code": "CH",
  "country": "Switzerland",
  "city": "Zürich (Kreis 11)",
  "geonameid": 6295533,
  "target_addresses": 2,
  "samples": [
    {
      "lat": 47.399963358929995,
      "lon": 8.546080902731353,
      "geoinfo": {
        "display_name": "12, Hirschwiesenstrasse, Unterstrass, Kreis 6, Zurich, District Zurich, Zurich, 8057, Switzerland",
        "road": "Hirschwiesenstrasse",
        "house_number": "12",
        "neighbourhood": null,
        "suburb": "Unterstrass",
        "city_district": null,
        "city": "Zurich",
        "state": "Zurich",
        "postcode": "8057",
        "country": "Switzerland",
        "country_code": "ch"
      },
      "address": "12 Hirschwiesenstrasse, Zürich (Kreis 11), Zurich, Switzerland"
    },
    {
      "lat": 47.42712468377818,
      "lon": 8.515583068402943,
      "geoinfo": {
        "display_name": "175, Reckenholzstrasse, Affoltern, Kreis 11, Zurich, District Zurich, Zurich, 8046, Switzerland",
        "road": "Reckenholzstrasse",
        "house_number": "175",
        "neighbourhood": null,
        "suburb": "Affoltern",
        "city_district": null,
        "city": "Zurich",
        "state": "Zurich",
        "postcode": "8046",
        "country": "Switzerland",
        "country_code": "ch"
      },
      "address": "175 Reckenholzstrasse, Zürich (Kreis 11), Zurich, Switzerland"
    },
    {
      "lat": 47.4478281256751,
      "lon": 8.541037673894193,
      "geoinfo": {
        "display_name": "Post CH AG / Asendia Switzerland, 106, Flughofstrasse, Rümlang, Bezirk Dielsdorf, Zurich, 8153, Switzerland",
        "road": "Flughofstrasse",
        "house_number": "106",
        "neighbourhood": null,
        "suburb": null,
        "city_district": null,
        "city": "Rümlang",
        "state": "Zurich",
        "postcode": "8153",
        "country": "Switzerland",
        "country_code": "ch"
      },
      "address": "Post CH AG / Asendia Switzerland, 106, Flughofstrasse, Rümlang, Bezirk Dielsdorf, Zurich, 8153, Switzerland"
    },
    {
      "lat": 47.41180654554756,
      "lon": 8.558515310062198,
      "geoinfo": {
        "display_name": "Sportanlage Neudorf, Siewerdtstrasse, Oerlikon, Kreis 11, Zurich, District Zurich, Zurich, 8050, Switzerland",
        "road": "Siewerdtstrasse",
        "house_number": null,
        "neighbourhood": null,
        "suburb": "Oerlikon",
        "city_district": null,
        "city": "Zurich",
        "state": "Zurich",
        "postcode": "8050",
        "country": "Switzerland",
        "country_code": "ch"
      },
      "address": "287, Siewerdtstrasse, Zürich (Kreis 11), Zurich, Switzerland"
    }
  ],
  "updated_at": "2025-10-19T01:27:28.342271+00:00",
  "_kind": "geo_samples"
}