{
  "country_code": "BY",
  "country": "Belarus",
  "city": "Fanipol",
  "geonameid": 6846555,
  "target_addresses": 2,
  "samples": [
    {
      "lat": 53.71860342805856,
      "lon": 27.279180157323637,
      "geoinfo": {
        "display_name": "Н8370, Фаніпальскі сельскі Савет, Dzyarzhynsk District, Minsk Region, 222750, Belarus",
        "road": "Н8370",
        "house_number": null,
        "neighbourhood": null,
        "suburb": null,
        "city_district": null,
        "city": "Фаніпальскі сельскі Савет",
        "state": "Minsk Region",
        "postcode": "222750",
        "country": "Belarus",
        "country_code": "by"
      },
      "address": "Н8370, Fanipol, Minsk Region, Belarus"
    },
    {
      "lat": 53.7168272040331,
      "lon": 27.333159575155292,
      "geoinfo": {
        "display_name": "Фаніпальскі сельскі Савет, Dzyarzhynsk District, Minsk Region, 222750, Belarus",
        "road": null,
        "house_number": null,
        "neighbourhood": null,
        "suburb": null,
        "city_district": null,
        "city": "Фаніпальскі сельскі Савет",
        "state": "Minsk Region",
        "postcode": "222750",
        "country": "Belarus",
        "country_code": "by"
      },
      "address": "Fanipol, Minsk Region, Belarus"
    },
    {
      "lat": 53.76636225815703,
      "lon": 27.38415720171997,
      "geoinfo": {
        "display_name": "3, Садовая вуліца, Воўкавічы, Фаніпальскі сельскі Савет, Dzyarzhynsk District, Minsk Region, Belarus",
        "road": "Садовая вуліца",
        "house_number": "3",
        "neighbourhood": null,
        "suburb": null,
        "city_district": null,
        "city": "Фаніпальскі сельскі Савет",
        "state": "Minsk Region",
        "postcode": null,
        "country": "Belarus",
        "country_code": "by"
      },
      "address": "3, Садовая вуліца, Воўкавічы, Фаніпальскі сельскі Савет, Dzyarzhynsk District, 61503 Minsk Region, Belarus"
    },
    {
      "lat": 53.75588611559471,
      "lon": 27.284241517123668,
      "geoinfo": {
        "display_name": "84, Цэнтральная вуліца, Павялкова, Фаніпальскі сельскі Савет, Dzyarzhynsk District, Minsk Region, 222750, Belarus",
        "road": "Цэнтральная вуліца",
        "house_number": "84",
        "neighbourhood": null,
        "suburb": null,
        "city_district": null,
        "city": "Фаніпальскі сельскі Савет",
        "state": "Minsk Region",
        "postcode": "222750",
        "country": "Belarus",
        "country_code": "by"
      },
      "address": "84, Цэнтральная вуліца, Павялкова, Фаніпальскі сельскі Савет, Dzyarzhynsk District, Minsk Region, 222750, Belarus"
    }
  ],
  "updated_at": "2025-10-19T03:00:00.868885+00:00",
  "_kind": "geo_samples"
}