{
  "country_code": "BY",
  "country": "Belarus",
  "city": "Homyel'",
  "geonameid": 627907,
  "target_addresses": 2,
  "samples": [
    {
      "lat": 52.41396566094396,
      "lon": 30.920822594887582,
      "geoinfo": {
        "display_name": "Белмытсэрвіс, 5, вуліца Барысенкі, 56-ы мікрараён, Савецкі раён, Homyel, Homyel Region, 246050, Belarus",
        "road": "вуліца Барысенкі",
        "house_number": "5",
        "neighbourhood": null,
        "suburb": "56-ы мікрараён",
        "city_district": "Савецкі раён",
        "city": "Homyel",
        "state": "Homyel Region",
        "postcode": "246050",
        "country": "Belarus",
        "country_code": "by"
      },
      "address": "5 вуліца Барысенкі, Homyel', Homyel Region, Belarus"
    },
    {
      "lat": 52.403540520361034,
      "lon": 30.97978784552956,
      "geoinfo": {
        "display_name": "110, вуліца Багдана Хмяльніцкага, Шведская горка, Савецкі раён, Homyel, Homyel Region, 246049, Belarus",
        "road": "вуліца Багдана Хмяльніцкага",
        "house_number": "110",
        "neighbourhood": null,
        "suburb": "Шведская горка",
        "city_district": "Савецкі раён",
        "city": "Homyel",
        "state": "Homyel Region",
        "postcode": "246049",
        "country": "Belarus",
        "country_code": "by"
      },
      "address": "110 вуліца Багдана Хмяльніцкага, Homyel', Homyel Region, Belarus"
    },
    {
      "lat": 52.42587196216406,
      "lon": 30.940743768039432,
      "geoinfo": {
        "display_name": "Станцыя тэхнічнага абслугоўвання філіяла «Гомельскае вытворчае ўпраўленне» РВУП «Гомельаблгаз», 1А, праезд Геафізікаў, Савецкі раён, Homyel, Homyel Region, 246027, Belarus",
        "road": "праезд Геафізікаў",
        "house_number": "1А",
        "neighbourhood": null,
        "suburb": null,
        "city_district": "Савецкі раён",
        "city": "Homyel",
        "state": "Homyel Region",
        "postcode": "246027",
        "country": "Belarus",
        "country_code": "by"
      },
      "address": "Станцыя тэхнічнага абслугоўвання філіяла «Гомельскае вытворчае ўпраўленне» РВУП «Гомельаблгаз», 1А, праезд Геафізікаў, Савецкі раён, Homyel, Homyel Region, 246027, Belarus"
    },
    {
      "lat": 52.43531331084456,
      "lon": 30.95945997626645,
      "geoinfo": {
        "display_name": "43, вуліца Джураева, Заходні, Савецкі раён, Homyel, Homyel Region, 246034, Belarus",
        "road": "вуліца Джураева",
        "house_number": "43",
        "neighbourhood": "Заходні",
        "suburb": null,
        "city_district": "Савецкі раён",
        "city": "Homyel",
        "state": "Homyel Region",
        "postcode": "246034",
        "country": "Belarus",
        "country_code": "by"
      },
      "address": "43, вуліца Джураева, Заходні, Савецкі раён, Homyel, Homyel Region, 246034, Belarus"
    }
  ],
  "updated_at": "2025-10-19T03:17:55.238621+00:00",
  "_kind": "geo_samples"
}