{
  "country_code": "BY",
  "country": "Belarus",
  "city": "Hrodna",
  "geonameid": 627904,
  "target_addresses": 2,
  "samples": [
    {
      "lat": 53.68914373023952,
      "lon": 23.76984589723387,
      "geoinfo": {
        "display_name": "Пышкі, Падлабенскі сельскі Савет, Hrodna District, Hrodna Region, 230006, Belarus",
        "road": null,
        "house_number": null,
        "neighbourhood": null,
        "suburb": null,
        "city_district": null,
        "city": "Падлабенскі сельскі Савет",
        "state": "Hrodna Region",
        "postcode": "230006",
        "country": "Belarus",
        "country_code": "by"
      },
      "address": "Hrodna, Hrodna Region, Belarus"
    },
    {
      "lat": 53.70238073262438,
      "lon": 23.833402446791922,
      "geoinfo": {
        "display_name": "вуліца Дубко, Дзевятоўка–1, Дзевятоўка, Ленінскі раён, Hrodna, Hrodna Region, 230602, Belarus",
        "road": "вуліца Дубко",
        "house_number": null,
        "neighbourhood": "Дзевятоўка–1",
        "suburb": "Дзевятоўка",
        "city_district": "Ленінскі раён",
        "city": "Hrodna",
        "state": "Hrodna Region",
        "postcode": "230602",
        "country": "Belarus",
        "country_code": "by"
      },
      "address": "вуліца Дубко, Hrodna, Hrodna Region, Belarus"
    },
    {
      "lat": 53.68457310760771,
      "lon": 23.76434517171458,
      "geoinfo": {
        "display_name": "Н6958, Пышкі, Падлабенскі сельскі Савет, Hrodna District, Hrodna Region, 230016, Belarus",
        "road": "Н6958",
        "house_number": null,
        "neighbourhood": null,
        "suburb": null,
        "city_district": null,
        "city": "Падлабенскі сельскі Савет",
        "state": "Hrodna Region",
        "postcode": "230016",
        "country": "Belarus",
        "country_code": "by"
      },
      "address": "Н6958, Пышкі, Падлабенскі сельскі Савет, Hrodna District, Hrodna Region, 230016, Belarus"
    },
    {
      "lat": 53.659375941217675,
      "lon": 23.787395892949217,
      "geoinfo": {
        "display_name": "23, вуліца Рэпіна, Фолюш, Кастрычніцкі раён, Hrodna, Hrodna Region, 230768, Belarus",
        "road": "вуліца Рэпіна",
        "house_number": "23",
        "neighbourhood": null,
        "suburb": "Фолюш",
        "city_district": "Кастрычніцкі раён",
        "city": "Hrodna",
        "state": "Hrodna Region",
        "postcode": "230768",
        "country": "Belarus",
        "country_code": "by"
      },
      "address": "23, вуліца Рэпіна, Фолюш, Кастрычніцкі раён, Hrodna, Hrodna Region, 230768, Belarus"
    }
  ],
  "updated_at": "2025-10-19T01:33:24.164182+00:00",
  "_kind": "geo_samples"
}