{
  "country_code": "BY",
  "country": "Belarus",
  "city": "Ivatsevichi",
  "geonameid": 627800,
  "target_addresses": 9,
  "samples": [
    {
      "lat": 52.728696938617794,
      "lon": 25.304278833004926,
      "geoinfo": {
        "display_name": "Р44, Яглевіцкі сельскі Савет, Ivatsevichy District, Brest Region, Belarus",
        "road": "Р44",
        "house_number": null,
        "neighbourhood": null,
        "suburb": null,
        "city_district": null,
        "city": "Яглевіцкі сельскі Савет",
        "state": "Brest Region",
        "postcode": null,
        "country": "Belarus",
        "country_code": "by"
      },
      "address": "Р44, Яглевіцкі сельскі Савет, Ivatsevichy District, Brest Region, Belarus"
    },
    {
      "lat": 52.67012679287858,
      "lon": 25.30808520538024,
      "geoinfo": {
        "display_name": "М1, Жытлінскі сельскі Савет, Ivatsevichy District, Brest Region, Belarus",
        "road": "М1",
        "house_number": null,
        "neighbourhood": null,
        "suburb": null,
        "city_district": null,
        "city": "Жытлінскі сельскі Савет",
        "state": "Brest Region",
        "postcode": null,
        "country": "Belarus",
        "country_code": "by"
      },
      "address": "М1, Жытлінскі сельскі Савет, Ivatsevichy District, Brest Region, Belarus"
    },
    {
      "lat": 52.70284342441863,
      "lon": 25.330369777170723,
      "geoinfo": {
        "display_name": "Ивацевичский РЭС, 14А, вуліца Леніна, Ivatsevichy, Ivatsevichy District, Brest Region, 225295, Belarus",
        "road": "вуліца Леніна",
        "house_number": "14А",
        "neighbourhood": null,
        "suburb": null,
        "city_district": null,
        "city": "Ivatsevichy",
        "state": "Brest Region",
        "postcode": "225295",
        "country": "Belarus",
        "country_code": "by"
      },
      "address": "Ивацевичский РЭС, 14А, вуліца Леніна, Ivatsevichy, Ivatsevichy District, Brest Region, 225295, Belarus"
    },
    {
      "lat": 52.721474962284056,
      "lon": 25.344406708207543,
      "geoinfo": {
        "display_name": "вуліца Свярдлова, Ivatsevichy, Ivatsevichy District, Brest Region, 225295, Belarus",
        "road": "вуліца Свярдлова",
        "house_number": null,
        "neighbourhood": null,
        "suburb": null,
        "city_district": null,
        "city": "Ivatsevichy",
        "state": "Brest Region",
        "postcode": "225295",
        "country": "Belarus",
        "country_code": "by"
      },
      "address": "470, вуліца Свярдлова, Ivatsevichy, Ivatsevichy District, Brest Region, 225295, Belarus"
    },
    {
      "lat": 52.704575020597474,
      "lon": 25.405365283666377,
      "geoinfo": {
        "display_name": "Н700, Яглевіцкі сельскі Савет, Ivatsevichy District, Brest Region, Belarus",
        "road": "Н700",
        "house_number": null,
        "neighbourhood": null,
        "suburb": null,
        "city_district": null,
        "city": "Яглевіцкі сельскі Савет",
        "state": "Brest Region",
        "postcode": null,
        "country": "Belarus",
        "country_code": "by"
      },
      "address": "Н700, Яглевіцкі сельскі Савет, Ivatsevichy District, 30902 Brest Region, Belarus"
    },
    {
      "lat": 52.68959650391184,
      "lon": 25.35956882632213,
      "geoinfo": {
        "display_name": "Вялікае Поле, Яглевіцкі сельскі Савет, Ivatsevichy District, Brest Region, 225295, Belarus",
        "road": null,
        "house_number": null,
        "neighbourhood": null,
        "suburb": null,
        "city_district": null,
        "city": "Яглевіцкі сельскі Савет",
        "state": "Brest Region",
        "postcode": "225295",
        "country": "Belarus",
        "country_code": "by"
      },
      "address": "228, Вялікае Поле, Яглевіцкі сельскі Савет, Ivatsevichy District, Brest Region, 225295, Belarus"
    },
    {
      "lat": 52.687675432886714,
      "lon": 25.352033955784123,
      "geoinfo": {
        "display_name": "М1, Яглевіцкі сельскі Савет, Ivatsevichy District, Brest Region, 225295, Belarus",
        "road": "М1",
        "house_number": null,
        "neighbourhood": null,
        "suburb": null,
        "city_district": null,
        "city": "Яглевіцкі сельскі Савет",
        "state": "Brest Region",
        "postcode": "225295",
        "country": "Belarus",
        "country_code": "by"
      },
      "address": "М1, Яглевіцкі сельскі Савет, Ivatsevichy District, Brest Region, 225295, Belarus"
    },
    {
      "lat": 52.74253753942815,
      "lon": 25.336362867507578,
      "geoinfo": {
        "display_name": "Яглевіцкі сельскі Савет, Ivatsevichy District, Brest Region, 225295, Belarus",
        "road": null,
        "house_number": null,
        "neighbourhood": null,
        "suburb": null,
        "city_district": null,
        "city": "Яглевіцкі сельскі Савет",
        "state": "Brest Region",
        "postcode": "225295",
        "country": "Belarus",
        "country_code": "by"
      },
      "address": "925, Яглевіцкі сельскі Савет, Ivatsevichy District, Brest Region, 225295, Belarus"
    },
    {
      "lat": 52.72251101953866,
      "lon": 25.33876294320319,
      "geoinfo": {
        "display_name": "вуліца Свярдлова, Ivatsevichy, Ivatsevichy District, Brest Region, 225295, Belarus",
        "road": "вуліца Свярдлова",
        "house_number": null,
        "neighbourhood": null,
        "suburb": null,
        "city_district": null,
        "city": "Ivatsevichy",
        "state": "Brest Region",
        "postcode": "225295",
        "country": "Belarus",
        "country_code": "by"
      },
      "address": "538, вуліца Свярдлова, Ivatsevichy, Ivatsevichy District, Brest Region, 225295, Belarus"
    }
  ],
  "updated_at": "2025-10-19T03:36:09.513625+00:00",
  "_kind": "geo_samples"
}