{
  "country_code": "BY",
  "country": "Belarus",
  "city": "Mazyr",
  "geonameid": 625324,
  "target_addresses": 2,
  "samples": [
    {
      "lat": 52.06476731970249,
      "lon": 29.25355085481563,
      "geoinfo": {
        "display_name": "Партовая вуліца, Mazyr, Mazyr District, Homyel Region, 247773, Belarus",
        "road": "Партовая вуліца",
        "house_number": null,
        "neighbourhood": null,
        "suburb": null,
        "city_district": null,
        "city": "Mazyr",
        "state": "Homyel Region",
        "postcode": "247773",
        "country": "Belarus",
        "country_code": "by"
      },
      "address": "Партовая вуліца, Mazyr, Homyel Region, Belarus"
    },
    {
      "lat": 52.01745097624417,
      "lon": 29.215173513308983,
      "geoinfo": {
        "display_name": "34, вуліца 14 Студзеня, Mazyr, Mazyr District, Homyel Region, 247795, Belarus",
        "road": "вуліца 14 Студзеня",
        "house_number": "34",
        "neighbourhood": null,
        "suburb": null,
        "city_district": null,
        "city": "Mazyr",
        "state": "Homyel Region",
        "postcode": "247795",
        "country": "Belarus",
        "country_code": "by"
      },
      "address": "34 вуліца 14 Студзеня, Mazyr, Homyel Region, Belarus"
    },
    {
      "lat": 52.04168377489945,
      "lon": 29.226268219469972,
      "geoinfo": {
        "display_name": "6, Магістральны завулак, Babry, Mazyr, Mazyr District, Homyel Region, 247772, Belarus",
        "road": "Магістральны завулак",
        "house_number": "6",
        "neighbourhood": null,
        "suburb": "Babry",
        "city_district": null,
        "city": "Mazyr",
        "state": "Homyel Region",
        "postcode": "247772",
        "country": "Belarus",
        "country_code": "by"
      },
      "address": "6, Магістральны завулак, Babry, Mazyr, Mazyr District, Homyel Region, 247772, Belarus"
    },
    {
      "lat": 52.06569411524801,
      "lon": 29.241089123768738,
      "geoinfo": {
        "display_name": "Kaliektyŭny zavulak, Mazyr, Mazyr District, Homyel Region, 247773, Belarus",
        "road": "Kaliektyŭny zavulak",
        "house_number": null,
        "neighbourhood": null,
        "suburb": null,
        "city_district": null,
        "city": "Mazyr",
        "state": "Homyel Region",
        "postcode": "247773",
        "country": "Belarus",
        "country_code": "by"
      },
      "address": "187, Kaliektyŭny zavulak, Mazyr, Mazyr District, Homyel Region, 247773, Belarus"
    }
  ],
  "updated_at": "2025-10-19T01:33:16.461871+00:00",
  "_kind": "geo_samples"
}