{
  "country_code": "BY",
  "country": "Belarus",
  "city": "Pastavy",
  "geonameid": 623760,
  "target_addresses": 12,
  "samples": [
    {
      "lat": 55.114619688738536,
      "lon": 26.80390032394712,
      "geoinfo": {
        "display_name": "Палявая вуліца, Загатскот, Курапольскі сельскі Савет, Pastavy District, Vitsebsk Region, 211875, Belarus",
        "road": "Палявая вуліца",
        "house_number": null,
        "neighbourhood": null,
        "suburb": null,
        "city_district": null,
        "city": "Курапольскі сельскі Савет",
        "state": "Vitsebsk Region",
        "postcode": "211875",
        "country": "Belarus",
        "country_code": "by"
      },
      "address": "Палявая вуліца, Pastavy, Vitsebsk Region, Belarus"
    },
    {
      "lat": 55.11123718636439,
      "lon": 26.86536699954632,
      "geoinfo": {
        "display_name": "3, Юбілейная вуліца, Pastavy, Pastavy District, Vitsebsk Region, 211873, Belarus",
        "road": "Юбілейная вуліца",
        "house_number": "3",
        "neighbourhood": null,
        "suburb": null,
        "city_district": null,
        "city": "Pastavy",
        "state": "Vitsebsk Region",
        "postcode": "211873",
        "country": "Belarus",
        "country_code": "by"
      },
      "address": "3 Юбілейная вуліца, Pastavy, Vitsebsk Region, Belarus"
    },
    {
      "lat": 55.13583675292032,
      "lon": 26.810610560948533,
      "geoinfo": {
        "display_name": "Старая вуліца, Хацілы, Курапольскі сельскі Савет, Pastavy District, Vitsebsk Region, 211875, Belarus",
        "road": "Старая вуліца",
        "house_number": null,
        "neighbourhood": null,
        "suburb": null,
        "city_district": null,
        "city": "Курапольскі сельскі Савет",
        "state": "Vitsebsk Region",
        "postcode": "211875",
        "country": "Belarus",
        "country_code": "by"
      },
      "address": "Старая вуліца, Pastavy, 96579 Vitsebsk Region, Belarus"
    },
    {
      "lat": 55.14993949832644,
      "lon": 26.847932058481103,
      "geoinfo": {
        "display_name": "Н3303, Курапольскі сельскі Савет, Pastavy District, Vitsebsk Region, 211875, Belarus",
        "road": "Н3303",
        "house_number": null,
        "neighbourhood": null,
        "suburb": null,
        "city_district": null,
        "city": "Курапольскі сельскі Савет",
        "state": "Vitsebsk Region",
        "postcode": "211875",
        "country": "Belarus",
        "country_code": "by"
      },
      "address": "Н3303, Pastavy, 46484 Vitsebsk Region, Belarus"
    },
    {
      "lat": 55.07927120475823,
      "lon": 26.80837992649863,
      "geoinfo": {
        "display_name": "Н17441, Юнькаўскі сельскі Савет, Pastavy District, Vitsebsk Region, Belarus",
        "road": "Н17441",
        "house_number": null,
        "neighbourhood": null,
        "suburb": null,
        "city_district": null,
        "city": "Юнькаўскі сельскі Савет",
        "state": "Vitsebsk Region",
        "postcode": null,
        "country": "Belarus",
        "country_code": "by"
      },
      "address": "Н17441, Юнькаўскі сельскі Савет, Pastavy District, Vitsebsk Region, Belarus"
    },
    {
      "lat": 55.07487415097088,
      "lon": 26.821506874828042,
      "geoinfo": {
        "display_name": "Шыркі, Юнькаўскі сельскі Савет, Pastavy District, Vitsebsk Region, Belarus",
        "road": null,
        "house_number": null,
        "neighbourhood": null,
        "suburb": null,
        "city_district": null,
        "city": "Юнькаўскі сельскі Савет",
        "state": "Vitsebsk Region",
        "postcode": null,
        "country": "Belarus",
        "country_code": "by"
      },
      "address": "275, Шыркі, Юнькаўскі сельскі Савет, Pastavy District, 56013 Vitsebsk Region, Belarus"
    },
    {
      "lat": 55.12186271831701,
      "lon": 26.821900905208512,
      "geoinfo": {
        "display_name": "Заводская вуліца, Pastavy, Pastavy District, Vitsebsk Region, 211875, Belarus",
        "road": "Заводская вуліца",
        "house_number": null,
        "neighbourhood": null,
        "suburb": null,
        "city_district": null,
        "city": "Pastavy",
        "state": "Vitsebsk Region",
        "postcode": "211875",
        "country": "Belarus",
        "country_code": "by"
      },
      "address": "998, Заводская вуліца, Pastavy, Pastavy District, Vitsebsk Region, 211875, Belarus"
    },
    {
      "lat": 55.105982697259414,
      "lon": 26.78987559784744,
      "geoinfo": {
        "display_name": "Н3360, Дукі, Курапольскі сельскі Савет, Pastavy District, Vitsebsk Region, Belarus",
        "road": "Н3360",
        "house_number": null,
        "neighbourhood": null,
        "suburb": null,
        "city_district": null,
        "city": "Курапольскі сельскі Савет",
        "state": "Vitsebsk Region",
        "postcode": null,
        "country": "Belarus",
        "country_code": "by"
      },
      "address": "Н3360, Дукі, Курапольскі сельскі Савет, Pastavy District, 17740 Vitsebsk Region, Belarus"
    },
    {
      "lat": 55.14347089335903,
      "lon": 26.8956322776778,
      "geoinfo": {
        "display_name": "15, Цэнтральная вуліца, Касцяні, Юнькаўскі сельскі Савет, Pastavy District, Vitsebsk Region, 211875, Belarus",
        "road": "Цэнтральная вуліца",
        "house_number": "15",
        "neighbourhood": null,
        "suburb": null,
        "city_district": null,
        "city": "Юнькаўскі сельскі Савет",
        "state": "Vitsebsk Region",
        "postcode": "211875",
        "country": "Belarus",
        "country_code": "by"
      },
      "address": "15, Цэнтральная вуліца, Касцяні, Юнькаўскі сельскі Савет, Pastavy District, Vitsebsk Region, 211875, Belarus"
    },
    {
      "lat": 55.08170702844548,
      "lon": 26.86897584150803,
      "geoinfo": {
        "display_name": "Н3381, Lipniki, Юнькаўскі сельскі Савет, Pastavy District, Vitsebsk Region, 211875, Belarus",
        "road": "Н3381",
        "house_number": null,
        "neighbourhood": null,
        "suburb": null,
        "city_district": null,
        "city": "Юнькаўскі сельскі Савет",
        "state": "Vitsebsk Region",
        "postcode": "211875",
        "country": "Belarus",
        "country_code": "by"
      },
      "address": "Н3381, Lipniki, Юнькаўскі сельскі Савет, Pastavy District, Vitsebsk Region, 211875, Belarus"
    },
    {
      "lat": 55.10024709383655,
      "lon": 26.779559078368127,
      "geoinfo": {
        "display_name": "Н3360, Дукі, Курапольскі сельскі Савет, Pastavy District, Vitsebsk Region, Belarus",
        "road": "Н3360",
        "house_number": null,
        "neighbourhood": null,
        "suburb": null,
        "city_district": null,
        "city": "Курапольскі сельскі Савет",
        "state": "Vitsebsk Region",
        "postcode": null,
        "country": "Belarus",
        "country_code": "by"
      },
      "address": "Н3360, Дукі, Курапольскі сельскі Савет, Pastavy District, 02892 Vitsebsk Region, Belarus"
    },
    {
      "lat": 55.109544155533136,
      "lon": 26.88361331371087,
      "geoinfo": {
        "display_name": "Р110, Pastavy, Pastavy District, Vitsebsk Region, 211873, Belarus",
        "road": "Р110",
        "house_number": null,
        "neighbourhood": null,
        "suburb": null,
        "city_district": null,
        "city": "Pastavy",
        "state": "Vitsebsk Region",
        "postcode": "211873",
        "country": "Belarus",
        "country_code": "by"
      },
      "address": "Р110, Pastavy, Pastavy District, Vitsebsk Region, 211873, Belarus"
    }
  ],
  "updated_at": "2025-10-19T03:35:21.954001+00:00",
  "_kind": "geo_samples"
}