{
  "country_code": "BY",
  "country": "Belarus",
  "city": "Pinsk",
  "geonameid": 623549,
  "target_addresses": 2,
  "samples": [
    {
      "lat": 52.135405422163366,
      "lon": 26.059320602741987,
      "geoinfo": {
        "display_name": "праспект Жалтоўскага, Pinsk, Brest Region, 225705, Belarus",
        "road": "праспект Жалтоўскага",
        "house_number": null,
        "neighbourhood": null,
        "suburb": null,
        "city_district": null,
        "city": "Pinsk",
        "state": "Brest Region",
        "postcode": "225705",
        "country": "Belarus",
        "country_code": "by"
      },
      "address": "праспект Жалтоўскага, Pinsk, Brest Region, Belarus"
    },
    {
      "lat": 52.1038290747592,
      "lon": 26.032023095608128,
      "geoinfo": {
        "display_name": "Малоткавіцкі сельскі Савет, Pinsk District, Brest Region, Belarus",
        "road": null,
        "house_number": null,
        "neighbourhood": null,
        "suburb": null,
        "city_district": null,
        "city": "Малоткавіцкі сельскі Савет",
        "state": "Brest Region",
        "postcode": null,
        "country": "Belarus",
        "country_code": "by"
      },
      "address": "Pinsk, Brest Region, Belarus"
    },
    {
      "lat": 52.12409188660543,
      "lon": 26.037783033281094,
      "geoinfo": {
        "display_name": "праезд Каліноўскага, Бітумная база ДЭУ-26, Заходні прамузел, Pinsk, Brest Region, 224144, Belarus",
        "road": "праезд Каліноўскага",
        "house_number": null,
        "neighbourhood": null,
        "suburb": "Заходні прамузел",
        "city_district": null,
        "city": "Pinsk",
        "state": "Brest Region",
        "postcode": "224144",
        "country": "Belarus",
        "country_code": "by"
      },
      "address": "праезд Каліноўскага, Бітумная база ДЭУ-26, Заходні прамузел, Pinsk, Brest Region, 224144, Belarus"
    },
    {
      "lat": 52.162010820290256,
      "lon": 26.062732001538212,
      "geoinfo": {
        "display_name": "402-ы км дарогі М10, Аснежыцкі сельскі Савет, Pinsk District, Brest Region, 225705, Belarus",
        "road": null,
        "house_number": null,
        "neighbourhood": null,
        "suburb": null,
        "city_district": null,
        "city": "Аснежыцкі сельскі Савет",
        "state": "Brest Region",
        "postcode": "225705",
        "country": "Belarus",
        "country_code": "by"
      },
      "address": "402-ы км дарогі М10, Аснежыцкі сельскі Савет, Pinsk District, Brest Region, 225705, Belarus"
    }
  ],
  "updated_at": "2025-10-19T03:19:07.472572+00:00",
  "_kind": "geo_samples"
}