{
  "country_code": "BY",
  "country": "Belarus",
  "city": "Žytkavičy",
  "geonameid": 618815,
  "target_addresses": 2,
  "samples": [
    {
      "lat": 52.215816553670535,
      "lon": 27.805089581677077,
      "geoinfo": {
        "display_name": "Западны, Людзяневіцкі сельскі Савет, Zhytkavichy District, Homyel Region, 247951, Belarus",
        "road": null,
        "house_number": null,
        "neighbourhood": "Западны",
        "suburb": null,
        "city_district": null,
        "city": "Людзяневіцкі сельскі Савет",
        "state": "Homyel Region",
        "postcode": "247951",
        "country": "Belarus",
        "country_code": "by"
      },
      "address": "Западны, Žytkavičy, Homyel Region, Belarus"
    },
    {
      "lat": 52.18768035883884,
      "lon": 27.870432924327456,
      "geoinfo": {
        "display_name": "Zhytkavichy, Zhytkavichy District, Homyel Region, 247952, Belarus",
        "road": null,
        "house_number": null,
        "neighbourhood": null,
        "suburb": null,
        "city_district": null,
        "city": "Zhytkavichy",
        "state": "Homyel Region",
        "postcode": "247952",
        "country": "Belarus",
        "country_code": "by"
      },
      "address": "Žytkavičy, Homyel Region, Belarus"
    },
    {
      "lat": 52.21727571881519,
      "lon": 27.83017442057485,
      "geoinfo": {
        "display_name": "Кастрычніцкая вуліца, Zhytkavichy, Zhytkavichy District, Homyel Region, 247951, Belarus",
        "road": "Кастрычніцкая вуліца",
        "house_number": null,
        "neighbourhood": null,
        "suburb": null,
        "city_district": null,
        "city": "Zhytkavichy",
        "state": "Homyel Region",
        "postcode": "247951",
        "country": "Belarus",
        "country_code": "by"
      },
      "address": "040, Кастрычніцкая вуліца, Zhytkavichy, Zhytkavichy District, Homyel Region, 247951, Belarus"
    },
    {
      "lat": 52.216078201747,
      "lon": 27.910027595625873,
      "geoinfo": {
        "display_name": "Востранка, Руднянскі сельскі Савет, Zhytkavichy District, Homyel Region, Belarus",
        "road": null,
        "house_number": null,
        "neighbourhood": null,
        "suburb": null,
        "city_district": null,
        "city": "Руднянскі сельскі Савет",
        "state": "Homyel Region",
        "postcode": null,
        "country": "Belarus",
        "country_code": "by"
      },
      "address": "117, Востранка, Руднянскі сельскі Савет, Zhytkavichy District, 13458 Homyel Region, Belarus"
    }
  ],
  "updated_at": "2025-10-19T02:59:15.154883+00:00",
  "_kind": "geo_samples"
}