{
  "country_code": "AD",
  "country": "Andorra",
  "city": "les Escaldes",
  "geonameid": 3040051,
  "target_addresses": 55,
  "samples": [
    {
      "lat": 42.51586090326709,
      "lon": 1.5662164167884038,
      "geoinfo": {
        "display_name": "Carretera d'Engolasters, Bordes d'Engolasters, Engolasters, Escaldes-Engordany, AD700, Andorra",
        "road": "Carretera d'Engolasters",
        "house_number": null,
        "neighbourhood": null,
        "suburb": null,
        "city_district": null,
        "city": "Engolasters",
        "state": null,
        "postcode": "AD700",
        "country": "Andorra",
        "country_code": "ad"
      },
      "address": "Carretera d'Engolasters, les Escaldes, Andorra"
    },
    {
      "lat": 42.51780907069293,
      "lon": 1.486282707081701,
      "geoinfo": {
        "display_name": "Clot de la Coma del Prat, La Massana, AD400, Andorra",
        "road": null,
        "house_number": null,
        "neighbourhood": null,
        "suburb": null,
        "city_district": null,
        "city": "La Massana",
        "state": null,
        "postcode": "AD400",
        "country": "Andorra",
        "country_code": "ad"
      },
      "address": "les Escaldes, Andorra"
    },
    {
      "lat": 42.49500859285745,
      "lon": 1.5633463672263184,
      "geoinfo": {
        "display_name": "Madriu Perafita Claror Valley, Pont d'Entremesaigües, Entremesaigües, les Escaldes, Escaldes-Engordany, AD700, Andorra",
        "road": "Pont d'Entremesaigües",
        "house_number": null,
        "neighbourhood": null,
        "suburb": null,
        "city_district": null,
        "city": "les Escaldes",
        "state": null,
        "postcode": "AD700",
        "country": "Andorra",
        "country_code": "ad"
      },
      "address": "Pont d'Entremesaigües, les Escaldes, Andorra"
    },
    {
      "lat": 42.50967171841337,
      "lon": 1.5381186655865198,
      "geoinfo": {
        "display_name": "Alt Benestar Cafè, 2, Carrer François Mitterrand, les Escaldes, Escaldes-Engordany, AD700, Andorra",
        "road": "Carrer François Mitterrand",
        "house_number": "2",
        "neighbourhood": null,
        "suburb": null,
        "city_district": null,
        "city": "les Escaldes",
        "state": null,
        "postcode": "AD700",
        "country": "Andorra",
        "country_code": "ad"
      },
      "address": "2 Carrer François Mitterrand, les Escaldes, Andorra"
    },
    {
      "lat": 42.543892024938444,
      "lon": 1.5496523339135824,
      "geoinfo": {
        "display_name": "CS-340, Ordino, AD300, Andorra",
        "road": "CS-340",
        "house_number": null,
        "neighbourhood": null,
        "suburb": null,
        "city_district": null,
        "city": "Ordino",
        "state": null,
        "postcode": "AD300",
        "country": "Andorra",
        "country_code": "ad"
      },
      "address": "CS-340, les Escaldes, Andorra"
    },
    {
      "lat": 42.50275342787029,
      "lon": 1.5379862521798946,
      "geoinfo": {
        "display_name": "Carretera de la Comella, les Escaldes, Escaldes-Engordany, AD700, Andorra",
        "road": "Carretera de la Comella",
        "house_number": null,
        "neighbourhood": null,
        "suburb": null,
        "city_district": null,
        "city": "les Escaldes",
        "state": null,
        "postcode": "AD700",
        "country": "Andorra",
        "country_code": "ad"
      },
      "address": "Carretera de la Comella, les Escaldes, Andorra"
    },
    {
      "lat": 42.506267290154774,
      "lon": 1.5328816530103706,
      "geoinfo": {
        "display_name": "CG-1, La Comella, Andorra la Vella, AD500, Andorra",
        "road": "CG-1",
        "house_number": null,
        "neighbourhood": null,
        "suburb": null,
        "city_district": null,
        "city": "Andorra la Vella",
        "state": null,
        "postcode": "AD500",
        "country": "Andorra",
        "country_code": "ad"
      },
      "address": "CG-1, les Escaldes, Andorra"
    },
    {
      "lat": 42.500324102244896,
      "lon": 1.5474601608430931,
      "geoinfo": {
        "display_name": "Camí de la Muntanya, Entremesaigües, les Escaldes, Escaldes-Engordany, AD700, Andorra",
        "road": "Camí de la Muntanya",
        "house_number": null,
        "neighbourhood": null,
        "suburb": null,
        "city_district": null,
        "city": "les Escaldes",
        "state": null,
        "postcode": "AD700",
        "country": "Andorra",
        "country_code": "ad"
      },
      "address": "Camí de la Muntanya, les Escaldes, Andorra"
    },
    {
      "lat": 42.50339284916743,
      "lon": 1.5573180214364213,
      "geoinfo": {
        "display_name": "Pont de Sassanat, Entremesaigües, les Escaldes, Escaldes-Engordany, AD700, Andorra",
        "road": "Pont de Sassanat",
        "house_number": null,
        "neighbourhood": null,
        "suburb": null,
        "city_district": null,
        "city": "les Escaldes",
        "state": null,
        "postcode": "AD700",
        "country": "Andorra",
        "country_code": "ad"
      },
      "address": "Pont de Sassanat, les Escaldes, Andorra"
    },
    {
      "lat": 42.47159820524919,
      "lon": 1.5068317376282456,
      "geoinfo": {
        "display_name": "CS-120, Certers, Sant Julia de Loria, AD600, Andorra",
        "road": "CS-120",
        "house_number": null,
        "neighbourhood": null,
        "suburb": null,
        "city_district": null,
        "city": "Certers",
        "state": null,
        "postcode": "AD600",
        "country": "Andorra",
        "country_code": "ad"
      },
      "address": "CS-120, les Escaldes, Andorra"
    },
    {
      "lat": 42.52295012798304,
      "lon": 1.5474843481794243,
      "geoinfo": {
        "display_name": "Túnel de les dos Valires, Els Vilars, Encamp, Escaldes-Engordany, AD700, Andorra",
        "road": "Túnel de les dos Valires",
        "house_number": null,
        "neighbourhood": null,
        "suburb": null,
        "city_district": null,
        "city": "Encamp",
        "state": null,
        "postcode": "AD700",
        "country": "Andorra",
        "country_code": "ad"
      },
      "address": "Túnel de les dos Valires, les Escaldes, Andorra"
    },
    {
      "lat": 42.5112578588315,
      "lon": 1.5389262215126471,
      "geoinfo": {
        "display_name": "Mola Park Atiram Hotel, 22, Carrer Josep Viladomat, Els Vilars, les Escaldes, Escaldes-Engordany, AD700, Andorra",
        "road": "Carrer Josep Viladomat",
        "house_number": "22",
        "neighbourhood": null,
        "suburb": null,
        "city_district": null,
        "city": "les Escaldes",
        "state": null,
        "postcode": "AD700",
        "country": "Andorra",
        "country_code": "ad"
      },
      "address": "22 Carrer Josep Viladomat, les Escaldes, Andorra"
    },
    {
      "lat": 42.50667373558426,
      "lon": 1.5755236864192455,
      "geoinfo": {
        "display_name": "Camí dels Matxos, Entremesaigües, Engolasters, Escaldes-Engordany, AD700, Andorra",
        "road": "Camí dels Matxos",
        "house_number": null,
        "neighbourhood": null,
        "suburb": null,
        "city_district": null,
        "city": "Engolasters",
        "state": null,
        "postcode": "AD700",
        "country": "Andorra",
        "country_code": "ad"
      },
      "address": "Camí dels Matxos, les Escaldes, Andorra"
    },
    {
      "lat": 42.512910638904216,
      "lon": 1.5380585894667698,
      "geoinfo": {
        "display_name": "Carrer Hortalets del Ribot, Els Vilars, les Escaldes, Escaldes-Engordany, AD700, Andorra",
        "road": "Carrer Hortalets del Ribot",
        "house_number": null,
        "neighbourhood": null,
        "suburb": null,
        "city_district": null,
        "city": "les Escaldes",
        "state": null,
        "postcode": "AD700",
        "country": "Andorra",
        "country_code": "ad"
      },
      "address": "Carrer Hortalets del Ribot, les Escaldes, Andorra"
    },
    {
      "lat": 42.51311768398553,
      "lon": 1.5386422304672054,
      "geoinfo": {
        "display_name": "Cami del Pui, Els Vilars, les Escaldes, Escaldes-Engordany, AD700, Andorra",
        "road": "Cami del Pui",
        "house_number": null,
        "neighbourhood": null,
        "suburb": null,
        "city_district": null,
        "city": "les Escaldes",
        "state": null,
        "postcode": "AD700",
        "country": "Andorra",
        "country_code": "ad"
      },
      "address": "Cami del Pui, les Escaldes, Andorra"
    },
    {
      "lat": 42.508098256905726,
      "lon": 1.5637470199015029,
      "geoinfo": {
        "display_name": "Font de la Closa, Cami de la Font de la Closa, Bordes d'Engolasters, Engolasters, Escaldes-Engordany, AD700, Andorra",
        "road": "Cami de la Font de la Closa",
        "house_number": null,
        "neighbourhood": null,
        "suburb": null,
        "city_district": null,
        "city": "Engolasters",
        "state": null,
        "postcode": "AD700",
        "country": "Andorra",
        "country_code": "ad"
      },
      "address": "Cami de la Font de la Closa, les Escaldes, Andorra"
    },
    {
      "lat": 42.513955448896134,
      "lon": 1.5250733361436544,
      "geoinfo": {
        "display_name": "Túnel del Pont Pla, Centre històric, Andorra la Vella, AD500, Andorra",
        "road": "Túnel del Pont Pla",
        "house_number": null,
        "neighbourhood": "Centre històric",
        "suburb": null,
        "city_district": null,
        "city": "Andorra la Vella",
        "state": null,
        "postcode": "AD500",
        "country": "Andorra",
        "country_code": "ad"
      },
      "address": "Túnel del Pont Pla, les Escaldes, Andorra"
    },
    {
      "lat": 42.51200797743502,
      "lon": 1.5349879045008363,
      "geoinfo": {
        "display_name": "Avinguda Fiter i Rossell, Els Vilars, les Escaldes, Escaldes-Engordany, AD700, Andorra",
        "road": "Avinguda Fiter i Rossell",
        "house_number": null,
        "neighbourhood": null,
        "suburb": null,
        "city_district": null,
        "city": "les Escaldes",
        "state": null,
        "postcode": "AD700",
        "country": "Andorra",
        "country_code": "ad"
      },
      "address": "Avinguda Fiter i Rossell, les Escaldes, Andorra"
    },
    {
      "lat": 42.50835863694917,
      "lon": 1.5379018506543949,
      "geoinfo": {
        "display_name": "Carrer Ciutat de Sabadell, les Escaldes, Escaldes-Engordany, AD700, Andorra",
        "road": "Carrer Ciutat de Sabadell",
        "house_number": null,
        "neighbourhood": null,
        "suburb": null,
        "city_district": null,
        "city": "les Escaldes",
        "state": null,
        "postcode": "AD700",
        "country": "Andorra",
        "country_code": "ad"
      },
      "address": "Carrer Ciutat de Sabadell, les Escaldes, Andorra"
    },
    {
      "lat": 42.50950231627014,
      "lon": 1.5507806176388328,
      "geoinfo": {
        "display_name": "Urbanització Can Noguer, Bordes del Vilar, les Escaldes, Escaldes-Engordany, AD700, Andorra",
        "road": "Urbanització Can Noguer",
        "house_number": null,
        "neighbourhood": null,
        "suburb": null,
        "city_district": null,
        "city": "les Escaldes",
        "state": null,
        "postcode": "AD700",
        "country": "Andorra",
        "country_code": "ad"
      },
      "address": "Urbanització Can Noguer, les Escaldes, Andorra"
    },
    {
      "lat": 42.536555097454574,
      "lon": 1.4931194738870146,
      "geoinfo": {
        "display_name": "CS-420, La Massana, AD400, Andorra",
        "road": "CS-420",
        "house_number": null,
        "neighbourhood": null,
        "suburb": null,
        "city_district": null,
        "city": "La Massana",
        "state": null,
        "postcode": "AD400",
        "country": "Andorra",
        "country_code": "ad"
      },
      "address": "CS-420, les Escaldes, Andorra"
    },
    {
      "lat": 42.52996025311958,
      "lon": 1.5188066292202385,
      "geoinfo": {
        "display_name": "CG-3, Sispony, La Massana, AD400, Andorra",
        "road": "CG-3",
        "house_number": null,
        "neighbourhood": null,
        "suburb": null,
        "city_district": null,
        "city": "La Massana",
        "state": null,
        "postcode": "AD400",
        "country": "Andorra",
        "country_code": "ad"
      },
      "address": "CG-3, les Escaldes, Andorra"
    },
    {
      "lat": 42.51183788526959,
      "lon": 1.5680200643482456,
      "geoinfo": {
        "display_name": "Circuit de les Fonts, Bordes d'Engolasters, Engolasters, Escaldes-Engordany, AD700, Andorra",
        "road": "Circuit de les Fonts",
        "house_number": null,
        "neighbourhood": null,
        "suburb": null,
        "city_district": null,
        "city": "Engolasters",
        "state": null,
        "postcode": "AD700",
        "country": "Andorra",
        "country_code": "ad"
      },
      "address": "Circuit de les Fonts, les Escaldes, Andorra"
    },
    {
      "lat": 42.495469026830705,
      "lon": 1.5145003689789858,
      "geoinfo": {
        "display_name": "Comella datacenter Andorra Telecom, 162, Carretera de la Comella, Andorra la Vella, AD500, Andorra",
        "road": "Carretera de la Comella",
        "house_number": "162",
        "neighbourhood": null,
        "suburb": null,
        "city_district": null,
        "city": "Andorra la Vella",
        "state": null,
        "postcode": "AD500",
        "country": "Andorra",
        "country_code": "ad"
      },
      "address": "162 Carretera de la Comella, les Escaldes, Andorra"
    },
    {
      "lat": 42.508850679803125,
      "lon": 1.5373566958086788,
      "geoinfo": {
        "display_name": "Avinguda Consell de la Terra, les Escaldes, Escaldes-Engordany, AD700, Andorra",
        "road": "Avinguda Consell de la Terra",
        "house_number": null,
        "neighbourhood": null,
        "suburb": null,
        "city_district": null,
        "city": "les Escaldes",
        "state": null,
        "postcode": "AD700",
        "country": "Andorra",
        "country_code": "ad"
      },
      "address": "Avinguda Consell de la Terra, les Escaldes, Andorra"
    }
  ],
  "updated_at": "2025-10-16T10:14:11.179334+00:00",
  "_kind": "geo_samples"
}