{
  "country_code": "TG",
  "country": "Togo",
  "city": "Anié",
  "geonameid": 2367981,
  "target_addresses": 5,
  "samples": [
    {
      "lat": 7.719409655628968,
      "lon": 1.1913082024681774,
      "geoinfo": {
        "display_name": "Lomé - Cinkassé, Babamé, Anié, Plateaux Region, Togo",
        "road": "Lomé - Cinkassé",
        "house_number": null,
        "neighbourhood": null,
        "suburb": "Babamé",
        "city_district": null,
        "city": "Anié",
        "state": "Plateaux Region",
        "postcode": null,
        "country": "Togo",
        "country_code": "tg"
      },
      "address": "Lomé - Cinkassé, Anié, Plateaux Region, Togo"
    },
    {
      "lat": 7.74446982892006,
      "lon": 1.1995844173177885,
      "geoinfo": {
        "display_name": "Anié, Babamé, Anié, Plateaux Region, Togo",
        "road": null,
        "house_number": null,
        "neighbourhood": null,
        "suburb": "Babamé",
        "city_district": null,
        "city": "Anié",
        "state": "Plateaux Region",
        "postcode": null,
        "country": "Togo",
        "country_code": "tg"
      },
      "address": "Babamé, Anié, Plateaux Region, Togo"
    },
    {
      "lat": 7.739146146551629,
      "lon": 1.168079801719132,
      "geoinfo": {
        "display_name": "Kpotamé, Anié, Plateaux Region, Togo",
        "road": null,
        "house_number": null,
        "neighbourhood": null,
        "suburb": "Kpotamé",
        "city_district": null,
        "city": "Anié",
        "state": "Plateaux Region",
        "postcode": null,
        "country": "Togo",
        "country_code": "tg"
      },
      "address": "Kpotamé, Anié, Plateaux Region, Togo"
    },
    {
      "lat": 7.757408151327049,
      "lon": 1.1587638847034136,
      "geoinfo": {
        "display_name": "Konigbo, Plateaux Region, Togo",
        "road": null,
        "house_number": null,
        "neighbourhood": null,
        "suburb": null,
        "city_district": null,
        "city": "Konigbo",
        "state": "Plateaux Region",
        "postcode": null,
        "country": "Togo",
        "country_code": "tg"
      },
      "address": "Anié, Plateaux Region, Togo"
    },
    {
      "lat": 7.747848917127662,
      "lon": 1.2081097982406848,
      "geoinfo": {
        "display_name": "Anié, Mission, Anié, Plateaux Region, Togo",
        "road": null,
        "house_number": null,
        "neighbourhood": null,
        "suburb": "Mission",
        "city_district": null,
        "city": "Anié",
        "state": "Plateaux Region",
        "postcode": null,
        "country": "Togo",
        "country_code": "tg"
      },
      "address": "Mission, Anié, Plateaux Region, Togo"
    }
  ],
  "updated_at": "2025-10-16T23:14:09.601752+00:00",
  "_kind": "geo_samples"
}