{
  "country_code": "TG",
  "country": "Togo",
  "city": "Dapaong",
  "geonameid": 2367164,
  "target_addresses": 5,
  "samples": [
    {
      "lat": 10.903407479441794,
      "lon": 0.21548218530079913,
      "geoinfo": {
        "display_name": "Route de Koni, Dapaong, Préfecture de Kpendjal, Savanes Region, Togo",
        "road": "Route de Koni",
        "house_number": null,
        "neighbourhood": null,
        "suburb": null,
        "city_district": null,
        "city": "Dapaong",
        "state": "Savanes Region",
        "postcode": null,
        "country": "Togo",
        "country_code": "tg"
      },
      "address": "Route de Koni, Dapaong, Savanes Region, Togo"
    },
    {
      "lat": 10.871977958413128,
      "lon": 0.19453914235944392,
      "geoinfo": {
        "display_name": "Dapaong, Préfecture de Kpendjal, Savanes Region, Togo",
        "road": null,
        "house_number": null,
        "neighbourhood": null,
        "suburb": null,
        "city_district": null,
        "city": "Dapaong",
        "state": "Savanes Region",
        "postcode": null,
        "country": "Togo",
        "country_code": "tg"
      },
      "address": "Dapaong, Savanes Region, Togo"
    },
    {
      "lat": 10.872715293351096,
      "lon": 0.2070129499691985,
      "geoinfo": {
        "display_name": "Rue de l'École Primaire, Dapaong, Préfecture de Kpendjal, Savanes Region, Togo",
        "road": "Rue de l'École Primaire",
        "house_number": null,
        "neighbourhood": null,
        "suburb": null,
        "city_district": null,
        "city": "Dapaong",
        "state": "Savanes Region",
        "postcode": null,
        "country": "Togo",
        "country_code": "tg"
      },
      "address": "Rue de l'École Primaire, Dapaong, Savanes Region, Togo"
    },
    {
      "lat": 10.85922176439309,
      "lon": 0.23568808591402773,
      "geoinfo": {
        "display_name": "Préfecture de Kpendjal, Savanes Region, Togo",
        "road": null,
        "house_number": null,
        "neighbourhood": null,
        "suburb": null,
        "city_district": null,
        "city": null,
        "state": "Savanes Region",
        "postcode": null,
        "country": "Togo",
        "country_code": "tg"
      },
      "address": "776, Dapaong, 65452 Savanes Region, Togo"
    },
    {
      "lat": 10.84404993784381,
      "lon": 0.20461591778693683,
      "geoinfo": {
        "display_name": "Dapaong, Préfecture de Kpendjal, Savanes Region, Togo",
        "road": null,
        "house_number": null,
        "neighbourhood": null,
        "suburb": null,
        "city_district": null,
        "city": "Dapaong",
        "state": "Savanes Region",
        "postcode": null,
        "country": "Togo",
        "country_code": "tg"
      },
      "address": "519, Dapaong, Préfecture de Kpendjal, 26592 Savanes Region, Togo"
    },
    {
      "lat": 10.853129995248327,
      "lon": 0.1911533442064511,
      "geoinfo": {
        "display_name": "Dapaong, Préfecture de Kpendjal, Savanes Region, Togo",
        "road": null,
        "house_number": null,
        "neighbourhood": null,
        "suburb": null,
        "city_district": null,
        "city": "Dapaong",
        "state": "Savanes Region",
        "postcode": null,
        "country": "Togo",
        "country_code": "tg"
      },
      "address": "003, Dapaong, Préfecture de Kpendjal, 42468 Savanes Region, Togo"
    },
    {
      "lat": 10.893975837933132,
      "lon": 0.17535476454691717,
      "geoinfo": {
        "display_name": "N1, Dapaong, Préfecture de Kpendjal, Savanes Region, Togo",
        "road": "N1",
        "house_number": null,
        "neighbourhood": null,
        "suburb": null,
        "city_district": null,
        "city": "Dapaong",
        "state": "Savanes Region",
        "postcode": null,
        "country": "Togo",
        "country_code": "tg"
      },
      "address": "N1, Dapaong, Préfecture de Kpendjal, 66288 Savanes Region, Togo"
    },
    {
      "lat": 10.87515080100053,
      "lon": 0.202413948647893,
      "geoinfo": {
        "display_name": "Hotel Elephant, Lomé - Cinkassé, Dapaong, Préfecture de Kpendjal, Savanes Region, Togo",
        "road": "Lomé - Cinkassé",
        "house_number": null,
        "neighbourhood": null,
        "suburb": null,
        "city_district": null,
        "city": "Dapaong",
        "state": "Savanes Region",
        "postcode": null,
        "country": "Togo",
        "country_code": "tg"
      },
      "address": "946, Lomé - Cinkassé, Dapaong, 18207 Savanes Region, Togo"
    }
  ],
  "updated_at": "2025-10-19T05:44:44.393832+00:00",
  "_kind": "geo_samples"
}