{
  "country_code": "NA",
  "country": "Namibia",
  "city": "Gobabis",
  "geonameid": 3357247,
  "target_addresses": 6,
  "samples": [
    {
      "lat": -22.47954124104358,
      "lon": 19.007866537314264,
      "geoinfo": {
        "display_name": "Nossobville, Gobabis, 11001, Namibia",
        "road": null,
        "house_number": null,
        "neighbourhood": null,
        "suburb": "Nossobville",
        "city_district": null,
        "city": "Gobabis",
        "state": null,
        "postcode": "11001",
        "country": "Namibia",
        "country_code": "na"
      },
      "address": "Nossobville, Gobabis, Namibia"
    },
    {
      "lat": -22.456142689344816,
      "lon": 18.989303013515396,
      "geoinfo": {
        "display_name": "Gobabis Golf Course, Ing van der Zaag Street, Nossobville, Gobabis, 11001, Namibia",
        "road": "Ing van der Zaag Street",
        "house_number": null,
        "neighbourhood": null,
        "suburb": "Nossobville",
        "city_district": null,
        "city": "Gobabis",
        "state": null,
        "postcode": "11001",
        "country": "Namibia",
        "country_code": "na"
      },
      "address": "Ing van der Zaag Street, Gobabis, Namibia"
    },
    {
      "lat": -22.43819086872463,
      "lon": 18.97885415787423,
      "geoinfo": {
        "display_name": "Gobabis Industrial Centre, Gobabis, 11001, Namibia",
        "road": null,
        "house_number": null,
        "neighbourhood": null,
        "suburb": "Gobabis Industrial Centre",
        "city_district": null,
        "city": "Gobabis",
        "state": null,
        "postcode": "11001",
        "country": "Namibia",
        "country_code": "na"
      },
      "address": "Gobabis Industrial Centre, Gobabis, Namibia"
    },
    {
      "lat": -22.434451939222622,
      "lon": 18.991402398653886,
      "geoinfo": {
        "display_name": "E. Handura Street, Epako, Gobabis, 11001, Namibia",
        "road": "E. Handura Street",
        "house_number": null,
        "neighbourhood": null,
        "suburb": "Epako",
        "city_district": null,
        "city": "Gobabis",
        "state": null,
        "postcode": "11001",
        "country": "Namibia",
        "country_code": "na"
      },
      "address": "E. Handura Street, Gobabis, Namibia"
    },
    {
      "lat": -22.461077312257753,
      "lon": 18.94560940272047,
      "geoinfo": {
        "display_name": "D1805, 11001, Namibia",
        "road": "D1805",
        "house_number": null,
        "neighbourhood": null,
        "suburb": null,
        "city_district": null,
        "city": null,
        "state": null,
        "postcode": "11001",
        "country": "Namibia",
        "country_code": "na"
      },
      "address": "D1805, Gobabis, Namibia"
    },
    {
      "lat": -22.420253336898448,
      "lon": 18.955421459981096,
      "geoinfo": {
        "display_name": "C30, Namibia",
        "road": "C30",
        "house_number": null,
        "neighbourhood": null,
        "suburb": null,
        "city_district": null,
        "city": null,
        "state": null,
        "postcode": null,
        "country": "Namibia",
        "country_code": "na"
      },
      "address": "C30, Gobabis, Namibia"
    },
    {
      "lat": -22.438429888151624,
      "lon": 19.004988077219277,
      "geoinfo": {
        "display_name": "Trans-Kalahari Corridor, Nossobville, Gobabis, Namibia",
        "road": "Trans-Kalahari Corridor",
        "house_number": null,
        "neighbourhood": null,
        "suburb": "Nossobville",
        "city_district": null,
        "city": "Gobabis",
        "state": null,
        "postcode": null,
        "country": "Namibia",
        "country_code": "na"
      },
      "address": "947, Trans-Kalahari Corridor, Nossobville, 96825 Gobabis, Namibia"
    },
    {
      "lat": -22.46442546743234,
      "lon": 19.000162463739525,
      "geoinfo": {
        "display_name": "Nossobville, Gobabis, 11001, Namibia",
        "road": null,
        "house_number": null,
        "neighbourhood": null,
        "suburb": "Nossobville",
        "city_district": null,
        "city": "Gobabis",
        "state": null,
        "postcode": "11001",
        "country": "Namibia",
        "country_code": "na"
      },
      "address": "784, Nossobville, Gobabis, 11001, Namibia"
    },
    {
      "lat": -22.441174166219668,
      "lon": 19.004760129530787,
      "geoinfo": {
        "display_name": "Trans-Kalahari Corridor, Nossobville, Gobabis, Namibia",
        "road": "Trans-Kalahari Corridor",
        "house_number": null,
        "neighbourhood": null,
        "suburb": "Nossobville",
        "city_district": null,
        "city": "Gobabis",
        "state": null,
        "postcode": null,
        "country": "Namibia",
        "country_code": "na"
      },
      "address": "927, Trans-Kalahari Corridor, Nossobville, 45410 Gobabis, Namibia"
    },
    {
      "lat": -22.446424612346,
      "lon": 18.957571803201787,
      "geoinfo": {
        "display_name": "Goba Lodge Restaurant, Goba Lodge, Gobabis, 11001, Namibia",
        "road": "Goba Lodge",
        "house_number": null,
        "neighbourhood": null,
        "suburb": null,
        "city_district": null,
        "city": "Gobabis",
        "state": null,
        "postcode": "11001",
        "country": "Namibia",
        "country_code": "na"
      },
      "address": "935, Goba Lodge, 11001 Gobabis, Namibia"
    },
    {
      "lat": -22.4584682464066,
      "lon": 18.99971006066843,
      "geoinfo": {
        "display_name": "Nossobville, Gobabis, 11001, Namibia",
        "road": null,
        "house_number": null,
        "neighbourhood": null,
        "suburb": "Nossobville",
        "city_district": null,
        "city": "Gobabis",
        "state": null,
        "postcode": "11001",
        "country": "Namibia",
        "country_code": "na"
      },
      "address": "437, Nossobville, Gobabis, 11001, Namibia"
    },
    {
      "lat": -22.439358732134078,
      "lon": 19.004915444204812,
      "geoinfo": {
        "display_name": "Trans-Kalahari Corridor, Nossobville, Gobabis, Namibia",
        "road": "Trans-Kalahari Corridor",
        "house_number": null,
        "neighbourhood": null,
        "suburb": "Nossobville",
        "city_district": null,
        "city": "Gobabis",
        "state": null,
        "postcode": null,
        "country": "Namibia",
        "country_code": "na"
      },
      "address": "263, Trans-Kalahari Corridor, Nossobville, 18736 Gobabis, Namibia"
    }
  ],
  "updated_at": "2025-10-19T08:42:10.251103+00:00",
  "_kind": "geo_samples"
}