{
  "country_code": "NA",
  "country": "Namibia",
  "city": "Katutura",
  "geonameid": 3356294,
  "target_addresses": 6,
  "samples": [
    {
      "lat": -22.555865625033444,
      "lon": 17.082285488657934,
      "geoinfo": {
        "display_name": "Independence Avenue, Eros, Windhoek, Khomas, 10007, Namibia",
        "road": "Independence Avenue",
        "house_number": null,
        "neighbourhood": null,
        "suburb": "Eros",
        "city_district": null,
        "city": "Windhoek",
        "state": "Khomas",
        "postcode": "10007",
        "country": "Namibia",
        "country_code": "na"
      },
      "address": "Independence Avenue, Katutura, Khomas, Namibia"
    },
    {
      "lat": -22.516166534721236,
      "lon": 17.036836980497878,
      "geoinfo": {
        "display_name": "Claudius Kandovazu Road, Big Bend, Wanaheda, Windhoek, Khomas, 13007, Namibia",
        "road": "Claudius Kandovazu Road",
        "house_number": null,
        "neighbourhood": null,
        "suburb": "Wanaheda",
        "city_district": null,
        "city": "Windhoek",
        "state": "Khomas",
        "postcode": "13007",
        "country": "Namibia",
        "country_code": "na"
      },
      "address": "Claudius Kandovazu Road, Katutura, Khomas, Namibia"
    },
    {
      "lat": -22.516700763943703,
      "lon": 17.052158030182866,
      "geoinfo": {
        "display_name": "Orion Street, Katutura, Windhoek, Khomas, 13007, Namibia",
        "road": "Orion Street",
        "house_number": null,
        "neighbourhood": null,
        "suburb": "Katutura",
        "city_district": null,
        "city": "Windhoek",
        "state": "Khomas",
        "postcode": "13007",
        "country": "Namibia",
        "country_code": "na"
      },
      "address": "Orion Street, Katutura, Khomas, Namibia"
    },
    {
      "lat": -22.51308093509557,
      "lon": 17.05424908930003,
      "geoinfo": {
        "display_name": "Hawaii Street, Katutura, Windhoek, Khomas, 10028, Namibia",
        "road": "Hawaii Street",
        "house_number": null,
        "neighbourhood": null,
        "suburb": "Katutura",
        "city_district": null,
        "city": "Windhoek",
        "state": "Khomas",
        "postcode": "10028",
        "country": "Namibia",
        "country_code": "na"
      },
      "address": "Hawaii Street, Katutura, Khomas, Namibia"
    },
    {
      "lat": -22.519047075825604,
      "lon": 17.07317654948243,
      "geoinfo": {
        "display_name": "Western Bypass, Katutura, Windhoek, Khomas, 10028, Namibia",
        "road": "Western Bypass",
        "house_number": null,
        "neighbourhood": null,
        "suburb": "Katutura",
        "city_district": null,
        "city": "Windhoek",
        "state": "Khomas",
        "postcode": "10028",
        "country": "Namibia",
        "country_code": "na"
      },
      "address": "Western Bypass, Katutura, Khomas, Namibia"
    },
    {
      "lat": -22.508155098794717,
      "lon": 17.104233988598025,
      "geoinfo": {
        "display_name": "Khomas, Namibia",
        "road": null,
        "house_number": null,
        "neighbourhood": null,
        "suburb": null,
        "city_district": null,
        "city": null,
        "state": "Khomas",
        "postcode": null,
        "country": "Namibia",
        "country_code": "na"
      },
      "address": "Katutura, Khomas, Namibia"
    },
    {
      "lat": -22.506088164156374,
      "lon": 17.043421178730522,
      "geoinfo": {
        "display_name": "Iipumba Street, Ombili, Windhoek, Khomas, 13007, Namibia",
        "road": "Iipumba Street",
        "house_number": null,
        "neighbourhood": null,
        "suburb": "Ombili",
        "city_district": null,
        "city": "Windhoek",
        "state": "Khomas",
        "postcode": "13007",
        "country": "Namibia",
        "country_code": "na"
      },
      "address": "424, Iipumba Street, Ombili, Windhoek, Khomas, 13007, Namibia"
    },
    {
      "lat": -22.496990244155167,
      "lon": 17.049253726284036,
      "geoinfo": {
        "display_name": "Omuvapu Street, Oshitenda, Kilimanjaro Informal Settlement, Windhoek, Khomas, 13007, Namibia",
        "road": "Omuvapu Street",
        "house_number": null,
        "neighbourhood": "Oshitenda",
        "suburb": "Kilimanjaro Informal Settlement",
        "city_district": null,
        "city": "Windhoek",
        "state": "Khomas",
        "postcode": "13007",
        "country": "Namibia",
        "country_code": "na"
      },
      "address": "270, Omuvapu Street, Oshitenda, Kilimanjaro Informal Settlement, Windhoek, Khomas, 13007, Namibia"
    },
    {
      "lat": -22.5272753707147,
      "lon": 17.080639187171634,
      "geoinfo": {
        "display_name": "Birmingham Street, Northern Industrial, Windhoek, Khomas, 10028, Namibia",
        "road": "Birmingham Street",
        "house_number": null,
        "neighbourhood": null,
        "suburb": null,
        "city_district": null,
        "city": "Windhoek",
        "state": "Khomas",
        "postcode": "10028",
        "country": "Namibia",
        "country_code": "na"
      },
      "address": "231, Birmingham Street, Northern Industrial, Windhoek, Khomas, 10028, Namibia"
    },
    {
      "lat": -22.509232462896527,
      "lon": 17.073747374566096,
      "geoinfo": {
        "display_name": "Industria Street, Lafrenz Industrial, Windhoek, Khomas, 10028, Namibia",
        "road": "Industria Street",
        "house_number": null,
        "neighbourhood": null,
        "suburb": "Lafrenz Industrial",
        "city_district": null,
        "city": "Windhoek",
        "state": "Khomas",
        "postcode": "10028",
        "country": "Namibia",
        "country_code": "na"
      },
      "address": "212, Industria Street, Lafrenz Industrial, Windhoek, Khomas, 10028, Namibia"
    },
    {
      "lat": -22.481368055805042,
      "lon": 17.05356965860488,
      "geoinfo": {
        "display_name": "Angukla Shoonyeka Street, Kilimanjaro Informal Settlement, Windhoek, Khomas, 13007, Namibia",
        "road": "Angukla Shoonyeka Street",
        "house_number": null,
        "neighbourhood": null,
        "suburb": "Kilimanjaro Informal Settlement",
        "city_district": null,
        "city": "Windhoek",
        "state": "Khomas",
        "postcode": "13007",
        "country": "Namibia",
        "country_code": "na"
      },
      "address": "770, Angukla Shoonyeka Street, Kilimanjaro Informal Settlement, Windhoek, Khomas, 13007, Namibia"
    },
    {
      "lat": -22.54875430756128,
      "lon": 17.04796509674818,
      "geoinfo": {
        "display_name": "Daffodil Street, Khomasdal, Windhoek, Khomas, 10028, Namibia",
        "road": "Daffodil Street",
        "house_number": null,
        "neighbourhood": null,
        "suburb": "Khomasdal",
        "city_district": null,
        "city": "Windhoek",
        "state": "Khomas",
        "postcode": "10028",
        "country": "Namibia",
        "country_code": "na"
      },
      "address": "175, Daffodil Street, Khomasdal, Windhoek, Khomas, 10028, Namibia"
    }
  ],
  "updated_at": "2025-10-19T04:36:14.273250+00:00",
  "_kind": "geo_samples"
}