{
  "country_code": "NA",
  "country": "Namibia",
  "city": "Okahandja",
  "geonameid": 3354898,
  "target_addresses": 6,
  "samples": [
    {
      "lat": -21.99195684018129,
      "lon": 16.864439969451738,
      "geoinfo": {
        "display_name": "Nau-Aib, Okahandja, 12004, Namibia",
        "road": null,
        "house_number": null,
        "neighbourhood": null,
        "suburb": "Nau-Aib",
        "city_district": null,
        "city": "Okahandja",
        "state": null,
        "postcode": "12004",
        "country": "Namibia",
        "country_code": "na"
      },
      "address": "Nau-Aib, Okahandja, Namibia"
    },
    {
      "lat": -21.984061086317723,
      "lon": 16.919101452387938,
      "geoinfo": {
        "display_name": "Heroes Street, Okahandja, 12004, Namibia",
        "road": "Heroes Street",
        "house_number": null,
        "neighbourhood": null,
        "suburb": null,
        "city_district": null,
        "city": "Okahandja",
        "state": null,
        "postcode": "12004",
        "country": "Namibia",
        "country_code": "na"
      },
      "address": "Heroes Street, Okahandja, Namibia"
    },
    {
      "lat": -21.945694668724805,
      "lon": 16.898404265764693,
      "geoinfo": {
        "display_name": "B1, Namibia",
        "road": "B1",
        "house_number": null,
        "neighbourhood": null,
        "suburb": null,
        "city_district": null,
        "city": null,
        "state": null,
        "postcode": null,
        "country": "Namibia",
        "country_code": "na"
      },
      "address": "B1, Okahandja, Namibia"
    },
    {
      "lat": -21.991030770342697,
      "lon": 16.92100470495795,
      "geoinfo": {
        "display_name": "Namibia Command and Staff College, Dr Vedder Street, Okahandja, 12004, Namibia",
        "road": "Dr Vedder Street",
        "house_number": null,
        "neighbourhood": null,
        "suburb": null,
        "city_district": null,
        "city": "Okahandja",
        "state": null,
        "postcode": "12004",
        "country": "Namibia",
        "country_code": "na"
      },
      "address": "Dr Vedder Street, Okahandja, Namibia"
    },
    {
      "lat": -22.021238160792038,
      "lon": 16.91789530025281,
      "geoinfo": {
        "display_name": "Vyf Rand, 12004, Namibia",
        "road": null,
        "house_number": null,
        "neighbourhood": "Vyf Rand",
        "suburb": null,
        "city_district": null,
        "city": null,
        "state": null,
        "postcode": "12004",
        "country": "Namibia",
        "country_code": "na"
      },
      "address": "Vyf Rand, Okahandja, Namibia"
    },
    {
      "lat": -22.005849038418095,
      "lon": 16.900677781165225,
      "geoinfo": {
        "display_name": "M87;D1972, Nau-Aib, 12004, Namibia",
        "road": "M87;D1972",
        "house_number": null,
        "neighbourhood": null,
        "suburb": "Nau-Aib",
        "city_district": null,
        "city": null,
        "state": null,
        "postcode": "12004",
        "country": "Namibia",
        "country_code": "na"
      },
      "address": "M87;D1972, Okahandja, Namibia"
    },
    {
      "lat": -21.986003162900854,
      "lon": 16.918227474662658,
      "geoinfo": {
        "display_name": "Martin Neib Avenue, Okahandja, 12004, Namibia",
        "road": "Martin Neib Avenue",
        "house_number": null,
        "neighbourhood": null,
        "suburb": null,
        "city_district": null,
        "city": "Okahandja",
        "state": null,
        "postcode": "12004",
        "country": "Namibia",
        "country_code": "na"
      },
      "address": "666, Martin Neib Avenue, Okahandja, 12004, Namibia"
    },
    {
      "lat": -21.974778645379082,
      "lon": 16.93235056890861,
      "geoinfo": {
        "display_name": "Dinter Street, 12004, Namibia",
        "road": "Dinter Street",
        "house_number": null,
        "neighbourhood": null,
        "suburb": null,
        "city_district": null,
        "city": null,
        "state": null,
        "postcode": "12004",
        "country": "Namibia",
        "country_code": "na"
      },
      "address": "575, Dinter Street, 12004 Okahandja, Namibia"
    },
    {
      "lat": -21.987952723689954,
      "lon": 16.869588884389064,
      "geoinfo": {
        "display_name": "Nau-Aib, Okahandja, 12004, Namibia",
        "road": null,
        "house_number": null,
        "neighbourhood": null,
        "suburb": "Nau-Aib",
        "city_district": null,
        "city": "Okahandja",
        "state": null,
        "postcode": "12004",
        "country": "Namibia",
        "country_code": "na"
      },
      "address": "845, Nau-Aib, Okahandja, 12004, Namibia"
    },
    {
      "lat": -21.990266240959674,
      "lon": 16.88246820225129,
      "geoinfo": {
        "display_name": "Oshetu, Nau-Aib, Okahandja, 12004, Namibia",
        "road": null,
        "house_number": null,
        "neighbourhood": null,
        "suburb": "Nau-Aib",
        "city_district": null,
        "city": "Okahandja",
        "state": null,
        "postcode": "12004",
        "country": "Namibia",
        "country_code": "na"
      },
      "address": "856, Oshetu, Nau-Aib, Okahandja, 12004, Namibia"
    },
    {
      "lat": -21.97805564812922,
      "lon": 16.85749430602617,
      "geoinfo": {
        "display_name": "Nau-Aib, Okahandja, 12004, Namibia",
        "road": null,
        "house_number": null,
        "neighbourhood": null,
        "suburb": "Nau-Aib",
        "city_district": null,
        "city": "Okahandja",
        "state": null,
        "postcode": "12004",
        "country": "Namibia",
        "country_code": "na"
      },
      "address": "353, Nau-Aib, Okahandja, 12004, Namibia"
    },
    {
      "lat": -21.980462769441534,
      "lon": 16.897367246045214,
      "geoinfo": {
        "display_name": "Peter Katjavivi Street, Nau-Aib, Okahandja, Otjozondjupa, 12004, Namibia",
        "road": "Peter Katjavivi Street",
        "house_number": null,
        "neighbourhood": null,
        "suburb": "Nau-Aib",
        "city_district": null,
        "city": "Okahandja",
        "state": "Otjozondjupa",
        "postcode": "12004",
        "country": "Namibia",
        "country_code": "na"
      },
      "address": "874, Peter Katjavivi Street, Nau-Aib, Okahandja, Otjozondjupa, 12004, Namibia"
    }
  ],
  "updated_at": "2025-10-19T05:56:15.807905+00:00",
  "_kind": "geo_samples"
}