{
  "country_code": "NA",
  "country": "Namibia",
  "city": "Rehoboth",
  "geonameid": 3353540,
  "target_addresses": 29,
  "samples": [
    {
      "lat": -23.334239227592935,
      "lon": 17.109567349146175,
      "geoinfo": {
        "display_name": "Informal Settlements, Rehoboth, Hardap, Namibia",
        "road": null,
        "house_number": null,
        "neighbourhood": null,
        "suburb": "Informal Settlements",
        "city_district": null,
        "city": "Rehoboth",
        "state": "Hardap",
        "postcode": null,
        "country": "Namibia",
        "country_code": "na"
      },
      "address": "Informal Settlements, Rehoboth, Hardap, Namibia"
    },
    {
      "lat": -23.319254538701184,
      "lon": 17.08780516988919,
      "geoinfo": {
        "display_name": "Peter Mouton Street, Informal Settlements, Rehoboth, Hardap, Namibia",
        "road": "Peter Mouton Street",
        "house_number": null,
        "neighbourhood": null,
        "suburb": "Informal Settlements",
        "city_district": null,
        "city": "Rehoboth",
        "state": "Hardap",
        "postcode": null,
        "country": "Namibia",
        "country_code": "na"
      },
      "address": "Peter Mouton Street, Rehoboth, Hardap, Namibia"
    },
    {
      "lat": -23.305764552438163,
      "lon": 17.06240678789522,
      "geoinfo": {
        "display_name": "Hardap, Namibia",
        "road": null,
        "house_number": null,
        "neighbourhood": null,
        "suburb": null,
        "city_district": null,
        "city": null,
        "state": "Hardap",
        "postcode": null,
        "country": "Namibia",
        "country_code": "na"
      },
      "address": "Rehoboth, Hardap, Namibia"
    },
    {
      "lat": -23.35380441586726,
      "lon": 17.068306548950176,
      "geoinfo": {
        "display_name": "M47, Hardap, Namibia",
        "road": "M47",
        "house_number": null,
        "neighbourhood": null,
        "suburb": null,
        "city_district": null,
        "city": null,
        "state": "Hardap",
        "postcode": null,
        "country": "Namibia",
        "country_code": "na"
      },
      "address": "M47, Rehoboth, Hardap, Namibia"
    },
    {
      "lat": -23.29441818965986,
      "lon": 17.09755517162338,
      "geoinfo": {
        "display_name": "C25, Rehoboth, Hardap, Namibia",
        "road": "C25",
        "house_number": null,
        "neighbourhood": null,
        "suburb": null,
        "city_district": null,
        "city": "Rehoboth",
        "state": "Hardap",
        "postcode": null,
        "country": "Namibia",
        "country_code": "na"
      },
      "address": "C25, Rehoboth, Hardap, Namibia"
    },
    {
      "lat": -23.31939140503497,
      "lon": 17.091218131800137,
      "geoinfo": {
        "display_name": "Rehoboth High School, Poplar Street, Informal Settlements, Rehoboth, Hardap, Namibia",
        "road": "Poplar Street",
        "house_number": null,
        "neighbourhood": null,
        "suburb": "Informal Settlements",
        "city_district": null,
        "city": "Rehoboth",
        "state": "Hardap",
        "postcode": null,
        "country": "Namibia",
        "country_code": "na"
      },
      "address": "Poplar Street, Rehoboth, Hardap, Namibia"
    },
    {
      "lat": -23.322679883597186,
      "lon": 17.108539870616003,
      "geoinfo": {
        "display_name": "Lukets Swartbooi Street, Informal Settlements, Rehoboth, Hardap, Namibia",
        "road": "Lukets Swartbooi Street",
        "house_number": null,
        "neighbourhood": null,
        "suburb": "Informal Settlements",
        "city_district": null,
        "city": "Rehoboth",
        "state": "Hardap",
        "postcode": null,
        "country": "Namibia",
        "country_code": "na"
      },
      "address": "Lukets Swartbooi Street, Informal Settlements, Rehoboth, 03046 Hardap, Namibia"
    },
    {
      "lat": -23.322322565904262,
      "lon": 17.130074542803936,
      "geoinfo": {
        "display_name": "Informal Settlements, Rehoboth, Hardap, Namibia",
        "road": null,
        "house_number": null,
        "neighbourhood": null,
        "suburb": "Informal Settlements",
        "city_district": null,
        "city": "Rehoboth",
        "state": "Hardap",
        "postcode": null,
        "country": "Namibia",
        "country_code": "na"
      },
      "address": "569, Informal Settlements, Rehoboth, 28912 Hardap, Namibia"
    },
    {
      "lat": -23.314049616505454,
      "lon": 17.047879559220856,
      "geoinfo": {
        "display_name": "D1237, Hardap, Namibia",
        "road": "D1237",
        "house_number": null,
        "neighbourhood": null,
        "suburb": null,
        "city_district": null,
        "city": null,
        "state": "Hardap",
        "postcode": null,
        "country": "Namibia",
        "country_code": "na"
      },
      "address": "D1237, Rehoboth, 60160 Hardap, Namibia"
    },
    {
      "lat": -23.31341260893905,
      "lon": 17.088121354371676,
      "geoinfo": {
        "display_name": "Informal Settlements, Rehoboth, Hardap, Namibia",
        "road": null,
        "house_number": null,
        "neighbourhood": null,
        "suburb": "Informal Settlements",
        "city_district": null,
        "city": "Rehoboth",
        "state": "Hardap",
        "postcode": null,
        "country": "Namibia",
        "country_code": "na"
      },
      "address": "040, Informal Settlements, Rehoboth, 96339 Hardap, Namibia"
    },
    {
      "lat": -23.296498242733573,
      "lon": 17.09648278461572,
      "geoinfo": {
        "display_name": "Dr. Hage G Geingob Drive, Rehoboth, Hardap, Namibia",
        "road": "Dr. Hage G Geingob Drive",
        "house_number": null,
        "neighbourhood": null,
        "suburb": null,
        "city_district": null,
        "city": "Rehoboth",
        "state": "Hardap",
        "postcode": null,
        "country": "Namibia",
        "country_code": "na"
      },
      "address": "717, Dr. Hage G Geingob Drive, Rehoboth, 25707 Hardap, Namibia"
    },
    {
      "lat": -23.308156893812956,
      "lon": 17.053879573268368,
      "geoinfo": {
        "display_name": "Hardap, Namibia",
        "road": null,
        "house_number": null,
        "neighbourhood": null,
        "suburb": null,
        "city_district": null,
        "city": null,
        "state": "Hardap",
        "postcode": null,
        "country": "Namibia",
        "country_code": "na"
      },
      "address": "564, Rehoboth, 35693 Hardap, Namibia"
    },
    {
      "lat": -23.356976994403656,
      "lon": 17.105960664132702,
      "geoinfo": {
        "display_name": "Informal Settlements, Rehoboth, Hardap, Namibia",
        "road": null,
        "house_number": null,
        "neighbourhood": null,
        "suburb": "Informal Settlements",
        "city_district": null,
        "city": "Rehoboth",
        "state": "Hardap",
        "postcode": null,
        "country": "Namibia",
        "country_code": "na"
      },
      "address": "807, Informal Settlements, Rehoboth, 49656 Hardap, Namibia"
    },
    {
      "lat": -23.348640531409515,
      "lon": 17.100911101171782,
      "geoinfo": {
        "display_name": "Informal Settlements, Rehoboth, Hardap, Namibia",
        "road": null,
        "house_number": null,
        "neighbourhood": null,
        "suburb": "Informal Settlements",
        "city_district": null,
        "city": "Rehoboth",
        "state": "Hardap",
        "postcode": null,
        "country": "Namibia",
        "country_code": "na"
      },
      "address": "792, Informal Settlements, Rehoboth, 80000 Hardap, Namibia"
    },
    {
      "lat": -23.293497673832228,
      "lon": 17.08721685044628,
      "geoinfo": {
        "display_name": "Rehoboth, Hardap, Namibia",
        "road": null,
        "house_number": null,
        "neighbourhood": null,
        "suburb": null,
        "city_district": null,
        "city": "Rehoboth",
        "state": "Hardap",
        "postcode": null,
        "country": "Namibia",
        "country_code": "na"
      },
      "address": "896, Rehoboth, 35064 Hardap, Namibia"
    },
    {
      "lat": -23.30402734949082,
      "lon": 17.106181233959212,
      "geoinfo": {
        "display_name": "C25, Hardap, Namibia",
        "road": "C25",
        "house_number": null,
        "neighbourhood": null,
        "suburb": null,
        "city_district": null,
        "city": null,
        "state": "Hardap",
        "postcode": null,
        "country": "Namibia",
        "country_code": "na"
      },
      "address": "C25, Rehoboth, 90667 Hardap, Namibia"
    },
    {
      "lat": -23.314782792559598,
      "lon": 17.116197691096747,
      "geoinfo": {
        "display_name": "Informal Settlements, Rehoboth, Hardap, Namibia",
        "road": null,
        "house_number": null,
        "neighbourhood": null,
        "suburb": "Informal Settlements",
        "city_district": null,
        "city": "Rehoboth",
        "state": "Hardap",
        "postcode": null,
        "country": "Namibia",
        "country_code": "na"
      },
      "address": "678, Informal Settlements, Rehoboth, 05725 Hardap, Namibia"
    },
    {
      "lat": -23.336890942421242,
      "lon": 17.118937549769313,
      "geoinfo": {
        "display_name": "Informal Settlements, Rehoboth, Hardap, Namibia",
        "road": null,
        "house_number": null,
        "neighbourhood": null,
        "suburb": "Informal Settlements",
        "city_district": null,
        "city": "Rehoboth",
        "state": "Hardap",
        "postcode": null,
        "country": "Namibia",
        "country_code": "na"
      },
      "address": "422, Informal Settlements, Rehoboth, 26425 Hardap, Namibia"
    },
    {
      "lat": -23.304653091084973,
      "lon": 17.125390237022632,
      "geoinfo": {
        "display_name": "C25, Hardap, Namibia",
        "road": "C25",
        "house_number": null,
        "neighbourhood": null,
        "suburb": null,
        "city_district": null,
        "city": null,
        "state": "Hardap",
        "postcode": null,
        "country": "Namibia",
        "country_code": "na"
      },
      "address": "C25, Rehoboth, 99261 Hardap, Namibia"
    },
    {
      "lat": -23.27796267464677,
      "lon": 17.09884126301611,
      "geoinfo": {
        "display_name": "Hardap, Namibia",
        "road": null,
        "house_number": null,
        "neighbourhood": null,
        "suburb": null,
        "city_district": null,
        "city": null,
        "state": "Hardap",
        "postcode": null,
        "country": "Namibia",
        "country_code": "na"
      },
      "address": "680, Rehoboth, 80660 Hardap, Namibia"
    },
    {
      "lat": -23.322074526448816,
      "lon": 17.09296609971361,
      "geoinfo": {
        "display_name": "Informal Settlements, Rehoboth, Hardap, Namibia",
        "road": null,
        "house_number": null,
        "neighbourhood": null,
        "suburb": "Informal Settlements",
        "city_district": null,
        "city": "Rehoboth",
        "state": "Hardap",
        "postcode": null,
        "country": "Namibia",
        "country_code": "na"
      },
      "address": "462, Informal Settlements, Rehoboth, 45056 Hardap, Namibia"
    },
    {
      "lat": -23.291983883982354,
      "lon": 17.12486732050277,
      "geoinfo": {
        "display_name": "Informal Settlements, Rehoboth, Hardap, Namibia",
        "road": null,
        "house_number": null,
        "neighbourhood": null,
        "suburb": "Informal Settlements",
        "city_district": null,
        "city": "Rehoboth",
        "state": "Hardap",
        "postcode": null,
        "country": "Namibia",
        "country_code": "na"
      },
      "address": "044, Informal Settlements, Rehoboth, 24864 Hardap, Namibia"
    },
    {
      "lat": -23.29903143231887,
      "lon": 17.09526331535781,
      "geoinfo": {
        "display_name": "Dr. Hage G Geingob Drive, Rehoboth, Hardap, Namibia",
        "road": "Dr. Hage G Geingob Drive",
        "house_number": null,
        "neighbourhood": null,
        "suburb": null,
        "city_district": null,
        "city": "Rehoboth",
        "state": "Hardap",
        "postcode": null,
        "country": "Namibia",
        "country_code": "na"
      },
      "address": "079, Dr. Hage G Geingob Drive, Rehoboth, 26220 Hardap, Namibia"
    },
    {
      "lat": -23.314215993739314,
      "lon": 17.093075299052146,
      "geoinfo": {
        "display_name": "Informal Settlements, Rehoboth, Hardap, Namibia",
        "road": null,
        "house_number": null,
        "neighbourhood": null,
        "suburb": "Informal Settlements",
        "city_district": null,
        "city": "Rehoboth",
        "state": "Hardap",
        "postcode": null,
        "country": "Namibia",
        "country_code": "na"
      },
      "address": "616, Informal Settlements, Rehoboth, 12523 Hardap, Namibia"
    },
    {
      "lat": -23.33067746095631,
      "lon": 17.10335024482621,
      "geoinfo": {
        "display_name": "Jacobus Jagger Street, Informal Settlements, Rehoboth, Hardap, Namibia",
        "road": "Jacobus Jagger Street",
        "house_number": null,
        "neighbourhood": null,
        "suburb": "Informal Settlements",
        "city_district": null,
        "city": "Rehoboth",
        "state": "Hardap",
        "postcode": null,
        "country": "Namibia",
        "country_code": "na"
      },
      "address": "253, Jacobus Jagger Street, Informal Settlements, Rehoboth, 21390 Hardap, Namibia"
    },
    {
      "lat": -23.341842046834756,
      "lon": 17.053565372021836,
      "geoinfo": {
        "display_name": "Hardap, Namibia",
        "road": null,
        "house_number": null,
        "neighbourhood": null,
        "suburb": null,
        "city_district": null,
        "city": null,
        "state": "Hardap",
        "postcode": null,
        "country": "Namibia",
        "country_code": "na"
      },
      "address": "431, Rehoboth, 58070 Hardap, Namibia"
    },
    {
      "lat": -23.339124105904414,
      "lon": 17.087855606083647,
      "geoinfo": {
        "display_name": "Informal Settlements, Rehoboth, Hardap, Namibia",
        "road": null,
        "house_number": null,
        "neighbourhood": null,
        "suburb": "Informal Settlements",
        "city_district": null,
        "city": "Rehoboth",
        "state": "Hardap",
        "postcode": null,
        "country": "Namibia",
        "country_code": "na"
      },
      "address": "958, Informal Settlements, Rehoboth, 13261 Hardap, Namibia"
    },
    {
      "lat": -23.28370406123736,
      "lon": 17.078300333623616,
      "geoinfo": {
        "display_name": "B1, Hardap, Namibia",
        "road": "B1",
        "house_number": null,
        "neighbourhood": null,
        "suburb": null,
        "city_district": null,
        "city": null,
        "state": "Hardap",
        "postcode": null,
        "country": "Namibia",
        "country_code": "na"
      },
      "address": "B1, Rehoboth, 17537 Hardap, Namibia"
    },
    {
      "lat": -23.3546481020329,
      "lon": 17.065997811499606,
      "geoinfo": {
        "display_name": "M47, Hardap, Namibia",
        "road": "M47",
        "house_number": null,
        "neighbourhood": null,
        "suburb": null,
        "city_district": null,
        "city": null,
        "state": "Hardap",
        "postcode": null,
        "country": "Namibia",
        "country_code": "na"
      },
      "address": "M47, Rehoboth, 88330 Hardap, Namibia"
    }
  ],
  "updated_at": "2025-10-19T05:55:45.858477+00:00",
  "_kind": "geo_samples"
}