{
  "country_code": "NA",
  "country": "Namibia",
  "city": "Swakopmund",
  "geonameid": 3352844,
  "target_addresses": 6,
  "samples": [
    {
      "lat": -22.647729217700864,
      "lon": 14.551583212907532,
      "geoinfo": {
        "display_name": "Pauline Nashilundo Street, Mondesa, Swakopmund, Erongo Region, 13004, Namibia",
        "road": "Pauline Nashilundo Street",
        "house_number": null,
        "neighbourhood": null,
        "suburb": "Mondesa",
        "city_district": null,
        "city": "Swakopmund",
        "state": "Erongo Region",
        "postcode": "13004",
        "country": "Namibia",
        "country_code": "na"
      },
      "address": "Pauline Nashilundo Street, Swakopmund, Erongo Region, Namibia"
    },
    {
      "lat": -22.66945929466529,
      "lon": 14.545131117210298,
      "geoinfo": {
        "display_name": "Nelson Mandela Avenue, Kramersdorf Extension, Vineta, Swakopmund, Erongo Region, 13001, Namibia",
        "road": "Nelson Mandela Avenue",
        "house_number": null,
        "neighbourhood": "Kramersdorf Extension",
        "suburb": "Vineta",
        "city_district": null,
        "city": "Swakopmund",
        "state": "Erongo Region",
        "postcode": "13001",
        "country": "Namibia",
        "country_code": "na"
      },
      "address": "Nelson Mandela Avenue, Swakopmund, Erongo Region, Namibia"
    },
    {
      "lat": -22.640064899992193,
      "lon": 14.52129694005589,
      "geoinfo": {
        "display_name": "Tanzanite Street, Vogelstrand, Swakopmund, Erongo Region, 13004, Namibia",
        "road": "Tanzanite Street",
        "house_number": null,
        "neighbourhood": null,
        "suburb": "Vogelstrand",
        "city_district": null,
        "city": "Swakopmund",
        "state": "Erongo Region",
        "postcode": "13004",
        "country": "Namibia",
        "country_code": "na"
      },
      "address": "Tanzanite Street, Swakopmund, Erongo Region, Namibia"
    },
    {
      "lat": -22.668686793271792,
      "lon": 14.516432360351489,
      "geoinfo": {
        "display_name": "Vineta, Swakopmund, Erongo Region, 13001, Namibia",
        "road": null,
        "house_number": null,
        "neighbourhood": null,
        "suburb": "Vineta",
        "city_district": null,
        "city": "Swakopmund",
        "state": "Erongo Region",
        "postcode": "13001",
        "country": "Namibia",
        "country_code": "na"
      },
      "address": "Vineta, Swakopmund, Erongo Region, Namibia"
    },
    {
      "lat": -22.69974062595145,
      "lon": 14.49382045201738,
      "geoinfo": {
        "display_name": "Swakopmund, Erongo Region, 13001, Namibia",
        "road": null,
        "house_number": null,
        "neighbourhood": null,
        "suburb": null,
        "city_district": null,
        "city": "Swakopmund",
        "state": "Erongo Region",
        "postcode": "13001",
        "country": "Namibia",
        "country_code": "na"
      },
      "address": "Swakopmund, Erongo Region, Namibia"
    },
    {
      "lat": -22.698774951246477,
      "lon": 14.505672338497474,
      "geoinfo": {
        "display_name": "Central, Swakopmund, Erongo Region, 13001, Namibia",
        "road": null,
        "house_number": null,
        "neighbourhood": null,
        "suburb": "Central",
        "city_district": null,
        "city": "Swakopmund",
        "state": "Erongo Region",
        "postcode": "13001",
        "country": "Namibia",
        "country_code": "na"
      },
      "address": "Central, Swakopmund, Erongo Region, Namibia"
    },
    {
      "lat": -22.659596323809374,
      "lon": 14.534327756266695,
      "geoinfo": {
        "display_name": "Daniel Kamho Avenue, Tamariskia, Swakopmund, Erongo Region, 13001, Namibia",
        "road": "Daniel Kamho Avenue",
        "house_number": null,
        "neighbourhood": null,
        "suburb": "Tamariskia",
        "city_district": null,
        "city": "Swakopmund",
        "state": "Erongo Region",
        "postcode": "13001",
        "country": "Namibia",
        "country_code": "na"
      },
      "address": "994, Daniel Kamho Avenue, Tamariskia, Swakopmund, Erongo Region, 13001, Namibia"
    },
    {
      "lat": -22.691881049022566,
      "lon": 14.498895947329789,
      "geoinfo": {
        "display_name": "Central, Swakopmund, Erongo Region, 13001, Namibia",
        "road": null,
        "house_number": null,
        "neighbourhood": null,
        "suburb": "Central",
        "city_district": null,
        "city": "Swakopmund",
        "state": "Erongo Region",
        "postcode": "13001",
        "country": "Namibia",
        "country_code": "na"
      },
      "address": "732, Central, Swakopmund, Erongo Region, 13001, Namibia"
    },
    {
      "lat": -22.634087851877254,
      "lon": 14.53043516788934,
      "geoinfo": {
        "display_name": "Stilt Close, Vogelstrand, Swakopmund, Erongo Region, 13004, Namibia",
        "road": "Stilt Close",
        "house_number": null,
        "neighbourhood": null,
        "suburb": "Vogelstrand",
        "city_district": null,
        "city": "Swakopmund",
        "state": "Erongo Region",
        "postcode": "13004",
        "country": "Namibia",
        "country_code": "na"
      },
      "address": "348, Stilt Close, Vogelstrand, Swakopmund, Erongo Region, 13004, Namibia"
    },
    {
      "lat": -22.63651583631477,
      "lon": 14.522662999567743,
      "geoinfo": {
        "display_name": "Sandpiper Street, Vogelstrand, Swakopmund, Erongo Region, 13004, Namibia",
        "road": "Sandpiper Street",
        "house_number": null,
        "neighbourhood": null,
        "suburb": "Vogelstrand",
        "city_district": null,
        "city": "Swakopmund",
        "state": "Erongo Region",
        "postcode": "13004",
        "country": "Namibia",
        "country_code": "na"
      },
      "address": "132, Sandpiper Street, Vogelstrand, Swakopmund, Erongo Region, 13004, Namibia"
    },
    {
      "lat": -22.65204183340172,
      "lon": 14.555736598905574,
      "geoinfo": {
        "display_name": "Estoff Tjaondjo Street, Mondesa, Swakopmund, Erongo Region, 13004, Namibia",
        "road": "Estoff Tjaondjo Street",
        "house_number": null,
        "neighbourhood": null,
        "suburb": "Mondesa",
        "city_district": null,
        "city": "Swakopmund",
        "state": "Erongo Region",
        "postcode": "13004",
        "country": "Namibia",
        "country_code": "na"
      },
      "address": "020, Estoff Tjaondjo Street, Mondesa, Swakopmund, Erongo Region, 13004, Namibia"
    },
    {
      "lat": -22.68111180351993,
      "lon": 14.552161563464866,
      "geoinfo": {
        "display_name": "Zambezi Street, Kramersdorf, Swakopmund, Erongo Region, 13004, Namibia",
        "road": "Zambezi Street",
        "house_number": null,
        "neighbourhood": null,
        "suburb": null,
        "city_district": null,
        "city": "Swakopmund",
        "state": "Erongo Region",
        "postcode": "13004",
        "country": "Namibia",
        "country_code": "na"
      },
      "address": "521, Zambezi Street, Kramersdorf, Swakopmund, Erongo Region, 13004, Namibia"
    }
  ],
  "updated_at": "2025-10-19T04:35:28.639276+00:00",
  "_kind": "geo_samples"
}