{
  "country_code": "NA",
  "country": "Namibia",
  "city": "Windhoek",
  "geonameid": 3352136,
  "target_addresses": 6,
  "samples": [
    {
      "lat": -22.532447558477052,
      "lon": 17.05308681611637,
      "geoinfo": {
        "display_name": "Jakob Marengo Secondary School, Mungunda Street, Katutura, Windhoek, Khomas, 10028, Namibia",
        "road": "Mungunda Street",
        "house_number": null,
        "neighbourhood": null,
        "suburb": "Katutura",
        "city_district": null,
        "city": "Windhoek",
        "state": "Khomas",
        "postcode": "10028",
        "country": "Namibia",
        "country_code": "na"
      },
      "address": "Mungunda Street, Windhoek, Khomas, Namibia"
    },
    {
      "lat": -22.55965298944525,
      "lon": 17.059697511705473,
      "geoinfo": {
        "display_name": "Cleopatra Street, Dorado Valley, Dorado Park, Windhoek, Khomas, 10012, Namibia",
        "road": "Cleopatra Street",
        "house_number": null,
        "neighbourhood": "Dorado Valley",
        "suburb": "Dorado Park",
        "city_district": null,
        "city": "Windhoek",
        "state": "Khomas",
        "postcode": "10012",
        "country": "Namibia",
        "country_code": "na"
      },
      "address": "Cleopatra Street, Windhoek, Khomas, Namibia"
    },
    {
      "lat": -22.57254870756816,
      "lon": 17.090719870621772,
      "geoinfo": {
        "display_name": "Schwerinsburg Street, Luxury Hill, Windhoek, Khomas, 10000, Namibia",
        "road": "Schwerinsburg Street",
        "house_number": null,
        "neighbourhood": null,
        "suburb": "Luxury Hill",
        "city_district": null,
        "city": "Windhoek",
        "state": "Khomas",
        "postcode": "10000",
        "country": "Namibia",
        "country_code": "na"
      },
      "address": "Schwerinsburg Street, Windhoek, Khomas, Namibia"
    },
    {
      "lat": -22.559070407102407,
      "lon": 17.04901780701727,
      "geoinfo": {
        "display_name": "Maansteen Street, Khomasdal, Windhoek, Khomas, 10014, Namibia",
        "road": "Maansteen Street",
        "house_number": null,
        "neighbourhood": null,
        "suburb": "Khomasdal",
        "city_district": null,
        "city": "Windhoek",
        "state": "Khomas",
        "postcode": "10014",
        "country": "Namibia",
        "country_code": "na"
      },
      "address": "Maansteen Street, Windhoek, Khomas, Namibia"
    },
    {
      "lat": -22.586255887341284,
      "lon": 17.077995432332116,
      "geoinfo": {
        "display_name": "Union Tiles, Diesel Street, Southern Industrial Area, Windhoek, Khomas, 10000, Namibia",
        "road": "Diesel Street",
        "house_number": null,
        "neighbourhood": null,
        "suburb": "Southern Industrial Area",
        "city_district": null,
        "city": "Windhoek",
        "state": "Khomas",
        "postcode": "10000",
        "country": "Namibia",
        "country_code": "na"
      },
      "address": "Diesel Street, Windhoek, Khomas, Namibia"
    },
    {
      "lat": -22.55826043380261,
      "lon": 17.03770249415844,
      "geoinfo": {
        "display_name": "Plover Street, Khomasdal, Windhoek, Khomas, 10032, Namibia",
        "road": "Plover Street",
        "house_number": null,
        "neighbourhood": null,
        "suburb": "Khomasdal",
        "city_district": null,
        "city": "Windhoek",
        "state": "Khomas",
        "postcode": "10032",
        "country": "Namibia",
        "country_code": "na"
      },
      "address": "Plover Street, Windhoek, Khomas, Namibia"
    },
    {
      "lat": -22.55824719203083,
      "lon": 17.114501294004086,
      "geoinfo": {
        "display_name": "Cathy Street, Ludwigsdorf, Windhoek, Khomas, 10000, Namibia",
        "road": "Cathy Street",
        "house_number": null,
        "neighbourhood": null,
        "suburb": "Ludwigsdorf",
        "city_district": null,
        "city": "Windhoek",
        "state": "Khomas",
        "postcode": "10000",
        "country": "Namibia",
        "country_code": "na"
      },
      "address": "261, Cathy Street, Ludwigsdorf, Windhoek, Khomas, 10000, Namibia"
    },
    {
      "lat": -22.585496678885203,
      "lon": 17.057698087760933,
      "geoinfo": {
        "display_name": "Hegner Street, Pioneers Park Extension 1, Windhoek, Khomas, 10014, Namibia",
        "road": "Hegner Street",
        "house_number": null,
        "neighbourhood": null,
        "suburb": "Pioneers Park Extension 1",
        "city_district": null,
        "city": "Windhoek",
        "state": "Khomas",
        "postcode": "10014",
        "country": "Namibia",
        "country_code": "na"
      },
      "address": "Hegner Street, Pioneers Park Extension 1, Windhoek, Khomas, 10014, Namibia"
    },
    {
      "lat": -22.582036658965528,
      "lon": 17.119919016456755,
      "geoinfo": {
        "display_name": "Andries de Wet Street, Avis, Windhoek, Khomas, 10000, Namibia",
        "road": "Andries de Wet Street",
        "house_number": null,
        "neighbourhood": null,
        "suburb": "Avis",
        "city_district": null,
        "city": "Windhoek",
        "state": "Khomas",
        "postcode": "10000",
        "country": "Namibia",
        "country_code": "na"
      },
      "address": "696, Andries de Wet Street, Avis, Windhoek, Khomas, 10000, Namibia"
    },
    {
      "lat": -22.536797728628866,
      "lon": 17.049899636583582,
      "geoinfo": {
        "display_name": "Magnolia Street, Khomasdal, Windhoek, Khomas, 10028, Namibia",
        "road": "Magnolia Street",
        "house_number": null,
        "neighbourhood": null,
        "suburb": "Khomasdal",
        "city_district": null,
        "city": "Windhoek",
        "state": "Khomas",
        "postcode": "10028",
        "country": "Namibia",
        "country_code": "na"
      },
      "address": "574, Magnolia Street, Khomasdal, Windhoek, Khomas, 10028, Namibia"
    },
    {
      "lat": -22.564322413378513,
      "lon": 17.121417943246755,
      "geoinfo": {
        "display_name": "Joseph Mukwayu Ithana Street, Ludwigsdorf, Windhoek, Khomas, 10000, Namibia",
        "road": "Joseph Mukwayu Ithana Street",
        "house_number": null,
        "neighbourhood": null,
        "suburb": "Ludwigsdorf",
        "city_district": null,
        "city": "Windhoek",
        "state": "Khomas",
        "postcode": "10000",
        "country": "Namibia",
        "country_code": "na"
      },
      "address": "261, Joseph Mukwayu Ithana Street, Ludwigsdorf, Windhoek, Khomas, 10000, Namibia"
    },
    {
      "lat": -22.600361974453275,
      "lon": 17.07660690497028,
      "geoinfo": {
        "display_name": "Windhoek (Eros) Airport, Aristoteles Street, Academia, Windhoek, Khomas, 10021, Namibia",
        "road": "Aristoteles Street",
        "house_number": null,
        "neighbourhood": null,
        "suburb": "Academia",
        "city_district": null,
        "city": "Windhoek",
        "state": "Khomas",
        "postcode": "10021",
        "country": "Namibia",
        "country_code": "na"
      },
      "address": "603, Aristoteles Street, Windhoek, 10021 Khomas, Namibia"
    }
  ],
  "updated_at": "2025-10-19T06:11:45.487898+00:00",
  "_kind": "geo_samples"
}