{
  "country_code": "IQ",
  "country": "Iraq",
  "city": "Al Fallūjah",
  "geonameid": 99454,
  "target_addresses": 2,
  "samples": [
    {
      "lat": 33.33810108277017,
      "lon": 43.795268378903266,
      "geoinfo": {
        "display_name": "حي الامين, Fallujah, Al-Falujah Central Subdistrict, Al-Falujah District, Al-Anbar Governorate, 31002, Iraq",
        "road": null,
        "house_number": null,
        "neighbourhood": "حي الامين",
        "suburb": null,
        "city_district": null,
        "city": "Fallujah",
        "state": "Al-Anbar Governorate",
        "postcode": "31002",
        "country": "Iraq",
        "country_code": "iq"
      },
      "address": "حي الامين, Al Fallūjah, Al-Anbar Governorate, Iraq"
    },
    {
      "lat": 33.31375222049314,
      "lon": 43.76920144509968,
      "geoinfo": {
        "display_name": "Fallujah, Al-Falujah Central Subdistrict, Al-Falujah District, Al-Anbar Governorate, 31002, Iraq",
        "road": null,
        "house_number": null,
        "neighbourhood": null,
        "suburb": null,
        "city_district": null,
        "city": "Fallujah",
        "state": "Al-Anbar Governorate",
        "postcode": "31002",
        "country": "Iraq",
        "country_code": "iq"
      },
      "address": "Al Fallūjah, Al-Anbar Governorate, Iraq"
    },
    {
      "lat": 33.360473764034175,
      "lon": 43.8258638594266,
      "geoinfo": {
        "display_name": "Fallujah, Al-Falujah Central Subdistrict, Al-Falujah District, Al-Anbar Governorate, 31002, Iraq",
        "road": null,
        "house_number": null,
        "neighbourhood": null,
        "suburb": null,
        "city_district": null,
        "city": "Fallujah",
        "state": "Al-Anbar Governorate",
        "postcode": "31002",
        "country": "Iraq",
        "country_code": "iq"
      },
      "address": "099, Al Fallūjah, 31002 Al-Anbar Governorate, Iraq"
    },
    {
      "lat": 33.33679548666557,
      "lon": 43.75872550202893,
      "geoinfo": {
        "display_name": "Hamid Kanna, Al-Falujah Central Subdistrict, Al-Falujah District, Al-Anbar Governorate, 31002, Iraq",
        "road": null,
        "house_number": null,
        "neighbourhood": null,
        "suburb": null,
        "city_district": null,
        "city": "Hamid Kanna",
        "state": "Al-Anbar Governorate",
        "postcode": "31002",
        "country": "Iraq",
        "country_code": "iq"
      },
      "address": "574, Al Fallūjah, 31002 Al-Anbar Governorate, Iraq"
    }
  ],
  "updated_at": "2025-10-19T03:36:13.884091+00:00",
  "_kind": "geo_samples"
}