{
  "country_code": "IQ",
  "country": "Iraq",
  "city": "Al Mishkhāb",
  "geonameid": 99060,
  "target_addresses": 7,
  "samples": [
    {
      "lat": 31.76751798078005,
      "lon": 44.47048184145955,
      "geoinfo": {
        "display_name": "Al Mishkhab, Al-Meshkhab Central Subdistrict, Al-Meshkhab District, Al-Najaf Governorate, Iraq",
        "road": null,
        "house_number": null,
        "neighbourhood": null,
        "suburb": null,
        "city_district": null,
        "city": "Al Mishkhab",
        "state": "Al-Najaf Governorate",
        "postcode": null,
        "country": "Iraq",
        "country_code": "iq"
      },
      "address": "Al Mishkhāb, Al-Najaf Governorate, Iraq"
    },
    {
      "lat": 31.818277385476755,
      "lon": 44.493683049076004,
      "geoinfo": {
        "display_name": "Al Faysaliyah, Al Mishkhab, Al-Meshkhab Central Subdistrict, Al-Meshkhab District, Al-Najaf Governorate, Iraq",
        "road": null,
        "house_number": null,
        "neighbourhood": null,
        "suburb": "Al Faysaliyah",
        "city_district": null,
        "city": "Al Mishkhab",
        "state": "Al-Najaf Governorate",
        "postcode": null,
        "country": "Iraq",
        "country_code": "iq"
      },
      "address": "Al Faysaliyah, Al Mishkhāb, Al-Najaf Governorate, Iraq"
    },
    {
      "lat": 31.80752255681783,
      "lon": 44.529756287516506,
      "geoinfo": {
        "display_name": "Al Qadisiyah, Al-Qadissiya Subdistrict, Al-Manathera District, Al-Najaf Governorate, Iraq",
        "road": null,
        "house_number": null,
        "neighbourhood": null,
        "suburb": null,
        "city_district": null,
        "city": "Al Qadisiyah",
        "state": "Al-Najaf Governorate",
        "postcode": null,
        "country": "Iraq",
        "country_code": "iq"
      },
      "address": "582, Al Qadisiyah, Al-Qadissiya Subdistrict, Al-Manathera District, 23763 Al-Najaf Governorate, Iraq"
    },
    {
      "lat": 31.783922982615195,
      "lon": 44.53335390546315,
      "geoinfo": {
        "display_name": "al Hasan alJabar, Al-Qadissiya Subdistrict, Al-Manathera District, Al-Najaf Governorate, Iraq",
        "road": null,
        "house_number": null,
        "neighbourhood": null,
        "suburb": null,
        "city_district": null,
        "city": "al Hasan alJabar",
        "state": "Al-Najaf Governorate",
        "postcode": null,
        "country": "Iraq",
        "country_code": "iq"
      },
      "address": "006, al Hasan alJabar, Al-Qadissiya Subdistrict, Al-Manathera District, 01723 Al-Najaf Governorate, Iraq"
    },
    {
      "lat": 31.824503779071865,
      "lon": 44.49012808927322,
      "geoinfo": {
        "display_name": "Al Mishkhab, Al-Meshkhab Central Subdistrict, Al-Meshkhab District, Al-Najaf Governorate, Iraq",
        "road": null,
        "house_number": null,
        "neighbourhood": null,
        "suburb": null,
        "city_district": null,
        "city": "Al Mishkhab",
        "state": "Al-Najaf Governorate",
        "postcode": null,
        "country": "Iraq",
        "country_code": "iq"
      },
      "address": "925, Al Mishkhab, Al-Meshkhab Central Subdistrict, Al-Meshkhab District, 42020 Al-Najaf Governorate, Iraq"
    },
    {
      "lat": 31.77366279730974,
      "lon": 44.4562026258648,
      "geoinfo": {
        "display_name": "نهرجياد, Al-Meshkhab Central Subdistrict, Al-Meshkhab District, Al-Najaf Governorate, Iraq",
        "road": null,
        "house_number": null,
        "neighbourhood": null,
        "suburb": null,
        "city_district": null,
        "city": null,
        "state": "Al-Najaf Governorate",
        "postcode": null,
        "country": "Iraq",
        "country_code": "iq"
      },
      "address": "150, Al Mishkhāb, 33053 Al-Najaf Governorate, Iraq"
    },
    {
      "lat": 31.83859631014497,
      "lon": 44.49097956905631,
      "geoinfo": {
        "display_name": "Shatt Achahan, Al-Meshkhab Central Subdistrict, Al-Meshkhab District, Al-Najaf Governorate, Iraq",
        "road": null,
        "house_number": null,
        "neighbourhood": null,
        "suburb": null,
        "city_district": null,
        "city": null,
        "state": "Al-Najaf Governorate",
        "postcode": null,
        "country": "Iraq",
        "country_code": "iq"
      },
      "address": "200, Al Mishkhāb, 58741 Al-Najaf Governorate, Iraq"
    }
  ],
  "updated_at": "2025-10-19T04:58:22.118531+00:00",
  "_kind": "geo_samples"
}