{
  "country_code": "IQ",
  "country": "Iraq",
  "city": "Al Maḩmūdīyah",
  "geonameid": 99100,
  "target_addresses": 7,
  "samples": [
    {
      "lat": 33.04452833422771,
      "lon": 44.34325225321972,
      "geoinfo": {
        "display_name": "Hay Bahth wa Tatwir, Mahmoudiya municipality, Mahmoudiya Central Subdistrict, Mahmoudiya District, Baghdad Governorate, 10079, Iraq",
        "road": null,
        "house_number": null,
        "neighbourhood": null,
        "suburb": null,
        "city_district": null,
        "city": "Mahmoudiya municipality",
        "state": "Baghdad Governorate",
        "postcode": "10079",
        "country": "Iraq",
        "country_code": "iq"
      },
      "address": "Al Maḩmūdīyah, Baghdad Governorate, Iraq"
    },
    {
      "lat": 33.05686872581804,
      "lon": 44.36257872370067,
      "geoinfo": {
        "display_name": "مركز شرطة قضاء المحمودية, Alnueman Street, Hay Al-Nu'man, Mahmoudiya municipality, Mahmoudiya Central Subdistrict, Mahmoudiya District, Baghdad Governorate, 10079, Iraq",
        "road": "Alnueman Street",
        "house_number": null,
        "neighbourhood": null,
        "suburb": null,
        "city_district": null,
        "city": "Mahmoudiya municipality",
        "state": "Baghdad Governorate",
        "postcode": "10079",
        "country": "Iraq",
        "country_code": "iq"
      },
      "address": "Alnueman Street, Al Maḩmūdīyah, Baghdad Governorate, Iraq"
    },
    {
      "lat": 33.056150526374026,
      "lon": 44.38452075202779,
      "geoinfo": {
        "display_name": "Mahmoudiya municipality, Mahmoudiya Central Subdistrict, Mahmoudiya District, Baghdad Governorate, Iraq",
        "road": null,
        "house_number": null,
        "neighbourhood": null,
        "suburb": null,
        "city_district": null,
        "city": "Mahmoudiya municipality",
        "state": "Baghdad Governorate",
        "postcode": null,
        "country": "Iraq",
        "country_code": "iq"
      },
      "address": "518, Mahmoudiya municipality, Mahmoudiya Central Subdistrict, Mahmoudiya District, 59173 Baghdad Governorate, Iraq"
    },
    {
      "lat": 33.09083441790064,
      "lon": 44.34053684538351,
      "geoinfo": {
        "display_name": "Mahmoudiya Central Subdistrict, Mahmoudiya District, Baghdad Governorate, 10079, Iraq",
        "road": null,
        "house_number": null,
        "neighbourhood": null,
        "suburb": null,
        "city_district": null,
        "city": null,
        "state": "Baghdad Governorate",
        "postcode": "10079",
        "country": "Iraq",
        "country_code": "iq"
      },
      "address": "069, Mahmoudiya Central Subdistrict, Mahmoudiya District, Baghdad Governorate, 10079, Iraq"
    },
    {
      "lat": 33.07683395351084,
      "lon": 44.37469316688152,
      "geoinfo": {
        "display_name": "Hey Qada, Mahmoudiya municipality, Mahmoudiya Central Subdistrict, Mahmoudiya District, Baghdad Governorate, 10079, Iraq",
        "road": null,
        "house_number": null,
        "neighbourhood": "Hey Qada",
        "suburb": null,
        "city_district": null,
        "city": "Mahmoudiya municipality",
        "state": "Baghdad Governorate",
        "postcode": "10079",
        "country": "Iraq",
        "country_code": "iq"
      },
      "address": "878, Hey Qada, Mahmoudiya municipality, Mahmoudiya Central Subdistrict, Mahmoudiya District, Baghdad Governorate, 10079, Iraq"
    },
    {
      "lat": 33.085887007426585,
      "lon": 44.36291943427744,
      "geoinfo": {
        "display_name": "Mahmoudiya municipality, Mahmoudiya Central Subdistrict, Mahmoudiya District, Baghdad Governorate, 10079, Iraq",
        "road": null,
        "house_number": null,
        "neighbourhood": null,
        "suburb": null,
        "city_district": null,
        "city": "Mahmoudiya municipality",
        "state": "Baghdad Governorate",
        "postcode": "10079",
        "country": "Iraq",
        "country_code": "iq"
      },
      "address": "882, Mahmoudiya municipality, Mahmoudiya Central Subdistrict, Mahmoudiya District, Baghdad Governorate, 10079, Iraq"
    },
    {
      "lat": 33.08591262003298,
      "lon": 44.35515802811069,
      "geoinfo": {
        "display_name": "Mahmudiya Bypass, Mahmoudiya Central Subdistrict, Mahmoudiya District, Baghdad Governorate, 10079, Iraq",
        "road": "Mahmudiya Bypass",
        "house_number": null,
        "neighbourhood": null,
        "suburb": null,
        "city_district": null,
        "city": null,
        "state": "Baghdad Governorate",
        "postcode": "10079",
        "country": "Iraq",
        "country_code": "iq"
      },
      "address": "843, Mahmudiya Bypass, Mahmoudiya Central Subdistrict, Mahmoudiya District, Baghdad Governorate, 10079, Iraq"
    }
  ],
  "updated_at": "2025-10-19T04:58:34.187455+00:00",
  "_kind": "geo_samples"
}