{
  "country_code": "IQ",
  "country": "Iraq",
  "city": "‘Alī al Gharbī",
  "geonameid": 99306,
  "target_addresses": 2,
  "samples": [
    {
      "lat": 32.45952025111155,
      "lon": 46.73960714669615,
      "geoinfo": {
        "display_name": "14, Western Ali Central Subdistrict, Western Ali District, Maysan Governorate, Iraq",
        "road": "14",
        "house_number": null,
        "neighbourhood": null,
        "suburb": null,
        "city_district": null,
        "city": "Western Ali Central Subdistrict",
        "state": "Maysan Governorate",
        "postcode": null,
        "country": "Iraq",
        "country_code": "iq"
      },
      "address": "14, ‘Alī al Gharbī, Maysan Governorate, Iraq"
    },
    {
      "lat": 32.444817561330154,
      "lon": 46.715698675178885,
      "geoinfo": {
        "display_name": "Nahr Umm Zarqah, Western Ali Central Subdistrict, Western Ali District, Maysan Governorate, Iraq",
        "road": null,
        "house_number": null,
        "neighbourhood": null,
        "suburb": null,
        "city_district": null,
        "city": "Western Ali Central Subdistrict",
        "state": "Maysan Governorate",
        "postcode": null,
        "country": "Iraq",
        "country_code": "iq"
      },
      "address": "‘Alī al Gharbī, Maysan Governorate, Iraq"
    },
    {
      "lat": 32.448021184977705,
      "lon": 46.725077649884504,
      "geoinfo": {
        "display_name": "طريق كوت - عمارة, Western Ali Central Subdistrict, Eastern Ali Subdistrict, Western Ali District, Maysan Governorate, Iraq",
        "road": "طريق كوت - عمارة",
        "house_number": null,
        "neighbourhood": null,
        "suburb": null,
        "city_district": null,
        "city": "Western Ali Central Subdistrict",
        "state": "Maysan Governorate",
        "postcode": null,
        "country": "Iraq",
        "country_code": "iq"
      },
      "address": "722, طريق كوت - عمارة, Western Ali Central Subdistrict, Eastern Ali Subdistrict, Western Ali District, 17775 Maysan Governorate, Iraq"
    },
    {
      "lat": 32.474791461542985,
      "lon": 46.73409287960387,
      "geoinfo": {
        "display_name": "Western Ali Central Subdistrict, Western Ali District, Maysan Governorate, Iraq",
        "road": null,
        "house_number": null,
        "neighbourhood": null,
        "suburb": null,
        "city_district": null,
        "city": null,
        "state": "Maysan Governorate",
        "postcode": null,
        "country": "Iraq",
        "country_code": "iq"
      },
      "address": "842, ‘Alī al Gharbī, 16071 Maysan Governorate, Iraq"
    }
  ],
  "updated_at": "2025-10-19T05:16:09.809774+00:00",
  "_kind": "geo_samples"
}