{
  "country_code": "IQ",
  "country": "Iraq",
  "city": "Aş Şuwayrah",
  "geonameid": 98459,
  "target_addresses": 2,
  "samples": [
    {
      "lat": 32.955834794754004,
      "lon": 44.79582154297032,
      "geoinfo": {
        "display_name": "As Suwayrah, Al-Suwaira Central Subdistrict, Al-Suwaira District, Wasit Governorate, Iraq",
        "road": null,
        "house_number": null,
        "neighbourhood": null,
        "suburb": null,
        "city_district": null,
        "city": "As Suwayrah",
        "state": "Wasit Governorate",
        "postcode": null,
        "country": "Iraq",
        "country_code": "iq"
      },
      "address": "Aş Şuwayrah, Wasit Governorate, Iraq"
    },
    {
      "lat": 32.942837692494805,
      "lon": 44.73294780617946,
      "geoinfo": {
        "display_name": "شارع المطار, حي الاسرى, As Suwayrah, Al-Suwaira Central Subdistrict, Al-Suwaira District, Wasit Governorate, Iraq",
        "road": "شارع المطار",
        "house_number": null,
        "neighbourhood": "حي الاسرى",
        "suburb": null,
        "city_district": null,
        "city": "As Suwayrah",
        "state": "Wasit Governorate",
        "postcode": null,
        "country": "Iraq",
        "country_code": "iq"
      },
      "address": "شارع المطار, Aş Şuwayrah, Wasit Governorate, Iraq"
    },
    {
      "lat": 32.96338973653574,
      "lon": 44.76314602411038,
      "geoinfo": {
        "display_name": "Al-Suwaira Central Subdistrict, Al-Suwaira District, Wasit Governorate, Iraq",
        "road": null,
        "house_number": null,
        "neighbourhood": null,
        "suburb": null,
        "city_district": null,
        "city": null,
        "state": "Wasit Governorate",
        "postcode": null,
        "country": "Iraq",
        "country_code": "iq"
      },
      "address": "272, Aş Şuwayrah, 45058 Wasit Governorate, Iraq"
    },
    {
      "lat": 32.94049944060744,
      "lon": 44.802660177172754,
      "geoinfo": {
        "display_name": "Al Hafriyah, Al-Hafriyah Subdistrict, Al-Aziziyah District, Wasit Governorate, Iraq",
        "road": null,
        "house_number": null,
        "neighbourhood": null,
        "suburb": null,
        "city_district": null,
        "city": "Al Hafriyah",
        "state": "Wasit Governorate",
        "postcode": null,
        "country": "Iraq",
        "country_code": "iq"
      },
      "address": "531, Al Hafriyah, Al-Hafriyah Subdistrict, Al-Aziziyah District, 98975 Wasit Governorate, Iraq"
    }
  ],
  "updated_at": "2025-10-19T05:14:37.661466+00:00",
  "_kind": "geo_samples"
}