{
  "country_code": "IQ",
  "country": "Iraq",
  "city": "Kelar",
  "geonameid": 95005,
  "target_addresses": 2,
  "samples": [
    {
      "lat": 34.61753984618446,
      "lon": 45.289960091150036,
      "geoinfo": {
        "display_name": "Kalar, Kalar Central Subdistrict, Kalar District, Sulaymaniyah Governorate, Iraqi Kurdistan Region, 86021, Iraq",
        "road": null,
        "house_number": null,
        "neighbourhood": null,
        "suburb": null,
        "city_district": null,
        "city": "Kalar",
        "state": "Sulaymaniyah Governorate",
        "postcode": "86021",
        "country": "Iraq",
        "country_code": "iq"
      },
      "address": "Kelar, Sulaymaniyah Governorate, Iraq"
    },
    {
      "lat": 34.64598292312153,
      "lon": 45.27788845104277,
      "geoinfo": {
        "display_name": "شەقامی صلاح کوێخا, Kalar, Kalar Central Subdistrict, Kalar District, Sulaymaniyah Governorate, Iraqi Kurdistan Region, 46021, Iraq",
        "road": "شەقامی صلاح کوێخا",
        "house_number": null,
        "neighbourhood": null,
        "suburb": null,
        "city_district": null,
        "city": "Kalar",
        "state": "Sulaymaniyah Governorate",
        "postcode": "46021",
        "country": "Iraq",
        "country_code": "iq"
      },
      "address": "شەقامی صلاح کوێخا, Kelar, Sulaymaniyah Governorate, Iraq"
    },
    {
      "lat": 34.604234919382726,
      "lon": 45.27968200296185,
      "geoinfo": {
        "display_name": "Kalar, Kalar Central Subdistrict, Kalar District, Sulaymaniyah Governorate, Iraqi Kurdistan Region, 86021, Iraq",
        "road": null,
        "house_number": null,
        "neighbourhood": null,
        "suburb": null,
        "city_district": null,
        "city": "Kalar",
        "state": "Sulaymaniyah Governorate",
        "postcode": "86021",
        "country": "Iraq",
        "country_code": "iq"
      },
      "address": "438, Kelar, 86021 Sulaymaniyah Governorate, Iraq"
    },
    {
      "lat": 34.592997201040994,
      "lon": 45.298337840048596,
      "geoinfo": {
        "display_name": "Grdagozina, Kalar Central Subdistrict, Kalar District, Sulaymaniyah Governorate, Iraqi Kurdistan Region, 86021, Iraq",
        "road": null,
        "house_number": null,
        "neighbourhood": null,
        "suburb": null,
        "city_district": null,
        "city": "Grdagozina",
        "state": "Sulaymaniyah Governorate",
        "postcode": "86021",
        "country": "Iraq",
        "country_code": "iq"
      },
      "address": "720, Kelar, 86021 Sulaymaniyah Governorate, Iraq"
    }
  ],
  "updated_at": "2025-10-19T05:15:14.886734+00:00",
  "_kind": "geo_samples"
}