{
  "country_code": "IQ",
  "country": "Iraq",
  "city": "Nāḩiyat ash Shināfīyah",
  "geonameid": 98589,
  "target_addresses": 2,
  "samples": [
    {
      "lat": 31.59949312374215,
      "lon": 44.690486126175976,
      "geoinfo": {
        "display_name": "Sayyid Dahi, Al-Shinafiyah Subdistrict, Al-Hamza District, Al-Qadisiyah Governorate, Iraq",
        "road": null,
        "house_number": null,
        "neighbourhood": null,
        "suburb": null,
        "city_district": null,
        "city": "Al-Shinafiyah Subdistrict",
        "state": "Al-Qadisiyah Governorate",
        "postcode": null,
        "country": "Iraq",
        "country_code": "iq"
      },
      "address": "Nāḩiyat ash Shināfīyah, Al-Qadisiyah Governorate, Iraq"
    },
    {
      "lat": 31.57729983839685,
      "lon": 44.64960170280909,
      "geoinfo": {
        "display_name": "شنافية = قرية الغرب, صوب السراي, Abbas Numan, Al-Shinafiyah Subdistrict, Al-Hamza District, Al-Qadisiyah Governorate, Iraq",
        "road": "شنافية = قرية الغرب",
        "house_number": null,
        "neighbourhood": null,
        "suburb": null,
        "city_district": null,
        "city": "Al-Shinafiyah Subdistrict",
        "state": "Al-Qadisiyah Governorate",
        "postcode": null,
        "country": "Iraq",
        "country_code": "iq"
      },
      "address": "شنافية = قرية الغرب, Nāḩiyat ash Shināfīyah, Al-Qadisiyah Governorate, Iraq"
    },
    {
      "lat": 31.605691357981904,
      "lon": 44.62489935366134,
      "geoinfo": {
        "display_name": "Ghammas Subdistrict, Al-Shamiyah District, Al-Qadisiyah Governorate, Iraq",
        "road": null,
        "house_number": null,
        "neighbourhood": null,
        "suburb": null,
        "city_district": null,
        "city": null,
        "state": "Al-Qadisiyah Governorate",
        "postcode": null,
        "country": "Iraq",
        "country_code": "iq"
      },
      "address": "548, Nāḩiyat ash Shināfīyah, 32812 Al-Qadisiyah Governorate, Iraq"
    },
    {
      "lat": 31.61281180509035,
      "lon": 44.65948599674896,
      "geoinfo": {
        "display_name": "Ghammas Subdistrict, Al-Shamiyah District, Al-Qadisiyah Governorate, Iraq",
        "road": null,
        "house_number": null,
        "neighbourhood": null,
        "suburb": null,
        "city_district": null,
        "city": null,
        "state": "Al-Qadisiyah Governorate",
        "postcode": null,
        "country": "Iraq",
        "country_code": "iq"
      },
      "address": "601, Nāḩiyat ash Shināfīyah, 21902 Al-Qadisiyah Governorate, Iraq"
    }
  ],
  "updated_at": "2025-10-19T05:14:45.351453+00:00",
  "_kind": "geo_samples"
}