{
  "country_code": "IQ",
  "country": "Iraq",
  "city": "Simele",
  "geonameid": 10303650,
  "target_addresses": 7,
  "samples": [
    {
      "lat": 36.88404880849499,
      "lon": 42.87243276704611,
      "geoinfo": {
        "display_name": "مشروع بيوت زجاجية, Şetunsi Mahallesi, Taxa Shatunis, Hawshike, Simele Central Subdistrict, Simele District, Duhok Governorate, Iraqi Kurdistan Region, 99445, Iraq",
        "road": "Şetunsi Mahallesi",
        "house_number": null,
        "neighbourhood": "Taxa Shatunis",
        "suburb": null,
        "city_district": null,
        "city": "Hawshike",
        "state": null,
        "postcode": "99445",
        "country": "Iraq",
        "country_code": "iq"
      },
      "address": "Şetunsi Mahallesi, Simele, Iraq"
    },
    {
      "lat": 36.82638027637063,
      "lon": 42.84584250646941,
      "geoinfo": {
        "display_name": "Lazzagah, Simele Central Subdistrict, Simele District, Duhok Governorate, Iraqi Kurdistan Region, 42003, Iraq",
        "road": null,
        "house_number": null,
        "neighbourhood": null,
        "suburb": null,
        "city_district": null,
        "city": "Lazzagah",
        "state": null,
        "postcode": "42003",
        "country": "Iraq",
        "country_code": "iq"
      },
      "address": "Simele, Iraq"
    },
    {
      "lat": 36.86828809649942,
      "lon": 42.90144044508349,
      "geoinfo": {
        "display_name": "Tenahi, Tanahi, Simele Central Subdistrict, Simele District, Duhok Governorate, Iraqi Kurdistan Region, 99455, Iraq",
        "road": null,
        "house_number": null,
        "neighbourhood": null,
        "suburb": null,
        "city_district": null,
        "city": "Tanahi",
        "state": null,
        "postcode": "99455",
        "country": "Iraq",
        "country_code": "iq"
      },
      "address": "312, Tenahi, Tanahi, Simele Central Subdistrict, Simele District, Duhok Governorate, Iraqi Kurdistan Region, 99455, Iraq"
    },
    {
      "lat": 36.88629447641472,
      "lon": 42.8195870286952,
      "geoinfo": {
        "display_name": "Marwin, Simele Central Subdistrict, Simele District, Duhok Governorate, Iraqi Kurdistan Region, Iraq",
        "road": null,
        "house_number": null,
        "neighbourhood": null,
        "suburb": null,
        "city_district": null,
        "city": "Marwin",
        "state": null,
        "postcode": null,
        "country": "Iraq",
        "country_code": "iq"
      },
      "address": "349, Marwin, Simele Central Subdistrict, Simele District, Duhok Governorate, 97620 Iraqi Kurdistan Region, Iraq"
    },
    {
      "lat": 36.89831191218814,
      "lon": 42.85359474874403,
      "geoinfo": {
        "display_name": "Kani Ashe, Simele Central Subdistrict, Simele District, Duhok Governorate, Iraqi Kurdistan Region, 42003, Iraq",
        "road": null,
        "house_number": null,
        "neighbourhood": null,
        "suburb": null,
        "city_district": null,
        "city": "Kani Ashe",
        "state": null,
        "postcode": "42003",
        "country": "Iraq",
        "country_code": "iq"
      },
      "address": "233, Kani Ashe, Simele Central Subdistrict, Simele District, Duhok Governorate, Iraqi Kurdistan Region, 42003, Iraq"
    },
    {
      "lat": 36.87029092514646,
      "lon": 42.803617312912195,
      "geoinfo": {
        "display_name": "misureek, Simele Central Subdistrict, Simele District, Duhok Governorate, Iraqi Kurdistan Region, Iraq",
        "road": null,
        "house_number": null,
        "neighbourhood": null,
        "suburb": null,
        "city_district": null,
        "city": "misureek",
        "state": null,
        "postcode": null,
        "country": "Iraq",
        "country_code": "iq"
      },
      "address": "629, misureek, Simele Central Subdistrict, Simele District, Duhok Governorate, 78074 Iraqi Kurdistan Region, Iraq"
    },
    {
      "lat": 36.860552646649666,
      "lon": 42.836005937145806,
      "geoinfo": {
        "display_name": "Mserike Road, Semel, Simele Central Subdistrict, Simele District, Duhok Governorate, Iraqi Kurdistan Region, 42003, Iraq",
        "road": "Mserike Road",
        "house_number": null,
        "neighbourhood": null,
        "suburb": null,
        "city_district": null,
        "city": "Semel",
        "state": null,
        "postcode": "42003",
        "country": "Iraq",
        "country_code": "iq"
      },
      "address": "538, Mserike Road, Semel, Simele Central Subdistrict, Simele District, Duhok Governorate, Iraqi Kurdistan Region, 42003, Iraq"
    }
  ],
  "updated_at": "2025-10-19T04:58:58.204805+00:00",
  "_kind": "geo_samples"
}