{
  "country_code": "IQ",
  "country": "Iraq",
  "city": "Umm Qaşr",
  "geonameid": 89824,
  "target_addresses": 2,
  "samples": [
    {
      "lat": 30.033218822042507,
      "lon": 47.899136560973275,
      "geoinfo": {
        "display_name": "ملحق حكيم 4, Hawally road, بلوك ١٣, Umm Qasr, Umm Qasr Subdistrict, Al-Zubair District, Al-Basra Governorate, 61011, Iraq",
        "road": "Hawally road",
        "house_number": null,
        "neighbourhood": "بلوك ١٣",
        "suburb": null,
        "city_district": null,
        "city": "Umm Qasr",
        "state": "Al-Basra Governorate",
        "postcode": "61011",
        "country": "Iraq",
        "country_code": "iq"
      },
      "address": "Hawally road, Umm Qaşr, Al-Basra Governorate, Iraq"
    },
    {
      "lat": 30.040591078436115,
      "lon": 47.9479732453857,
      "geoinfo": {
        "display_name": "الى معمل سمنت ام قصر, Umm Qasr, Umm Qasr Subdistrict, Al-Zubair District, Al-Basra Governorate, 61011, Iraq",
        "road": "الى معمل سمنت ام قصر",
        "house_number": null,
        "neighbourhood": null,
        "suburb": null,
        "city_district": null,
        "city": "Umm Qasr",
        "state": "Al-Basra Governorate",
        "postcode": "61011",
        "country": "Iraq",
        "country_code": "iq"
      },
      "address": "الى معمل سمنت ام قصر, Umm Qaşr, Al-Basra Governorate, Iraq"
    },
    {
      "lat": 30.026683512683586,
      "lon": 47.92489110609845,
      "geoinfo": {
        "display_name": "بلوك ١٣, Umm Qasr, Umm Qasr Subdistrict, Al-Zubair District, Al-Basra Governorate, 61011, Iraq",
        "road": null,
        "house_number": null,
        "neighbourhood": "بلوك ١٣",
        "suburb": null,
        "city_district": null,
        "city": "Umm Qasr",
        "state": "Al-Basra Governorate",
        "postcode": "61011",
        "country": "Iraq",
        "country_code": "iq"
      },
      "address": "بلوك ١٣, Umm Qasr, Umm Qasr Subdistrict, Al-Zubair District, Al-Basra Governorate, 61011, Iraq"
    },
    {
      "lat": 30.058324996978516,
      "lon": 47.927616535631266,
      "geoinfo": {
        "display_name": "Northern Umm Qasr Port, Umm Qasr, Umm Qasr Subdistrict, Al-Zubair District, Al-Basra Governorate, 61011, Iraq",
        "road": null,
        "house_number": null,
        "neighbourhood": null,
        "suburb": null,
        "city_district": null,
        "city": "Umm Qasr",
        "state": "Al-Basra Governorate",
        "postcode": "61011",
        "country": "Iraq",
        "country_code": "iq"
      },
      "address": "436, Northern Umm Qasr Port, Umm Qasr, Umm Qasr Subdistrict, Al-Zubair District, Al-Basra Governorate, 61011, Iraq"
    }
  ],
  "updated_at": "2025-10-19T03:35:28.445317+00:00",
  "_kind": "geo_samples"
}