{
  "country_code": "IQ",
  "country": "Iraq",
  "city": "Zaxo",
  "geonameid": 89570,
  "target_addresses": 6,
  "samples": [
    {
      "lat": 37.171109917400464,
      "lon": 42.72109652137419,
      "geoinfo": {
        "display_name": "Liparis Sport Complex, Pirazerin oil road, Tal Kibar, Zakho, Zakho Central Subdistrict, Zakho District, Duhok Governorate, Iraqi Kurdistan Region, 81237, Iraq",
        "road": "Pirazerin oil road",
        "house_number": null,
        "neighbourhood": "Tal Kibar",
        "suburb": null,
        "city_district": null,
        "city": "Zakho",
        "state": null,
        "postcode": "81237",
        "country": "Iraq",
        "country_code": "iq"
      },
      "address": "Pirazerin oil road, Zaxo, Iraq"
    },
    {
      "lat": 37.15470627434948,
      "lon": 42.65426729652516,
      "geoinfo": {
        "display_name": "Zakho, Zakho Central Subdistrict, Zakho District, Duhok Governorate, Iraqi Kurdistan Region, 90007, Iraq",
        "road": null,
        "house_number": null,
        "neighbourhood": null,
        "suburb": null,
        "city_district": null,
        "city": "Zakho",
        "state": null,
        "postcode": "90007",
        "country": "Iraq",
        "country_code": "iq"
      },
      "address": "Zaxo, Iraq"
    },
    {
      "lat": 37.15996715325725,
      "lon": 42.66841558161935,
      "geoinfo": {
        "display_name": "Ekademiya Leşkerî, جادا ئه‌كادميا له‌شكه‌رى, Mahmadi, Zakho, Zakho Central Subdistrict, Zakho District, Duhok Governorate, Iraqi Kurdistan Region, 90007, Iraq",
        "road": "جادا ئه‌كادميا له‌شكه‌رى",
        "house_number": null,
        "neighbourhood": "Mahmadi",
        "suburb": null,
        "city_district": null,
        "city": "Zakho",
        "state": null,
        "postcode": "90007",
        "country": "Iraq",
        "country_code": "iq"
      },
      "address": "693, جادا ئه‌كادميا له‌شكه‌رى, 90007 Zaxo, Iraq"
    },
    {
      "lat": 37.13611436587683,
      "lon": 42.681338835678936,
      "geoinfo": {
        "display_name": "Saladin Neighborhood, Zakho, Zakho Central Subdistrict, Zakho District, Duhok Governorate, Iraqi Kurdistan Region, 81237, Iraq",
        "road": null,
        "house_number": null,
        "neighbourhood": "Saladin Neighborhood",
        "suburb": null,
        "city_district": null,
        "city": "Zakho",
        "state": null,
        "postcode": "81237",
        "country": "Iraq",
        "country_code": "iq"
      },
      "address": "072, Saladin Neighborhood, 81237 Zaxo, Iraq"
    },
    {
      "lat": 37.14634050003923,
      "lon": 42.70000385153258,
      "geoinfo": {
        "display_name": "تاخێ عه‌باسيكێ, Zakho, Zakho Central Subdistrict, Zakho District, Duhok Governorate, Iraqi Kurdistan Region, 42002, Iraq",
        "road": null,
        "house_number": null,
        "neighbourhood": "تاخێ عه‌باسيكێ",
        "suburb": null,
        "city_district": null,
        "city": "Zakho",
        "state": null,
        "postcode": "42002",
        "country": "Iraq",
        "country_code": "iq"
      },
      "address": "826, تاخێ عه‌باسيكێ, 42002 Zaxo, Iraq"
    },
    {
      "lat": 37.16933626204586,
      "lon": 42.71687197487573,
      "geoinfo": {
        "display_name": "Tal Kibar, Zakho, Zakho Central Subdistrict, Zakho District, Duhok Governorate, Iraqi Kurdistan Region, 81237, Iraq",
        "road": null,
        "house_number": null,
        "neighbourhood": "Tal Kibar",
        "suburb": null,
        "city_district": null,
        "city": "Zakho",
        "state": null,
        "postcode": "81237",
        "country": "Iraq",
        "country_code": "iq"
      },
      "address": "675, Tal Kibar, Zakho, Zakho Central Subdistrict, Zakho District, Duhok Governorate, Iraqi Kurdistan Region, 81237, Iraq"
    },
    {
      "lat": 37.134850847975976,
      "lon": 42.734258908048936,
      "geoinfo": {
        "display_name": "Dream City Complex, Zakho, Rizgari Subdistrict, Zakho District, Duhok Governorate, Iraqi Kurdistan Region, Iraq",
        "road": null,
        "house_number": null,
        "neighbourhood": "Dream City Complex",
        "suburb": null,
        "city_district": null,
        "city": "Zakho",
        "state": null,
        "postcode": null,
        "country": "Iraq",
        "country_code": "iq"
      },
      "address": "767, Dream City Complex, 54100 Zaxo, Iraq"
    }
  ],
  "updated_at": "2025-10-19T04:56:45.845597+00:00",
  "_kind": "geo_samples"
}