{
  "country_code": "IQ",
  "country": "Iraq",
  "city": "Ḩadīthah",
  "geonameid": 96309,
  "target_addresses": 2,
  "samples": [
    {
      "lat": 34.169691263573476,
      "lon": 42.36621061675598,
      "geoinfo": {
        "display_name": "Qaryat ash Shaykh Jadid, Haditha Central Subdistrict, Haditha District, Al-Anbar Governorate, Iraq",
        "road": null,
        "house_number": null,
        "neighbourhood": null,
        "suburb": null,
        "city_district": null,
        "city": "Qaryat ash Shaykh Jadid",
        "state": "Al-Anbar Governorate",
        "postcode": null,
        "country": "Iraq",
        "country_code": "iq"
      },
      "address": "Ḩadīthah, Al-Anbar Governorate, Iraq"
    },
    {
      "lat": 34.10324763718335,
      "lon": 42.39110016432764,
      "geoinfo": {
        "display_name": "Barwana, Barwanah Subdistrict, Haditha District, Al-Anbar Governorate, Iraq",
        "road": null,
        "house_number": null,
        "neighbourhood": null,
        "suburb": null,
        "city_district": null,
        "city": "Barwana",
        "state": "Al-Anbar Governorate",
        "postcode": null,
        "country": "Iraq",
        "country_code": "iq"
      },
      "address": "199, Ḩadīthah, 89544 Al-Anbar Governorate, Iraq"
    },
    {
      "lat": 34.14486744291095,
      "lon": 42.39795331576047,
      "geoinfo": {
        "display_name": "Arab Fulayh Hasan, Qaryat al Huwayjah, Barwanah Subdistrict, Haditha District, Al-Anbar Governorate, Iraq",
        "road": null,
        "house_number": null,
        "neighbourhood": null,
        "suburb": null,
        "city_district": null,
        "city": "Qaryat al Huwayjah",
        "state": "Al-Anbar Governorate",
        "postcode": null,
        "country": "Iraq",
        "country_code": "iq"
      },
      "address": "395, Ḩadīthah, 40012 Al-Anbar Governorate, Iraq"
    }
  ],
  "updated_at": "2025-10-19T05:14:30.288759+00:00",
  "_kind": "geo_samples"
}