{
  "country_code": "CM",
  "country": "Cameroon",
  "city": "Ambam",
  "geonameid": 2235660,
  "target_addresses": 7,
  "samples": [
    {
      "lat": 2.3990123883760224,
      "lon": 11.250787056294309,
      "geoinfo": {
        "display_name": "Bikon, Ambam, Vallée-du-Ntem, South, Cameroon",
        "road": null,
        "house_number": null,
        "neighbourhood": null,
        "suburb": null,
        "city_district": null,
        "city": "Ambam",
        "state": "South",
        "postcode": null,
        "country": "Cameroon",
        "country_code": "cm"
      },
      "address": "Ambam, South, Cameroon"
    },
    {
      "lat": 2.409928247176038,
      "lon": 11.290984838685658,
      "geoinfo": {
        "display_name": "D82, Nsélang, Ambam, Vallée-du-Ntem, South, Cameroon",
        "road": "D82",
        "house_number": null,
        "neighbourhood": null,
        "suburb": null,
        "city_district": null,
        "city": "Ambam",
        "state": "South",
        "postcode": null,
        "country": "Cameroon",
        "country_code": "cm"
      },
      "address": "D82, Ambam, South, Cameroon"
    },
    {
      "lat": 2.374433024785554,
      "lon": 11.318003284615338,
      "geoinfo": {
        "display_name": "N2, Mekaman, Ambam, Vallée-du-Ntem, South, Cameroon",
        "road": "N2",
        "house_number": null,
        "neighbourhood": null,
        "suburb": null,
        "city_district": null,
        "city": "Ambam",
        "state": "South",
        "postcode": null,
        "country": "Cameroon",
        "country_code": "cm"
      },
      "address": "N2, Mekaman, Ambam, Vallée-du-Ntem, 44612 South, Cameroon"
    },
    {
      "lat": 2.341168612172083,
      "lon": 11.29207178610475,
      "geoinfo": {
        "display_name": "Too, Ambam, Vallée-du-Ntem, South, Cameroon",
        "road": null,
        "house_number": null,
        "neighbourhood": null,
        "suburb": null,
        "city_district": null,
        "city": "Ambam",
        "state": "South",
        "postcode": null,
        "country": "Cameroon",
        "country_code": "cm"
      },
      "address": "875, Too, Ambam, Vallée-du-Ntem, 93610 South, Cameroon"
    },
    {
      "lat": 2.4025139798053843,
      "lon": 11.273097298213372,
      "geoinfo": {
        "display_name": "Bikon, Ambam, Vallée-du-Ntem, South, Cameroon",
        "road": null,
        "house_number": null,
        "neighbourhood": null,
        "suburb": null,
        "city_district": null,
        "city": "Ambam",
        "state": "South",
        "postcode": null,
        "country": "Cameroon",
        "country_code": "cm"
      },
      "address": "775, Bikon, Ambam, Vallée-du-Ntem, 79024 South, Cameroon"
    },
    {
      "lat": 2.345913363663323,
      "lon": 11.277189332468403,
      "geoinfo": {
        "display_name": "Yama, Ambam, Vallée-du-Ntem, South, Cameroon",
        "road": null,
        "house_number": null,
        "neighbourhood": null,
        "suburb": null,
        "city_district": null,
        "city": "Ambam",
        "state": "South",
        "postcode": null,
        "country": "Cameroon",
        "country_code": "cm"
      },
      "address": "028, Yama, Ambam, Vallée-du-Ntem, 81491 South, Cameroon"
    },
    {
      "lat": 2.368152076733563,
      "lon": 11.249664012317872,
      "geoinfo": {
        "display_name": "Ngankié, Ambam, Vallée-du-Ntem, South, Cameroon",
        "road": null,
        "house_number": null,
        "neighbourhood": null,
        "suburb": null,
        "city_district": null,
        "city": "Ambam",
        "state": "South",
        "postcode": null,
        "country": "Cameroon",
        "country_code": "cm"
      },
      "address": "845, Ngankié, Ambam, Vallée-du-Ntem, 41433 South, Cameroon"
    }
  ],
  "updated_at": "2025-10-19T03:50:06.553598+00:00",
  "_kind": "geo_samples"
}