{
  "country_code": "CM",
  "country": "Cameroon",
  "city": "Guidiguis",
  "geonameid": 2230873,
  "target_addresses": 2,
  "samples": [
    {
      "lat": 10.120408261427912,
      "lon": 14.713933986178953,
      "geoinfo": {
        "display_name": "Lamtare, Guidiguis, Mayo-Kani, Far-North, Cameroon",
        "road": null,
        "house_number": null,
        "neighbourhood": null,
        "suburb": null,
        "city_district": null,
        "city": "Guidiguis",
        "state": "Far-North",
        "postcode": null,
        "country": "Cameroon",
        "country_code": "cm"
      },
      "address": "Guidiguis, Far-North, Cameroon"
    },
    {
      "lat": 10.145854017359529,
      "lon": 14.688276941342167,
      "geoinfo": {
        "display_name": "Magada-Kaélé-Yagoua, Kourbi, Guidiguis, Mayo-Kani, Far-North, Cameroon",
        "road": "Magada-Kaélé-Yagoua",
        "house_number": null,
        "neighbourhood": null,
        "suburb": null,
        "city_district": null,
        "city": "Guidiguis",
        "state": "Far-North",
        "postcode": null,
        "country": "Cameroon",
        "country_code": "cm"
      },
      "address": "052, Magada-Kaélé-Yagoua, Kourbi, Guidiguis, Mayo-Kani, 43217 Far-North, Cameroon"
    },
    {
      "lat": 10.139463644014464,
      "lon": 14.740583588513704,
      "geoinfo": {
        "display_name": "Magada-Kaélé-Yagoua, Nguel Loumo Guidguisy, Golondere, Guidiguis, Mayo-Kani, Far-North, Cameroon",
        "road": "Magada-Kaélé-Yagoua",
        "house_number": null,
        "neighbourhood": null,
        "suburb": null,
        "city_district": null,
        "city": "Guidiguis",
        "state": "Far-North",
        "postcode": null,
        "country": "Cameroon",
        "country_code": "cm"
      },
      "address": "149, Magada-Kaélé-Yagoua, Nguel Loumo Guidguisy, Golondere, Guidiguis, Mayo-Kani, 73532 Far-North, Cameroon"
    }
  ],
  "updated_at": "2025-10-19T01:30:46.480767+00:00",
  "_kind": "geo_samples"
}