{
  "country_code": "CM",
  "country": "Cameroon",
  "city": "Kousséri",
  "geonameid": 2229798,
  "target_addresses": 2,
  "samples": [
    {
      "lat": 12.033979706370639,
      "lon": 15.03970567592382,
      "geoinfo": {
        "display_name": "Ouada, Kousséri, Logone-et-Chari, Far-North, Cameroon",
        "road": null,
        "house_number": null,
        "neighbourhood": null,
        "suburb": null,
        "city_district": null,
        "city": "Kousséri",
        "state": "Far-North",
        "postcode": null,
        "country": "Cameroon",
        "country_code": "cm"
      },
      "address": "Kousséri, Far-North, Cameroon"
    },
    {
      "lat": 12.087235203981885,
      "lon": 14.992347963533271,
      "geoinfo": {
        "display_name": "Maroua-Kousséri, Naga, Marako, Kousséri, Logone-et-Chari, Far-North, Cameroon",
        "road": "Maroua-Kousséri",
        "house_number": null,
        "neighbourhood": null,
        "suburb": null,
        "city_district": null,
        "city": "Kousséri",
        "state": "Far-North",
        "postcode": null,
        "country": "Cameroon",
        "country_code": "cm"
      },
      "address": "Maroua-Kousséri, Kousséri, Far-North, Cameroon"
    },
    {
      "lat": 12.046074704941255,
      "lon": 15.02853766185916,
      "geoinfo": {
        "display_name": "Michediré, Ouada, Kousséri, Logone-et-Chari, Far-North, Cameroon",
        "road": null,
        "house_number": null,
        "neighbourhood": null,
        "suburb": "Michediré",
        "city_district": null,
        "city": "Kousséri",
        "state": "Far-North",
        "postcode": null,
        "country": "Cameroon",
        "country_code": "cm"
      },
      "address": "103, Michediré, Kousséri, 83451 Far-North, Cameroon"
    },
    {
      "lat": 12.080105190450286,
      "lon": 14.989052165198599,
      "geoinfo": {
        "display_name": "Forages, Maroua-Kousséri, Naga, Marako, Kousséri, Logone-et-Chari, Far-North, Cameroon",
        "road": "Maroua-Kousséri",
        "house_number": null,
        "neighbourhood": null,
        "suburb": null,
        "city_district": null,
        "city": "Kousséri",
        "state": "Far-North",
        "postcode": null,
        "country": "Cameroon",
        "country_code": "cm"
      },
      "address": "221, Maroua-Kousséri, Kousséri, 59323 Far-North, Cameroon"
    }
  ],
  "updated_at": "2025-10-19T03:12:15.225487+00:00",
  "_kind": "geo_samples"
}