{
  "country_code": "CM",
  "country": "Cameroon",
  "city": "Mamfe",
  "geonameid": 2228675,
  "target_addresses": 2,
  "samples": [
    {
      "lat": 5.711855634537017,
      "lon": 9.303820515689141,
      "geoinfo": {
        "display_name": "Route Mamfé - Eyumodjock, Besongabang, Mamfe, Manyu, Southwest, Cameroon",
        "road": "Route Mamfé - Eyumodjock",
        "house_number": null,
        "neighbourhood": null,
        "suburb": null,
        "city_district": null,
        "city": "Mamfe",
        "state": "Southwest",
        "postcode": null,
        "country": "Cameroon",
        "country_code": "cm"
      },
      "address": "Route Mamfé - Eyumodjock, Mamfe, Southwest, Cameroon"
    },
    {
      "lat": 5.786355214154258,
      "lon": 9.309905359950353,
      "geoinfo": {
        "display_name": "Kesham, Mamfe, Manyu, Southwest, Cameroon",
        "road": null,
        "house_number": null,
        "neighbourhood": null,
        "suburb": null,
        "city_district": null,
        "city": "Mamfe",
        "state": "Southwest",
        "postcode": null,
        "country": "Cameroon",
        "country_code": "cm"
      },
      "address": "Mamfe, Southwest, Cameroon"
    },
    {
      "lat": 5.7321006771502585,
      "lon": 9.3234087228898,
      "geoinfo": {
        "display_name": "Mamfe, Manyu, Southwest, Cameroon",
        "road": null,
        "house_number": null,
        "neighbourhood": null,
        "suburb": null,
        "city_district": null,
        "city": "Mamfe",
        "state": "Southwest",
        "postcode": null,
        "country": "Cameroon",
        "country_code": "cm"
      },
      "address": "038, Mamfe, Manyu, 21216 Southwest, Cameroon"
    },
    {
      "lat": 5.760112318604407,
      "lon": 9.333875982853256,
      "geoinfo": {
        "display_name": "X8, Bombe, Mamfe, Manyu, Southwest, Cameroon",
        "road": "X8",
        "house_number": null,
        "neighbourhood": null,
        "suburb": null,
        "city_district": null,
        "city": "Mamfe",
        "state": "Southwest",
        "postcode": null,
        "country": "Cameroon",
        "country_code": "cm"
      },
      "address": "X8, Bombe, Mamfe, Manyu, 45018 Southwest, Cameroon"
    }
  ],
  "updated_at": "2025-10-19T03:19:19.751147+00:00",
  "_kind": "geo_samples"
}