{
  "country_code": "CM",
  "country": "Cameroon",
  "city": "Tiko",
  "geonameid": 2221504,
  "target_addresses": 2,
  "samples": [
    {
      "lat": 4.072771304516309,
      "lon": 9.393079041495279,
      "geoinfo": {
        "display_name": "Monkey Kombo, Tiko, Fako, Southwest, Cameroon",
        "road": null,
        "house_number": null,
        "neighbourhood": null,
        "suburb": null,
        "city_district": null,
        "city": "Tiko",
        "state": "Southwest",
        "postcode": null,
        "country": "Cameroon",
        "country_code": "cm"
      },
      "address": "Tiko, Southwest, Cameroon"
    },
    {
      "lat": 4.089013487984711,
      "lon": 9.402306104749874,
      "geoinfo": {
        "display_name": "Ikange, Tiko, Fako, Southwest, Cameroon",
        "road": null,
        "house_number": null,
        "neighbourhood": null,
        "suburb": null,
        "city_district": null,
        "city": "Tiko",
        "state": "Southwest",
        "postcode": null,
        "country": "Cameroon",
        "country_code": "cm"
      },
      "address": "395, Ikange, Tiko, Fako, 83552 Southwest, Cameroon"
    },
    {
      "lat": 4.090538049231634,
      "lon": 9.390061574403644,
      "geoinfo": {
        "display_name": "Sone, Tiko, Fako, Southwest, Cameroon",
        "road": null,
        "house_number": null,
        "neighbourhood": null,
        "suburb": null,
        "city_district": null,
        "city": "Tiko",
        "state": "Southwest",
        "postcode": null,
        "country": "Cameroon",
        "country_code": "cm"
      },
      "address": "894, Sone, Tiko, Fako, 02795 Southwest, Cameroon"
    }
  ],
  "updated_at": "2025-10-19T01:48:57.391343+00:00",
  "_kind": "geo_samples"
}