{
  "country_code": "CM",
  "country": "Cameroon",
  "city": "Ébolowa",
  "geonameid": 2232283,
  "target_addresses": 2,
  "samples": [
    {
      "lat": 2.896954943900306,
      "lon": 11.146502190662437,
      "geoinfo": {
        "display_name": "Elat, Ebolowa, Ebolowa II, Communauté urbaine d'Ebolowa, Mvila, South, Cameroon",
        "road": null,
        "house_number": null,
        "neighbourhood": null,
        "suburb": "Elat",
        "city_district": null,
        "city": "Ebolowa",
        "state": "South",
        "postcode": null,
        "country": "Cameroon",
        "country_code": "cm"
      },
      "address": "Elat, Ébolowa, South, Cameroon"
    },
    {
      "lat": 2.9163842290046564,
      "lon": 11.16571600673979,
      "geoinfo": {
        "display_name": "Bertha Hotel Jc Bar, CHEMIN, Jungle, Mekalat, Ebolowa, Ebolowa II, Communauté urbaine d'Ebolowa, Mvila, South, Cameroon",
        "road": "CHEMIN",
        "house_number": null,
        "neighbourhood": null,
        "suburb": "Mekalat",
        "city_district": null,
        "city": "Ebolowa",
        "state": "South",
        "postcode": null,
        "country": "Cameroon",
        "country_code": "cm"
      },
      "address": "CHEMIN, Ébolowa, South, Cameroon"
    },
    {
      "lat": 2.8778902864832867,
      "lon": 11.178455655281159,
      "geoinfo": {
        "display_name": "D 39, Metyikpwale, Ebolowa II, Communauté urbaine d'Ebolowa, Mvila, South, Cameroon",
        "road": "D 39",
        "house_number": null,
        "neighbourhood": null,
        "suburb": null,
        "city_district": null,
        "city": "Ebolowa II",
        "state": "South",
        "postcode": null,
        "country": "Cameroon",
        "country_code": "cm"
      },
      "address": "D 39, Ébolowa, 04845 South, Cameroon"
    },
    {
      "lat": 2.871698307882413,
      "lon": 11.170628029679825,
      "geoinfo": {
        "display_name": "D 39, Metyikpwale, Ebolowa II, Communauté urbaine d'Ebolowa, Mvila, South, Cameroon",
        "road": "D 39",
        "house_number": null,
        "neighbourhood": null,
        "suburb": null,
        "city_district": null,
        "city": "Ebolowa II",
        "state": "South",
        "postcode": null,
        "country": "Cameroon",
        "country_code": "cm"
      },
      "address": "D 39, Ébolowa, 31163 South, Cameroon"
    }
  ],
  "updated_at": "2025-10-19T01:30:53.893966+00:00",
  "_kind": "geo_samples"
}