{
  "country_code": "SB",
  "country": "Solomon Islands",
  "city": "Honiara",
  "geonameid": 2108502,
  "target_addresses": 100,
  "samples": [
    {
      "lat": -9.40837357940597,
      "lon": 159.9694219116789,
      "geoinfo": {
        "display_name": "Guadalcanal, Solomon Islands",
        "road": null,
        "house_number": null,
        "neighbourhood": null,
        "suburb": null,
        "city_district": null,
        "city": null,
        "state": "Guadalcanal",
        "postcode": null,
        "country": "Solomon Islands",
        "country_code": "sb"
      },
      "address": "362, Honiara, 57307 Guadalcanal, Solomon Islands"
    },
    {
      "lat": -9.401653191906087,
      "lon": 159.94077999519428,
      "geoinfo": {
        "display_name": "Guadalcanal, Solomon Islands",
        "road": null,
        "house_number": null,
        "neighbourhood": null,
        "suburb": null,
        "city_district": null,
        "city": null,
        "state": "Guadalcanal",
        "postcode": null,
        "country": "Solomon Islands",
        "country_code": "sb"
      },
      "address": "141, Honiara, 92450 Guadalcanal, Solomon Islands"
    },
    {
      "lat": -9.426205448214642,
      "lon": 159.99211698476722,
      "geoinfo": {
        "display_name": "Kukum Highway, Vura, Panatina, Honiara, Solomon Islands",
        "road": "Kukum Highway",
        "house_number": null,
        "neighbourhood": null,
        "suburb": null,
        "city_district": "Vura",
        "city": "Panatina",
        "state": "Honiara",
        "postcode": null,
        "country": "Solomon Islands",
        "country_code": "sb"
      },
      "address": "410, Kukum Highway, Vura, Panatina, 39094 Honiara, Solomon Islands"
    },
    {
      "lat": -9.458849496686227,
      "lon": 159.92270345911547,
      "geoinfo": {
        "display_name": "Huhuru Road, Mbumburu, Guadalcanal, Solomon Islands",
        "road": "Huhuru Road",
        "house_number": null,
        "neighbourhood": null,
        "suburb": null,
        "city_district": "Mbumburu",
        "city": null,
        "state": "Guadalcanal",
        "postcode": null,
        "country": "Solomon Islands",
        "country_code": "sb"
      },
      "address": "542, Huhuru Road, Honiara, 44913 Guadalcanal, Solomon Islands"
    },
    {
      "lat": -9.446161660015699,
      "lon": 159.9591078748213,
      "geoinfo": {
        "display_name": "Vara Creek Road 1, Tapalevo, Mataniko, Kola'a, Honiara, Solomon Islands",
        "road": "Vara Creek Road 1",
        "house_number": null,
        "neighbourhood": null,
        "suburb": "Tapalevo",
        "city_district": "Mataniko",
        "city": "Kola'a",
        "state": "Honiara",
        "postcode": null,
        "country": "Solomon Islands",
        "country_code": "sb"
      },
      "address": "Vara Creek Road 1, Tapalevo, Mataniko, Kola'a, 14400 Honiara, Solomon Islands"
    },
    {
      "lat": -9.393067275461709,
      "lon": 159.9566699394344,
      "geoinfo": {
        "display_name": "Guadalcanal, Solomon Islands",
        "road": null,
        "house_number": null,
        "neighbourhood": null,
        "suburb": null,
        "city_district": null,
        "city": null,
        "state": "Guadalcanal",
        "postcode": null,
        "country": "Solomon Islands",
        "country_code": "sb"
      },
      "address": "434, Honiara, 90867 Guadalcanal, Solomon Islands"
    },
    {
      "lat": -9.457611083861748,
      "lon": 159.94094756763502,
      "geoinfo": {
        "display_name": "Guadalcanal, Solomon Islands",
        "road": null,
        "house_number": null,
        "neighbourhood": null,
        "suburb": null,
        "city_district": null,
        "city": null,
        "state": "Guadalcanal",
        "postcode": null,
        "country": "Solomon Islands",
        "country_code": "sb"
      },
      "address": "809, Honiara, 30067 Guadalcanal, Solomon Islands"
    },
    {
      "lat": -9.423419614304846,
      "lon": 159.92123387944625,
      "geoinfo": {
        "display_name": "Tandai Highway, White River, Nggosi, Honiara, Solomon Islands",
        "road": "Tandai Highway",
        "house_number": null,
        "neighbourhood": null,
        "suburb": "White River",
        "city_district": "Nggosi",
        "city": "Honiara",
        "state": "Honiara",
        "postcode": null,
        "country": "Solomon Islands",
        "country_code": "sb"
      },
      "address": "865, Tandai Highway, White River, Nggosi, 30074 Honiara, Solomon Islands"
    },
    {
      "lat": -9.43815369933145,
      "lon": 159.97181090334573,
      "geoinfo": {
        "display_name": "FFA Compound Internal Road, Koloale, Kola'a, Honiara, Solomon Islands",
        "road": "FFA Compound Internal Road",
        "house_number": null,
        "neighbourhood": null,
        "suburb": "Koloale",
        "city_district": null,
        "city": "Kola'a",
        "state": "Honiara",
        "postcode": null,
        "country": "Solomon Islands",
        "country_code": "sb"
      },
      "address": "264, FFA Compound Internal Road, Koloale, Kola'a, 42441 Honiara, Solomon Islands"
    },
    {
      "lat": -9.402313431010871,
      "lon": 159.97368997902447,
      "geoinfo": {
        "display_name": "Guadalcanal, Solomon Islands",
        "road": null,
        "house_number": null,
        "neighbourhood": null,
        "suburb": null,
        "city_district": null,
        "city": null,
        "state": "Guadalcanal",
        "postcode": null,
        "country": "Solomon Islands",
        "country_code": "sb"
      },
      "address": "297, Honiara, 59249 Guadalcanal, Solomon Islands"
    },
    {
      "lat": -9.436058259818513,
      "lon": 159.98477362537625,
      "geoinfo": {
        "display_name": "Vura 1 Street, Vura, Honiara, Solomon Islands",
        "road": "Vura 1 Street",
        "house_number": null,
        "neighbourhood": null,
        "suburb": null,
        "city_district": "Vura",
        "city": "Honiara",
        "state": "Honiara",
        "postcode": null,
        "country": "Solomon Islands",
        "country_code": "sb"
      },
      "address": "Vura 1 Street, Vura, 68445 Honiara, Solomon Islands"
    },
    {
      "lat": -9.457075774143519,
      "lon": 159.93732890787348,
      "geoinfo": {
        "display_name": "Guadalcanal, Solomon Islands",
        "road": null,
        "house_number": null,
        "neighbourhood": null,
        "suburb": null,
        "city_district": null,
        "city": null,
        "state": "Guadalcanal",
        "postcode": null,
        "country": "Solomon Islands",
        "country_code": "sb"
      },
      "address": "563, Honiara, 64974 Guadalcanal, Solomon Islands"
    },
    {
      "lat": -9.409806941267101,
      "lon": 159.9435568761761,
      "geoinfo": {
        "display_name": "Kakambona, Guadalcanal, Solomon Islands",
        "road": null,
        "house_number": null,
        "neighbourhood": null,
        "suburb": null,
        "city_district": null,
        "city": "Kakambona",
        "state": "Guadalcanal",
        "postcode": null,
        "country": "Solomon Islands",
        "country_code": "sb"
      },
      "address": "510, Honiara, 24417 Guadalcanal, Solomon Islands"
    },
    {
      "lat": -9.425676198296426,
      "lon": 159.94930033190195,
      "geoinfo": {
        "display_name": "Tandai Highway, Vatuamboi, Rove-Lengakiki, Honiara, Solomon Islands",
        "road": "Tandai Highway",
        "house_number": null,
        "neighbourhood": null,
        "suburb": "Vatuamboi",
        "city_district": "Rove-Lengakiki",
        "city": "Honiara",
        "state": "Honiara",
        "postcode": null,
        "country": "Solomon Islands",
        "country_code": "sb"
      },
      "address": "510, Tandai Highway, Vatuamboi, Rove-Lengakiki, 93226 Honiara, Solomon Islands"
    },
    {
      "lat": -9.418932194076165,
      "lon": 159.9535755454737,
      "geoinfo": {
        "display_name": "Cruz, Honiara, Solomon Islands",
        "road": null,
        "house_number": null,
        "neighbourhood": null,
        "suburb": "Cruz",
        "city_district": "Cruz",
        "city": "Honiara",
        "state": "Honiara",
        "postcode": null,
        "country": "Solomon Islands",
        "country_code": "sb"
      },
      "address": "176, Cruz, 59564 Honiara, Solomon Islands"
    },
    {
      "lat": -9.436414092300852,
      "lon": 159.91755188129304,
      "geoinfo": {
        "display_name": "Namoruka Lane 3, White River, Nggosi, Honiara, Guadalcanal, Solomon Islands",
        "road": "Namoruka Lane 3",
        "house_number": null,
        "neighbourhood": null,
        "suburb": "White River",
        "city_district": "Nggosi",
        "city": "Honiara",
        "state": "Guadalcanal",
        "postcode": null,
        "country": "Solomon Islands",
        "country_code": "sb"
      },
      "address": "Namoruka Lane 3, White River, Nggosi, Honiara, 81233 Guadalcanal, Solomon Islands"
    },
    {
      "lat": -9.432687120856377,
      "lon": 159.95470003006315,
      "geoinfo": {
        "display_name": "Mbokonavera, Vavaea, Honiara, Solomon Islands",
        "road": null,
        "house_number": null,
        "neighbourhood": null,
        "suburb": "Mbokonavera",
        "city_district": "Vavaea",
        "city": "Honiara",
        "state": "Honiara",
        "postcode": null,
        "country": "Solomon Islands",
        "country_code": "sb"
      },
      "address": "613, Mbokonavera, Vavaea, 98563 Honiara, Solomon Islands"
    },
    {
      "lat": -9.402508241442165,
      "lon": 159.91885674024607,
      "geoinfo": {
        "display_name": "Mamara, Guadalcanal, Solomon Islands",
        "road": null,
        "house_number": null,
        "neighbourhood": null,
        "suburb": null,
        "city_district": null,
        "city": "Mamara",
        "state": "Guadalcanal",
        "postcode": null,
        "country": "Solomon Islands",
        "country_code": "sb"
      },
      "address": "238, Honiara, 25998 Guadalcanal, Solomon Islands"
    },
    {
      "lat": -9.476075430616088,
      "lon": 159.95929348366278,
      "geoinfo": {
        "display_name": "Guadalcanal, Solomon Islands",
        "road": null,
        "house_number": null,
        "neighbourhood": null,
        "suburb": null,
        "city_district": null,
        "city": null,
        "state": "Guadalcanal",
        "postcode": null,
        "country": "Solomon Islands",
        "country_code": "sb"
      },
      "address": "161, Honiara, 38349 Guadalcanal, Solomon Islands"
    },
    {
      "lat": -9.434874636680856,
      "lon": 159.91565919791555,
      "geoinfo": {
        "display_name": "Kakambona, Guadalcanal, Solomon Islands",
        "road": null,
        "house_number": null,
        "neighbourhood": null,
        "suburb": null,
        "city_district": null,
        "city": "Kakambona",
        "state": "Guadalcanal",
        "postcode": null,
        "country": "Solomon Islands",
        "country_code": "sb"
      },
      "address": "228, Honiara, 82392 Guadalcanal, Solomon Islands"
    },
    {
      "lat": -9.40652618877444,
      "lon": 159.9838638941344,
      "geoinfo": {
        "display_name": "Guadalcanal, Solomon Islands",
        "road": null,
        "house_number": null,
        "neighbourhood": null,
        "suburb": null,
        "city_district": null,
        "city": null,
        "state": "Guadalcanal",
        "postcode": null,
        "country": "Solomon Islands",
        "country_code": "sb"
      },
      "address": "153, Honiara, 75390 Guadalcanal, Solomon Islands"
    },
    {
      "lat": -9.446474423102401,
      "lon": 159.93081608037824,
      "geoinfo": {
        "display_name": "Guadalcanal, Solomon Islands",
        "road": null,
        "house_number": null,
        "neighbourhood": null,
        "suburb": null,
        "city_district": null,
        "city": null,
        "state": "Guadalcanal",
        "postcode": null,
        "country": "Solomon Islands",
        "country_code": "sb"
      },
      "address": "733, Honiara, 87896 Guadalcanal, Solomon Islands"
    },
    {
      "lat": -9.410838612612698,
      "lon": 159.95796189509434,
      "geoinfo": {
        "display_name": "Guadalcanal, Solomon Islands",
        "road": null,
        "house_number": null,
        "neighbourhood": null,
        "suburb": null,
        "city_district": null,
        "city": null,
        "state": "Guadalcanal",
        "postcode": null,
        "country": "Solomon Islands",
        "country_code": "sb"
      },
      "address": "980, Honiara, 70898 Guadalcanal, Solomon Islands"
    },
    {
      "lat": -9.458994428967113,
      "lon": 159.9356253689537,
      "geoinfo": {
        "display_name": "Guadalcanal, Solomon Islands",
        "road": null,
        "house_number": null,
        "neighbourhood": null,
        "suburb": null,
        "city_district": null,
        "city": null,
        "state": "Guadalcanal",
        "postcode": null,
        "country": "Solomon Islands",
        "country_code": "sb"
      },
      "address": "353, Honiara, 67020 Guadalcanal, Solomon Islands"
    },
    {
      "lat": -9.390736763295305,
      "lon": 159.95772323982143,
      "geoinfo": {
        "display_name": "Guadalcanal, Solomon Islands",
        "road": null,
        "house_number": null,
        "neighbourhood": null,
        "suburb": null,
        "city_district": null,
        "city": null,
        "state": "Guadalcanal",
        "postcode": null,
        "country": "Solomon Islands",
        "country_code": "sb"
      },
      "address": "046, Honiara, 36549 Guadalcanal, Solomon Islands"
    },
    {
      "lat": -9.404939106241894,
      "lon": 159.97511433810791,
      "geoinfo": {
        "display_name": "Guadalcanal, Solomon Islands",
        "road": null,
        "house_number": null,
        "neighbourhood": null,
        "suburb": null,
        "city_district": null,
        "city": null,
        "state": "Guadalcanal",
        "postcode": null,
        "country": "Solomon Islands",
        "country_code": "sb"
      },
      "address": "234, Honiara, 94278 Guadalcanal, Solomon Islands"
    },
    {
      "lat": -9.45377198581155,
      "lon": 159.92920660714995,
      "geoinfo": {
        "display_name": "Guadalcanal, Solomon Islands",
        "road": null,
        "house_number": null,
        "neighbourhood": null,
        "suburb": null,
        "city_district": null,
        "city": null,
        "state": "Guadalcanal",
        "postcode": null,
        "country": "Solomon Islands",
        "country_code": "sb"
      },
      "address": "913, Honiara, 77356 Guadalcanal, Solomon Islands"
    },
    {
      "lat": -9.401441663402508,
      "lon": 159.9500788131563,
      "geoinfo": {
        "display_name": "Guadalcanal, Solomon Islands",
        "road": null,
        "house_number": null,
        "neighbourhood": null,
        "suburb": null,
        "city_district": null,
        "city": null,
        "state": "Guadalcanal",
        "postcode": null,
        "country": "Solomon Islands",
        "country_code": "sb"
      },
      "address": "547, Honiara, 20401 Guadalcanal, Solomon Islands"
    },
    {
      "lat": -9.416396548349134,
      "lon": 159.94557250174068,
      "geoinfo": {
        "display_name": "Rove, Rove-Lengakiki, Honiara, Solomon Islands",
        "road": null,
        "house_number": null,
        "neighbourhood": null,
        "suburb": "Rove",
        "city_district": "Rove-Lengakiki",
        "city": "Honiara",
        "state": "Honiara",
        "postcode": null,
        "country": "Solomon Islands",
        "country_code": "sb"
      },
      "address": "235, Rove, Rove-Lengakiki, 93062 Honiara, Solomon Islands"
    },
    {
      "lat": -9.413604330581345,
      "lon": 159.95254649263552,
      "geoinfo": {
        "display_name": "Cruz, Honiara, Solomon Islands",
        "road": null,
        "house_number": null,
        "neighbourhood": null,
        "suburb": "Cruz",
        "city_district": "Cruz",
        "city": "Honiara",
        "state": "Honiara",
        "postcode": null,
        "country": "Solomon Islands",
        "country_code": "sb"
      },
      "address": "717, Cruz, 20860 Honiara, Solomon Islands"
    },
    {
      "lat": -9.462996318945008,
      "lon": 159.96690738878112,
      "geoinfo": {
        "display_name": "Guadalcanal, Solomon Islands",
        "road": null,
        "house_number": null,
        "neighbourhood": null,
        "suburb": null,
        "city_district": null,
        "city": null,
        "state": "Guadalcanal",
        "postcode": null,
        "country": "Solomon Islands",
        "country_code": "sb"
      },
      "address": "412, Honiara, 13668 Guadalcanal, Solomon Islands"
    },
    {
      "lat": -9.424637325734848,
      "lon": 159.93311132273124,
      "geoinfo": {
        "display_name": "Tandai Highway, Vatuamboi, Nggosi, Honiara, Solomon Islands",
        "road": "Tandai Highway",
        "house_number": null,
        "neighbourhood": null,
        "suburb": "Vatuamboi",
        "city_district": "Nggosi",
        "city": "Honiara",
        "state": "Honiara",
        "postcode": null,
        "country": "Solomon Islands",
        "country_code": "sb"
      },
      "address": "372, Tandai Highway, Vatuamboi, Nggosi, 67901 Honiara, Solomon Islands"
    },
    {
      "lat": -9.422927009889852,
      "lon": 159.96189565185088,
      "geoinfo": {
        "display_name": "Commonwealth Street, Mbokonavera, Vavaea, Honiara, Solomon Islands",
        "road": "Commonwealth Street",
        "house_number": null,
        "neighbourhood": null,
        "suburb": "Mbokonavera",
        "city_district": "Vavaea",
        "city": "Honiara",
        "state": "Honiara",
        "postcode": null,
        "country": "Solomon Islands",
        "country_code": "sb"
      },
      "address": "595, Commonwealth Street, Mbokonavera, Vavaea, 52864 Honiara, Solomon Islands"
    },
    {
      "lat": -9.453849902153252,
      "lon": 159.91798472668083,
      "geoinfo": {
        "display_name": "Kakambona, Guadalcanal, Solomon Islands",
        "road": null,
        "house_number": null,
        "neighbourhood": null,
        "suburb": null,
        "city_district": null,
        "city": "Kakambona",
        "state": "Guadalcanal",
        "postcode": null,
        "country": "Solomon Islands",
        "country_code": "sb"
      },
      "address": "772, Honiara, 07348 Guadalcanal, Solomon Islands"
    },
    {
      "lat": -9.421513356356265,
      "lon": 159.92793032017707,
      "geoinfo": {
        "display_name": "Tandai Highway, Vatuamboi, Nggosi, Honiara, Solomon Islands",
        "road": "Tandai Highway",
        "house_number": null,
        "neighbourhood": null,
        "suburb": "Vatuamboi",
        "city_district": "Nggosi",
        "city": "Honiara",
        "state": "Honiara",
        "postcode": null,
        "country": "Solomon Islands",
        "country_code": "sb"
      },
      "address": "387, Tandai Highway, Vatuamboi, Nggosi, 52521 Honiara, Solomon Islands"
    },
    {
      "lat": -9.43932216680723,
      "lon": 159.9379596395888,
      "geoinfo": {
        "display_name": "Tasahe Road, Nggosi, Honiara, Solomon Islands",
        "road": "Tasahe Road",
        "house_number": null,
        "neighbourhood": null,
        "suburb": "Nggosi",
        "city_district": "Nggosi",
        "city": "Honiara",
        "state": "Honiara",
        "postcode": null,
        "country": "Solomon Islands",
        "country_code": "sb"
      },
      "address": "540, Tasahe Road, Nggosi, 53390 Honiara, Solomon Islands"
    },
    {
      "lat": -9.41881747965917,
      "lon": 159.91274832112242,
      "geoinfo": {
        "display_name": "Kakambona, Guadalcanal, Solomon Islands",
        "road": null,
        "house_number": null,
        "neighbourhood": null,
        "suburb": null,
        "city_district": null,
        "city": "Kakambona",
        "state": "Guadalcanal",
        "postcode": null,
        "country": "Solomon Islands",
        "country_code": "sb"
      },
      "address": "399, Honiara, 75189 Guadalcanal, Solomon Islands"
    },
    {
      "lat": -9.432911959762944,
      "lon": 159.96658149149664,
      "geoinfo": {
        "display_name": "MID Drive, Vuhokesa, Honiara, Solomon Islands",
        "road": "MID Drive",
        "house_number": null,
        "neighbourhood": null,
        "suburb": null,
        "city_district": "Vuhokesa",
        "city": "Honiara",
        "state": "Honiara",
        "postcode": null,
        "country": "Solomon Islands",
        "country_code": "sb"
      },
      "address": "981, MID Drive, Vuhokesa, 75602 Honiara, Solomon Islands"
    },
    {
      "lat": -9.395126389075752,
      "lon": 159.94571998901952,
      "geoinfo": {
        "display_name": "Guadalcanal, Solomon Islands",
        "road": null,
        "house_number": null,
        "neighbourhood": null,
        "suburb": null,
        "city_district": null,
        "city": null,
        "state": "Guadalcanal",
        "postcode": null,
        "country": "Solomon Islands",
        "country_code": "sb"
      },
      "address": "258, Honiara, 64690 Guadalcanal, Solomon Islands"
    },
    {
      "lat": -9.407083678598482,
      "lon": 159.96503915196175,
      "geoinfo": {
        "display_name": "Guadalcanal, Solomon Islands",
        "road": null,
        "house_number": null,
        "neighbourhood": null,
        "suburb": null,
        "city_district": null,
        "city": null,
        "state": "Guadalcanal",
        "postcode": null,
        "country": "Solomon Islands",
        "country_code": "sb"
      },
      "address": "891, Honiara, 22079 Guadalcanal, Solomon Islands"
    },
    {
      "lat": -9.43044334334575,
      "lon": 159.92622932505859,
      "geoinfo": {
        "display_name": "Tabouo Road, Nggosi, Honiara, Solomon Islands",
        "road": "Tabouo Road",
        "house_number": null,
        "neighbourhood": null,
        "suburb": "Nggosi",
        "city_district": "Nggosi",
        "city": "Honiara",
        "state": "Honiara",
        "postcode": null,
        "country": "Solomon Islands",
        "country_code": "sb"
      },
      "address": "839, Tabouo Road, Nggosi, 11405 Honiara, Solomon Islands"
    },
    {
      "lat": -9.444534194796042,
      "lon": 159.95842949342767,
      "geoinfo": {
        "display_name": "Tuvaruhu Road, Vara, Mataniko, Tuvaruhu, Honiara, Solomon Islands",
        "road": "Tuvaruhu Road",
        "house_number": null,
        "neighbourhood": null,
        "suburb": "Vara",
        "city_district": "Mataniko",
        "city": "Tuvaruhu",
        "state": "Honiara",
        "postcode": null,
        "country": "Solomon Islands",
        "country_code": "sb"
      },
      "address": "256, Tuvaruhu Road, Vara, Mataniko, Tuvaruhu, 32785 Honiara, Solomon Islands"
    },
    {
      "lat": -9.464381952107498,
      "lon": 159.93507963415718,
      "geoinfo": {
        "display_name": "Guadalcanal, Solomon Islands",
        "road": null,
        "house_number": null,
        "neighbourhood": null,
        "suburb": null,
        "city_district": null,
        "city": null,
        "state": "Guadalcanal",
        "postcode": null,
        "country": "Solomon Islands",
        "country_code": "sb"
      },
      "address": "891, Honiara, 64024 Guadalcanal, Solomon Islands"
    },
    {
      "lat": -9.414991304855821,
      "lon": 159.91445453160486,
      "geoinfo": {
        "display_name": "Kakambona, Guadalcanal, Solomon Islands",
        "road": null,
        "house_number": null,
        "neighbourhood": null,
        "suburb": null,
        "city_district": null,
        "city": "Kakambona",
        "state": "Guadalcanal",
        "postcode": null,
        "country": "Solomon Islands",
        "country_code": "sb"
      },
      "address": "987, Honiara, 62928 Guadalcanal, Solomon Islands"
    },
    {
      "lat": -9.427287831781847,
      "lon": 159.9472096150736,
      "geoinfo": {
        "display_name": "Tandai Highway, Vatuamboi, Rove-Lengakiki, Honiara, Solomon Islands",
        "road": "Tandai Highway",
        "house_number": null,
        "neighbourhood": null,
        "suburb": "Vatuamboi",
        "city_district": "Rove-Lengakiki",
        "city": "Honiara",
        "state": "Honiara",
        "postcode": null,
        "country": "Solomon Islands",
        "country_code": "sb"
      },
      "address": "132, Tandai Highway, Vatuamboi, Rove-Lengakiki, 05248 Honiara, Solomon Islands"
    },
    {
      "lat": -9.392995796863167,
      "lon": 159.95431560279755,
      "geoinfo": {
        "display_name": "Guadalcanal, Solomon Islands",
        "road": null,
        "house_number": null,
        "neighbourhood": null,
        "suburb": null,
        "city_district": null,
        "city": null,
        "state": "Guadalcanal",
        "postcode": null,
        "country": "Solomon Islands",
        "country_code": "sb"
      },
      "address": "330, Honiara, 45938 Guadalcanal, Solomon Islands"
    },
    {
      "lat": -9.462608856587785,
      "lon": 159.9606864409696,
      "geoinfo": {
        "display_name": "Guadalcanal, Solomon Islands",
        "road": null,
        "house_number": null,
        "neighbourhood": null,
        "suburb": null,
        "city_district": null,
        "city": null,
        "state": "Guadalcanal",
        "postcode": null,
        "country": "Solomon Islands",
        "country_code": "sb"
      },
      "address": "784, Honiara, 35895 Guadalcanal, Solomon Islands"
    },
    {
      "lat": -9.462393008196342,
      "lon": 159.93829634216718,
      "geoinfo": {
        "display_name": "Guadalcanal, Solomon Islands",
        "road": null,
        "house_number": null,
        "neighbourhood": null,
        "suburb": null,
        "city_district": null,
        "city": null,
        "state": "Guadalcanal",
        "postcode": null,
        "country": "Solomon Islands",
        "country_code": "sb"
      },
      "address": "635, Honiara, 89376 Guadalcanal, Solomon Islands"
    },
    {
      "lat": -9.416109927594016,
      "lon": 159.9121297741029,
      "geoinfo": {
        "display_name": "Kakambona, Guadalcanal, Solomon Islands",
        "road": null,
        "house_number": null,
        "neighbourhood": null,
        "suburb": null,
        "city_district": null,
        "city": "Kakambona",
        "state": "Guadalcanal",
        "postcode": null,
        "country": "Solomon Islands",
        "country_code": "sb"
      },
      "address": "364, Honiara, 31786 Guadalcanal, Solomon Islands"
    },
    {
      "lat": -9.437829009797147,
      "lon": 159.93505818008683,
      "geoinfo": {
        "display_name": "Hatanga Road, Nggosi, Honiara, Solomon Islands",
        "road": "Hatanga Road",
        "house_number": null,
        "neighbourhood": null,
        "suburb": "Nggosi",
        "city_district": "Nggosi",
        "city": "Honiara",
        "state": "Honiara",
        "postcode": null,
        "country": "Solomon Islands",
        "country_code": "sb"
      },
      "address": "569, Hatanga Road, Nggosi, 37109 Honiara, Solomon Islands"
    },
    {
      "lat": -9.433911363620668,
      "lon": 159.95522084611733,
      "geoinfo": {
        "display_name": "Parliament Drive, Mbokonavera, Vavaea, Honiara, Solomon Islands",
        "road": "Parliament Drive",
        "house_number": null,
        "neighbourhood": null,
        "suburb": "Mbokonavera",
        "city_district": "Vavaea",
        "city": "Honiara",
        "state": "Honiara",
        "postcode": null,
        "country": "Solomon Islands",
        "country_code": "sb"
      },
      "address": "836, Parliament Drive, Mbokonavera, Vavaea, 50726 Honiara, Solomon Islands"
    },
    {
      "lat": -9.397238073401173,
      "lon": 159.97395749527675,
      "geoinfo": {
        "display_name": "Guadalcanal, Solomon Islands",
        "road": null,
        "house_number": null,
        "neighbourhood": null,
        "suburb": null,
        "city_district": null,
        "city": null,
        "state": "Guadalcanal",
        "postcode": null,
        "country": "Solomon Islands",
        "country_code": "sb"
      },
      "address": "995, Honiara, 41725 Guadalcanal, Solomon Islands"
    },
    {
      "lat": -9.416594649985145,
      "lon": 159.94546316757928,
      "geoinfo": {
        "display_name": "Rove, Rove-Lengakiki, Honiara, Solomon Islands",
        "road": null,
        "house_number": null,
        "neighbourhood": null,
        "suburb": "Rove",
        "city_district": "Rove-Lengakiki",
        "city": "Honiara",
        "state": "Honiara",
        "postcode": null,
        "country": "Solomon Islands",
        "country_code": "sb"
      },
      "address": "229, Rove, Rove-Lengakiki, 82278 Honiara, Solomon Islands"
    },
    {
      "lat": -9.411036093527597,
      "lon": 159.96726786584,
      "geoinfo": {
        "display_name": "Guadalcanal, Solomon Islands",
        "road": null,
        "house_number": null,
        "neighbourhood": null,
        "suburb": null,
        "city_district": null,
        "city": null,
        "state": "Guadalcanal",
        "postcode": null,
        "country": "Solomon Islands",
        "country_code": "sb"
      },
      "address": "486, Honiara, 51610 Guadalcanal, Solomon Islands"
    },
    {
      "lat": -9.435760142923394,
      "lon": 159.9921007803434,
      "geoinfo": {
        "display_name": "Panatina, Honiara, Solomon Islands",
        "road": null,
        "house_number": null,
        "neighbourhood": null,
        "suburb": null,
        "city_district": null,
        "city": "Panatina",
        "state": "Honiara",
        "postcode": null,
        "country": "Solomon Islands",
        "country_code": "sb"
      },
      "address": "672, Panatina, 74378 Honiara, Solomon Islands"
    },
    {
      "lat": -9.40178487635664,
      "lon": 159.9536397744266,
      "geoinfo": {
        "display_name": "Guadalcanal, Solomon Islands",
        "road": null,
        "house_number": null,
        "neighbourhood": null,
        "suburb": null,
        "city_district": null,
        "city": null,
        "state": "Guadalcanal",
        "postcode": null,
        "country": "Solomon Islands",
        "country_code": "sb"
      },
      "address": "946, Honiara, 66491 Guadalcanal, Solomon Islands"
    },
    {
      "lat": -9.451146944193773,
      "lon": 159.93608766584512,
      "geoinfo": {
        "display_name": "Guadalcanal, Solomon Islands",
        "road": null,
        "house_number": null,
        "neighbourhood": null,
        "suburb": null,
        "city_district": null,
        "city": null,
        "state": "Guadalcanal",
        "postcode": null,
        "country": "Solomon Islands",
        "country_code": "sb"
      },
      "address": "892, Honiara, 95758 Guadalcanal, Solomon Islands"
    },
    {
      "lat": -9.44743298468763,
      "lon": 159.93361620138364,
      "geoinfo": {
        "display_name": "Guadalcanal, Solomon Islands",
        "road": null,
        "house_number": null,
        "neighbourhood": null,
        "suburb": null,
        "city_district": null,
        "city": null,
        "state": "Guadalcanal",
        "postcode": null,
        "country": "Solomon Islands",
        "country_code": "sb"
      },
      "address": "248, Honiara, 26608 Guadalcanal, Solomon Islands"
    },
    {
      "lat": -9.420249985900496,
      "lon": 159.94596184621878,
      "geoinfo": {
        "display_name": "Rove, Rove-Lengakiki, Honiara, Solomon Islands",
        "road": null,
        "house_number": null,
        "neighbourhood": null,
        "suburb": "Rove",
        "city_district": "Rove-Lengakiki",
        "city": "Honiara",
        "state": "Honiara",
        "postcode": null,
        "country": "Solomon Islands",
        "country_code": "sb"
      },
      "address": "088, Rove, Rove-Lengakiki, 90786 Honiara, Solomon Islands"
    },
    {
      "lat": -9.396922715915812,
      "lon": 159.94495904249783,
      "geoinfo": {
        "display_name": "Guadalcanal, Solomon Islands",
        "road": null,
        "house_number": null,
        "neighbourhood": null,
        "suburb": null,
        "city_district": null,
        "city": null,
        "state": "Guadalcanal",
        "postcode": null,
        "country": "Solomon Islands",
        "country_code": "sb"
      },
      "address": "881, Honiara, 96827 Guadalcanal, Solomon Islands"
    },
    {
      "lat": -9.448711169246874,
      "lon": 159.97406602190125,
      "geoinfo": {
        "display_name": "Kombivatu Road, Kombuvatu, Kola'a, Honiara, Solomon Islands",
        "road": "Kombivatu Road",
        "house_number": null,
        "neighbourhood": null,
        "suburb": "Kombuvatu",
        "city_district": null,
        "city": "Kola'a",
        "state": "Honiara",
        "postcode": null,
        "country": "Solomon Islands",
        "country_code": "sb"
      },
      "address": "926, Kombivatu Road, Kombuvatu, Kola'a, 43306 Honiara, Solomon Islands"
    },
    {
      "lat": -9.406944406461824,
      "lon": 159.9192092613064,
      "geoinfo": {
        "display_name": "Kakambona, Guadalcanal, Solomon Islands",
        "road": null,
        "house_number": null,
        "neighbourhood": null,
        "suburb": null,
        "city_district": null,
        "city": "Kakambona",
        "state": "Guadalcanal",
        "postcode": null,
        "country": "Solomon Islands",
        "country_code": "sb"
      },
      "address": "261, Honiara, 79496 Guadalcanal, Solomon Islands"
    },
    {
      "lat": -9.399075382499328,
      "lon": 159.95259456509766,
      "geoinfo": {
        "display_name": "Guadalcanal, Solomon Islands",
        "road": null,
        "house_number": null,
        "neighbourhood": null,
        "suburb": null,
        "city_district": null,
        "city": null,
        "state": "Guadalcanal",
        "postcode": null,
        "country": "Solomon Islands",
        "country_code": "sb"
      },
      "address": "534, Honiara, 92871 Guadalcanal, Solomon Islands"
    },
    {
      "lat": -9.468112196683348,
      "lon": 159.9238899272718,
      "geoinfo": {
        "display_name": "Guadalcanal, Solomon Islands",
        "road": null,
        "house_number": null,
        "neighbourhood": null,
        "suburb": null,
        "city_district": null,
        "city": null,
        "state": "Guadalcanal",
        "postcode": null,
        "country": "Solomon Islands",
        "country_code": "sb"
      },
      "address": "910, Honiara, 86378 Guadalcanal, Solomon Islands"
    },
    {
      "lat": -9.423026803808622,
      "lon": 159.95984874795118,
      "geoinfo": {
        "display_name": "Commonwealth Street, Mbokonavera, Vavaea, Honiara, Solomon Islands",
        "road": "Commonwealth Street",
        "house_number": null,
        "neighbourhood": null,
        "suburb": "Mbokonavera",
        "city_district": "Vavaea",
        "city": "Honiara",
        "state": "Honiara",
        "postcode": null,
        "country": "Solomon Islands",
        "country_code": "sb"
      },
      "address": "249, Commonwealth Street, Mbokonavera, Vavaea, 24322 Honiara, Solomon Islands"
    },
    {
      "lat": -9.419473256545743,
      "lon": 159.96207832892566,
      "geoinfo": {
        "display_name": "Point Cruz, Mbokonavera, Vavaea, Honiara, Solomon Islands",
        "road": null,
        "house_number": null,
        "neighbourhood": null,
        "suburb": "Mbokonavera",
        "city_district": "Vavaea",
        "city": "Honiara",
        "state": "Honiara",
        "postcode": null,
        "country": "Solomon Islands",
        "country_code": "sb"
      },
      "address": "274, Point Cruz, Mbokonavera, Vavaea, 19546 Honiara, Solomon Islands"
    },
    {
      "lat": -9.45749466959125,
      "lon": 159.91899066145317,
      "geoinfo": {
        "display_name": "Kakambona, Guadalcanal, Solomon Islands",
        "road": null,
        "house_number": null,
        "neighbourhood": null,
        "suburb": null,
        "city_district": null,
        "city": "Kakambona",
        "state": "Guadalcanal",
        "postcode": null,
        "country": "Solomon Islands",
        "country_code": "sb"
      },
      "address": "435, Honiara, 54000 Guadalcanal, Solomon Islands"
    },
    {
      "lat": -9.413003865999556,
      "lon": 159.91235277045118,
      "geoinfo": {
        "display_name": "Kakambona, Guadalcanal, Solomon Islands",
        "road": null,
        "house_number": null,
        "neighbourhood": null,
        "suburb": null,
        "city_district": null,
        "city": "Kakambona",
        "state": "Guadalcanal",
        "postcode": null,
        "country": "Solomon Islands",
        "country_code": "sb"
      },
      "address": "752, Honiara, 91359 Guadalcanal, Solomon Islands"
    },
    {
      "lat": -9.408197787563767,
      "lon": 159.968926273062,
      "geoinfo": {
        "display_name": "Guadalcanal, Solomon Islands",
        "road": null,
        "house_number": null,
        "neighbourhood": null,
        "suburb": null,
        "city_district": null,
        "city": null,
        "state": "Guadalcanal",
        "postcode": null,
        "country": "Solomon Islands",
        "country_code": "sb"
      },
      "address": "117, Honiara, 31705 Guadalcanal, Solomon Islands"
    },
    {
      "lat": -9.407917159408115,
      "lon": 159.94142048451383,
      "geoinfo": {
        "display_name": "Kakambona, Guadalcanal, Solomon Islands",
        "road": null,
        "house_number": null,
        "neighbourhood": null,
        "suburb": null,
        "city_district": null,
        "city": "Kakambona",
        "state": "Guadalcanal",
        "postcode": null,
        "country": "Solomon Islands",
        "country_code": "sb"
      },
      "address": "508, Honiara, 39517 Guadalcanal, Solomon Islands"
    },
    {
      "lat": -9.453978010046416,
      "lon": 159.94086740914105,
      "geoinfo": {
        "display_name": "Guadalcanal, Solomon Islands",
        "road": null,
        "house_number": null,
        "neighbourhood": null,
        "suburb": null,
        "city_district": null,
        "city": null,
        "state": "Guadalcanal",
        "postcode": null,
        "country": "Solomon Islands",
        "country_code": "sb"
      },
      "address": "414, Honiara, 81998 Guadalcanal, Solomon Islands"
    },
    {
      "lat": -9.391779083368833,
      "lon": 159.94533306888806,
      "geoinfo": {
        "display_name": "Guadalcanal, Solomon Islands",
        "road": null,
        "house_number": null,
        "neighbourhood": null,
        "suburb": null,
        "city_district": null,
        "city": null,
        "state": "Guadalcanal",
        "postcode": null,
        "country": "Solomon Islands",
        "country_code": "sb"
      },
      "address": "399, Honiara, 93096 Guadalcanal, Solomon Islands"
    },
    {
      "lat": -9.41672445591481,
      "lon": 159.93133517715,
      "geoinfo": {
        "display_name": "Vatuamboi, Nggosi, Honiara, Solomon Islands",
        "road": null,
        "house_number": null,
        "neighbourhood": null,
        "suburb": "Vatuamboi",
        "city_district": "Nggosi",
        "city": "Honiara",
        "state": "Honiara",
        "postcode": null,
        "country": "Solomon Islands",
        "country_code": "sb"
      },
      "address": "581, Vatuamboi, Nggosi, 47423 Honiara, Solomon Islands"
    },
    {
      "lat": -9.447251491076429,
      "lon": 159.96907646574107,
      "geoinfo": {
        "display_name": "Koloale, Kola'a, Honiara, Solomon Islands",
        "road": null,
        "house_number": null,
        "neighbourhood": null,
        "suburb": "Koloale",
        "city_district": null,
        "city": "Kola'a",
        "state": "Honiara",
        "postcode": null,
        "country": "Solomon Islands",
        "country_code": "sb"
      },
      "address": "841, Koloale, Kola'a, 36777 Honiara, Solomon Islands"
    },
    {
      "lat": -9.439106674388007,
      "lon": 159.98048632400744,
      "geoinfo": {
        "display_name": "Yabby Lane, Mbua, Kola'a, Honiara, Solomon Islands",
        "road": "Yabby Lane",
        "house_number": null,
        "neighbourhood": null,
        "suburb": "Mbua",
        "city_district": null,
        "city": "Kola'a",
        "state": "Honiara",
        "postcode": null,
        "country": "Solomon Islands",
        "country_code": "sb"
      },
      "address": "835, Yabby Lane, Mbua, Kola'a, 65332 Honiara, Solomon Islands"
    },
    {
      "lat": -9.451796659257091,
      "lon": 159.91275446817414,
      "geoinfo": {
        "display_name": "Guadalcanal, Solomon Islands",
        "road": null,
        "house_number": null,
        "neighbourhood": null,
        "suburb": null,
        "city_district": null,
        "city": null,
        "state": "Guadalcanal",
        "postcode": null,
        "country": "Solomon Islands",
        "country_code": "sb"
      },
      "address": "207, Honiara, 55680 Guadalcanal, Solomon Islands"
    },
    {
      "lat": -9.458540569949076,
      "lon": 159.94628274426609,
      "geoinfo": {
        "display_name": "Guadalcanal, Solomon Islands",
        "road": null,
        "house_number": null,
        "neighbourhood": null,
        "suburb": null,
        "city_district": null,
        "city": null,
        "state": "Guadalcanal",
        "postcode": null,
        "country": "Solomon Islands",
        "country_code": "sb"
      },
      "address": "697, Honiara, 41662 Guadalcanal, Solomon Islands"
    },
    {
      "lat": -9.439873244907165,
      "lon": 159.97096868530815,
      "geoinfo": {
        "display_name": "Koloale, Kola'a, Honiara, Solomon Islands",
        "road": null,
        "house_number": null,
        "neighbourhood": null,
        "suburb": "Koloale",
        "city_district": null,
        "city": "Kola'a",
        "state": "Honiara",
        "postcode": null,
        "country": "Solomon Islands",
        "country_code": "sb"
      },
      "address": "819, Koloale, Kola'a, 35714 Honiara, Solomon Islands"
    },
    {
      "lat": -9.461281126385503,
      "lon": 159.92622855799752,
      "geoinfo": {
        "display_name": "Kakambona, Guadalcanal, Solomon Islands",
        "road": null,
        "house_number": null,
        "neighbourhood": null,
        "suburb": null,
        "city_district": null,
        "city": "Kakambona",
        "state": "Guadalcanal",
        "postcode": null,
        "country": "Solomon Islands",
        "country_code": "sb"
      },
      "address": "137, Honiara, 34511 Guadalcanal, Solomon Islands"
    },
    {
      "lat": -9.437498091151348,
      "lon": 159.92971344233996,
      "geoinfo": {
        "display_name": "Hatanga Road, Nggosi, Honiara, Solomon Islands",
        "road": "Hatanga Road",
        "house_number": null,
        "neighbourhood": null,
        "suburb": "Nggosi",
        "city_district": "Nggosi",
        "city": "Honiara",
        "state": "Honiara",
        "postcode": null,
        "country": "Solomon Islands",
        "country_code": "sb"
      },
      "address": "849, Hatanga Road, Nggosi, 53877 Honiara, Solomon Islands"
    },
    {
      "lat": -9.437730428933552,
      "lon": 159.96364668360633,
      "geoinfo": {
        "display_name": "Vave Street, Vuhokesa, Honiara, Solomon Islands",
        "road": "Vave Street",
        "house_number": null,
        "neighbourhood": null,
        "suburb": null,
        "city_district": "Vuhokesa",
        "city": "Honiara",
        "state": "Honiara",
        "postcode": null,
        "country": "Solomon Islands",
        "country_code": "sb"
      },
      "address": "350, Vave Street, Vuhokesa, 50888 Honiara, Solomon Islands"
    },
    {
      "lat": -9.4359750052416,
      "lon": 159.9416833220696,
      "geoinfo": {
        "display_name": "Huhuru Road, Mbumburu, Honiara, Solomon Islands",
        "road": "Huhuru Road",
        "house_number": null,
        "neighbourhood": null,
        "suburb": null,
        "city_district": "Mbumburu",
        "city": null,
        "state": "Honiara",
        "postcode": null,
        "country": "Solomon Islands",
        "country_code": "sb"
      },
      "address": "913, Huhuru Road, Mbumburu, 85743 Honiara, Solomon Islands"
    },
    {
      "lat": -9.414531753362454,
      "lon": 159.9605928777007,
      "geoinfo": {
        "display_name": "Point Cruz, Mbokonavera, Vavaea, Honiara, Solomon Islands",
        "road": null,
        "house_number": null,
        "neighbourhood": null,
        "suburb": "Mbokonavera",
        "city_district": "Vavaea",
        "city": "Honiara",
        "state": "Honiara",
        "postcode": null,
        "country": "Solomon Islands",
        "country_code": "sb"
      },
      "address": "873, Point Cruz, Mbokonavera, Vavaea, 09909 Honiara, Solomon Islands"
    },
    {
      "lat": -9.441492676254374,
      "lon": 159.98659283322806,
      "geoinfo": {
        "display_name": "Vura, Honiara, Solomon Islands",
        "road": null,
        "house_number": null,
        "neighbourhood": null,
        "suburb": null,
        "city_district": "Vura",
        "city": "Honiara",
        "state": "Honiara",
        "postcode": null,
        "country": "Solomon Islands",
        "country_code": "sb"
      },
      "address": "645, Vura, 47662 Honiara, Solomon Islands"
    },
    {
      "lat": -9.465100850735205,
      "lon": 159.93382776735132,
      "geoinfo": {
        "display_name": "Guadalcanal, Solomon Islands",
        "road": null,
        "house_number": null,
        "neighbourhood": null,
        "suburb": null,
        "city_district": null,
        "city": null,
        "state": "Guadalcanal",
        "postcode": null,
        "country": "Solomon Islands",
        "country_code": "sb"
      },
      "address": "776, Honiara, 41249 Guadalcanal, Solomon Islands"
    },
    {
      "lat": -9.430323244560851,
      "lon": 159.94009751723019,
      "geoinfo": {
        "display_name": "Tasahe Road, Police Houses, Rove, Nggosi, Honiara, Solomon Islands",
        "road": "Tasahe Road",
        "house_number": null,
        "neighbourhood": null,
        "suburb": "Rove",
        "city_district": "Nggosi",
        "city": "Honiara",
        "state": "Honiara",
        "postcode": null,
        "country": "Solomon Islands",
        "country_code": "sb"
      },
      "address": "729, Tasahe Road, Police Houses, Rove, Nggosi, 72954 Honiara, Solomon Islands"
    },
    {
      "lat": -9.425969300319867,
      "lon": 159.90747731536234,
      "geoinfo": {
        "display_name": "Kakambona, Guadalcanal, Solomon Islands",
        "road": null,
        "house_number": null,
        "neighbourhood": null,
        "suburb": null,
        "city_district": null,
        "city": "Kakambona",
        "state": "Guadalcanal",
        "postcode": null,
        "country": "Solomon Islands",
        "country_code": "sb"
      },
      "address": "669, Honiara, 30487 Guadalcanal, Solomon Islands"
    },
    {
      "lat": -9.469824461181046,
      "lon": 159.96688125523855,
      "geoinfo": {
        "display_name": "Guadalcanal, Solomon Islands",
        "road": null,
        "house_number": null,
        "neighbourhood": null,
        "suburb": null,
        "city_district": null,
        "city": null,
        "state": "Guadalcanal",
        "postcode": null,
        "country": "Solomon Islands",
        "country_code": "sb"
      },
      "address": "479, Honiara, 59645 Guadalcanal, Solomon Islands"
    },
    {
      "lat": -9.401103565801742,
      "lon": 159.9808857655286,
      "geoinfo": {
        "display_name": "Guadalcanal, Solomon Islands",
        "road": null,
        "house_number": null,
        "neighbourhood": null,
        "suburb": null,
        "city_district": null,
        "city": null,
        "state": "Guadalcanal",
        "postcode": null,
        "country": "Solomon Islands",
        "country_code": "sb"
      },
      "address": "086, Honiara, 38923 Guadalcanal, Solomon Islands"
    },
    {
      "lat": -9.419466577949224,
      "lon": 159.92907276619738,
      "geoinfo": {
        "display_name": "Tandai Highway, Vatuamboi, Nggosi, Honiara, Solomon Islands",
        "road": "Tandai Highway",
        "house_number": null,
        "neighbourhood": null,
        "suburb": "Vatuamboi",
        "city_district": "Nggosi",
        "city": "Honiara",
        "state": "Honiara",
        "postcode": null,
        "country": "Solomon Islands",
        "country_code": "sb"
      },
      "address": "358, Tandai Highway, Vatuamboi, Nggosi, 02492 Honiara, Solomon Islands"
    },
    {
      "lat": -9.472062387158195,
      "lon": 159.93283711370822,
      "geoinfo": {
        "display_name": "Guadalcanal, Solomon Islands",
        "road": null,
        "house_number": null,
        "neighbourhood": null,
        "suburb": null,
        "city_district": null,
        "city": null,
        "state": "Guadalcanal",
        "postcode": null,
        "country": "Solomon Islands",
        "country_code": "sb"
      },
      "address": "311, Honiara, 18637 Guadalcanal, Solomon Islands"
    },
    {
      "lat": -9.434105276065873,
      "lon": 159.917009492731,
      "geoinfo": {
        "display_name": "Kakambona, Guadalcanal, Solomon Islands",
        "road": null,
        "house_number": null,
        "neighbourhood": null,
        "suburb": null,
        "city_district": null,
        "city": "Kakambona",
        "state": "Guadalcanal",
        "postcode": null,
        "country": "Solomon Islands",
        "country_code": "sb"
      },
      "address": "146, Honiara, 66708 Guadalcanal, Solomon Islands"
    },
    {
      "lat": -9.406970696154355,
      "lon": 159.9843182490207,
      "geoinfo": {
        "display_name": "Guadalcanal, Solomon Islands",
        "road": null,
        "house_number": null,
        "neighbourhood": null,
        "suburb": null,
        "city_district": null,
        "city": null,
        "state": "Guadalcanal",
        "postcode": null,
        "country": "Solomon Islands",
        "country_code": "sb"
      },
      "address": "453, Honiara, 12366 Guadalcanal, Solomon Islands"
    },
    {
      "lat": -9.39999811987167,
      "lon": 159.95197331158744,
      "geoinfo": {
        "display_name": "Guadalcanal, Solomon Islands",
        "road": null,
        "house_number": null,
        "neighbourhood": null,
        "suburb": null,
        "city_district": null,
        "city": null,
        "state": "Guadalcanal",
        "postcode": null,
        "country": "Solomon Islands",
        "country_code": "sb"
      },
      "address": "385, Honiara, 56562 Guadalcanal, Solomon Islands"
    },
    {
      "lat": -9.419656403291016,
      "lon": 159.98878271527653,
      "geoinfo": {
        "display_name": "New Kids Turbo, Kukum Highway, Vura, Panatina, Honiara, Solomon Islands",
        "road": "Kukum Highway",
        "house_number": null,
        "neighbourhood": null,
        "suburb": null,
        "city_district": "Vura",
        "city": "Panatina",
        "state": "Honiara",
        "postcode": null,
        "country": "Solomon Islands",
        "country_code": "sb"
      },
      "address": "477, Kukum Highway, Honiara, 61094 Honiara, Solomon Islands"
    },
    {
      "lat": -9.431484383917397,
      "lon": 159.93503990288403,
      "geoinfo": {
        "display_name": "Bishop Epale School, Bishop Epalle School Road, Nggosi, Honiara, Solomon Islands",
        "road": "Bishop Epalle School Road",
        "house_number": null,
        "neighbourhood": null,
        "suburb": "Nggosi",
        "city_district": "Nggosi",
        "city": "Honiara",
        "state": "Honiara",
        "postcode": null,
        "country": "Solomon Islands",
        "country_code": "sb"
      },
      "address": "846, Bishop Epalle School Road, Honiara, 37609 Honiara, Solomon Islands"
    },
    {
      "lat": -9.421285118834511,
      "lon": 159.9518802208566,
      "geoinfo": {
        "display_name": "Cruz, Honiara, Solomon Islands",
        "road": null,
        "house_number": null,
        "neighbourhood": null,
        "suburb": "Cruz",
        "city_district": "Cruz",
        "city": "Honiara",
        "state": "Honiara",
        "postcode": null,
        "country": "Solomon Islands",
        "country_code": "sb"
      },
      "address": "108, Cruz, 64200 Honiara, Solomon Islands"
    }
  ],
  "updated_at": "2025-10-19T05:55:19.655069+00:00",
  "_kind": "geo_samples"
}