{
  "country_code": "GY",
  "country": "Guyana",
  "city": "Georgetown",
  "geonameid": 3378644,
  "target_addresses": 34,
  "samples": [
    {
      "lat": 6.840259978692555,
      "lon": -58.1804202422513,
      "geoinfo": {
        "display_name": "Alberttown, City of Georgetown, Plaisance-Industry Local Government, Demerara-Mahaica, Guyana",
        "road": null,
        "house_number": null,
        "neighbourhood": null,
        "suburb": null,
        "city_district": null,
        "city": "City of Georgetown",
        "state": "Demerara-Mahaica",
        "postcode": null,
        "country": "Guyana",
        "country_code": "gy"
      },
      "address": "Georgetown, Demerara-Mahaica, Guyana"
    },
    {
      "lat": 6.829997395933513,
      "lon": -58.13757649909004,
      "geoinfo": {
        "display_name": "Rupert Craig Highway, Kitty, Liliendaal, City of Georgetown, Plaisance-Industry Local Government, Demerara-Mahaica, Guyana",
        "road": "Rupert Craig Highway",
        "house_number": null,
        "neighbourhood": "Kitty",
        "suburb": null,
        "city_district": null,
        "city": "City of Georgetown",
        "state": "Demerara-Mahaica",
        "postcode": null,
        "country": "Guyana",
        "country_code": "gy"
      },
      "address": "Rupert Craig Highway, Georgetown, Demerara-Mahaica, Guyana"
    },
    {
      "lat": 6.789414836169783,
      "lon": -58.12047331487433,
      "geoinfo": {
        "display_name": "Cummings Lodge, North Ruimveldt, City of Georgetown, Plaisance-Industry Local Government, Demerara-Mahaica, Guyana",
        "road": null,
        "house_number": null,
        "neighbourhood": "Cummings Lodge",
        "suburb": null,
        "city_district": null,
        "city": "City of Georgetown",
        "state": "Demerara-Mahaica",
        "postcode": null,
        "country": "Guyana",
        "country_code": "gy"
      },
      "address": "Cummings Lodge, Georgetown, Demerara-Mahaica, Guyana"
    },
    {
      "lat": 6.778666140451269,
      "lon": -58.135422557721945,
      "geoinfo": {
        "display_name": "Caneview Avenue, Tucville, City of Georgetown, Eccles-Ramsburg Village District, Demerara-Mahaica, Guyana",
        "road": "Caneview Avenue",
        "house_number": null,
        "neighbourhood": null,
        "suburb": null,
        "city_district": null,
        "city": "City of Georgetown",
        "state": "Demerara-Mahaica",
        "postcode": null,
        "country": "Guyana",
        "country_code": "gy"
      },
      "address": "Caneview Avenue, Georgetown, Demerara-Mahaica, Guyana"
    },
    {
      "lat": 6.796423200222981,
      "lon": -58.169716213716576,
      "geoinfo": {
        "display_name": "Demmy Shop, Saffon Street, River View Ruimveldt, City of Georgetown, Eccles-Ramsburg Village District, Demerara-Mahaica, Guyana",
        "road": "Saffon Street",
        "house_number": null,
        "neighbourhood": "River View Ruimveldt",
        "suburb": null,
        "city_district": null,
        "city": "City of Georgetown",
        "state": "Demerara-Mahaica",
        "postcode": null,
        "country": "Guyana",
        "country_code": "gy"
      },
      "address": "Saffon Street, Georgetown, Demerara-Mahaica, Guyana"
    },
    {
      "lat": 6.803708241642044,
      "lon": -58.12333003920986,
      "geoinfo": {
        "display_name": "Mckinnon Street, Sophia, Section C, City of Georgetown, Plaisance-Industry Local Government, Demerara-Mahaica, Guyana",
        "road": "Mckinnon Street",
        "house_number": null,
        "neighbourhood": "Sophia",
        "suburb": null,
        "city_district": null,
        "city": "City of Georgetown",
        "state": "Demerara-Mahaica",
        "postcode": null,
        "country": "Guyana",
        "country_code": "gy"
      },
      "address": "Mckinnon Street, Georgetown, Demerara-Mahaica, Guyana"
    },
    {
      "lat": 6.820914986411937,
      "lon": -58.15895972339236,
      "geoinfo": {
        "display_name": "Police Mounted Branch, Barrack Street, Kingston, Alberttown, City of Georgetown, Plaisance-Industry Local Government, Demerara-Mahaica, Guyana",
        "road": "Barrack Street",
        "house_number": null,
        "neighbourhood": "Kingston",
        "suburb": null,
        "city_district": null,
        "city": "City of Georgetown",
        "state": "Demerara-Mahaica",
        "postcode": null,
        "country": "Guyana",
        "country_code": "gy"
      },
      "address": "Barrack Street, Georgetown, Demerara-Mahaica, Guyana"
    },
    {
      "lat": 6.811579306341679,
      "lon": -58.11382934169368,
      "geoinfo": {
        "display_name": "Fourth Field, South West Cumming's Lodge, Cummings Lodge, Liliendaal, City of Georgetown, Plaisance-Industry Local Government, Demerara-Mahaica, Guyana",
        "road": "Fourth Field",
        "house_number": null,
        "neighbourhood": "South West Cumming's Lodge",
        "suburb": null,
        "city_district": null,
        "city": "City of Georgetown",
        "state": "Demerara-Mahaica",
        "postcode": null,
        "country": "Guyana",
        "country_code": "gy"
      },
      "address": "Fourth Field, Georgetown, Demerara-Mahaica, Guyana"
    },
    {
      "lat": 6.814723502233174,
      "lon": -58.15999435650782,
      "geoinfo": {
        "display_name": "Guyana Revenue Authority (GRA), Camp Street, South Cummingsburg, Alberttown, City of Georgetown, Plaisance-Industry Local Government, Demerara-Mahaica, Guyana",
        "road": "Camp Street",
        "house_number": null,
        "neighbourhood": "South Cummingsburg",
        "suburb": null,
        "city_district": null,
        "city": "City of Georgetown",
        "state": "Demerara-Mahaica",
        "postcode": null,
        "country": "Guyana",
        "country_code": "gy"
      },
      "address": "Camp Street, Georgetown, Demerara-Mahaica, Guyana"
    },
    {
      "lat": 6.793781995727862,
      "lon": -58.11902518814498,
      "geoinfo": {
        "display_name": "Cummings Park, Cummings Lodge, North Ruimveldt, City of Georgetown, Plaisance-Industry Local Government, Demerara-Mahaica, Guyana",
        "road": null,
        "house_number": null,
        "neighbourhood": "Cummings Park",
        "suburb": null,
        "city_district": null,
        "city": "City of Georgetown",
        "state": "Demerara-Mahaica",
        "postcode": null,
        "country": "Guyana",
        "country_code": "gy"
      },
      "address": "Cummings Park, Georgetown, Demerara-Mahaica, Guyana"
    },
    {
      "lat": 6.802810755379794,
      "lon": -58.14523351163366,
      "geoinfo": {
        "display_name": "Hadfield Street, Wortmanville, City of Georgetown, Plaisance-Industry Local Government, Demerara-Mahaica, Guyana",
        "road": "Hadfield Street",
        "house_number": null,
        "neighbourhood": null,
        "suburb": null,
        "city_district": null,
        "city": "City of Georgetown",
        "state": "Demerara-Mahaica",
        "postcode": null,
        "country": "Guyana",
        "country_code": "gy"
      },
      "address": "Hadfield Street, Georgetown, Demerara-Mahaica, Guyana"
    },
    {
      "lat": 6.78247187094907,
      "lon": -58.17351313674728,
      "geoinfo": {
        "display_name": "Rome Road, McDoom, City of Georgetown, Eccles-Ramsburg Village District, Demerara-Mahaica, Guyana",
        "road": "Rome Road",
        "house_number": null,
        "neighbourhood": "McDoom",
        "suburb": null,
        "city_district": null,
        "city": "City of Georgetown",
        "state": "Demerara-Mahaica",
        "postcode": null,
        "country": "Guyana",
        "country_code": "gy"
      },
      "address": "Rome Road, Georgetown, Demerara-Mahaica, Guyana"
    },
    {
      "lat": 6.81335874143555,
      "lon": -58.147330172007344,
      "geoinfo": {
        "display_name": "124, Laluni Street, Queenstown, City of Georgetown, Plaisance-Industry Local Government, Demerara-Mahaica, Guyana",
        "road": "Laluni Street",
        "house_number": "124",
        "neighbourhood": null,
        "suburb": null,
        "city_district": null,
        "city": "City of Georgetown",
        "state": "Demerara-Mahaica",
        "postcode": null,
        "country": "Guyana",
        "country_code": "gy"
      },
      "address": "124 Laluni Street, Georgetown, Demerara-Mahaica, Guyana"
    },
    {
      "lat": 6.818780895244706,
      "lon": -58.146788535346,
      "geoinfo": {
        "display_name": "Thomas Road, Thomas Lands, Queenstown, City of Georgetown, Plaisance-Industry Local Government, Demerara-Mahaica, Guyana",
        "road": "Thomas Road",
        "house_number": null,
        "neighbourhood": "Thomas Lands",
        "suburb": null,
        "city_district": null,
        "city": "City of Georgetown",
        "state": "Demerara-Mahaica",
        "postcode": null,
        "country": "Guyana",
        "country_code": "gy"
      },
      "address": "Thomas Road, Georgetown, Demerara-Mahaica, Guyana"
    },
    {
      "lat": 6.796498140758985,
      "lon": -58.11390475253728,
      "geoinfo": {
        "display_name": "Industry, Section D, North Ruimveldt, City of Georgetown, Plaisance-Industry Local Government, Demerara-Mahaica, Guyana",
        "road": null,
        "house_number": null,
        "neighbourhood": "Industry",
        "suburb": null,
        "city_district": null,
        "city": "City of Georgetown",
        "state": "Demerara-Mahaica",
        "postcode": null,
        "country": "Guyana",
        "country_code": "gy"
      },
      "address": "Industry, Georgetown, Demerara-Mahaica, Guyana"
    },
    {
      "lat": 6.774704872198467,
      "lon": -58.1808323819914,
      "geoinfo": {
        "display_name": "13, Persaud Street, Eccles, Bagotstown, Eccles-Ramsburg Village District, Eccles - Ramsburg, Demerara-Mahaica, Guyana",
        "road": "Persaud Street",
        "house_number": null,
        "neighbourhood": null,
        "suburb": null,
        "city_district": null,
        "city": "Bagotstown",
        "state": "Demerara-Mahaica",
        "postcode": null,
        "country": "Guyana",
        "country_code": "gy"
      },
      "address": "Persaud Street, Georgetown, Demerara-Mahaica, Guyana"
    },
    {
      "lat": 6.805178859922341,
      "lon": -58.11262205061563,
      "geoinfo": {
        "display_name": "Tenth Field, Industry, Section D, City of Georgetown, Plaisance-Industry Local Government, Demerara-Mahaica, Guyana",
        "road": "Tenth Field",
        "house_number": null,
        "neighbourhood": "Industry",
        "suburb": null,
        "city_district": null,
        "city": "City of Georgetown",
        "state": "Demerara-Mahaica",
        "postcode": null,
        "country": "Guyana",
        "country_code": "gy"
      },
      "address": "Tenth Field, Georgetown, Demerara-Mahaica, Guyana"
    },
    {
      "lat": 6.805837952185258,
      "lon": -58.14025530252596,
      "geoinfo": {
        "display_name": "Guyana Botanical Gardens, Vlissengen Road, Queenstown, City of Georgetown, Plaisance-Industry Local Government, Demerara-Mahaica, Guyana",
        "road": "Vlissengen Road",
        "house_number": null,
        "neighbourhood": null,
        "suburb": null,
        "city_district": null,
        "city": "City of Georgetown",
        "state": "Demerara-Mahaica",
        "postcode": null,
        "country": "Guyana",
        "country_code": "gy"
      },
      "address": "Vlissengen Road, Georgetown, Demerara-Mahaica, Guyana"
    },
    {
      "lat": 6.805717967955973,
      "lon": -58.12265737121543,
      "geoinfo": {
        "display_name": "Sophia, Section C, City of Georgetown, Plaisance-Industry Local Government, Demerara-Mahaica, Guyana",
        "road": null,
        "house_number": null,
        "neighbourhood": "Sophia",
        "suburb": null,
        "city_district": null,
        "city": "City of Georgetown",
        "state": "Demerara-Mahaica",
        "postcode": null,
        "country": "Guyana",
        "country_code": "gy"
      },
      "address": "Sophia, Georgetown, Demerara-Mahaica, Guyana"
    },
    {
      "lat": 6.8015067771521105,
      "lon": -58.16348243114526,
      "geoinfo": {
        "display_name": "32, Lyng Street, Charlestown, Wortmanville, City of Georgetown, Eccles-Ramsburg Village District, Demerara-Mahaica, Guyana",
        "road": "Lyng Street",
        "house_number": "32",
        "neighbourhood": "Charlestown",
        "suburb": null,
        "city_district": null,
        "city": "City of Georgetown",
        "state": "Demerara-Mahaica",
        "postcode": null,
        "country": "Guyana",
        "country_code": "gy"
      },
      "address": "32 Lyng Street, Georgetown, Demerara-Mahaica, Guyana"
    },
    {
      "lat": 6.80046810684343,
      "lon": -58.13089974730691,
      "geoinfo": {
        "display_name": "Marcy Wing Road (Farmer's Field), Sophia, Section B, Tucville, City of Georgetown, Plaisance-Industry Local Government, Demerara-Mahaica, Guyana",
        "road": "Marcy Wing Road (Farmer's Field)",
        "house_number": null,
        "neighbourhood": "Sophia",
        "suburb": null,
        "city_district": null,
        "city": "City of Georgetown",
        "state": "Demerara-Mahaica",
        "postcode": null,
        "country": "Guyana",
        "country_code": "gy"
      },
      "address": "Marcy Wing Road (Farmer's Field), Georgetown, Demerara-Mahaica, Guyana"
    },
    {
      "lat": 6.808375437198374,
      "lon": -58.161032093480074,
      "geoinfo": {
        "display_name": "39, Croal Street, Stabroek, Alberttown, City of Georgetown, Eccles-Ramsburg Village District, Demerara-Mahaica, Guyana",
        "road": "Croal Street",
        "house_number": "39",
        "neighbourhood": "Stabroek",
        "suburb": null,
        "city_district": null,
        "city": "City of Georgetown",
        "state": "Demerara-Mahaica",
        "postcode": null,
        "country": "Guyana",
        "country_code": "gy"
      },
      "address": "39 Croal Street, Georgetown, Demerara-Mahaica, Guyana"
    },
    {
      "lat": 6.818465055578365,
      "lon": -58.15347429275767,
      "geoinfo": {
        "display_name": "Woolford Avenue, Thomas Lands, Alberttown, City of Georgetown, Plaisance-Industry Local Government, Demerara-Mahaica, Guyana",
        "road": "Woolford Avenue",
        "house_number": null,
        "neighbourhood": "Thomas Lands",
        "suburb": null,
        "city_district": null,
        "city": "City of Georgetown",
        "state": "Demerara-Mahaica",
        "postcode": null,
        "country": "Guyana",
        "country_code": "gy"
      },
      "address": "Woolford Avenue, Georgetown, Demerara-Mahaica, Guyana"
    },
    {
      "lat": 6.80041418352219,
      "lon": -58.14865809537472,
      "geoinfo": {
        "display_name": "Princess Street, Wortmanville, City of Georgetown, Plaisance-Industry Local Government, Demerara-Mahaica, Guyana",
        "road": "Princess Street",
        "house_number": null,
        "neighbourhood": null,
        "suburb": null,
        "city_district": null,
        "city": "City of Georgetown",
        "state": "Demerara-Mahaica",
        "postcode": null,
        "country": "Guyana",
        "country_code": "gy"
      },
      "address": "Princess Street, Georgetown, Demerara-Mahaica, Guyana"
    },
    {
      "lat": 6.77973499819294,
      "lon": -58.173755785774965,
      "geoinfo": {
        "display_name": "S.O.L Head Office, Water Street, Agricola, Eccles, Peters Hall, Eccles-Ramsburg Village District, Eccles - Ramsburg, Demerara-Mahaica, Guyana",
        "road": "Water Street",
        "house_number": null,
        "neighbourhood": "Agricola",
        "suburb": null,
        "city_district": null,
        "city": "Peters Hall",
        "state": "Demerara-Mahaica",
        "postcode": null,
        "country": "Guyana",
        "country_code": "gy"
      },
      "address": "Water Street, Georgetown, Demerara-Mahaica, Guyana"
    },
    {
      "lat": 6.810889232148336,
      "lon": -58.164036436129436,
      "geoinfo": {
        "display_name": "King Street, Lacytown, Alberttown, City of Georgetown, Eccles-Ramsburg Village District, Demerara-Mahaica, Guyana",
        "road": "King Street",
        "house_number": null,
        "neighbourhood": "Lacytown",
        "suburb": null,
        "city_district": null,
        "city": "City of Georgetown",
        "state": "Demerara-Mahaica",
        "postcode": null,
        "country": "Guyana",
        "country_code": "gy"
      },
      "address": "King Street, Georgetown, Demerara-Mahaica, Guyana"
    },
    {
      "lat": 6.807611408950712,
      "lon": -58.16236369313887,
      "geoinfo": {
        "display_name": "Pollard Place, Stabroek, Alberttown, City of Georgetown, Eccles-Ramsburg Village District, Demerara-Mahaica, Guyana",
        "road": "Pollard Place",
        "house_number": null,
        "neighbourhood": "Stabroek",
        "suburb": null,
        "city_district": null,
        "city": "City of Georgetown",
        "state": "Demerara-Mahaica",
        "postcode": null,
        "country": "Guyana",
        "country_code": "gy"
      },
      "address": "Pollard Place, Georgetown, Demerara-Mahaica, Guyana"
    },
    {
      "lat": 6.812056949622008,
      "lon": -58.12623921897961,
      "geoinfo": {
        "display_name": "Guyana Power and Light Inc, Ganges Street, Prashad Nagar, Liliendaal, Georgetown, Plaisance-Industry Local Government, Demerara-Mahaica, Guyana",
        "road": "Ganges Street",
        "house_number": null,
        "neighbourhood": "Prashad Nagar",
        "suburb": null,
        "city_district": null,
        "city": "Georgetown",
        "state": "Demerara-Mahaica",
        "postcode": null,
        "country": "Guyana",
        "country_code": "gy"
      },
      "address": "Ganges Street, Georgetown, Demerara-Mahaica, Guyana"
    },
    {
      "lat": 6.826950403476107,
      "lon": -58.152054809524905,
      "geoinfo": {
        "display_name": "Seawall Road, Thomas Lands, Alberttown, City of Georgetown, Plaisance-Industry Local Government, Demerara-Mahaica, Guyana",
        "road": "Seawall Road",
        "house_number": null,
        "neighbourhood": "Thomas Lands",
        "suburb": null,
        "city_district": null,
        "city": "City of Georgetown",
        "state": "Demerara-Mahaica",
        "postcode": null,
        "country": "Guyana",
        "country_code": "gy"
      },
      "address": "Seawall Road, Georgetown, Demerara-Mahaica, Guyana"
    },
    {
      "lat": 6.787534524049988,
      "lon": -58.13535476164442,
      "geoinfo": {
        "display_name": "Blue Mountain Drive, Tucville, City of Georgetown, Plaisance-Industry Local Government, Demerara-Mahaica, Guyana",
        "road": "Blue Mountain Drive",
        "house_number": null,
        "neighbourhood": null,
        "suburb": null,
        "city_district": null,
        "city": "City of Georgetown",
        "state": "Demerara-Mahaica",
        "postcode": null,
        "country": "Guyana",
        "country_code": "gy"
      },
      "address": "Blue Mountain Drive, Georgetown, Demerara-Mahaica, Guyana"
    },
    {
      "lat": 6.813213931344763,
      "lon": -58.15337531403715,
      "geoinfo": {
        "display_name": "Fourth Street, Alberttown, City of Georgetown, Plaisance-Industry Local Government, Demerara-Mahaica, Guyana",
        "road": "Fourth Street",
        "house_number": null,
        "neighbourhood": null,
        "suburb": null,
        "city_district": null,
        "city": "City of Georgetown",
        "state": "Demerara-Mahaica",
        "postcode": null,
        "country": "Guyana",
        "country_code": "gy"
      },
      "address": "Fourth Street, Georgetown, Demerara-Mahaica, Guyana"
    },
    {
      "lat": 6.775037712560829,
      "lon": -58.16886448189483,
      "geoinfo": {
        "display_name": "Bourbon Guyana Inc., 130 BB, First Street, Eccleston Gardens, Peters Hall, Eccles-Ramsburg Village District, Eccles - Ramsburg, Demerara-Mahaica, Guyana",
        "road": "First Street",
        "house_number": "130 BB",
        "neighbourhood": null,
        "suburb": null,
        "city_district": null,
        "city": "Peters Hall",
        "state": "Demerara-Mahaica",
        "postcode": null,
        "country": "Guyana",
        "country_code": "gy"
      },
      "address": "130 BB First Street, Georgetown, Demerara-Mahaica, Guyana"
    },
    {
      "lat": 6.764880955877328,
      "lon": -58.15243518637065,
      "geoinfo": {
        "display_name": "Heroes Highway, Eccles-Ramsburg Village District, Eccles - Ramsburg, Demerara-Mahaica, Guyana",
        "road": "Heroes Highway",
        "house_number": null,
        "neighbourhood": null,
        "suburb": null,
        "city_district": null,
        "city": null,
        "state": "Demerara-Mahaica",
        "postcode": null,
        "country": "Guyana",
        "country_code": "gy"
      },
      "address": "Heroes Highway, Georgetown, Demerara-Mahaica, Guyana"
    },
    {
      "lat": 6.794477621124532,
      "lon": -58.14926670854543,
      "geoinfo": {
        "display_name": "Cocorite Street, Northeast La Penitence, City of Georgetown, Eccles-Ramsburg Village District, Demerara-Mahaica, Guyana",
        "road": "Cocorite Street",
        "house_number": null,
        "neighbourhood": null,
        "suburb": null,
        "city_district": null,
        "city": "City of Georgetown",
        "state": "Demerara-Mahaica",
        "postcode": null,
        "country": "Guyana",
        "country_code": "gy"
      },
      "address": "Cocorite Street, Georgetown, Demerara-Mahaica, Guyana"
    },
    {
      "lat": 6.779625513515414,
      "lon": -58.14882923807572,
      "geoinfo": {
        "display_name": "Heroes Highway, Stevedor & Postal Scheme, City of Georgetown, Eccles-Ramsburg Village District, Demerara-Mahaica, Guyana",
        "road": "Heroes Highway",
        "house_number": null,
        "neighbourhood": null,
        "suburb": null,
        "city_district": null,
        "city": "City of Georgetown",
        "state": "Demerara-Mahaica",
        "postcode": null,
        "country": "Guyana",
        "country_code": "gy"
      },
      "address": "914, Heroes Highway, Stevedor & Postal Scheme, City of Georgetown, Eccles-Ramsburg Village District, 86252 Demerara-Mahaica, Guyana"
    },
    {
      "lat": 6.843308961991439,
      "lon": -58.15973190661147,
      "geoinfo": {
        "display_name": "Alberttown, City of Georgetown, Plaisance-Industry Local Government, Demerara-Mahaica, Guyana",
        "road": null,
        "house_number": null,
        "neighbourhood": null,
        "suburb": null,
        "city_district": null,
        "city": "City of Georgetown",
        "state": "Demerara-Mahaica",
        "postcode": null,
        "country": "Guyana",
        "country_code": "gy"
      },
      "address": "451, Alberttown, City of Georgetown, Plaisance-Industry Local Government, 48360 Demerara-Mahaica, Guyana"
    },
    {
      "lat": 6.826256319279128,
      "lon": -58.15967526454063,
      "geoinfo": {
        "display_name": "Seawall Road, Kingston, Alberttown, City of Georgetown, Plaisance-Industry Local Government, Demerara-Mahaica, Guyana",
        "road": "Seawall Road",
        "house_number": null,
        "neighbourhood": "Kingston",
        "suburb": null,
        "city_district": null,
        "city": "City of Georgetown",
        "state": "Demerara-Mahaica",
        "postcode": null,
        "country": "Guyana",
        "country_code": "gy"
      },
      "address": "850, Seawall Road, Kingston, Alberttown, City of Georgetown, Plaisance-Industry Local Government, 67115 Demerara-Mahaica, Guyana"
    },
    {
      "lat": 6.8075667942933,
      "lon": -58.11065043474621,
      "geoinfo": {
        "display_name": "Industry, City of Georgetown, Plaisance-Industry Local Government, Demerara-Mahaica, Guyana",
        "road": null,
        "house_number": null,
        "neighbourhood": "Industry",
        "suburb": null,
        "city_district": null,
        "city": "City of Georgetown",
        "state": "Demerara-Mahaica",
        "postcode": null,
        "country": "Guyana",
        "country_code": "gy"
      },
      "address": "560, Industry, City of Georgetown, Plaisance-Industry Local Government, 00864 Demerara-Mahaica, Guyana"
    },
    {
      "lat": 6.779584280250629,
      "lon": -58.16200249613666,
      "geoinfo": {
        "display_name": "Stevedor & Postal Scheme, City of Georgetown, Eccles-Ramsburg Village District, Demerara-Mahaica, Guyana",
        "road": null,
        "house_number": null,
        "neighbourhood": null,
        "suburb": null,
        "city_district": null,
        "city": "City of Georgetown",
        "state": "Demerara-Mahaica",
        "postcode": null,
        "country": "Guyana",
        "country_code": "gy"
      },
      "address": "338, Stevedor & Postal Scheme, City of Georgetown, Eccles-Ramsburg Village District, 45687 Demerara-Mahaica, Guyana"
    },
    {
      "lat": 6.836092705344478,
      "lon": -58.17544635278327,
      "geoinfo": {
        "display_name": "Alberttown, City of Georgetown, Plaisance-Industry Local Government, Demerara-Mahaica, Guyana",
        "road": null,
        "house_number": null,
        "neighbourhood": null,
        "suburb": null,
        "city_district": null,
        "city": "City of Georgetown",
        "state": "Demerara-Mahaica",
        "postcode": null,
        "country": "Guyana",
        "country_code": "gy"
      },
      "address": "250, Alberttown, City of Georgetown, Plaisance-Industry Local Government, 38416 Demerara-Mahaica, Guyana"
    },
    {
      "lat": 6.809082175266595,
      "lon": -58.148251332198456,
      "geoinfo": {
        "display_name": "Embassy of Brazil, 308, Church Street, South Cummingsburg, Queenstown, City of Georgetown, Plaisance-Industry Local Government, Demerara-Mahaica, Guyana",
        "road": "Church Street",
        "house_number": "308",
        "neighbourhood": "South Cummingsburg",
        "suburb": null,
        "city_district": null,
        "city": "City of Georgetown",
        "state": "Demerara-Mahaica",
        "postcode": null,
        "country": "Guyana",
        "country_code": "gy"
      },
      "address": "308, Embassy of Brazil, 308, Church Street, South Cummingsburg, Queenstown, City of Georgetown, Plaisance-Industry Local Government, Demerara-Mahaica, Guyana"
    },
    {
      "lat": 6.793643588229448,
      "lon": -58.160028919737194,
      "geoinfo": {
        "display_name": "Hibuscus Drive, Wortmanville, City of Georgetown, Eccles-Ramsburg Village District, Demerara-Mahaica, Guyana",
        "road": "Hibuscus Drive",
        "house_number": null,
        "neighbourhood": null,
        "suburb": null,
        "city_district": null,
        "city": "City of Georgetown",
        "state": "Demerara-Mahaica",
        "postcode": null,
        "country": "Guyana",
        "country_code": "gy"
      },
      "address": "360, Hibuscus Drive, Wortmanville, City of Georgetown, Eccles-Ramsburg Village District, 88163 Demerara-Mahaica, Guyana"
    },
    {
      "lat": 6.800269380665048,
      "lon": -58.12110406358424,
      "geoinfo": {
        "display_name": "Sophia, Section B, North Ruimveldt, City of Georgetown, Plaisance-Industry Local Government, Demerara-Mahaica, Guyana",
        "road": null,
        "house_number": null,
        "neighbourhood": "Sophia",
        "suburb": null,
        "city_district": null,
        "city": "City of Georgetown",
        "state": "Demerara-Mahaica",
        "postcode": null,
        "country": "Guyana",
        "country_code": "gy"
      },
      "address": "278, Sophia, Georgetown, 70097 Demerara-Mahaica, Guyana"
    },
    {
      "lat": 6.81134870031914,
      "lon": -58.122351492826326,
      "geoinfo": {
        "display_name": "Pattensen, Liliendaal, City of Georgetown, Plaisance-Industry Local Government, Demerara-Mahaica, Guyana",
        "road": null,
        "house_number": null,
        "neighbourhood": "Pattensen",
        "suburb": null,
        "city_district": null,
        "city": "City of Georgetown",
        "state": "Demerara-Mahaica",
        "postcode": null,
        "country": "Guyana",
        "country_code": "gy"
      },
      "address": "009, Pattensen, Liliendaal, City of Georgetown, Plaisance-Industry Local Government, 28542 Demerara-Mahaica, Guyana"
    },
    {
      "lat": 6.789159164222847,
      "lon": -58.11404196400046,
      "geoinfo": {
        "display_name": "Industry, North Ruimveldt, City of Georgetown, Plaisance-Industry Local Government, Demerara-Mahaica, Guyana",
        "road": null,
        "house_number": null,
        "neighbourhood": "Industry",
        "suburb": null,
        "city_district": null,
        "city": "City of Georgetown",
        "state": "Demerara-Mahaica",
        "postcode": null,
        "country": "Guyana",
        "country_code": "gy"
      },
      "address": "623, Industry, Georgetown, 74570 Demerara-Mahaica, Guyana"
    },
    {
      "lat": 6.790179768463835,
      "lon": -58.14631439205833,
      "geoinfo": {
        "display_name": "A and I Variety Shop, 742, Avocado Place, Stevedor & Postal Scheme, City of Georgetown, Eccles-Ramsburg Village District, Demerara-Mahaica, Guyana",
        "road": "Avocado Place",
        "house_number": "742",
        "neighbourhood": null,
        "suburb": null,
        "city_district": null,
        "city": "City of Georgetown",
        "state": "Demerara-Mahaica",
        "postcode": null,
        "country": "Guyana",
        "country_code": "gy"
      },
      "address": "742, A and I Variety Shop, 742, Avocado Place, Stevedor & Postal Scheme, City of Georgetown, Eccles-Ramsburg Village District, Demerara-Mahaica, Guyana"
    },
    {
      "lat": 6.788556556234523,
      "lon": -58.168280257696665,
      "geoinfo": {
        "display_name": "Meadowbank, City of Georgetown, Eccles-Ramsburg Village District, Demerara-Mahaica, Guyana",
        "road": null,
        "house_number": null,
        "neighbourhood": "Meadowbank",
        "suburb": null,
        "city_district": null,
        "city": "City of Georgetown",
        "state": "Demerara-Mahaica",
        "postcode": null,
        "country": "Guyana",
        "country_code": "gy"
      },
      "address": "273, Meadowbank, City of Georgetown, Eccles-Ramsburg Village District, 97348 Demerara-Mahaica, Guyana"
    },
    {
      "lat": 6.810489023496189,
      "lon": -58.15885742968788,
      "geoinfo": {
        "display_name": "Mikes Pharmacy, Robb Street, Lacytown, Alberttown, City of Georgetown, Plaisance-Industry Local Government, Demerara-Mahaica, Guyana",
        "road": "Robb Street",
        "house_number": null,
        "neighbourhood": "Lacytown",
        "suburb": null,
        "city_district": null,
        "city": "City of Georgetown",
        "state": "Demerara-Mahaica",
        "postcode": null,
        "country": "Guyana",
        "country_code": "gy"
      },
      "address": "343, Robb Street, Georgetown, 84223 Demerara-Mahaica, Guyana"
    },
    {
      "lat": 6.768171074664548,
      "lon": -58.154116353622435,
      "geoinfo": {
        "display_name": "Peters Hall, Eccles-Ramsburg Village District, Eccles - Ramsburg, Demerara-Mahaica, Guyana",
        "road": null,
        "house_number": null,
        "neighbourhood": null,
        "suburb": null,
        "city_district": null,
        "city": "Peters Hall",
        "state": "Demerara-Mahaica",
        "postcode": null,
        "country": "Guyana",
        "country_code": "gy"
      },
      "address": "666, Georgetown, 54857 Demerara-Mahaica, Guyana"
    },
    {
      "lat": 6.816171577097384,
      "lon": -58.13338707466136,
      "geoinfo": {
        "display_name": "Campbellville, Bel Air Park, City of Georgetown, Plaisance-Industry Local Government, Demerara-Mahaica, Guyana",
        "road": null,
        "house_number": null,
        "neighbourhood": "Campbellville",
        "suburb": null,
        "city_district": null,
        "city": "City of Georgetown",
        "state": "Demerara-Mahaica",
        "postcode": null,
        "country": "Guyana",
        "country_code": "gy"
      },
      "address": "817, Campbellville, Bel Air Park, City of Georgetown, Plaisance-Industry Local Government, 77332 Demerara-Mahaica, Guyana"
    },
    {
      "lat": 6.816266153480624,
      "lon": -58.12745750173303,
      "geoinfo": {
        "display_name": "Prashad Nagar, Liliendaal, City of Georgetown, Plaisance-Industry Local Government, Demerara-Mahaica, Guyana",
        "road": null,
        "house_number": null,
        "neighbourhood": "Prashad Nagar",
        "suburb": null,
        "city_district": null,
        "city": "City of Georgetown",
        "state": "Demerara-Mahaica",
        "postcode": null,
        "country": "Guyana",
        "country_code": "gy"
      },
      "address": "223, Prashad Nagar, Liliendaal, City of Georgetown, Plaisance-Industry Local Government, 53722 Demerara-Mahaica, Guyana"
    },
    {
      "lat": 6.811906598848511,
      "lon": -58.145707335913194,
      "geoinfo": {
        "display_name": "Java Coffee Bar, 80, Duncan Street, Newtown, Bel Air Park, City of Georgetown, Plaisance-Industry Local Government, Demerara-Mahaica, 413741, Guyana",
        "road": "Duncan Street",
        "house_number": "80",
        "neighbourhood": "Newtown",
        "suburb": null,
        "city_district": null,
        "city": "City of Georgetown",
        "state": "Demerara-Mahaica",
        "postcode": "413741",
        "country": "Guyana",
        "country_code": "gy"
      },
      "address": "Java Coffee Bar, 80, Duncan Street, Newtown, Bel Air Park, City of Georgetown, Plaisance-Industry Local Government, Demerara-Mahaica, 413741, Guyana"
    },
    {
      "lat": 6.765841711225993,
      "lon": -58.17083095329142,
      "geoinfo": {
        "display_name": "Republic Park, Peters Hall, Eccles-Ramsburg Village District, Eccles - Ramsburg, Demerara-Mahaica, Guyana",
        "road": null,
        "house_number": null,
        "neighbourhood": null,
        "suburb": null,
        "city_district": null,
        "city": "Peters Hall",
        "state": "Demerara-Mahaica",
        "postcode": null,
        "country": "Guyana",
        "country_code": "gy"
      },
      "address": "504, Georgetown, 18604 Demerara-Mahaica, Guyana"
    },
    {
      "lat": 6.802139988753078,
      "lon": -58.156158762143065,
      "geoinfo": {
        "display_name": "Princes Street, Charlestown, Wortmanville, City of Georgetown, Eccles-Ramsburg Village District, Demerara-Mahaica, Guyana",
        "road": "Princes Street",
        "house_number": null,
        "neighbourhood": "Charlestown",
        "suburb": null,
        "city_district": null,
        "city": "City of Georgetown",
        "state": "Demerara-Mahaica",
        "postcode": null,
        "country": "Guyana",
        "country_code": "gy"
      },
      "address": "730, Princes Street, Charlestown, Wortmanville, City of Georgetown, Eccles-Ramsburg Village District, 03947 Demerara-Mahaica, Guyana"
    },
    {
      "lat": 6.791195120066565,
      "lon": -58.14694073275301,
      "geoinfo": {
        "display_name": "Northeast La Penitence, City of Georgetown, Eccles-Ramsburg Village District, Demerara-Mahaica, Guyana",
        "road": null,
        "house_number": null,
        "neighbourhood": null,
        "suburb": null,
        "city_district": null,
        "city": "City of Georgetown",
        "state": "Demerara-Mahaica",
        "postcode": null,
        "country": "Guyana",
        "country_code": "gy"
      },
      "address": "013, Northeast La Penitence, City of Georgetown, Eccles-Ramsburg Village District, 47958 Demerara-Mahaica, Guyana"
    },
    {
      "lat": 6.826823065164695,
      "lon": -58.11691967461843,
      "geoinfo": {
        "display_name": "Rupert Craig Highway, Pattensen, Ogle, Georgetown, Industry - Plaisance, Demerara-Mahaica, Guyana",
        "road": "Rupert Craig Highway",
        "house_number": null,
        "neighbourhood": "Pattensen",
        "suburb": "Ogle",
        "city_district": null,
        "city": "Georgetown",
        "state": "Demerara-Mahaica",
        "postcode": null,
        "country": "Guyana",
        "country_code": "gy"
      },
      "address": "580, Rupert Craig Highway, Pattensen, Ogle, Georgetown, Industry - Plaisance, 90324 Demerara-Mahaica, Guyana"
    },
    {
      "lat": 6.809615002415079,
      "lon": -58.122706701995405,
      "geoinfo": {
        "display_name": "Pattensen, City of Georgetown, Plaisance-Industry Local Government, Demerara-Mahaica, Guyana",
        "road": null,
        "house_number": null,
        "neighbourhood": "Pattensen",
        "suburb": null,
        "city_district": null,
        "city": "City of Georgetown",
        "state": "Demerara-Mahaica",
        "postcode": null,
        "country": "Guyana",
        "country_code": "gy"
      },
      "address": "277, Pattensen, City of Georgetown, Plaisance-Industry Local Government, 88251 Demerara-Mahaica, Guyana"
    },
    {
      "lat": 6.772377886578368,
      "lon": -58.1395396060982,
      "geoinfo": {
        "display_name": "Tucville, City of Georgetown, Eccles-Ramsburg Village District, Demerara-Mahaica, Guyana",
        "road": null,
        "house_number": null,
        "neighbourhood": null,
        "suburb": null,
        "city_district": null,
        "city": "City of Georgetown",
        "state": "Demerara-Mahaica",
        "postcode": null,
        "country": "Guyana",
        "country_code": "gy"
      },
      "address": "769, Tucville, City of Georgetown, Eccles-Ramsburg Village District, 79957 Demerara-Mahaica, Guyana"
    },
    {
      "lat": 6.810767818990934,
      "lon": -58.13908904694336,
      "geoinfo": {
        "display_name": "Delph Avenue, Campbellville, Bel Air Park, City of Georgetown, Plaisance-Industry Local Government, Demerara-Mahaica, Guyana",
        "road": "Delph Avenue",
        "house_number": null,
        "neighbourhood": "Campbellville",
        "suburb": null,
        "city_district": null,
        "city": "City of Georgetown",
        "state": "Demerara-Mahaica",
        "postcode": null,
        "country": "Guyana",
        "country_code": "gy"
      },
      "address": "595, Delph Avenue, Campbellville, Bel Air Park, City of Georgetown, Plaisance-Industry Local Government, 77297 Demerara-Mahaica, Guyana"
    },
    {
      "lat": 6.80253886566089,
      "lon": -58.193272472388266,
      "geoinfo": {
        "display_name": "Cogland Dam, Malgre Tout - Meer Zorgen, Stanleytown, Vreed-En-Hoop, Klien Pouderoyen-Best Local Government District, Best - Klein Pouderoyen, Essequibo Islands, Guyana",
        "road": "Cogland Dam",
        "house_number": null,
        "neighbourhood": "Malgre Tout - Meer Zorgen",
        "suburb": null,
        "city_district": null,
        "city": "Vreed-En-Hoop",
        "state": "Essequibo Islands",
        "postcode": null,
        "country": "Guyana",
        "country_code": "gy"
      },
      "address": "889, Cogland Dam, Malgre Tout - Meer Zorgen, Stanleytown, Vreed-En-Hoop, Klien Pouderoyen-Best Local Government District, Best - Klein Pouderoyen, 72538 Essequibo Islands, Guyana"
    },
    {
      "lat": 6.770460358678301,
      "lon": -58.17629003305911,
      "geoinfo": {
        "display_name": "Eccles, Bagotstown, Eccles-Ramsburg Village District, Eccles - Ramsburg, Demerara-Mahaica, Guyana",
        "road": null,
        "house_number": null,
        "neighbourhood": null,
        "suburb": null,
        "city_district": null,
        "city": "Bagotstown",
        "state": "Demerara-Mahaica",
        "postcode": null,
        "country": "Guyana",
        "country_code": "gy"
      },
      "address": "308, Georgetown, 84843 Demerara-Mahaica, Guyana"
    },
    {
      "lat": 6.800641259891405,
      "lon": -58.13642140779453,
      "geoinfo": {
        "display_name": "Hadfield Street, Section E, Bel Air Park, City of Georgetown, Plaisance-Industry Local Government, Demerara-Mahaica, Guyana",
        "road": "Hadfield Street",
        "house_number": null,
        "neighbourhood": null,
        "suburb": null,
        "city_district": null,
        "city": "City of Georgetown",
        "state": "Demerara-Mahaica",
        "postcode": null,
        "country": "Guyana",
        "country_code": "gy"
      },
      "address": "084, Hadfield Street, Section E, Bel Air Park, City of Georgetown, Plaisance-Industry Local Government, 73406 Demerara-Mahaica, Guyana"
    },
    {
      "lat": 6.7756063604088395,
      "lon": -58.13577778720612,
      "geoinfo": {
        "display_name": "Caneview Avenue, Tucville, City of Georgetown, Eccles-Ramsburg Village District, Demerara-Mahaica, Guyana",
        "road": "Caneview Avenue",
        "house_number": null,
        "neighbourhood": null,
        "suburb": null,
        "city_district": null,
        "city": "City of Georgetown",
        "state": "Demerara-Mahaica",
        "postcode": null,
        "country": "Guyana",
        "country_code": "gy"
      },
      "address": "575, Caneview Avenue, Tucville, City of Georgetown, Eccles-Ramsburg Village District, 96598 Demerara-Mahaica, Guyana"
    },
    {
      "lat": 6.805922009125739,
      "lon": -58.12027797398116,
      "geoinfo": {
        "display_name": "Sophia, Section C, City of Georgetown, Plaisance-Industry Local Government, Demerara-Mahaica, Guyana",
        "road": null,
        "house_number": null,
        "neighbourhood": "Sophia",
        "suburb": null,
        "city_district": null,
        "city": "City of Georgetown",
        "state": "Demerara-Mahaica",
        "postcode": null,
        "country": "Guyana",
        "country_code": "gy"
      },
      "address": "363, Sophia, Section C, City of Georgetown, Plaisance-Industry Local Government, 79351 Demerara-Mahaica, Guyana"
    }
  ],
  "updated_at": "2025-10-19T02:54:02.323576+00:00",
  "_kind": "geo_samples"
}