{
  "country_code": "GY",
  "country": "Guyana",
  "city": "New Amsterdam",
  "geonameid": 3376762,
  "target_addresses": 34,
  "samples": [
    {
      "lat": 6.235265079877584,
      "lon": -57.555871187735306,
      "geoinfo": {
        "display_name": "Zoorg en Hoop, Ithaca, Blairmont - Gelderland, Mahaica-Berbice, Guyana",
        "road": null,
        "house_number": null,
        "neighbourhood": null,
        "suburb": null,
        "city_district": null,
        "city": "Ithaca",
        "state": "Mahaica-Berbice",
        "postcode": null,
        "country": "Guyana",
        "country_code": "gy"
      },
      "address": "957, Zoorg en Hoop, Ithaca, Blairmont - Gelderland, 09198 Mahaica-Berbice, Guyana"
    },
    {
      "lat": 6.2364809601880395,
      "lon": -57.51649412935627,
      "geoinfo": {
        "display_name": "Stanleytown Savannah, New Amsterdam, Sheet Anchor-Cumberland Local Government District, East Berbice-Corentyne, Guyana",
        "road": null,
        "house_number": null,
        "neighbourhood": null,
        "suburb": null,
        "city_district": null,
        "city": "New Amsterdam",
        "state": "East Berbice-Corentyne",
        "postcode": null,
        "country": "Guyana",
        "country_code": "gy"
      },
      "address": "101, Stanleytown Savannah, New Amsterdam, Sheet Anchor-Cumberland Local Government District, 73219 East Berbice-Corentyne, Guyana"
    },
    {
      "lat": 6.278273971428624,
      "lon": -57.481365999093654,
      "geoinfo": {
        "display_name": "No. 10, Cumberland, Sheet Anchor-Cumberland Local Government District, Ordnance - Fortlands, East Berbice-Corentyne, Guyana",
        "road": null,
        "house_number": null,
        "neighbourhood": null,
        "suburb": null,
        "city_district": null,
        "city": "Cumberland",
        "state": "East Berbice-Corentyne",
        "postcode": null,
        "country": "Guyana",
        "country_code": "gy"
      },
      "address": "840, New Amsterdam, 21617 East Berbice-Corentyne, Guyana"
    },
    {
      "lat": 6.275072372639584,
      "lon": -57.52712104214647,
      "geoinfo": {
        "display_name": "Cumberland, Sheet Anchor-Cumberland Local Government District, Ordnance - Fortlands, East Berbice-Corentyne, Guyana",
        "road": null,
        "house_number": null,
        "neighbourhood": null,
        "suburb": null,
        "city_district": null,
        "city": "Cumberland",
        "state": "East Berbice-Corentyne",
        "postcode": null,
        "country": "Guyana",
        "country_code": "gy"
      },
      "address": "189, New Amsterdam, 48136 East Berbice-Corentyne, Guyana"
    },
    {
      "lat": 6.229666840017268,
      "lon": -57.49752021036546,
      "geoinfo": {
        "display_name": "Corentyne River, East Berbice-Corentyne, Guyana",
        "road": null,
        "house_number": null,
        "neighbourhood": null,
        "suburb": null,
        "city_district": null,
        "city": null,
        "state": "East Berbice-Corentyne",
        "postcode": null,
        "country": "Guyana",
        "country_code": "gy"
      },
      "address": "213, New Amsterdam, 25762 East Berbice-Corentyne, Guyana"
    },
    {
      "lat": 6.217210780807259,
      "lon": -57.49077658550084,
      "geoinfo": {
        "display_name": "Vryheid Road, Corentyne River, East Berbice-Corentyne, Guyana",
        "road": "Vryheid Road",
        "house_number": null,
        "neighbourhood": null,
        "suburb": null,
        "city_district": null,
        "city": null,
        "state": "East Berbice-Corentyne",
        "postcode": null,
        "country": "Guyana",
        "country_code": "gy"
      },
      "address": "092, Vryheid Road, New Amsterdam, 83769 East Berbice-Corentyne, Guyana"
    },
    {
      "lat": 6.2136137425899856,
      "lon": -57.523291090132986,
      "geoinfo": {
        "display_name": "Glasgow Housing Scheme, Overwinning - Glasgow, New Amsterdam, Sheet Anchor-Cumberland Local Government District, East Berbice-Corentyne, Guyana",
        "road": null,
        "house_number": null,
        "neighbourhood": null,
        "suburb": null,
        "city_district": null,
        "city": "New Amsterdam",
        "state": "East Berbice-Corentyne",
        "postcode": null,
        "country": "Guyana",
        "country_code": "gy"
      },
      "address": "879, New Amsterdam, 91896 East Berbice-Corentyne, Guyana"
    },
    {
      "lat": 6.276617820608698,
      "lon": -57.50264806713544,
      "geoinfo": {
        "display_name": "Ordinance Fortlands, East Canje, Cumberland, Sheet Anchor-Cumberland Local Government District, Ordnance - Fortlands, East Berbice-Corentyne, Guyana",
        "road": null,
        "house_number": null,
        "neighbourhood": null,
        "suburb": null,
        "city_district": null,
        "city": "Cumberland",
        "state": "East Berbice-Corentyne",
        "postcode": null,
        "country": "Guyana",
        "country_code": "gy"
      },
      "address": "505, New Amsterdam, 89400 East Berbice-Corentyne, Guyana"
    },
    {
      "lat": 6.243343600033419,
      "lon": -57.49693575824765,
      "geoinfo": {
        "display_name": "No. 5 or Rosehall, Cane Field, Cane Field - Enterprise, East Berbice-Corentyne, Guyana",
        "road": null,
        "house_number": null,
        "neighbourhood": null,
        "suburb": null,
        "city_district": null,
        "city": "Cane Field",
        "state": "East Berbice-Corentyne",
        "postcode": null,
        "country": "Guyana",
        "country_code": "gy"
      },
      "address": "791, New Amsterdam, 14216 East Berbice-Corentyne, Guyana"
    },
    {
      "lat": 6.221323509065533,
      "lon": -57.485967809624455,
      "geoinfo": {
        "display_name": "Vryheid Road, Corentyne River, East Berbice-Corentyne, Guyana",
        "road": "Vryheid Road",
        "house_number": null,
        "neighbourhood": null,
        "suburb": null,
        "city_district": null,
        "city": null,
        "state": "East Berbice-Corentyne",
        "postcode": null,
        "country": "Guyana",
        "country_code": "gy"
      },
      "address": "591, Vryheid Road, New Amsterdam, 56480 East Berbice-Corentyne, Guyana"
    },
    {
      "lat": 6.254285348479244,
      "lon": -57.50827984494264,
      "geoinfo": {
        "display_name": "New Amsterdam Technical Institute, Princess Elizabeth Road, West Canje, Queenstown - Fort Ordance - Smythfield, New Amsterdam, Sheet Anchor-Cumberland Local Government District, East Berbice-Corentyne, Guyana",
        "road": "Princess Elizabeth Road",
        "house_number": null,
        "neighbourhood": "West Canje",
        "suburb": null,
        "city_district": null,
        "city": "New Amsterdam",
        "state": "East Berbice-Corentyne",
        "postcode": null,
        "country": "Guyana",
        "country_code": "gy"
      },
      "address": "736, Princess Elizabeth Road, New Amsterdam, 94868 East Berbice-Corentyne, Guyana"
    },
    {
      "lat": 6.207293842743128,
      "lon": -57.499869979610295,
      "geoinfo": {
        "display_name": "Sandvoort, Corentyne River, East Berbice-Corentyne, Guyana",
        "road": null,
        "house_number": null,
        "neighbourhood": null,
        "suburb": null,
        "city_district": null,
        "city": null,
        "state": "East Berbice-Corentyne",
        "postcode": null,
        "country": "Guyana",
        "country_code": "gy"
      },
      "address": "449, New Amsterdam, 32833 East Berbice-Corentyne, Guyana"
    },
    {
      "lat": 6.258109405775893,
      "lon": -57.52949713680567,
      "geoinfo": {
        "display_name": "Smythstown, Smythstown - Pope St to Vryheid St, New Amsterdam, Sheet Anchor-Cumberland Local Government District, East Berbice-Corentyne, Guyana",
        "road": null,
        "house_number": null,
        "neighbourhood": null,
        "suburb": null,
        "city_district": "Smythstown - Pope St to Vryheid St",
        "city": "New Amsterdam",
        "state": "East Berbice-Corentyne",
        "postcode": null,
        "country": "Guyana",
        "country_code": "gy"
      },
      "address": "499, Smythstown, Smythstown - Pope St to Vryheid St, New Amsterdam, Sheet Anchor-Cumberland Local Government District, 85985 East Berbice-Corentyne, Guyana"
    },
    {
      "lat": 6.2646321473480056,
      "lon": -57.47600764938852,
      "geoinfo": {
        "display_name": "No. 12 or Tapinsburg, Cumberland, Sheet Anchor-Cumberland Local Government District, Ordnance - Fortlands, East Berbice-Corentyne, Guyana",
        "road": null,
        "house_number": null,
        "neighbourhood": null,
        "suburb": null,
        "city_district": null,
        "city": "Cumberland",
        "state": "East Berbice-Corentyne",
        "postcode": null,
        "country": "Guyana",
        "country_code": "gy"
      },
      "address": "045, New Amsterdam, 94797 East Berbice-Corentyne, Guyana"
    },
    {
      "lat": 6.23231949451494,
      "lon": -57.51508770020331,
      "geoinfo": {
        "display_name": "Vryheid Road, Overwinning, Mount Sinai Central and North, New Amsterdam, Sheet Anchor-Cumberland Local Government District, East Berbice-Corentyne, Guyana",
        "road": "Vryheid Road",
        "house_number": null,
        "neighbourhood": null,
        "suburb": null,
        "city_district": null,
        "city": "New Amsterdam",
        "state": "East Berbice-Corentyne",
        "postcode": null,
        "country": "Guyana",
        "country_code": "gy"
      },
      "address": "730, Vryheid Road, Overwinning, Mount Sinai Central and North, New Amsterdam, Sheet Anchor-Cumberland Local Government District, 03163 East Berbice-Corentyne, Guyana"
    },
    {
      "lat": 6.240533345911463,
      "lon": -57.528400473469354,
      "geoinfo": {
        "display_name": "Smythstown, Smythstown - Pope St to Vryheid St, New Amsterdam, Sheet Anchor-Cumberland Local Government District, East Berbice-Corentyne, Guyana",
        "road": null,
        "house_number": null,
        "neighbourhood": null,
        "suburb": null,
        "city_district": "Smythstown - Pope St to Vryheid St",
        "city": "New Amsterdam",
        "state": "East Berbice-Corentyne",
        "postcode": null,
        "country": "Guyana",
        "country_code": "gy"
      },
      "address": "331, Smythstown, Smythstown - Pope St to Vryheid St, New Amsterdam, Sheet Anchor-Cumberland Local Government District, 06568 East Berbice-Corentyne, Guyana"
    },
    {
      "lat": 6.23518074463792,
      "lon": -57.47826443198519,
      "geoinfo": {
        "display_name": "No. 6 or Reliance, Cane Field, Cane Field - Enterprise, East Berbice-Corentyne, Guyana",
        "road": null,
        "house_number": null,
        "neighbourhood": null,
        "suburb": null,
        "city_district": null,
        "city": "Cane Field",
        "state": "East Berbice-Corentyne",
        "postcode": null,
        "country": "Guyana",
        "country_code": "gy"
      },
      "address": "522, New Amsterdam, 58758 East Berbice-Corentyne, Guyana"
    },
    {
      "lat": 6.228847424834844,
      "lon": -57.54064396676648,
      "geoinfo": {
        "display_name": "Forbes Avenue, Zoorg en Hoop, Ithaca, Blairmont - Gelderland, Mahaica-Berbice, Guyana",
        "road": "Forbes Avenue",
        "house_number": null,
        "neighbourhood": null,
        "suburb": null,
        "city_district": null,
        "city": "Ithaca",
        "state": "Mahaica-Berbice",
        "postcode": null,
        "country": "Guyana",
        "country_code": "gy"
      },
      "address": "604, Forbes Avenue, Zoorg en Hoop, Ithaca, Blairmont - Gelderland, 24135 Mahaica-Berbice, Guyana"
    },
    {
      "lat": 6.232015319447448,
      "lon": -57.51952342968539,
      "geoinfo": {
        "display_name": "Stanleytown Savannah, New Amsterdam, Sheet Anchor-Cumberland Local Government District, East Berbice-Corentyne, Guyana",
        "road": null,
        "house_number": null,
        "neighbourhood": null,
        "suburb": null,
        "city_district": null,
        "city": "New Amsterdam",
        "state": "East Berbice-Corentyne",
        "postcode": null,
        "country": "Guyana",
        "country_code": "gy"
      },
      "address": "462, Stanleytown Savannah, New Amsterdam, Sheet Anchor-Cumberland Local Government District, 18370 East Berbice-Corentyne, Guyana"
    },
    {
      "lat": 6.250698249370406,
      "lon": -57.49362285516229,
      "geoinfo": {
        "display_name": "Cane Field, Cane Field - Enterprise, East Berbice-Corentyne, Guyana",
        "road": null,
        "house_number": null,
        "neighbourhood": null,
        "suburb": null,
        "city_district": null,
        "city": "Cane Field",
        "state": "East Berbice-Corentyne",
        "postcode": null,
        "country": "Guyana",
        "country_code": "gy"
      },
      "address": "509, New Amsterdam, 75204 East Berbice-Corentyne, Guyana"
    },
    {
      "lat": 6.252273975475711,
      "lon": -57.52028955617449,
      "geoinfo": {
        "display_name": "The Six Cannons Military monument, Strand Road, West Canje, Queenstown - Fort Ordance - Smythfield, New Amsterdam, Sheet Anchor-Cumberland Local Government District, East Berbice-Corentyne, Guyana",
        "road": "Strand Road",
        "house_number": null,
        "neighbourhood": "West Canje",
        "suburb": null,
        "city_district": null,
        "city": "New Amsterdam",
        "state": "East Berbice-Corentyne",
        "postcode": null,
        "country": "Guyana",
        "country_code": "gy"
      },
      "address": "970, Strand Road, New Amsterdam, 76006 East Berbice-Corentyne, Guyana"
    },
    {
      "lat": 6.287530625044782,
      "lon": -57.503298723573636,
      "geoinfo": {
        "display_name": "No. 6 or Prospect, No. 2, Sheet Anchor-Cumberland Local Government District, Ordnance - Fortlands, East Berbice-Corentyne, Guyana",
        "road": null,
        "house_number": null,
        "neighbourhood": null,
        "suburb": null,
        "city_district": null,
        "city": null,
        "state": "East Berbice-Corentyne",
        "postcode": null,
        "country": "Guyana",
        "country_code": "gy"
      },
      "address": "620, New Amsterdam, 89318 East Berbice-Corentyne, Guyana"
    },
    {
      "lat": 6.2153518836537405,
      "lon": -57.53009732958734,
      "geoinfo": {
        "display_name": "Main Street, Glasgow, Overwinning - Glasgow, New Amsterdam, Sheet Anchor-Cumberland Local Government District, East Berbice-Corentyne, Guyana",
        "road": "Main Street",
        "house_number": null,
        "neighbourhood": null,
        "suburb": null,
        "city_district": null,
        "city": "New Amsterdam",
        "state": "East Berbice-Corentyne",
        "postcode": null,
        "country": "Guyana",
        "country_code": "gy"
      },
      "address": "768, Main Street, Glasgow, Overwinning - Glasgow, New Amsterdam, Sheet Anchor-Cumberland Local Government District, 97606 East Berbice-Corentyne, Guyana"
    },
    {
      "lat": 6.230177066464619,
      "lon": -57.49231596319086,
      "geoinfo": {
        "display_name": "Corentyne River, East Berbice-Corentyne, Guyana",
        "road": null,
        "house_number": null,
        "neighbourhood": null,
        "suburb": null,
        "city_district": null,
        "city": null,
        "state": "East Berbice-Corentyne",
        "postcode": null,
        "country": "Guyana",
        "country_code": "gy"
      },
      "address": "295, New Amsterdam, 78080 East Berbice-Corentyne, Guyana"
    }
  ],
  "updated_at": "2025-10-19T04:11:17.871181+00:00",
  "_kind": "geo_samples"
}