{
  "country_code": "PR",
  "country": "Puerto Rico",
  "city": "Aguadilla",
  "geonameid": 4562506,
  "target_addresses": 5,
  "samples": [
    {
      "lat": 18.4199586819163,
      "lon": -67.17874229518044,
      "geoinfo": {
        "display_name": "Espinar, Aguada, Puerto Rico, 00602, United States",
        "road": null,
        "house_number": null,
        "neighbourhood": null,
        "suburb": "Espinar",
        "city_district": "Espinar",
        "city": "Aguada",
        "state": "Puerto Rico",
        "postcode": "00602",
        "country": "United States",
        "country_code": "us"
      },
      "address": "Espinar, Aguadilla, Puerto Rico, Puerto Rico"
    },
    {
      "lat": 18.41043617976787,
      "lon": -67.13189275899984,
      "geoinfo": {
        "display_name": "Carretera Efraín Talavera Cabán, Victoria, Aguadilla, Puerto Rico, 00605, United States",
        "road": "Carretera Efraín Talavera Cabán",
        "house_number": null,
        "neighbourhood": null,
        "suburb": null,
        "city_district": "Victoria",
        "city": "Aguadilla",
        "state": "Puerto Rico",
        "postcode": "00605",
        "country": "United States",
        "country_code": "us"
      },
      "address": "Carretera Efraín Talavera Cabán, Aguadilla, Puerto Rico, Puerto Rico"
    },
    {
      "lat": 18.460512463367294,
      "lon": -67.17629745767988,
      "geoinfo": {
        "display_name": "Sector Playuela, Villa Lupe, Borinquen, Aguadilla, Puerto Rico, 00603, United States",
        "road": null,
        "house_number": null,
        "neighbourhood": "Sector Playuela",
        "suburb": null,
        "city_district": "Borinquen",
        "city": null,
        "state": "Puerto Rico",
        "postcode": "00603",
        "country": "United States",
        "country_code": "us"
      },
      "address": "Sector Playuela, Aguadilla, Puerto Rico, Puerto Rico"
    },
    {
      "lat": 18.41782348111635,
      "lon": -67.14921881281613,
      "geoinfo": {
        "display_name": "Calle Toño Colón, Barriada Bisbal, Victoria, Aguadilla, Puerto Rico, 00605, United States",
        "road": "Calle Toño Colón",
        "house_number": null,
        "neighbourhood": null,
        "suburb": null,
        "city_district": "Victoria",
        "city": "Aguadilla",
        "state": "Puerto Rico",
        "postcode": "00605",
        "country": "United States",
        "country_code": "us"
      },
      "address": "Calle Toño Colón, Aguadilla, Puerto Rico, Puerto Rico"
    },
    {
      "lat": 18.421190660068106,
      "lon": -67.1305160318547,
      "geoinfo": {
        "display_name": "Caimital Bajo, Aguadilla, Puerto Rico, 00605, United States",
        "road": null,
        "house_number": null,
        "neighbourhood": null,
        "suburb": "Caimital Bajo",
        "city_district": "Caimital Bajo",
        "city": null,
        "state": "Puerto Rico",
        "postcode": "00605",
        "country": "United States",
        "country_code": "us"
      },
      "address": "Caimital Bajo, Aguadilla, Puerto Rico, Puerto Rico"
    },
    {
      "lat": 18.399550124937786,
      "lon": -67.18932465372406,
      "geoinfo": {
        "display_name": "Avenida Ismael Miranda / Carretera Carrizales, Noboa Vieja, Guaniquilla, Carrizal, Aguada, Puerto Rico, 00602, United States",
        "road": "Avenida Ismael Miranda / Carretera Carrizales",
        "house_number": null,
        "neighbourhood": "Noboa Vieja",
        "suburb": "Guaniquilla",
        "city_district": "Carrizal",
        "city": "Aguada",
        "state": "Puerto Rico",
        "postcode": "00602",
        "country": "United States",
        "country_code": "us"
      },
      "address": "705, Avenida Ismael Miranda / Carretera Carrizales, Noboa Vieja, Guaniquilla, Carrizal, Aguada, Puerto Rico, 00602, United States"
    },
    {
      "lat": 18.422235238315483,
      "lon": -67.18822365465682,
      "geoinfo": {
        "display_name": "Carrizal, Aguada, Puerto Rico, 00602, United States",
        "road": null,
        "house_number": null,
        "neighbourhood": null,
        "suburb": "Carrizal",
        "city_district": "Carrizal",
        "city": "Aguada",
        "state": "Puerto Rico",
        "postcode": "00602",
        "country": "United States",
        "country_code": "us"
      },
      "address": "677, Carrizal, Aguada, Puerto Rico, 00602, United States"
    },
    {
      "lat": 18.392145074810877,
      "lon": -67.1691137405233,
      "geoinfo": {
        "display_name": "139, Calle Azucena, Las Flores, Asomante, Aguada, Puerto Rico, 00602, United States",
        "road": "Calle Azucena",
        "house_number": "139",
        "neighbourhood": "Las Flores",
        "suburb": "Asomante",
        "city_district": "Asomante",
        "city": "Aguada",
        "state": "Puerto Rico",
        "postcode": "00602",
        "country": "United States",
        "country_code": "us"
      },
      "address": "139, Calle Azucena, Las Flores, Asomante, Aguada, Puerto Rico, 00602, United States"
    },
    {
      "lat": 18.44700246462053,
      "lon": -67.16028886227103,
      "geoinfo": {
        "display_name": "Antigua Central Azucarera de Augadilla, Carretera Ingeniero Abraham Hernández Maisonave, Borinquen, Aguadilla, Puerto Rico, 00603, United States",
        "road": "Carretera Ingeniero Abraham Hernández Maisonave",
        "house_number": null,
        "neighbourhood": null,
        "suburb": null,
        "city_district": "Borinquen",
        "city": "Aguadilla",
        "state": "Puerto Rico",
        "postcode": "00603",
        "country": "United States",
        "country_code": "us"
      },
      "address": "169, Carretera Ingeniero Abraham Hernández Maisonave, Aguadilla, 00603 Puerto Rico, Puerto Rico"
    },
    {
      "lat": 18.43323519631939,
      "lon": -67.14658935735643,
      "geoinfo": {
        "display_name": "Expreso Rafael Hernández \"El Jibarito”, Urb. Jardín Mirabel, Las Golondrinas, Caimital Bajo, Aguadilla, Puerto Rico, 00605, United States",
        "road": "Expreso Rafael Hernández \"El Jibarito”",
        "house_number": null,
        "neighbourhood": "Urb. Jardín Mirabel",
        "suburb": null,
        "city_district": "Caimital Bajo",
        "city": "Aguadilla",
        "state": "Puerto Rico",
        "postcode": "00605",
        "country": "United States",
        "country_code": "us"
      },
      "address": "721, Expreso Rafael Hernández \"El Jibarito”, Urb. Jardín Mirabel, Las Golondrinas, Caimital Bajo, Aguadilla, Puerto Rico, 00605, United States"
    }
  ],
  "updated_at": "2025-10-19T06:34:09.048247+00:00",
  "_kind": "geo_samples"
}