{
  "country_code": "PR",
  "country": "Puerto Rico",
  "city": "Arecibo",
  "geonameid": 4562635,
  "target_addresses": 5,
  "samples": [
    {
      "lat": 18.51351033948398,
      "lon": -66.71123637982497,
      "geoinfo": {
        "display_name": "Arecibo, Puerto Rico, 00614, United States",
        "road": null,
        "house_number": null,
        "neighbourhood": null,
        "suburb": null,
        "city_district": null,
        "city": "Arecibo",
        "state": "Puerto Rico",
        "postcode": "00614",
        "country": "United States",
        "country_code": "us"
      },
      "address": "Arecibo, Puerto Rico, Puerto Rico"
    },
    {
      "lat": 18.499834706828707,
      "lon": -66.7409436425253,
      "geoinfo": {
        "display_name": "Hato Abajo, Arecibo, Puerto Rico, 00613, United States",
        "road": null,
        "house_number": null,
        "neighbourhood": null,
        "suburb": "Hato Abajo",
        "city_district": "Hato Abajo",
        "city": "Arecibo",
        "state": "Puerto Rico",
        "postcode": "00613",
        "country": "United States",
        "country_code": "us"
      },
      "address": "Hato Abajo, Arecibo, Puerto Rico, Puerto Rico"
    },
    {
      "lat": 18.450328959862606,
      "lon": -66.74615134870622,
      "geoinfo": {
        "display_name": "Calle 2, Villa Serena, Paseos del Prado, Hato Abajo, Arecibo, Puerto Rico, 00613, United States",
        "road": "Calle 2",
        "house_number": null,
        "neighbourhood": "Villa Serena",
        "suburb": null,
        "city_district": "Hato Abajo",
        "city": "Arecibo",
        "state": "Puerto Rico",
        "postcode": "00613",
        "country": "United States",
        "country_code": "us"
      },
      "address": "Calle 2, Arecibo, Puerto Rico, Puerto Rico"
    },
    {
      "lat": 18.46098453687403,
      "lon": -66.73742834040914,
      "geoinfo": {
        "display_name": "Calle Kilómetro 0.3, El Coto, Barrio Pueblo, Arecibo, Puerto Rico, 00613, United States",
        "road": "Calle Kilómetro 0.3",
        "house_number": null,
        "neighbourhood": "El Coto",
        "suburb": null,
        "city_district": "Barrio Pueblo",
        "city": "Arecibo",
        "state": "Puerto Rico",
        "postcode": "00613",
        "country": "United States",
        "country_code": "us"
      },
      "address": "Calle Kilómetro 0.3, Arecibo, Puerto Rico, Puerto Rico"
    },
    {
      "lat": 18.480094112578172,
      "lon": -66.74513374667721,
      "geoinfo": {
        "display_name": "Avenida Escritor René Marqués García (Avenida Miramar), Radioville, Hato Abajo, Arecibo, Puerto Rico, 00613, United States",
        "road": "Avenida Escritor René Marqués García (Avenida Miramar)",
        "house_number": null,
        "neighbourhood": "Radioville",
        "suburb": "Hato Abajo",
        "city_district": "Hato Abajo",
        "city": "Arecibo",
        "state": "Puerto Rico",
        "postcode": "00613",
        "country": "United States",
        "country_code": "us"
      },
      "address": "Avenida Escritor René Marqués García (Avenida Miramar), Arecibo, Puerto Rico, Puerto Rico"
    },
    {
      "lat": 18.469603053527784,
      "lon": -66.76273830189157,
      "geoinfo": {
        "display_name": "Calle Elena, Campo Real, Hato Abajo, Arecibo, Puerto Rico, 00613, United States",
        "road": "Calle Elena",
        "house_number": null,
        "neighbourhood": null,
        "suburb": null,
        "city_district": "Hato Abajo",
        "city": "Arecibo",
        "state": "Puerto Rico",
        "postcode": "00613",
        "country": "United States",
        "country_code": "us"
      },
      "address": "324, Calle Elena, Campo Real, Hato Abajo, Arecibo, Puerto Rico, 00613, United States"
    },
    {
      "lat": 18.50640071938958,
      "lon": -66.72520635409944,
      "geoinfo": {
        "display_name": "Arecibo, Puerto Rico, 00614, United States",
        "road": null,
        "house_number": null,
        "neighbourhood": null,
        "suburb": null,
        "city_district": null,
        "city": "Arecibo",
        "state": "Puerto Rico",
        "postcode": "00614",
        "country": "United States",
        "country_code": "us"
      },
      "address": "129, Arecibo, Puerto Rico, 00614, United States"
    },
    {
      "lat": 18.49558302855677,
      "lon": -66.7074629583358,
      "geoinfo": {
        "display_name": "Cambalache, Arecibo, Puerto Rico, 00612, United States",
        "road": null,
        "house_number": null,
        "neighbourhood": null,
        "suburb": "Cambalache",
        "city_district": "Cambalache",
        "city": "Arecibo",
        "state": "Puerto Rico",
        "postcode": "00612",
        "country": "United States",
        "country_code": "us"
      },
      "address": "479, Cambalache, Arecibo, Puerto Rico, 00612, United States"
    },
    {
      "lat": 18.459744858697917,
      "lon": -66.71571189524448,
      "geoinfo": {
        "display_name": "Carretera Félix Ramón \"Moncho\" Estévez Datis, Parcelas Luis Rodríguez Olmo, Tanamá, Arecibo, Puerto Rico, 00612, United States",
        "road": "Carretera Félix Ramón \"Moncho\" Estévez Datis",
        "house_number": null,
        "neighbourhood": "Parcelas Luis Rodríguez Olmo",
        "suburb": null,
        "city_district": "Tanamá",
        "city": "Arecibo",
        "state": "Puerto Rico",
        "postcode": "00612",
        "country": "United States",
        "country_code": "us"
      },
      "address": "520, Carretera Félix Ramón \"Moncho\" Estévez Datis, Parcelas Luis Rodríguez Olmo, Tanamá, Arecibo, Puerto Rico, 00612, United States"
    },
    {
      "lat": 18.485572175317213,
      "lon": -66.70974437190306,
      "geoinfo": {
        "display_name": "El Vigía, Islote, Arecibo, Puerto Rico, 00614, United States",
        "road": null,
        "house_number": null,
        "neighbourhood": "El Vigía",
        "suburb": null,
        "city_district": "Islote",
        "city": "Arecibo",
        "state": "Puerto Rico",
        "postcode": "00614",
        "country": "United States",
        "country_code": "us"
      },
      "address": "630, El Vigía, Islote, Arecibo, Puerto Rico, 00614, United States"
    }
  ],
  "updated_at": "2025-10-19T06:34:54.154981+00:00",
  "_kind": "geo_samples"
}