{
  "country_code": "PR",
  "country": "Puerto Rico",
  "city": "Caguas",
  "geonameid": 4563008,
  "target_addresses": 5,
  "samples": [
    {
      "lat": 18.26764841210578,
      "lon": -66.02389149128746,
      "geoinfo": {
        "display_name": "Alto de San Luis, Sector Monte Altos de San Luis, Bairoa, Caguas, Puerto Rico, 00725, United States",
        "road": "Alto de San Luis",
        "house_number": null,
        "neighbourhood": "Sector Monte Altos de San Luis",
        "suburb": "Bairoa",
        "city_district": "Bairoa",
        "city": "Caguas",
        "state": "Puerto Rico",
        "postcode": "00725",
        "country": "United States",
        "country_code": "us"
      },
      "address": "Alto de San Luis, Caguas, Puerto Rico, Puerto Rico"
    },
    {
      "lat": 18.231654787650996,
      "lon": -66.01405727044981,
      "geoinfo": {
        "display_name": "J-15, Calle Dalia, Urbanización Caribe Gardens, Tomás de Castro, Caguas, Puerto Rico, 00726, United States",
        "road": "Calle Dalia",
        "house_number": "J-15",
        "neighbourhood": null,
        "suburb": null,
        "city_district": "Tomás de Castro",
        "city": "Caguas",
        "state": "Puerto Rico",
        "postcode": "00726",
        "country": "United States",
        "country_code": "us"
      },
      "address": "J-15 Calle Dalia, Caguas, Puerto Rico, Puerto Rico"
    },
    {
      "lat": 18.24144407678042,
      "lon": -66.07241227204779,
      "geoinfo": {
        "display_name": "SU-20, Avenida San José, Hacienda San José, Sector Cuatro Cuerdas Abajo, Cañabón, Caguas, Puerto Rico, 00727, United States",
        "road": "Avenida San José",
        "house_number": "SU-20",
        "neighbourhood": "Hacienda San José",
        "suburb": null,
        "city_district": "Cañabón",
        "city": "Caguas",
        "state": "Puerto Rico",
        "postcode": "00727",
        "country": "United States",
        "country_code": "us"
      },
      "address": "SU-20 Avenida San José, Caguas, Puerto Rico, Puerto Rico"
    },
    {
      "lat": 18.228920019393897,
      "lon": -66.09104692200901,
      "geoinfo": {
        "display_name": "PR-785, Sector Emiliano González, Sector Hormigas, Cañaboncito, Caguas, Puerto Rico, 00727, United States",
        "road": "PR-785",
        "house_number": null,
        "neighbourhood": "Sector Emiliano González",
        "suburb": null,
        "city_district": "Cañaboncito",
        "city": "Caguas",
        "state": "Puerto Rico",
        "postcode": "00727",
        "country": "United States",
        "country_code": "us"
      },
      "address": "PR-785, Caguas, Puerto Rico, Puerto Rico"
    },
    {
      "lat": 18.239954075432987,
      "lon": -66.0213977368532,
      "geoinfo": {
        "display_name": "J-11, Calle 9, Urbanización Condado Moderno, Barrio Pueblo, Caguas, Puerto Rico, 00726, United States",
        "road": "Calle 9",
        "house_number": "J-11",
        "neighbourhood": null,
        "suburb": null,
        "city_district": "Barrio Pueblo",
        "city": "Caguas",
        "state": "Puerto Rico",
        "postcode": "00726",
        "country": "United States",
        "country_code": "us"
      },
      "address": "J-11 Calle 9, Caguas, Puerto Rico, Puerto Rico"
    },
    {
      "lat": 18.261797358456135,
      "lon": -66.03812194478998,
      "geoinfo": {
        "display_name": "Carretera Central, Bairoa, Caguas, Puerto Rico, 00725, United States",
        "road": "Carretera Central",
        "house_number": null,
        "neighbourhood": null,
        "suburb": "Bairoa",
        "city_district": "Bairoa",
        "city": "Caguas",
        "state": "Puerto Rico",
        "postcode": "00725",
        "country": "United States",
        "country_code": "us"
      },
      "address": "567, Carretera Central, Bairoa, Caguas, Puerto Rico, 00725, United States"
    },
    {
      "lat": 18.247892845885076,
      "lon": -66.03093047533163,
      "geoinfo": {
        "display_name": "V-23, Calle Crisolita, Urbanización Villa Blanca, Barrio Pueblo, Caguas, Puerto Rico, 00725, United States",
        "road": "Calle Crisolita",
        "house_number": "V-23",
        "neighbourhood": "Urbanización Villa Blanca",
        "suburb": null,
        "city_district": "Barrio Pueblo",
        "city": "Caguas",
        "state": "Puerto Rico",
        "postcode": "00725",
        "country": "United States",
        "country_code": "us"
      },
      "address": "V-23, Calle Crisolita, Urbanización Villa Blanca, Barrio Pueblo, Caguas, Puerto Rico, 00725, United States"
    },
    {
      "lat": 18.25634867849687,
      "lon": -66.07160977059473,
      "geoinfo": {
        "display_name": "Calle A, Urbanización Las Carolinas, Bairoa, Caguas, Puerto Rico, 00725, United States",
        "road": "Calle A",
        "house_number": null,
        "neighbourhood": "Urbanización Las Carolinas",
        "suburb": null,
        "city_district": "Bairoa",
        "city": "Caguas",
        "state": "Puerto Rico",
        "postcode": "00725",
        "country": "United States",
        "country_code": "us"
      },
      "address": "014, Calle A, Urbanización Las Carolinas, Bairoa, Caguas, Puerto Rico, 00725, United States"
    },
    {
      "lat": 18.273384767805837,
      "lon": -66.03896771766532,
      "geoinfo": {
        "display_name": "Bairoa, Caguas, Puerto Rico, 00725, United States",
        "road": null,
        "house_number": null,
        "neighbourhood": null,
        "suburb": "Bairoa",
        "city_district": "Bairoa",
        "city": "Caguas",
        "state": "Puerto Rico",
        "postcode": "00725",
        "country": "United States",
        "country_code": "us"
      },
      "address": "932, Bairoa, Caguas, Puerto Rico, 00725, United States"
    },
    {
      "lat": 18.21504625779427,
      "lon": -66.0247290580859,
      "geoinfo": {
        "display_name": "1052, PR-788, Urbanización Las Haciendas, Sector Villa Confianza, Sector La Loma, Tomás de Castro, Caguas, Puerto Rico, 00725, United States",
        "road": "PR-788",
        "house_number": "1052",
        "neighbourhood": "Sector Villa Confianza",
        "suburb": null,
        "city_district": "Tomás de Castro",
        "city": "Caguas",
        "state": "Puerto Rico",
        "postcode": "00725",
        "country": "United States",
        "country_code": "us"
      },
      "address": "1052, PR-788, Urbanización Las Haciendas, Sector Villa Confianza, Sector La Loma, Tomás de Castro, Caguas, Puerto Rico, 00725, United States"
    }
  ],
  "updated_at": "2025-10-19T06:13:01.140962+00:00",
  "_kind": "geo_samples"
}