{
  "country_code": "PR",
  "country": "Puerto Rico",
  "city": "Mayagüez",
  "geonameid": 4566385,
  "target_addresses": 5,
  "samples": [
    {
      "lat": 18.175815525803678,
      "lon": -67.15300760647709,
      "geoinfo": {
        "display_name": "Calle Carolina, Sector Cielito, Sábalos, Mayagüez, Puerto Rico, 00709, United States",
        "road": "Calle Carolina",
        "house_number": null,
        "neighbourhood": "Sector Cielito",
        "suburb": "Sábalos",
        "city_district": "Sábalos",
        "city": "Mayagüez",
        "state": "Puerto Rico",
        "postcode": "00709",
        "country": "United States",
        "country_code": "us"
      },
      "address": "Calle Carolina, Mayagüez, Puerto Rico, Puerto Rico"
    },
    {
      "lat": 18.185231872607755,
      "lon": -67.12246172997047,
      "geoinfo": {
        "display_name": "Quebrada Grande, Mayagüez, Puerto Rico, 00681, United States",
        "road": null,
        "house_number": null,
        "neighbourhood": null,
        "suburb": "Quebrada Grande",
        "city_district": "Quebrada Grande",
        "city": "Mayagüez",
        "state": "Puerto Rico",
        "postcode": "00681",
        "country": "United States",
        "country_code": "us"
      },
      "address": "Quebrada Grande, Mayagüez, Puerto Rico, Puerto Rico"
    },
    {
      "lat": 18.20895101844288,
      "lon": -67.16475554953038,
      "geoinfo": {
        "display_name": "El Seco, Barrio Pueblo, Mayagüez, Puerto Rico, 00709, United States",
        "road": null,
        "house_number": null,
        "neighbourhood": "El Seco",
        "suburb": null,
        "city_district": "Barrio Pueblo",
        "city": "Mayagüez",
        "state": "Puerto Rico",
        "postcode": "00709",
        "country": "United States",
        "country_code": "us"
      },
      "address": "El Seco, Mayagüez, Puerto Rico, Puerto Rico"
    },
    {
      "lat": 18.238469421736163,
      "lon": -67.14897946884724,
      "geoinfo": {
        "display_name": "Miradero, Mayagüez, Puerto Rico, 00680, United States",
        "road": null,
        "house_number": null,
        "neighbourhood": null,
        "suburb": null,
        "city_district": "Miradero",
        "city": "Mayagüez",
        "state": "Puerto Rico",
        "postcode": "00680",
        "country": "United States",
        "country_code": "us"
      },
      "address": "Miradero, Mayagüez, Puerto Rico, Puerto Rico"
    },
    {
      "lat": 18.224225440884247,
      "lon": -67.10481546751203,
      "geoinfo": {
        "display_name": "Calle Carmen \"Mela\" Ortiz, Río Cañas Abajo, Mayagüez, Puerto Rico, 00681, United States",
        "road": "Calle Carmen \"Mela\" Ortiz",
        "house_number": null,
        "neighbourhood": null,
        "suburb": "Río Cañas Abajo",
        "city_district": "Río Cañas Abajo",
        "city": "Mayagüez",
        "state": "Puerto Rico",
        "postcode": "00681",
        "country": "United States",
        "country_code": "us"
      },
      "address": "Calle Carmen \"Mela\" Ortiz, Mayagüez, Puerto Rico, Puerto Rico"
    },
    {
      "lat": 18.219354887340614,
      "lon": -67.16483040394964,
      "geoinfo": {
        "display_name": "Avenida Alcalde Benjamín Cole Vázquez / Desvío Oeste de Mayagüez, Villas Centroamericanas, Algarrobos, Mayagüez, Puerto Rico, 00680, United States",
        "road": "Avenida Alcalde Benjamín Cole Vázquez / Desvío Oeste de Mayagüez",
        "house_number": null,
        "neighbourhood": "Villas Centroamericanas",
        "suburb": "Algarrobos",
        "city_district": "Algarrobos",
        "city": "Mayagüez",
        "state": "Puerto Rico",
        "postcode": "00680",
        "country": "United States",
        "country_code": "us"
      },
      "address": "553, Avenida Alcalde Benjamín Cole Vázquez / Desvío Oeste de Mayagüez, Villas Centroamericanas, Algarrobos, Mayagüez, Puerto Rico, 00680, United States"
    },
    {
      "lat": 18.203007949570203,
      "lon": -67.12684321389821,
      "geoinfo": {
        "display_name": "Calle Ernesto Ramos Antonini / Calle 11 de Agosto, La Quinta, Mayagüez Arriba, Mayagüez, Puerto Rico, 00681, United States",
        "road": "Calle Ernesto Ramos Antonini / Calle 11 de Agosto",
        "house_number": null,
        "neighbourhood": "La Quinta",
        "suburb": "Mayagüez Arriba",
        "city_district": "Mayagüez Arriba",
        "city": "Mayagüez",
        "state": "Puerto Rico",
        "postcode": "00681",
        "country": "United States",
        "country_code": "us"
      },
      "address": "Calle Ernesto Ramos Antonini / Calle 11 de Agosto, La Quinta, Mayagüez Arriba, Mayagüez, Puerto Rico, 00681, United States"
    },
    {
      "lat": 18.165181502652253,
      "lon": -67.13126015972941,
      "geoinfo": {
        "display_name": "Calle Senderos del Valle, Río Hondo, Mayagüez, Puerto Rico, 00660, United States",
        "road": "Calle Senderos del Valle",
        "house_number": null,
        "neighbourhood": null,
        "suburb": "Río Hondo",
        "city_district": "Río Hondo",
        "city": "Mayagüez",
        "state": "Puerto Rico",
        "postcode": "00660",
        "country": "United States",
        "country_code": "us"
      },
      "address": "498, Calle Senderos del Valle, Río Hondo, Mayagüez, Puerto Rico, 00660, United States"
    },
    {
      "lat": 18.170694587341693,
      "lon": -67.15202799463195,
      "geoinfo": {
        "display_name": "Calle Rochelaise, Guanajibo, Mayagüez, Puerto Rico, 00709, United States",
        "road": "Calle Rochelaise",
        "house_number": null,
        "neighbourhood": null,
        "suburb": "Guanajibo",
        "city_district": "Guanajibo",
        "city": "Mayagüez",
        "state": "Puerto Rico",
        "postcode": "00709",
        "country": "United States",
        "country_code": "us"
      },
      "address": "559, Calle Rochelaise, Guanajibo, Mayagüez, Puerto Rico, 00709, United States"
    },
    {
      "lat": 18.204881342701498,
      "lon": -67.15253489761767,
      "geoinfo": {
        "display_name": "Calle Benigno Contreras, Dulces Labios, Barrio Pueblo, Mayagüez, Puerto Rico, 00709, United States",
        "road": "Calle Benigno Contreras",
        "house_number": null,
        "neighbourhood": "Dulces Labios",
        "suburb": null,
        "city_district": "Barrio Pueblo",
        "city": "Mayagüez",
        "state": "Puerto Rico",
        "postcode": "00709",
        "country": "United States",
        "country_code": "us"
      },
      "address": "800, Calle Benigno Contreras, Dulces Labios, Barrio Pueblo, Mayagüez, Puerto Rico, 00709, United States"
    }
  ],
  "updated_at": "2025-10-19T06:35:28.953484+00:00",
  "_kind": "geo_samples"
}