{
  "country_code": "PR",
  "country": "Puerto Rico",
  "city": "San Juan",
  "geonameid": 4568127,
  "target_addresses": 5,
  "samples": [
    {
      "lat": 18.492373344591332,
      "lon": -66.07349604060134,
      "geoinfo": {
        "display_name": "Cataño, Puerto Rico, 00963, United States",
        "road": null,
        "house_number": null,
        "neighbourhood": null,
        "suburb": null,
        "city_district": null,
        "city": "Cataño",
        "state": "Puerto Rico",
        "postcode": "00963",
        "country": "United States",
        "country_code": "us"
      },
      "address": "San Juan, Puerto Rico, Puerto Rico"
    },
    {
      "lat": 18.442572836957037,
      "lon": -66.09766131660257,
      "geoinfo": {
        "display_name": "Isla Grande, Santurce, San Juan, Puerto Rico, 00906, United States",
        "road": null,
        "house_number": null,
        "neighbourhood": "Isla Grande",
        "suburb": null,
        "city_district": "Santurce",
        "city": "San Juan",
        "state": "Puerto Rico",
        "postcode": "00906",
        "country": "United States",
        "country_code": "us"
      },
      "address": "Isla Grande, San Juan, Puerto Rico, Puerto Rico"
    },
    {
      "lat": 18.464008840364883,
      "lon": -66.08980817179344,
      "geoinfo": {
        "display_name": "Ciclovía Av. de la Constitución, Puerta de Tierra, Viejo San Juan, San Juan, Puerto Rico, 00906, United States",
        "road": "Ciclovía Av. de la Constitución",
        "house_number": null,
        "neighbourhood": "Puerta de Tierra",
        "suburb": null,
        "city_district": null,
        "city": "San Juan",
        "state": "Puerto Rico",
        "postcode": "00906",
        "country": "United States",
        "country_code": "us"
      },
      "address": "Ciclovía Av. de la Constitución, San Juan, Puerto Rico, Puerto Rico"
    },
    {
      "lat": 18.475584930200522,
      "lon": -66.06017344729992,
      "geoinfo": {
        "display_name": "Santurce, San Juan, Puerto Rico, 00909, United States",
        "road": null,
        "house_number": null,
        "neighbourhood": null,
        "suburb": "Santurce",
        "city_district": "Santurce",
        "city": "San Juan",
        "state": "Puerto Rico",
        "postcode": "00909",
        "country": "United States",
        "country_code": "us"
      },
      "address": "Santurce, San Juan, Puerto Rico, Puerto Rico"
    },
    {
      "lat": 18.44869449441846,
      "lon": -66.1044688780332,
      "geoinfo": {
        "display_name": "Calle Mabó, Isla Grande, Santurce, San Juan, Puerto Rico, 00906, United States",
        "road": "Calle Mabó",
        "house_number": null,
        "neighbourhood": "Isla Grande",
        "suburb": null,
        "city_district": "Santurce",
        "city": "San Juan",
        "state": "Puerto Rico",
        "postcode": "00906",
        "country": "United States",
        "country_code": "us"
      },
      "address": "Calle Mabó, San Juan, Puerto Rico, Puerto Rico"
    },
    {
      "lat": 18.45266103804015,
      "lon": -66.07620091240722,
      "geoinfo": {
        "display_name": "125, Calle Colomer, Alto del Cabro, Santurce, San Juan, Puerto Rico, 00907, United States",
        "road": "Calle Colomer",
        "house_number": "125",
        "neighbourhood": "Alto del Cabro",
        "suburb": "Santurce",
        "city_district": "Santurce",
        "city": "San Juan",
        "state": "Puerto Rico",
        "postcode": "00907",
        "country": "United States",
        "country_code": "us"
      },
      "address": "125, Calle Colomer, Alto del Cabro, Santurce, San Juan, Puerto Rico, 00907, United States"
    },
    {
      "lat": 18.474457081814993,
      "lon": -66.13605254689689,
      "geoinfo": {
        "display_name": "Calle Manuel Enríquez, Palo Seco, Toa Baja, Puerto Rico, 00962, United States",
        "road": "Calle Manuel Enríquez",
        "house_number": null,
        "neighbourhood": null,
        "suburb": "Palo Seco",
        "city_district": "Palo Seco",
        "city": "Toa Baja",
        "state": "Puerto Rico",
        "postcode": "00962",
        "country": "United States",
        "country_code": "us"
      },
      "address": "508, Calle Manuel Enríquez, Palo Seco, Toa Baja, Puerto Rico, 00962, United States"
    },
    {
      "lat": 18.456977363239787,
      "lon": -66.14674932368465,
      "geoinfo": {
        "display_name": "Palmas, Cataño, Puerto Rico, 00962, United States",
        "road": null,
        "house_number": null,
        "neighbourhood": null,
        "suburb": null,
        "city_district": "Palmas",
        "city": "Cataño",
        "state": "Puerto Rico",
        "postcode": "00962",
        "country": "United States",
        "country_code": "us"
      },
      "address": "000, Palmas, Cataño, Puerto Rico, 00962, United States"
    },
    {
      "lat": 18.457988258380954,
      "lon": -66.07771900610126,
      "geoinfo": {
        "display_name": "Condado Astor, 1018, Dr. Ashford Avenue, Condado, Santurce, San Juan, Puerto Rico, 00907, United States",
        "road": "Dr. Ashford Avenue",
        "house_number": "1018",
        "neighbourhood": "Condado",
        "suburb": "Santurce",
        "city_district": "Santurce",
        "city": "San Juan",
        "state": "Puerto Rico",
        "postcode": "00907",
        "country": "United States",
        "country_code": "us"
      },
      "address": "Condado Astor, 1018, Dr. Ashford Avenue, Condado, Santurce, San Juan, Puerto Rico, 00907, United States"
    },
    {
      "lat": 18.46133779447396,
      "lon": -66.12324140520819,
      "geoinfo": {
        "display_name": "San Juan Seaplane Base, Calle Acacia, La Perla, Viejo San Juan, San Juan, Puerto Rico, 00901, United States",
        "road": "Calle Acacia",
        "house_number": null,
        "neighbourhood": "La Perla",
        "suburb": null,
        "city_district": null,
        "city": "San Juan",
        "state": "Puerto Rico",
        "postcode": "00901",
        "country": "United States",
        "country_code": "us"
      },
      "address": "425, Calle Acacia, San Juan, 00901 Puerto Rico, Puerto Rico"
    }
  ],
  "updated_at": "2025-10-19T09:14:08.285090+00:00",
  "_kind": "geo_samples"
}