{
  "country_code": "PR",
  "country": "Puerto Rico",
  "city": "Yauco",
  "geonameid": 4568917,
  "target_addresses": 5,
  "samples": [
    {
      "lat": 18.025143015289693,
      "lon": -66.88366262153778,
      "geoinfo": {
        "display_name": "Sector Géminis, Susúa Baja, Yauco, Puerto Rico, 00768, United States",
        "road": null,
        "house_number": null,
        "neighbourhood": null,
        "suburb": null,
        "city_district": "Susúa Baja",
        "city": null,
        "state": "Puerto Rico",
        "postcode": "00768",
        "country": "United States",
        "country_code": "us"
      },
      "address": "Susúa Baja, Yauco, Puerto Rico, Puerto Rico"
    },
    {
      "lat": 18.01310692673662,
      "lon": -66.83063976980782,
      "geoinfo": {
        "display_name": "Sector Chila, Barina, Yauco, Puerto Rico, 09656, United States",
        "road": null,
        "house_number": null,
        "neighbourhood": null,
        "suburb": null,
        "city_district": "Barina",
        "city": "Yauco",
        "state": "Puerto Rico",
        "postcode": "09656",
        "country": "United States",
        "country_code": "us"
      },
      "address": "Barina, Yauco, Puerto Rico, Puerto Rico"
    },
    {
      "lat": 18.032675964542566,
      "lon": -66.86253855963898,
      "geoinfo": {
        "display_name": "Sartoritus, Calle Cumbre, Susúa Baja, Yauco, Puerto Rico, 00768, United States",
        "road": "Calle Cumbre",
        "house_number": null,
        "neighbourhood": null,
        "suburb": "Susúa Baja",
        "city_district": "Susúa Baja",
        "city": "Yauco",
        "state": "Puerto Rico",
        "postcode": "00768",
        "country": "United States",
        "country_code": "us"
      },
      "address": "Calle Cumbre, Yauco, Puerto Rico, Puerto Rico"
    },
    {
      "lat": 18.063945879730884,
      "lon": -66.8613348658658,
      "geoinfo": {
        "display_name": "Ruta de la Boa Puertorriqueña, Sector Los García, Caimito, Yauco, Puerto Rico, 00698, United States",
        "road": "Ruta de la Boa Puertorriqueña",
        "house_number": null,
        "neighbourhood": null,
        "suburb": null,
        "city_district": "Caimito",
        "city": null,
        "state": "Puerto Rico",
        "postcode": "00698",
        "country": "United States",
        "country_code": "us"
      },
      "address": "Ruta de la Boa Puertorriqueña, Yauco, Puerto Rico, Puerto Rico"
    },
    {
      "lat": 18.042999546111776,
      "lon": -66.84248700378508,
      "geoinfo": {
        "display_name": "Carretera Israel \"Kelly\" Caraballo Hernández, Vistas del Rodadero, Diego Hernández, Yauco, Puerto Rico, 00698, United States",
        "road": "Carretera Israel \"Kelly\" Caraballo Hernández",
        "house_number": null,
        "neighbourhood": null,
        "suburb": null,
        "city_district": "Diego Hernández",
        "city": "Yauco",
        "state": "Puerto Rico",
        "postcode": "00698",
        "country": "United States",
        "country_code": "us"
      },
      "address": "Carretera Israel \"Kelly\" Caraballo Hernández, Yauco, Puerto Rico, Puerto Rico"
    },
    {
      "lat": 18.06850189656863,
      "lon": -66.82767903048956,
      "geoinfo": {
        "display_name": "Carretera Israel \"Kelly\" Caraballo Hernández, Sector Cuesta Grande, Quebradas, Yauco, Puerto Rico, 00698, United States",
        "road": "Carretera Israel \"Kelly\" Caraballo Hernández",
        "house_number": null,
        "neighbourhood": null,
        "suburb": null,
        "city_district": "Quebradas",
        "city": "Yauco",
        "state": "Puerto Rico",
        "postcode": "00698",
        "country": "United States",
        "country_code": "us"
      },
      "address": "789, Carretera Israel \"Kelly\" Caraballo Hernández, Sector Cuesta Grande, Quebradas, Yauco, Puerto Rico, 00698, United States"
    },
    {
      "lat": 18.06829579707648,
      "lon": -66.85098410866081,
      "geoinfo": {
        "display_name": "PR-372, Caimito, Diego Hernández, Yauco, Puerto Rico, 00698, United States",
        "road": "PR-372",
        "house_number": null,
        "neighbourhood": null,
        "suburb": "Caimito",
        "city_district": "Diego Hernández",
        "city": "Yauco",
        "state": "Puerto Rico",
        "postcode": "00698",
        "country": "United States",
        "country_code": "us"
      },
      "address": "PR-372, Caimito, Diego Hernández, Yauco, Puerto Rico, 00698, United States"
    },
    {
      "lat": 18.010429001781745,
      "lon": -66.84311628694965,
      "geoinfo": {
        "display_name": "PR-335, Sector Chila, Barina, Yauco, Puerto Rico, 00768, United States",
        "road": "PR-335",
        "house_number": null,
        "neighbourhood": null,
        "suburb": null,
        "city_district": "Barina",
        "city": "Yauco",
        "state": "Puerto Rico",
        "postcode": "00768",
        "country": "United States",
        "country_code": "us"
      },
      "address": "PR-335, Sector Chila, Barina, Yauco, Puerto Rico, 00768, United States"
    },
    {
      "lat": 18.035806470993858,
      "lon": -66.89505363702922,
      "geoinfo": {
        "display_name": "Escuela Río Cañas, Carretera Fidel Vélez Vélez, Susúa Alta, Yauco, Puerto Rico, 00768, United States",
        "road": "Carretera Fidel Vélez Vélez",
        "house_number": null,
        "neighbourhood": null,
        "suburb": null,
        "city_district": "Susúa Alta",
        "city": null,
        "state": "Puerto Rico",
        "postcode": "00768",
        "country": "United States",
        "country_code": "us"
      },
      "address": "920, Carretera Fidel Vélez Vélez, Yauco, 00768 Puerto Rico, Puerto Rico"
    },
    {
      "lat": 18.017401028008617,
      "lon": -66.87270076269134,
      "geoinfo": {
        "display_name": "Carretera Agustín Quinto López Oliveras, Sector Géminis, Susúa Baja, Yauco, Puerto Rico, 00768, United States",
        "road": "Carretera Agustín Quinto López Oliveras",
        "house_number": null,
        "neighbourhood": null,
        "suburb": null,
        "city_district": "Susúa Baja",
        "city": "Yauco",
        "state": "Puerto Rico",
        "postcode": "00768",
        "country": "United States",
        "country_code": "us"
      },
      "address": "232, Carretera Agustín Quinto López Oliveras, Sector Géminis, Susúa Baja, Yauco, Puerto Rico, 00768, United States"
    }
  ],
  "updated_at": "2025-10-19T09:14:42.137295+00:00",
  "_kind": "geo_samples"
}