{
  "country_code": "AM",
  "country": "Armenia",
  "city": "Ajapnyak",
  "geonameid": 866164,
  "target_addresses": 4,
  "samples": [
    {
      "lat": 40.16952173283943,
      "lon": 44.45819924961356,
      "geoinfo": {
        "display_name": "143/3, Sebastia Street, Malatia-Sebastia, Yerevan, 0032, Armenia",
        "road": "Sebastia Street",
        "house_number": "143/3",
        "neighbourhood": null,
        "suburb": "Malatia-Sebastia",
        "city_district": null,
        "city": "Yerevan",
        "state": null,
        "postcode": "0032",
        "country": "Armenia",
        "country_code": "am"
      },
      "address": "143/3 Sebastia Street, Ajapnyak, Armenia"
    },
    {
      "lat": 40.198517244421204,
      "lon": 44.48034123211225,
      "geoinfo": {
        "display_name": "Halabyan Street, Ajapnyak, Yerevan, 0038, Armenia",
        "road": "Halabyan Street",
        "house_number": null,
        "neighbourhood": null,
        "suburb": "Ajapnyak",
        "city_district": null,
        "city": "Yerevan",
        "state": null,
        "postcode": "0038",
        "country": "Armenia",
        "country_code": "am"
      },
      "address": "094, Halabyan Street, Ajapnyak, Yerevan, 0038, Armenia"
    },
    {
      "lat": 40.16292094451736,
      "lon": 44.49871734393683,
      "geoinfo": {
        "display_name": "100, Amerikyan street, Noragyugh, Kentron, Yerevan, 0023, Armenia",
        "road": "Amerikyan street",
        "house_number": "100",
        "neighbourhood": "Noragyugh",
        "suburb": "Kentron",
        "city_district": null,
        "city": "Yerevan",
        "state": null,
        "postcode": "0023",
        "country": "Armenia",
        "country_code": "am"
      },
      "address": "100, Amerikyan street, Noragyugh, Kentron, Yerevan, 0023, Armenia"
    },
    {
      "lat": 40.16100204213589,
      "lon": 44.47221234239106,
      "geoinfo": {
        "display_name": "Admiral Isakov Avenue, Shengavit, Yerevan, 0050, Armenia",
        "road": "Admiral Isakov Avenue",
        "house_number": null,
        "neighbourhood": null,
        "suburb": "Shengavit",
        "city_district": null,
        "city": "Yerevan",
        "state": null,
        "postcode": "0050",
        "country": "Armenia",
        "country_code": "am"
      },
      "address": "150, Admiral Isakov Avenue, Shengavit, Yerevan, 0050, Armenia"
    },
    {
      "lat": 40.219970449884904,
      "lon": 44.482179523518774,
      "geoinfo": {
        "display_name": "4/4, Davidashen 10th street, Davtashen, Yerevan, 0058, Armenia",
        "road": "Davidashen 10th street",
        "house_number": "4/4",
        "neighbourhood": null,
        "suburb": "Davtashen",
        "city_district": null,
        "city": "Yerevan",
        "state": null,
        "postcode": "0058",
        "country": "Armenia",
        "country_code": "am"
      },
      "address": "4/4, Davidashen 10th street, Davtashen, Yerevan, 0058, Armenia"
    }
  ],
  "updated_at": "2025-10-19T00:53:19.440795+00:00",
  "_kind": "geo_samples"
}