{
  "country_code": "AM",
  "country": "Armenia",
  "city": "Arabkir",
  "geonameid": 13156582,
  "target_addresses": 4,
  "samples": [
    {
      "lat": 40.21606192375155,
      "lon": 44.544306680716645,
      "geoinfo": {
        "display_name": "Qanaker 17th street, Qanaqer-Zeytun, Yerevan, 0052, Armenia",
        "road": "Qanaker 17th street",
        "house_number": null,
        "neighbourhood": null,
        "suburb": "Qanaqer-Zeytun",
        "city_district": null,
        "city": "Yerevan",
        "state": null,
        "postcode": "0052",
        "country": "Armenia",
        "country_code": "am"
      },
      "address": "Qanaker 17th street, Qanaqer-Zeytun, Yerevan, 0052, Armenia"
    },
    {
      "lat": 40.23546910630317,
      "lon": 44.47935318558763,
      "geoinfo": {
        "display_name": "Zovuni, Nairi community, Kotayk Province, 0054, Armenia",
        "road": null,
        "house_number": null,
        "neighbourhood": null,
        "suburb": null,
        "city_district": null,
        "city": "Zovuni",
        "state": "Kotayk Province",
        "postcode": "0054",
        "country": "Armenia",
        "country_code": "am"
      },
      "address": "787, Arabkir, 0054 Kotayk Province, Armenia"
    },
    {
      "lat": 40.20428363095419,
      "lon": 44.49579149546754,
      "geoinfo": {
        "display_name": "11, Aram Khachatryan street, Arabkir, Yerevan, 0012, Armenia",
        "road": "Aram Khachatryan street",
        "house_number": "11",
        "neighbourhood": null,
        "suburb": "Arabkir",
        "city_district": null,
        "city": "Yerevan",
        "state": null,
        "postcode": "0012",
        "country": "Armenia",
        "country_code": "am"
      },
      "address": "11, Aram Khachatryan street, Arabkir, Yerevan, 0012, Armenia"
    },
    {
      "lat": 40.181965684390704,
      "lon": 44.54326026887069,
      "geoinfo": {
        "display_name": "Ohan Duryan street, Norq Marash, Yerevan, 0047, Armenia",
        "road": "Ohan Duryan street",
        "house_number": null,
        "neighbourhood": null,
        "suburb": "Norq Marash",
        "city_district": null,
        "city": "Yerevan",
        "state": null,
        "postcode": "0047",
        "country": "Armenia",
        "country_code": "am"
      },
      "address": "920, Ohan Duryan street, Norq Marash, Yerevan, 0047, Armenia"
    }
  ],
  "updated_at": "2025-10-19T02:46:12.148343+00:00",
  "_kind": "geo_samples"
}