{
  "country_code": "AM",
  "country": "Armenia",
  "city": "Avan",
  "geonameid": 616864,
  "target_addresses": 4,
  "samples": [
    {
      "lat": 40.23202789256187,
      "lon": 44.62432039494757,
      "geoinfo": {
        "display_name": "Abovyan community, Kotayk Province, Armenia",
        "road": null,
        "house_number": null,
        "neighbourhood": null,
        "suburb": null,
        "city_district": null,
        "city": null,
        "state": "Kotayk Province",
        "postcode": null,
        "country": "Armenia",
        "country_code": "am"
      },
      "address": "Avan, Kotayk Province, Armenia"
    },
    {
      "lat": 40.20475883579517,
      "lon": 44.58918303264292,
      "geoinfo": {
        "display_name": "Bagrevand, Jrvej, Jrvezh community, Kotayk Province, 0044, Armenia",
        "road": null,
        "house_number": null,
        "neighbourhood": "Bagrevand",
        "suburb": null,
        "city_district": null,
        "city": null,
        "state": "Kotayk Province",
        "postcode": "0044",
        "country": "Armenia",
        "country_code": "am"
      },
      "address": "Bagrevand, Avan, Kotayk Province, Armenia"
    },
    {
      "lat": 40.23746322695329,
      "lon": 44.594683995184326,
      "geoinfo": {
        "display_name": "G district, Arinj, Abovyan community, Kotayk Province, 2213, Armenia",
        "road": null,
        "house_number": null,
        "neighbourhood": "G district",
        "suburb": null,
        "city_district": null,
        "city": "Arinj",
        "state": "Kotayk Province",
        "postcode": "2213",
        "country": "Armenia",
        "country_code": "am"
      },
      "address": "G district, Avan, Kotayk Province, Armenia"
    },
    {
      "lat": 40.17800336915946,
      "lon": 44.548277578470355,
      "geoinfo": {
        "display_name": "Nor Norq, Yerevan, 0047, Armenia",
        "road": null,
        "house_number": null,
        "neighbourhood": null,
        "suburb": "Nor Norq",
        "city_district": null,
        "city": "Yerevan",
        "state": null,
        "postcode": "0047",
        "country": "Armenia",
        "country_code": "am"
      },
      "address": "610, Nor Norq, Yerevan, 0047, Armenia"
    },
    {
      "lat": 40.23289175279548,
      "lon": 44.542394023652825,
      "geoinfo": {
        "display_name": "52, Shrdjancik Tunnel Street, Koreayi Dzor District, Arabkir, Yerevan, 0091, Armenia",
        "road": "Shrdjancik Tunnel Street",
        "house_number": "52",
        "neighbourhood": "Koreayi Dzor District",
        "suburb": "Arabkir",
        "city_district": null,
        "city": "Yerevan",
        "state": null,
        "postcode": "0091",
        "country": "Armenia",
        "country_code": "am"
      },
      "address": "52, Shrdjancik Tunnel Street, Koreayi Dzor District, Arabkir, Yerevan, 0091, Armenia"
    },
    {
      "lat": 40.169946394490225,
      "lon": 44.58685060099849,
      "geoinfo": {
        "display_name": "Artashat-Sevan highway, Erebuni, Yerevan, Jrvej, Jrvezh community, Kotayk Province, 0049, Armenia",
        "road": "Artashat-Sevan highway",
        "house_number": null,
        "neighbourhood": null,
        "suburb": "Erebuni",
        "city_district": null,
        "city": "Yerevan",
        "state": "Kotayk Province",
        "postcode": "0049",
        "country": "Armenia",
        "country_code": "am"
      },
      "address": "366, Artashat-Sevan highway, Erebuni, Yerevan, Jrvej, Jrvezh community, Kotayk Province, 0049, Armenia"
    },
    {
      "lat": 40.18590223612835,
      "lon": 44.558220952116,
      "geoinfo": {
        "display_name": "12/1, Shopron street, Nor Nork Block 6, Nor Norq, Yerevan, 0090, Armenia",
        "road": "Shopron street",
        "house_number": "12/1",
        "neighbourhood": "Nor Nork Block 6",
        "suburb": "Nor Norq",
        "city_district": null,
        "city": "Yerevan",
        "state": null,
        "postcode": "0090",
        "country": "Armenia",
        "country_code": "am"
      },
      "address": "12/1, Shopron street, Nor Nork Block 6, Nor Norq, Yerevan, 0090, Armenia"
    }
  ],
  "updated_at": "2025-10-19T00:53:06.363155+00:00",
  "_kind": "geo_samples"
}