{
  "country_code": "AM",
  "country": "Armenia",
  "city": "Davtashen",
  "geonameid": 616758,
  "target_addresses": 4,
  "samples": [
    {
      "lat": 40.25816045141612,
      "lon": 44.48372555942626,
      "geoinfo": {
        "display_name": "Zovuni, Nairi community, Kotayk Province, 2406, Armenia",
        "road": null,
        "house_number": null,
        "neighbourhood": null,
        "suburb": null,
        "city_district": null,
        "city": "Zovuni",
        "state": "Kotayk Province",
        "postcode": "2406",
        "country": "Armenia",
        "country_code": "am"
      },
      "address": "Davtashen, Kotayk Province, Armenia"
    },
    {
      "lat": 40.19362170672315,
      "lon": 44.51397555589034,
      "geoinfo": {
        "display_name": "120/1, Verin Antarayin street, Kentron, Yerevan, 0009, Armenia",
        "road": "Verin Antarayin street",
        "house_number": "120/1",
        "neighbourhood": null,
        "suburb": "Kentron",
        "city_district": null,
        "city": "Yerevan",
        "state": null,
        "postcode": "0009",
        "country": "Armenia",
        "country_code": "am"
      },
      "address": "120/1, Verin Antarayin street, Kentron, Yerevan, 0009, Armenia"
    },
    {
      "lat": 40.2064828746314,
      "lon": 44.49104900463829,
      "geoinfo": {
        "display_name": "Hrazdan Riverbank Road, Ajapnyak, Yerevan, 0036, Armenia",
        "road": "Hrazdan Riverbank Road",
        "house_number": null,
        "neighbourhood": null,
        "suburb": "Ajapnyak",
        "city_district": null,
        "city": "Yerevan",
        "state": null,
        "postcode": "0036",
        "country": "Armenia",
        "country_code": "am"
      },
      "address": "184, Hrazdan Riverbank Road, Ajapnyak, Yerevan, 0036, Armenia"
    },
    {
      "lat": 40.18742503511315,
      "lon": 44.508153163866695,
      "geoinfo": {
        "display_name": "19, Derenik Demirchyan street, Kentron, Yerevan, 0002, Armenia",
        "road": "Derenik Demirchyan street",
        "house_number": "19",
        "neighbourhood": null,
        "suburb": "Kentron",
        "city_district": null,
        "city": "Yerevan",
        "state": null,
        "postcode": "0002",
        "country": "Armenia",
        "country_code": "am"
      },
      "address": "19, Derenik Demirchyan street, Kentron, Yerevan, 0002, Armenia"
    },
    {
      "lat": 40.18089155561331,
      "lon": 44.46714241450994,
      "geoinfo": {
        "display_name": "114, Mush District, Yerevan, 0065, Armenia",
        "road": "Mush District",
        "house_number": "114",
        "neighbourhood": null,
        "suburb": "Mush District",
        "city_district": null,
        "city": "Yerevan",
        "state": null,
        "postcode": "0065",
        "country": "Armenia",
        "country_code": "am"
      },
      "address": "114, Mush District, Yerevan, 0065, Armenia"
    }
  ],
  "updated_at": "2025-10-19T02:28:18.117288+00:00",
  "_kind": "geo_samples"
}