{
  "country_code": "AM",
  "country": "Armenia",
  "city": "Ijevan",
  "geonameid": 616627,
  "target_addresses": 4,
  "samples": [
    {
      "lat": 40.87643282959272,
      "lon": 45.166972419941516,
      "geoinfo": {
        "display_name": "Ijevan, Ijevan community, Tavush Province, 4001, Armenia",
        "road": null,
        "house_number": null,
        "neighbourhood": null,
        "suburb": null,
        "city_district": null,
        "city": "Ijevan",
        "state": "Tavush Province",
        "postcode": "4001",
        "country": "Armenia",
        "country_code": "am"
      },
      "address": "Ijevan, Tavush Province, Armenia"
    },
    {
      "lat": 40.86468042611745,
      "lon": 45.13455014452891,
      "geoinfo": {
        "display_name": "Ijevan Dendropark, Spandaryan street, Ijevan, Ijevan community, Tavush Province, 4001, Armenia",
        "road": "Spandaryan street",
        "house_number": null,
        "neighbourhood": null,
        "suburb": null,
        "city_district": null,
        "city": "Ijevan",
        "state": "Tavush Province",
        "postcode": "4001",
        "country": "Armenia",
        "country_code": "am"
      },
      "address": "Spandaryan street, Ijevan, Tavush Province, Armenia"
    },
    {
      "lat": 40.91815704224947,
      "lon": 45.1280315635232,
      "geoinfo": {
        "display_name": "Highway H-26, Ijevan community, Tavush Province, 4001, Armenia",
        "road": "Highway H-26",
        "house_number": null,
        "neighbourhood": null,
        "suburb": null,
        "city_district": null,
        "city": null,
        "state": "Tavush Province",
        "postcode": "4001",
        "country": "Armenia",
        "country_code": "am"
      },
      "address": "Highway H-26, Ijevan, Tavush Province, Armenia"
    },
    {
      "lat": 40.86799243157637,
      "lon": 45.17599795628983,
      "geoinfo": {
        "display_name": "Ijevan-Berd Highway, Ijevan community, Tavush Province, Armenia",
        "road": "Ijevan-Berd Highway",
        "house_number": null,
        "neighbourhood": null,
        "suburb": null,
        "city_district": null,
        "city": null,
        "state": "Tavush Province",
        "postcode": null,
        "country": "Armenia",
        "country_code": "am"
      },
      "address": "Ijevan-Berd Highway, Ijevan, Tavush Province, Armenia"
    },
    {
      "lat": 40.85959686176608,
      "lon": 45.130552360785984,
      "geoinfo": {
        "display_name": "Dilijan-Ijevan Highway, Ijevan, Ijevan community, Tavush Province, 4001, Armenia",
        "road": "Dilijan-Ijevan Highway",
        "house_number": null,
        "neighbourhood": null,
        "suburb": null,
        "city_district": null,
        "city": "Ijevan",
        "state": "Tavush Province",
        "postcode": "4001",
        "country": "Armenia",
        "country_code": "am"
      },
      "address": "300, Dilijan-Ijevan Highway, Ijevan, Ijevan community, Tavush Province, 4001, Armenia"
    },
    {
      "lat": 40.858637995764504,
      "lon": 45.14006143866873,
      "geoinfo": {
        "display_name": "Ijevan community, Tavush Province, Armenia",
        "road": null,
        "house_number": null,
        "neighbourhood": null,
        "suburb": null,
        "city_district": null,
        "city": null,
        "state": "Tavush Province",
        "postcode": null,
        "country": "Armenia",
        "country_code": "am"
      },
      "address": "445, Ijevan community, 46470 Tavush Province, Armenia"
    },
    {
      "lat": 40.91934444251606,
      "lon": 45.16737341597473,
      "geoinfo": {
        "display_name": "Ijevan community, Tavush Province, Armenia",
        "road": null,
        "house_number": null,
        "neighbourhood": null,
        "suburb": null,
        "city_district": null,
        "city": null,
        "state": "Tavush Province",
        "postcode": null,
        "country": "Armenia",
        "country_code": "am"
      },
      "address": "366, Ijevan community, 24708 Tavush Province, Armenia"
    },
    {
      "lat": 40.84438897645543,
      "lon": 45.1792182779984,
      "geoinfo": {
        "display_name": "Tesilk cave, Highway T-10-22, Gandzaqar, Ijevan community, Tavush Province, 4001, Armenia",
        "road": "Highway T-10-22",
        "house_number": null,
        "neighbourhood": null,
        "suburb": null,
        "city_district": null,
        "city": "Gandzaqar",
        "state": "Tavush Province",
        "postcode": "4001",
        "country": "Armenia",
        "country_code": "am"
      },
      "address": "Tesilk cave, Highway T-10-22, Gandzaqar, Ijevan community, Tavush Province, 4001, Armenia"
    }
  ],
  "updated_at": "2025-10-19T02:26:12.050802+00:00",
  "_kind": "geo_samples"
}