{
  "country_code": "AM",
  "country": "Armenia",
  "city": "Sevan",
  "geonameid": 616250,
  "target_addresses": 27,
  "samples": [
    {
      "lat": 40.58265301946502,
      "lon": 44.982744182257925,
      "geoinfo": {
        "display_name": "Yerevan-Dilijan Highway, Sevan community, Gegharkunik Province, 1514, Armenia",
        "road": "Yerevan-Dilijan Highway",
        "house_number": null,
        "neighbourhood": null,
        "suburb": null,
        "city_district": null,
        "city": null,
        "state": "Gegharkunik Province",
        "postcode": "1514",
        "country": "Armenia",
        "country_code": "am"
      },
      "address": "Yerevan-Dilijan Highway, Sevan, Gegharkunik Province, Armenia"
    },
    {
      "lat": 40.57520923475881,
      "lon": 44.914525683870885,
      "geoinfo": {
        "display_name": "Sevan community, Gegharkunik Province, Armenia",
        "road": null,
        "house_number": null,
        "neighbourhood": null,
        "suburb": null,
        "city_district": null,
        "city": null,
        "state": "Gegharkunik Province",
        "postcode": null,
        "country": "Armenia",
        "country_code": "am"
      },
      "address": "Sevan, Gegharkunik Province, Armenia"
    },
    {
      "lat": 40.53635231402402,
      "lon": 44.93998099712374,
      "geoinfo": {
        "display_name": "\"Likhnitis\" Sevan's brewery, 3, Yerevan-Dilijan Highway, Sevan, Sevan town, Sevan community, Gegharkunik Province, 1502, Armenia",
        "road": "Yerevan-Dilijan Highway",
        "house_number": "3",
        "neighbourhood": null,
        "suburb": null,
        "city_district": null,
        "city": "Sevan",
        "state": "Gegharkunik Province",
        "postcode": "1502",
        "country": "Armenia",
        "country_code": "am"
      },
      "address": "3 Yerevan-Dilijan Highway, Sevan, Gegharkunik Province, Armenia"
    },
    {
      "lat": 40.52477146844815,
      "lon": 44.94706544501552,
      "geoinfo": {
        "display_name": "Sevan-Martuni Highway, Sevan community, Gegharkunik Province, 1502, Armenia",
        "road": "Sevan-Martuni Highway",
        "house_number": null,
        "neighbourhood": null,
        "suburb": null,
        "city_district": null,
        "city": null,
        "state": "Gegharkunik Province",
        "postcode": "1502",
        "country": "Armenia",
        "country_code": "am"
      },
      "address": "Sevan-Martuni Highway, Sevan, Gegharkunik Province, Armenia"
    },
    {
      "lat": 40.54200483839493,
      "lon": 44.89904955041855,
      "geoinfo": {
        "display_name": "Yerevan-Dilijan Highway, Sevan community, Gegharkunik Province, 1506, Armenia",
        "road": "Yerevan-Dilijan Highway",
        "house_number": null,
        "neighbourhood": null,
        "suburb": null,
        "city_district": null,
        "city": null,
        "state": "Gegharkunik Province",
        "postcode": "1506",
        "country": "Armenia",
        "country_code": "am"
      },
      "address": "Yerevan-Dilijan Highway, Sevan, 26497 Gegharkunik Province, Armenia"
    },
    {
      "lat": 40.53337897674689,
      "lon": 44.912600903441735,
      "geoinfo": {
        "display_name": "Yerevan-Dilijan Highway, Sevan community, Gegharkunik Province, 1502, Armenia",
        "road": "Yerevan-Dilijan Highway",
        "house_number": null,
        "neighbourhood": null,
        "suburb": null,
        "city_district": null,
        "city": null,
        "state": "Gegharkunik Province",
        "postcode": "1502",
        "country": "Armenia",
        "country_code": "am"
      },
      "address": "Yerevan-Dilijan Highway, Sevan, 71074 Gegharkunik Province, Armenia"
    },
    {
      "lat": 40.522583351445334,
      "lon": 44.960010905233865,
      "geoinfo": {
        "display_name": "Lavanda City, Sevan community, Gegharkunik Province, 1505, Armenia",
        "road": null,
        "house_number": null,
        "neighbourhood": null,
        "suburb": "Lavanda City",
        "city_district": null,
        "city": null,
        "state": "Gegharkunik Province",
        "postcode": "1505",
        "country": "Armenia",
        "country_code": "am"
      },
      "address": "Lavanda City, Sevan, 01954 Gegharkunik Province, Armenia"
    },
    {
      "lat": 40.561763245814674,
      "lon": 44.89690763544695,
      "geoinfo": {
        "display_name": "Geghamavan, Sevan community, Gegharkunik Province, 1506, Armenia",
        "road": null,
        "house_number": null,
        "neighbourhood": null,
        "suburb": null,
        "city_district": null,
        "city": "Geghamavan",
        "state": "Gegharkunik Province",
        "postcode": "1506",
        "country": "Armenia",
        "country_code": "am"
      },
      "address": "Sevan, 53927 Gegharkunik Province, Armenia"
    },
    {
      "lat": 40.548005080832326,
      "lon": 44.96514382496495,
      "geoinfo": {
        "display_name": "Gortsaranain Street, Sevan, Sevan town, Sevan community, Gegharkunik Province, 1505, Armenia",
        "road": "Gortsaranain Street",
        "house_number": null,
        "neighbourhood": null,
        "suburb": null,
        "city_district": null,
        "city": "Sevan",
        "state": "Gegharkunik Province",
        "postcode": "1505",
        "country": "Armenia",
        "country_code": "am"
      },
      "address": "Gortsaranain Street, Sevan, Sevan town, Sevan community, Gegharkunik Province, 1505, Armenia"
    },
    {
      "lat": 40.57873065135107,
      "lon": 44.95484983445189,
      "geoinfo": {
        "display_name": "Sevan community, Gegharkunik Province, Armenia",
        "road": null,
        "house_number": null,
        "neighbourhood": null,
        "suburb": null,
        "city_district": null,
        "city": null,
        "state": "Gegharkunik Province",
        "postcode": null,
        "country": "Armenia",
        "country_code": "am"
      },
      "address": "Sevan community, 49606 Gegharkunik Province, Armenia"
    },
    {
      "lat": 40.55836439540488,
      "lon": 44.91706880776014,
      "geoinfo": {
        "display_name": "Old Sevan-Hrazdan Road, Sevan community, Gegharkunik Province, 1502, Armenia",
        "road": "Old Sevan-Hrazdan Road",
        "house_number": null,
        "neighbourhood": null,
        "suburb": null,
        "city_district": null,
        "city": null,
        "state": "Gegharkunik Province",
        "postcode": "1502",
        "country": "Armenia",
        "country_code": "am"
      },
      "address": "941, Old Sevan-Hrazdan Road, Sevan, 1502 Gegharkunik Province, Armenia"
    },
    {
      "lat": 40.54451449144015,
      "lon": 44.986413877317005,
      "geoinfo": {
        "display_name": "Lavanda City, Sevan community, Gegharkunik Province, 1505, Armenia",
        "road": null,
        "house_number": null,
        "neighbourhood": "Lavanda City",
        "suburb": "Lavanda City",
        "city_district": null,
        "city": null,
        "state": "Gegharkunik Province",
        "postcode": "1505",
        "country": "Armenia",
        "country_code": "am"
      },
      "address": "805, Lavanda City, Sevan, 1505 Gegharkunik Province, Armenia"
    },
    {
      "lat": 40.553672071427606,
      "lon": 44.98763459690875,
      "geoinfo": {
        "display_name": "Yerevan-Dilijan Highway, Tsamakaberd, Sevan community, Gegharkunik Province, 1514, Armenia",
        "road": "Yerevan-Dilijan Highway",
        "house_number": null,
        "neighbourhood": null,
        "suburb": null,
        "city_district": null,
        "city": "Tsamakaberd",
        "state": "Gegharkunik Province",
        "postcode": "1514",
        "country": "Armenia",
        "country_code": "am"
      },
      "address": "450, Yerevan-Dilijan Highway, Tsamakaberd, Sevan community, Gegharkunik Province, 1514, Armenia"
    },
    {
      "lat": 40.546483233865885,
      "lon": 45.00656468165617,
      "geoinfo": {
        "display_name": "Lavanda City, Sevan community, Gegharkunik Province, 1505, Armenia",
        "road": null,
        "house_number": null,
        "neighbourhood": null,
        "suburb": "Lavanda City",
        "city_district": null,
        "city": null,
        "state": "Gegharkunik Province",
        "postcode": "1505",
        "country": "Armenia",
        "country_code": "am"
      },
      "address": "400, Lavanda City, Sevan community, Gegharkunik Province, 1505, Armenia"
    },
    {
      "lat": 40.5578205141351,
      "lon": 44.99247405138293,
      "geoinfo": {
        "display_name": "Yerevan-Dilijan Highway, Tsamakaberd, Sevan community, Gegharkunik Province, 1514, Armenia",
        "road": "Yerevan-Dilijan Highway",
        "house_number": null,
        "neighbourhood": null,
        "suburb": null,
        "city_district": null,
        "city": "Tsamakaberd",
        "state": "Gegharkunik Province",
        "postcode": "1514",
        "country": "Armenia",
        "country_code": "am"
      },
      "address": "640, Yerevan-Dilijan Highway, Tsamakaberd, Sevan community, Gegharkunik Province, 1514, Armenia"
    },
    {
      "lat": 40.53929414455127,
      "lon": 45.00666948423748,
      "geoinfo": {
        "display_name": "Lavanda City, Sevan community, Gegharkunik Province, 1505, Armenia",
        "road": null,
        "house_number": null,
        "neighbourhood": null,
        "suburb": "Lavanda City",
        "city_district": null,
        "city": null,
        "state": "Gegharkunik Province",
        "postcode": "1505",
        "country": "Armenia",
        "country_code": "am"
      },
      "address": "267, Lavanda City, Sevan community, Gegharkunik Province, 1505, Armenia"
    },
    {
      "lat": 40.56765176827546,
      "lon": 44.98895942919323,
      "geoinfo": {
        "display_name": "Տ-4-86, Tsamakaberd, Sevan community, Gegharkunik Province, 1514, Armenia",
        "road": "Տ-4-86",
        "house_number": null,
        "neighbourhood": null,
        "suburb": null,
        "city_district": null,
        "city": "Tsamakaberd",
        "state": "Gegharkunik Province",
        "postcode": "1514",
        "country": "Armenia",
        "country_code": "am"
      },
      "address": "Տ-4-86, Tsamakaberd, Sevan community, Gegharkunik Province, 1514, Armenia"
    },
    {
      "lat": 40.558776485505156,
      "lon": 44.96511455242716,
      "geoinfo": {
        "display_name": "Gomadzor, Sevan community, Gegharkunik Province, 1514, Armenia",
        "road": null,
        "house_number": null,
        "neighbourhood": null,
        "suburb": null,
        "city_district": null,
        "city": "Gomadzor",
        "state": "Gegharkunik Province",
        "postcode": "1514",
        "country": "Armenia",
        "country_code": "am"
      },
      "address": "075, Gomadzor, Sevan community, Gegharkunik Province, 1514, Armenia"
    },
    {
      "lat": 40.57264788965736,
      "lon": 44.95897013334807,
      "geoinfo": {
        "display_name": "Lavanda City, Sevan community, Gegharkunik Province, 1505, Armenia",
        "road": null,
        "house_number": null,
        "neighbourhood": null,
        "suburb": "Lavanda City",
        "city_district": null,
        "city": null,
        "state": "Gegharkunik Province",
        "postcode": "1505",
        "country": "Armenia",
        "country_code": "am"
      },
      "address": "010, Lavanda City, Sevan community, Gegharkunik Province, 1505, Armenia"
    },
    {
      "lat": 40.55847802625533,
      "lon": 44.973628986524446,
      "geoinfo": {
        "display_name": "Tsamakaberd, Sevan community, Gegharkunik Province, 1514, Armenia",
        "road": null,
        "house_number": null,
        "neighbourhood": null,
        "suburb": null,
        "city_district": null,
        "city": "Tsamakaberd",
        "state": "Gegharkunik Province",
        "postcode": "1514",
        "country": "Armenia",
        "country_code": "am"
      },
      "address": "721, Tsamakaberd, Sevan community, Gegharkunik Province, 1514, Armenia"
    },
    {
      "lat": 40.52763898716567,
      "lon": 44.91026015934073,
      "geoinfo": {
        "display_name": "Sevan community, Gegharkunik Province, Armenia",
        "road": null,
        "house_number": null,
        "neighbourhood": null,
        "suburb": null,
        "city_district": null,
        "city": null,
        "state": "Gegharkunik Province",
        "postcode": null,
        "country": "Armenia",
        "country_code": "am"
      },
      "address": "938, Sevan community, 04974 Gegharkunik Province, Armenia"
    },
    {
      "lat": 40.54497508292731,
      "lon": 44.90968489790427,
      "geoinfo": {
        "display_name": "Տ-4-10, Varser, Sevan community, Gegharkunik Province, 1502, Armenia",
        "road": "Տ-4-10",
        "house_number": null,
        "neighbourhood": null,
        "suburb": null,
        "city_district": null,
        "city": "Varser",
        "state": "Gegharkunik Province",
        "postcode": "1502",
        "country": "Armenia",
        "country_code": "am"
      },
      "address": "Տ-4-10, Varser, Sevan community, Gegharkunik Province, 1502, Armenia"
    },
    {
      "lat": 40.57224307647237,
      "lon": 44.93444878974775,
      "geoinfo": {
        "display_name": "Sevan community, Gegharkunik Province, Armenia",
        "road": null,
        "house_number": null,
        "neighbourhood": null,
        "suburb": null,
        "city_district": null,
        "city": null,
        "state": "Gegharkunik Province",
        "postcode": null,
        "country": "Armenia",
        "country_code": "am"
      },
      "address": "994, Sevan community, 10326 Gegharkunik Province, Armenia"
    },
    {
      "lat": 40.54653877030957,
      "lon": 44.90288037645701,
      "geoinfo": {
        "display_name": "Տ-4-10, Varser, Sevan community, Gegharkunik Province, 1502, Armenia",
        "road": "Տ-4-10",
        "house_number": null,
        "neighbourhood": null,
        "suburb": null,
        "city_district": null,
        "city": "Varser",
        "state": "Gegharkunik Province",
        "postcode": "1502",
        "country": "Armenia",
        "country_code": "am"
      },
      "address": "Տ-4-10, Sevan, Gegharkunik Province, Armenia"
    },
    {
      "lat": 40.53428302406704,
      "lon": 44.928967838906814,
      "geoinfo": {
        "display_name": "Yerevan-Dilijan Highway, Sevan, Sevan town, Sevan community, Gegharkunik Province, 1502, Armenia",
        "road": "Yerevan-Dilijan Highway",
        "house_number": null,
        "neighbourhood": null,
        "suburb": null,
        "city_district": null,
        "city": "Sevan",
        "state": "Gegharkunik Province",
        "postcode": "1502",
        "country": "Armenia",
        "country_code": "am"
      },
      "address": "411, Yerevan-Dilijan Highway, Sevan, Sevan town, Sevan community, Gegharkunik Province, 1502, Armenia"
    },
    {
      "lat": 40.51323088541927,
      "lon": 44.96481482804769,
      "geoinfo": {
        "display_name": "Sevan-Martuni Highway, Sevan community, Gegharkunik Province, 1503, Armenia",
        "road": "Sevan-Martuni Highway",
        "house_number": null,
        "neighbourhood": null,
        "suburb": null,
        "city_district": null,
        "city": null,
        "state": "Gegharkunik Province",
        "postcode": "1503",
        "country": "Armenia",
        "country_code": "am"
      },
      "address": "604, Sevan-Martuni Highway, Sevan community, Gegharkunik Province, 1503, Armenia"
    },
    {
      "lat": 40.54139764737316,
      "lon": 44.98626600547104,
      "geoinfo": {
        "display_name": "Lavanda City, Sevan community, Gegharkunik Province, 1505, Armenia",
        "road": null,
        "house_number": null,
        "neighbourhood": null,
        "suburb": "Lavanda City",
        "city_district": null,
        "city": null,
        "state": "Gegharkunik Province",
        "postcode": "1505",
        "country": "Armenia",
        "country_code": "am"
      },
      "address": "328, Lavanda City, Sevan community, Gegharkunik Province, 1505, Armenia"
    }
  ],
  "updated_at": "2025-10-19T03:09:04.356142+00:00",
  "_kind": "geo_samples"
}