{
  "country_code": "AM",
  "country": "Armenia",
  "city": "Shengavit",
  "geonameid": 11111027,
  "target_addresses": 4,
  "samples": [
    {
      "lat": 40.12916390842694,
      "lon": 44.51067051347572,
      "geoinfo": {
        "display_name": "61/4, Artsakh avenue, Erebuni, Yerevan, 0041, Armenia",
        "road": "Artsakh avenue",
        "house_number": "61/4",
        "neighbourhood": null,
        "suburb": "Erebuni",
        "city_district": null,
        "city": "Yerevan",
        "state": null,
        "postcode": "0041",
        "country": "Armenia",
        "country_code": "am"
      },
      "address": "61/4 Artsakh avenue, Shengavit, Armenia"
    },
    {
      "lat": 40.13384852970958,
      "lon": 44.441511700282916,
      "geoinfo": {
        "display_name": "Nerkin Charbakh 15th street, Nerkin Charbakh, Shengavit, Yerevan, 0003, Armenia",
        "road": "Nerkin Charbakh 15th street",
        "house_number": null,
        "neighbourhood": "Nerkin Charbakh",
        "suburb": "Shengavit",
        "city_district": null,
        "city": "Yerevan",
        "state": null,
        "postcode": "0003",
        "country": "Armenia",
        "country_code": "am"
      },
      "address": "Nerkin Charbakh 15th street, Shengavit, Armenia"
    },
    {
      "lat": 40.14521064239703,
      "lon": 44.46637793258925,
      "geoinfo": {
        "display_name": "Shirak street 2nd lane, Charbakh, Shengavit, Yerevan, 0043, Armenia",
        "road": "Shirak street 2nd lane",
        "house_number": null,
        "neighbourhood": "Charbakh",
        "suburb": "Shengavit",
        "city_district": null,
        "city": "Yerevan",
        "state": null,
        "postcode": "0043",
        "country": "Armenia",
        "country_code": "am"
      },
      "address": "Shirak street 2nd lane, Shengavit, Armenia"
    },
    {
      "lat": 40.12551921580877,
      "lon": 44.444556727760485,
      "geoinfo": {
        "display_name": "8, Nerkin Charbakh 9th street, Nerkin Charbakh, Shengavit, Yerevan, 0003, Armenia",
        "road": "Nerkin Charbakh 9th street",
        "house_number": "8",
        "neighbourhood": "Nerkin Charbakh",
        "suburb": "Shengavit",
        "city_district": null,
        "city": "Yerevan",
        "state": null,
        "postcode": "0003",
        "country": "Armenia",
        "country_code": "am"
      },
      "address": "8 Nerkin Charbakh 9th street, Shengavit, Armenia"
    },
    {
      "lat": 40.15454114887889,
      "lon": 44.48415642207229,
      "geoinfo": {
        "display_name": "44, Mantashyan street, 3th residential area, Shengavit, Yerevan, 0050, Armenia",
        "road": "Mantashyan street",
        "house_number": "44",
        "neighbourhood": "3th residential area",
        "suburb": "Shengavit",
        "city_district": null,
        "city": "Yerevan",
        "state": null,
        "postcode": "0050",
        "country": "Armenia",
        "country_code": "am"
      },
      "address": "44, Mantashyan street, 3th residential area, Shengavit, Yerevan, 0050, Armenia"
    },
    {
      "lat": 40.19292768456936,
      "lon": 44.4457709394639,
      "geoinfo": {
        "display_name": "North - South highway, Ajapnyak, Yerevan, 0084, Armenia",
        "road": "North - South highway",
        "house_number": null,
        "neighbourhood": null,
        "suburb": "Ajapnyak",
        "city_district": null,
        "city": "Yerevan",
        "state": null,
        "postcode": "0084",
        "country": "Armenia",
        "country_code": "am"
      },
      "address": "268, North - South highway, Ajapnyak, Yerevan, 0084, Armenia"
    },
    {
      "lat": 40.126258450697755,
      "lon": 44.45477549166481,
      "geoinfo": {
        "display_name": "1/5, Nerkin Charbakh 1st street, Nerkin Charbakh, Shengavit, Yerevan, 0003, Armenia",
        "road": "Nerkin Charbakh 1st street",
        "house_number": "1/5",
        "neighbourhood": "Nerkin Charbakh",
        "suburb": "Shengavit",
        "city_district": null,
        "city": "Yerevan",
        "state": null,
        "postcode": "0003",
        "country": "Armenia",
        "country_code": "am"
      },
      "address": "1/5, Nerkin Charbakh 1st street, Nerkin Charbakh, Shengavit, Yerevan, 0003, Armenia"
    },
    {
      "lat": 40.1532314938168,
      "lon": 44.460863007689476,
      "geoinfo": {
        "display_name": "Timiryazev street, Verin Charbakh, Charbakh, Shengavit, Yerevan, 0086, Armenia",
        "road": "Timiryazev street",
        "house_number": null,
        "neighbourhood": "Verin Charbakh",
        "suburb": "Shengavit",
        "city_district": null,
        "city": "Yerevan",
        "state": null,
        "postcode": "0086",
        "country": "Armenia",
        "country_code": "am"
      },
      "address": "591, Timiryazev street, Verin Charbakh, Charbakh, Shengavit, Yerevan, 0086, Armenia"
    }
  ],
  "updated_at": "2025-10-19T02:26:54.827483+00:00",
  "_kind": "geo_samples"
}