{
  "country_code": "AM",
  "country": "Armenia",
  "city": "Vagharshapat",
  "geonameid": 616062,
  "target_addresses": 4,
  "samples": [
    {
      "lat": 40.17257371282371,
      "lon": 44.29734335340751,
      "geoinfo": {
        "display_name": "4d, Lomonosov street, Lisavan, Vagharshapat, Vagharshapat community, Armavir Province, 1101, Armenia",
        "road": "Lomonosov street",
        "house_number": "4d",
        "neighbourhood": null,
        "suburb": null,
        "city_district": null,
        "city": "Vagharshapat",
        "state": "Armavir Province",
        "postcode": "1101",
        "country": "Armenia",
        "country_code": "am"
      },
      "address": "4d, Lomonosov street, Lisavan, Vagharshapat, Vagharshapat community, Armavir Province, 1101, Armenia"
    },
    {
      "lat": 40.17014566186209,
      "lon": 44.34749930576302,
      "geoinfo": {
        "display_name": "Highway T-3-37, Norakert, Parakar municipality, Armavir Province, 1104, Armenia",
        "road": "Highway T-3-37",
        "house_number": null,
        "neighbourhood": null,
        "suburb": null,
        "city_district": null,
        "city": "Norakert",
        "state": "Armavir Province",
        "postcode": "1104",
        "country": "Armenia",
        "country_code": "am"
      },
      "address": "Highway T-3-37, Norakert, Parakar municipality, Armavir Province, 1104, Armenia"
    },
    {
      "lat": 40.12882066599157,
      "lon": 44.30557853849287,
      "geoinfo": {
        "display_name": "T-3-27, Chobankara, Vagharshapat, Vagharshapat community, Armavir Province, 0219, Armenia",
        "road": "T-3-27",
        "house_number": null,
        "neighbourhood": "Chobankara",
        "suburb": null,
        "city_district": null,
        "city": "Vagharshapat",
        "state": "Armavir Province",
        "postcode": "0219",
        "country": "Armenia",
        "country_code": "am"
      },
      "address": "T-3-27, Chobankara, Vagharshapat, Vagharshapat community, Armavir Province, 0219, Armenia"
    },
    {
      "lat": 40.175717602542235,
      "lon": 44.2899984231915,
      "geoinfo": {
        "display_name": "Yerevan-Armavir highway, Lisavan, Vagharshapat, Vagharshapat community, Armavir Province, 1108, Armenia",
        "road": "Yerevan-Armavir highway",
        "house_number": null,
        "neighbourhood": null,
        "suburb": null,
        "city_district": null,
        "city": "Vagharshapat",
        "state": "Armavir Province",
        "postcode": "1108",
        "country": "Armenia",
        "country_code": "am"
      },
      "address": "896, Yerevan-Armavir highway, Lisavan, Vagharshapat, Vagharshapat community, Armavir Province, 1108, Armenia"
    }
  ],
  "updated_at": "2025-10-19T02:45:37.735996+00:00",
  "_kind": "geo_samples"
}