{
  "country_code": "IS",
  "country": "Iceland",
  "city": "Reykjanesbær",
  "geonameid": 8644037,
  "target_addresses": 17,
  "samples": [
    {
      "lat": 63.99804433528072,
      "lon": -22.489401472072416,
      "geoinfo": {
        "display_name": "Innri-Njarðvík, Njarðvík, Reykjanesbær, Southern Peninsula, 260, Iceland",
        "road": null,
        "house_number": null,
        "neighbourhood": null,
        "suburb": "Innri-Njarðvík",
        "city_district": null,
        "city": "Njarðvík",
        "state": null,
        "postcode": "260",
        "country": "Iceland",
        "country_code": "is"
      },
      "address": "Innri-Njarðvík, Reykjanesbær, Iceland"
    },
    {
      "lat": 64.02611322076721,
      "lon": -22.561631591402957,
      "geoinfo": {
        "display_name": "Helguvíkurvegur, Keflavík, Reykjanesbær, Southern Peninsula, 230, Iceland",
        "road": "Helguvíkurvegur",
        "house_number": null,
        "neighbourhood": null,
        "suburb": null,
        "city_district": null,
        "city": "Keflavík",
        "state": null,
        "postcode": "230",
        "country": "Iceland",
        "country_code": "is"
      },
      "address": "Helguvíkurvegur, Reykjanesbær, Iceland"
    },
    {
      "lat": 63.96841087788676,
      "lon": -22.585110961396516,
      "geoinfo": {
        "display_name": "Spring Lane, Ásbrú, Njarðvík, Reykjanesbær, Southern Peninsula, 262, Iceland",
        "road": "Spring Lane",
        "house_number": null,
        "neighbourhood": null,
        "suburb": "Ásbrú",
        "city_district": null,
        "city": "Njarðvík",
        "state": null,
        "postcode": "262",
        "country": "Iceland",
        "country_code": "is"
      },
      "address": "Spring Lane, Reykjanesbær, Iceland"
    },
    {
      "lat": 64.0197573344816,
      "lon": -22.601976081911086,
      "geoinfo": {
        "display_name": "Miðnesheiðarvegur, Reykjanesbær, Suðurnesjabær, Southern Peninsula, 235, Iceland",
        "road": "Miðnesheiðarvegur",
        "house_number": null,
        "neighbourhood": null,
        "suburb": null,
        "city_district": null,
        "city": "Reykjanesbær",
        "state": null,
        "postcode": "235",
        "country": "Iceland",
        "country_code": "is"
      },
      "address": "Miðnesheiðarvegur, Reykjanesbær, Iceland"
    },
    {
      "lat": 64.0263234496081,
      "lon": -22.536494966532413,
      "geoinfo": {
        "display_name": "Keflavík, Reykjanesbær, Southern Peninsula, 230, Iceland",
        "road": null,
        "house_number": null,
        "neighbourhood": null,
        "suburb": null,
        "city_district": null,
        "city": "Keflavík",
        "state": null,
        "postcode": "230",
        "country": "Iceland",
        "country_code": "is"
      },
      "address": "Reykjanesbær, Iceland"
    },
    {
      "lat": 63.97487039835843,
      "lon": -22.53538879475207,
      "geoinfo": {
        "display_name": "Njarðarbraut, Innri-Njarðvík, Njarðvík, Reykjanesbær, Southern Peninsula, 260, Iceland",
        "road": "Njarðarbraut",
        "house_number": null,
        "neighbourhood": null,
        "suburb": "Innri-Njarðvík",
        "city_district": null,
        "city": "Njarðvík",
        "state": null,
        "postcode": "260",
        "country": "Iceland",
        "country_code": "is"
      },
      "address": "Njarðarbraut, Reykjanesbær, Iceland"
    },
    {
      "lat": 63.98458483683532,
      "lon": -22.579361419073656,
      "geoinfo": {
        "display_name": "Pétursvöllur, Ytri-Njarðvík, Keflavík, Reykjanesbær, Southern Peninsula, 262, Iceland",
        "road": "Pétursvöllur",
        "house_number": null,
        "neighbourhood": null,
        "suburb": "Ytri-Njarðvík",
        "city_district": null,
        "city": "Keflavík",
        "state": null,
        "postcode": "262",
        "country": "Iceland",
        "country_code": "is"
      },
      "address": "Pétursvöllur, Reykjanesbær, Iceland"
    },
    {
      "lat": 64.00533791948948,
      "lon": -22.522576930318046,
      "geoinfo": {
        "display_name": "Ytri-Njarðvík, Keflavík, Reykjanesbær, Southern Peninsula, 230, Iceland",
        "road": null,
        "house_number": null,
        "neighbourhood": null,
        "suburb": "Ytri-Njarðvík",
        "city_district": null,
        "city": "Keflavík",
        "state": null,
        "postcode": "230",
        "country": "Iceland",
        "country_code": "is"
      },
      "address": "Ytri-Njarðvík, Reykjanesbær, Iceland"
    },
    {
      "lat": 63.97853541481615,
      "lon": -22.514044398003982,
      "geoinfo": {
        "display_name": "43, Njarðvíkurbraut, Tjarnarhverfi, Innri-Njarðvík, Njarðvík, Reykjanesbær, Southern Peninsula, 260, Iceland",
        "road": "Njarðvíkurbraut",
        "house_number": "43",
        "neighbourhood": "Tjarnarhverfi",
        "suburb": "Innri-Njarðvík",
        "city_district": null,
        "city": "Njarðvík",
        "state": null,
        "postcode": "260",
        "country": "Iceland",
        "country_code": "is"
      },
      "address": "43 Njarðvíkurbraut, Reykjanesbær, Iceland"
    },
    {
      "lat": 63.958878537404,
      "lon": -22.580057572679568,
      "geoinfo": {
        "display_name": "Kliftröð, Tæknivellir, Ásbrú, Njarðvík, Reykjanesbær, Southern Peninsula, 262, Iceland",
        "road": "Kliftröð",
        "house_number": null,
        "neighbourhood": null,
        "suburb": "Ásbrú",
        "city_district": null,
        "city": "Njarðvík",
        "state": null,
        "postcode": "262",
        "country": "Iceland",
        "country_code": "is"
      },
      "address": "Kliftröð, Reykjanesbær, Iceland"
    },
    {
      "lat": 64.01730129469472,
      "lon": -22.58549771994798,
      "geoinfo": {
        "display_name": "Garðskagavegur, Keflavík, Reykjanesbær, Southern Peninsula, 230, Iceland",
        "road": "Garðskagavegur",
        "house_number": null,
        "neighbourhood": null,
        "suburb": null,
        "city_district": null,
        "city": "Keflavík",
        "state": null,
        "postcode": "230",
        "country": "Iceland",
        "country_code": "is"
      },
      "address": "Garðskagavegur, Reykjanesbær, Iceland"
    },
    {
      "lat": 63.9578591742559,
      "lon": -22.551503173616993,
      "geoinfo": {
        "display_name": "Ásbrú, Njarðvík, Reykjanesbær, Southern Peninsula, 262, Iceland",
        "road": null,
        "house_number": null,
        "neighbourhood": null,
        "suburb": "Ásbrú",
        "city_district": null,
        "city": "Njarðvík",
        "state": null,
        "postcode": "262",
        "country": "Iceland",
        "country_code": "is"
      },
      "address": "Ásbrú, Reykjanesbær, Iceland"
    },
    {
      "lat": 63.97527319393572,
      "lon": -22.580691211250688,
      "geoinfo": {
        "display_name": "741, Valhalla Road, Ásbrú, Keflavík, Reykjanesbær, Southern Peninsula, 262, Iceland",
        "road": "Valhalla Road",
        "house_number": "741",
        "neighbourhood": null,
        "suburb": "Ásbrú",
        "city_district": null,
        "city": "Keflavík",
        "state": null,
        "postcode": "262",
        "country": "Iceland",
        "country_code": "is"
      },
      "address": "741 Valhalla Road, Reykjanesbær, Iceland"
    },
    {
      "lat": 63.984731868683035,
      "lon": -22.607963557487487,
      "geoinfo": {
        "display_name": "Hólsvöllur, Reykjanesbær, Suðurnesjabær, Southern Peninsula, 262, Iceland",
        "road": "Hólsvöllur",
        "house_number": null,
        "neighbourhood": null,
        "suburb": null,
        "city_district": null,
        "city": "Reykjanesbær",
        "state": null,
        "postcode": "262",
        "country": "Iceland",
        "country_code": "is"
      },
      "address": "Hólsvöllur, Reykjanesbær, Iceland"
    },
    {
      "lat": 63.96455706603031,
      "lon": -22.525703965081274,
      "geoinfo": {
        "display_name": "Reykjanesbraut, Innri-Njarðvík, Njarðvík, Reykjanesbær, Southern Peninsula, 260, Iceland",
        "road": "Reykjanesbraut",
        "house_number": null,
        "neighbourhood": null,
        "suburb": "Innri-Njarðvík",
        "city_district": null,
        "city": "Njarðvík",
        "state": null,
        "postcode": "260",
        "country": "Iceland",
        "country_code": "is"
      },
      "address": "Reykjanesbraut, Reykjanesbær, Iceland"
    },
    {
      "lat": 63.98234381792311,
      "lon": -22.505366871391313,
      "geoinfo": {
        "display_name": "22, Guðnýjarbraut, Tjarnarhverfi, Innri-Njarðvík, Njarðvík, Reykjanesbær, Southern Peninsula, 260, Iceland",
        "road": "Guðnýjarbraut",
        "house_number": "22",
        "neighbourhood": "Tjarnarhverfi",
        "suburb": "Innri-Njarðvík",
        "city_district": null,
        "city": "Njarðvík",
        "state": null,
        "postcode": "260",
        "country": "Iceland",
        "country_code": "is"
      },
      "address": "22 Guðnýjarbraut, Reykjanesbær, Iceland"
    },
    {
      "lat": 63.97318014502593,
      "lon": -22.585268301546066,
      "geoinfo": {
        "display_name": "790, Airport Avenue, Ásbrú, Njarðvík, Reykjanesbær, Southern Peninsula, 262, Iceland",
        "road": "Airport Avenue",
        "house_number": "790",
        "neighbourhood": null,
        "suburb": "Ásbrú",
        "city_district": null,
        "city": "Njarðvík",
        "state": null,
        "postcode": "262",
        "country": "Iceland",
        "country_code": "is"
      },
      "address": "790 Airport Avenue, Reykjanesbær, Iceland"
    },
    {
      "lat": 63.958928031443065,
      "lon": -22.51816002006453,
      "geoinfo": {
        "display_name": "Innri-Njarðvík, Njarðvík, Reykjanesbær, Southern Peninsula, 260, Iceland",
        "road": null,
        "house_number": null,
        "neighbourhood": null,
        "suburb": "Innri-Njarðvík",
        "city_district": null,
        "city": "Njarðvík",
        "state": null,
        "postcode": "260",
        "country": "Iceland",
        "country_code": "is"
      },
      "address": "870, Innri-Njarðvík, Njarðvík, Reykjanesbær, Southern Peninsula, 260, Iceland"
    },
    {
      "lat": 63.99962407682592,
      "lon": -22.52027547667746,
      "geoinfo": {
        "display_name": "Innri-Njarðvík, Njarðvík, Reykjanesbær, Southern Peninsula, 260, Iceland",
        "road": null,
        "house_number": null,
        "neighbourhood": null,
        "suburb": "Innri-Njarðvík",
        "city_district": null,
        "city": "Njarðvík",
        "state": null,
        "postcode": "260",
        "country": "Iceland",
        "country_code": "is"
      },
      "address": "366, Innri-Njarðvík, Njarðvík, Reykjanesbær, Southern Peninsula, 260, Iceland"
    },
    {
      "lat": 63.999890833303525,
      "lon": -22.53264267232078,
      "geoinfo": {
        "display_name": "Ytri-Njarðvík, Keflavík, Reykjanesbær, Southern Peninsula, 230, Iceland",
        "road": null,
        "house_number": null,
        "neighbourhood": null,
        "suburb": "Ytri-Njarðvík",
        "city_district": null,
        "city": "Keflavík",
        "state": null,
        "postcode": "230",
        "country": "Iceland",
        "country_code": "is"
      },
      "address": "228, Ytri-Njarðvík, Keflavík, Reykjanesbær, Southern Peninsula, 230, Iceland"
    },
    {
      "lat": 64.00706506701364,
      "lon": -22.51433435149293,
      "geoinfo": {
        "display_name": "Innri-Njarðvík, Njarðvík, Reykjanesbær, Southern Peninsula, 260, Iceland",
        "road": null,
        "house_number": null,
        "neighbourhood": null,
        "suburb": "Innri-Njarðvík",
        "city_district": null,
        "city": "Njarðvík",
        "state": null,
        "postcode": "260",
        "country": "Iceland",
        "country_code": "is"
      },
      "address": "005, Innri-Njarðvík, Njarðvík, Reykjanesbær, Southern Peninsula, 260, Iceland"
    },
    {
      "lat": 63.97993921039383,
      "lon": -22.55585734072982,
      "geoinfo": {
        "display_name": "3A, Grænás, Ásahverfi, Ytri-Njarðvík, Njarðvík, Reykjanesbær, Southern Peninsula, 260, Iceland",
        "road": "Grænás",
        "house_number": "3A",
        "neighbourhood": "Ásahverfi",
        "suburb": "Ytri-Njarðvík",
        "city_district": null,
        "city": "Njarðvík",
        "state": null,
        "postcode": "260",
        "country": "Iceland",
        "country_code": "is"
      },
      "address": "3A, Grænás, Ásahverfi, Ytri-Njarðvík, Njarðvík, Reykjanesbær, Southern Peninsula, 260, Iceland"
    },
    {
      "lat": 63.96901371560928,
      "lon": -22.539267310952628,
      "geoinfo": {
        "display_name": "Fitjar, 7, Hafnavegur, Njarðvík, Reykjanesbær, Southern Peninsula, 260, Iceland",
        "road": "Hafnavegur",
        "house_number": "7",
        "neighbourhood": null,
        "suburb": null,
        "city_district": null,
        "city": "Njarðvík",
        "state": null,
        "postcode": "260",
        "country": "Iceland",
        "country_code": "is"
      },
      "address": "Fitjar, 7, Hafnavegur, Njarðvík, Reykjanesbær, Southern Peninsula, 260, Iceland"
    },
    {
      "lat": 63.966188633948974,
      "lon": -22.50642127593522,
      "geoinfo": {
        "display_name": "Reykjanesbraut, Innri-Njarðvík, Njarðvík, Reykjanesbær, Southern Peninsula, 260, Iceland",
        "road": "Reykjanesbraut",
        "house_number": null,
        "neighbourhood": null,
        "suburb": "Innri-Njarðvík",
        "city_district": null,
        "city": "Njarðvík",
        "state": null,
        "postcode": "260",
        "country": "Iceland",
        "country_code": "is"
      },
      "address": "775, Reykjanesbraut, Innri-Njarðvík, Njarðvík, Reykjanesbær, Southern Peninsula, 260, Iceland"
    },
    {
      "lat": 63.99498674640769,
      "lon": -22.521113653949957,
      "geoinfo": {
        "display_name": "Innri-Njarðvík, Njarðvík, Reykjanesbær, Southern Peninsula, 260, Iceland",
        "road": null,
        "house_number": null,
        "neighbourhood": null,
        "suburb": "Innri-Njarðvík",
        "city_district": null,
        "city": "Njarðvík",
        "state": null,
        "postcode": "260",
        "country": "Iceland",
        "country_code": "is"
      },
      "address": "390, Innri-Njarðvík, Njarðvík, Reykjanesbær, Southern Peninsula, 260, Iceland"
    },
    {
      "lat": 64.01624853435288,
      "lon": -22.57149885695906,
      "geoinfo": {
        "display_name": "4, Hvalvík, Keflavík, Reykjanesbær, Southern Peninsula, 230, Iceland",
        "road": "Hvalvík",
        "house_number": "4",
        "neighbourhood": null,
        "suburb": null,
        "city_district": null,
        "city": "Keflavík",
        "state": null,
        "postcode": "230",
        "country": "Iceland",
        "country_code": "is"
      },
      "address": "4, Hvalvík, Keflavík, Reykjanesbær, Southern Peninsula, 230, Iceland"
    },
    {
      "lat": 64.02471211903274,
      "lon": -22.51657131111425,
      "geoinfo": {
        "display_name": "Keflavík, Reykjanesbær, Southern Peninsula, 230, Iceland",
        "road": null,
        "house_number": null,
        "neighbourhood": null,
        "suburb": null,
        "city_district": null,
        "city": "Keflavík",
        "state": null,
        "postcode": "230",
        "country": "Iceland",
        "country_code": "is"
      },
      "address": "424, Keflavík, Reykjanesbær, Southern Peninsula, 230, Iceland"
    },
    {
      "lat": 63.99627000672834,
      "lon": -22.532609671182133,
      "geoinfo": {
        "display_name": "Ytri-Njarðvík, Keflavík, Reykjanesbær, Southern Peninsula, 230, Iceland",
        "road": null,
        "house_number": null,
        "neighbourhood": null,
        "suburb": "Ytri-Njarðvík",
        "city_district": null,
        "city": "Keflavík",
        "state": null,
        "postcode": "230",
        "country": "Iceland",
        "country_code": "is"
      },
      "address": "928, Ytri-Njarðvík, Keflavík, Reykjanesbær, Southern Peninsula, 230, Iceland"
    },
    {
      "lat": 64.00416215173588,
      "lon": -22.56048281596144,
      "geoinfo": {
        "display_name": "17, Kirkjuvegur, Keflavík, Reykjanesbær, Southern Peninsula, 230, Iceland",
        "road": "Kirkjuvegur",
        "house_number": "17",
        "neighbourhood": null,
        "suburb": null,
        "city_district": null,
        "city": "Keflavík",
        "state": null,
        "postcode": "230",
        "country": "Iceland",
        "country_code": "is"
      },
      "address": "17, Kirkjuvegur, Keflavík, Reykjanesbær, Southern Peninsula, 230, Iceland"
    },
    {
      "lat": 64.00366722586598,
      "lon": -22.593485307677152,
      "geoinfo": {
        "display_name": "Garðskagavegur, Reykjanesbær, Suðurnesjabær, Southern Peninsula, 235, Iceland",
        "road": "Garðskagavegur",
        "house_number": null,
        "neighbourhood": null,
        "suburb": null,
        "city_district": null,
        "city": "Reykjanesbær",
        "state": null,
        "postcode": "235",
        "country": "Iceland",
        "country_code": "is"
      },
      "address": "590, Garðskagavegur, Reykjanesbær, Suðurnesjabær, Southern Peninsula, 235, Iceland"
    },
    {
      "lat": 63.96520542239417,
      "lon": -22.522738267770517,
      "geoinfo": {
        "display_name": "Reykjanesbraut, Innri-Njarðvík, Njarðvík, Reykjanesbær, Southern Peninsula, 260, Iceland",
        "road": "Reykjanesbraut",
        "house_number": null,
        "neighbourhood": null,
        "suburb": "Innri-Njarðvík",
        "city_district": null,
        "city": "Njarðvík",
        "state": null,
        "postcode": "260",
        "country": "Iceland",
        "country_code": "is"
      },
      "address": "874, Reykjanesbraut, Innri-Njarðvík, Njarðvík, Reykjanesbær, Southern Peninsula, 260, Iceland"
    },
    {
      "lat": 64.03478811385061,
      "lon": -22.50495110184197,
      "geoinfo": {
        "display_name": "Keflavík, Reykjanesbær, Southern Peninsula, 230, Iceland",
        "road": null,
        "house_number": null,
        "neighbourhood": null,
        "suburb": null,
        "city_district": null,
        "city": "Keflavík",
        "state": null,
        "postcode": "230",
        "country": "Iceland",
        "country_code": "is"
      },
      "address": "519, Keflavík, Reykjanesbær, Southern Peninsula, 230, Iceland"
    },
    {
      "lat": 64.0313276697673,
      "lon": -22.55368631369158,
      "geoinfo": {
        "display_name": "Hólmsberg, Helguvík, Reykjanesbær, Suðurnesjabær, Southern Peninsula, 230, Iceland",
        "road": "Helguvík",
        "house_number": null,
        "neighbourhood": null,
        "suburb": null,
        "city_district": null,
        "city": "Reykjanesbær",
        "state": null,
        "postcode": "230",
        "country": "Iceland",
        "country_code": "is"
      },
      "address": "303, Helguvík, 230 Reykjanesbær, Iceland"
    },
    {
      "lat": 63.96403392758657,
      "lon": -22.626226681805605,
      "geoinfo": {
        "display_name": "Garðskagavegur, Nýlenda 2, Sandgerði, Suðurnesjabær, Southern Peninsula, 233, Iceland",
        "road": "Garðskagavegur",
        "house_number": null,
        "neighbourhood": null,
        "suburb": null,
        "city_district": null,
        "city": "Sandgerði",
        "state": null,
        "postcode": "233",
        "country": "Iceland",
        "country_code": "is"
      },
      "address": "236, Garðskagavegur, 233 Reykjanesbær, Iceland"
    }
  ],
  "updated_at": "2025-10-19T07:04:01.999528+00:00",
  "_kind": "geo_samples"
}