{
  "country_code": "SR",
  "country": "Suriname",
  "city": "Lelydorp",
  "geonameid": 3383714,
  "target_addresses": 50,
  "samples": [
    {
      "lat": 5.700017675296795,
      "lon": -55.191634621068864,
      "geoinfo": {
        "display_name": "Sabanweg, Lelydorp, Wanica, Suriname",
        "road": "Sabanweg",
        "house_number": null,
        "neighbourhood": null,
        "suburb": null,
        "city_district": null,
        "city": "Lelydorp",
        "state": "Wanica",
        "postcode": null,
        "country": "Suriname",
        "country_code": "sr"
      },
      "address": "Sabanweg, Lelydorp, Wanica, Suriname"
    },
    {
      "lat": 5.691659030845725,
      "lon": -55.19486936743398,
      "geoinfo": {
        "display_name": "Zwampweg, Lelydorp, Houttuin, Wanica, Suriname",
        "road": "Zwampweg",
        "house_number": null,
        "neighbourhood": null,
        "suburb": null,
        "city_district": null,
        "city": "Lelydorp",
        "state": "Wanica",
        "postcode": null,
        "country": "Suriname",
        "country_code": "sr"
      },
      "address": "Zwampweg, Lelydorp, Wanica, Suriname"
    },
    {
      "lat": 5.669838852845862,
      "lon": -55.25052057160705,
      "geoinfo": {
        "display_name": "Libanonweg, Lelydorp, Wanica, Suriname",
        "road": "Libanonweg",
        "house_number": null,
        "neighbourhood": null,
        "suburb": null,
        "city_district": null,
        "city": "Lelydorp",
        "state": "Wanica",
        "postcode": null,
        "country": "Suriname",
        "country_code": "sr"
      },
      "address": "Libanonweg, Lelydorp, Wanica, Suriname"
    },
    {
      "lat": 5.674624356708618,
      "lon": -55.209522341336,
      "geoinfo": {
        "display_name": "Curaçaoweg, Lelydorp, Wanica, Suriname",
        "road": "Curaçaoweg",
        "house_number": null,
        "neighbourhood": null,
        "suburb": null,
        "city_district": null,
        "city": "Lelydorp",
        "state": "Wanica",
        "postcode": null,
        "country": "Suriname",
        "country_code": "sr"
      },
      "address": "Curaçaoweg, Lelydorp, Wanica, Suriname"
    },
    {
      "lat": 5.728636484391929,
      "lon": -55.22168353015561,
      "geoinfo": {
        "display_name": "Johannes Michelsweg, Lelydorp, Wanica, Suriname",
        "road": "Johannes Michelsweg",
        "house_number": null,
        "neighbourhood": null,
        "suburb": null,
        "city_district": null,
        "city": "Lelydorp",
        "state": "Wanica",
        "postcode": null,
        "country": "Suriname",
        "country_code": "sr"
      },
      "address": "Johannes Michelsweg, Lelydorp, Wanica, Suriname"
    },
    {
      "lat": 5.705705220519115,
      "lon": -55.22400667785949,
      "geoinfo": {
        "display_name": "Lelydorp, Wanica, Suriname",
        "road": null,
        "house_number": null,
        "neighbourhood": null,
        "suburb": null,
        "city_district": null,
        "city": "Lelydorp",
        "state": "Wanica",
        "postcode": null,
        "country": "Suriname",
        "country_code": "sr"
      },
      "address": "Lelydorp, Wanica, Suriname"
    },
    {
      "lat": 5.705856235299458,
      "lon": -55.21325185329512,
      "geoinfo": {
        "display_name": "Houttuinweg, Lelydorp, Wanica, Suriname",
        "road": "Houttuinweg",
        "house_number": null,
        "neighbourhood": null,
        "suburb": null,
        "city_district": null,
        "city": "Lelydorp",
        "state": "Wanica",
        "postcode": null,
        "country": "Suriname",
        "country_code": "sr"
      },
      "address": "Houttuinweg, Lelydorp, Wanica, Suriname"
    },
    {
      "lat": 5.73028936544209,
      "lon": -55.24212933978243,
      "geoinfo": {
        "display_name": "Mijnzorgweg, Lelydorp, Wanica, Suriname",
        "road": "Mijnzorgweg",
        "house_number": null,
        "neighbourhood": null,
        "suburb": null,
        "city_district": null,
        "city": "Lelydorp",
        "state": "Wanica",
        "postcode": null,
        "country": "Suriname",
        "country_code": "sr"
      },
      "address": "Mijnzorgweg, Lelydorp, Wanica, Suriname"
    },
    {
      "lat": 5.693271888039235,
      "lon": -55.2287491912856,
      "geoinfo": {
        "display_name": "Sranan Fowruweg, Lelydorp, Wanica, Suriname",
        "road": "Sranan Fowruweg",
        "house_number": null,
        "neighbourhood": null,
        "suburb": null,
        "city_district": null,
        "city": "Lelydorp",
        "state": "Wanica",
        "postcode": null,
        "country": "Suriname",
        "country_code": "sr"
      },
      "address": "Sranan Fowruweg, Lelydorp, Wanica, Suriname"
    },
    {
      "lat": 5.689894846622189,
      "lon": -55.197446090194006,
      "geoinfo": {
        "display_name": "Sumatraweg, Lelydorp, Wanica, Suriname",
        "road": "Sumatraweg",
        "house_number": null,
        "neighbourhood": null,
        "suburb": null,
        "city_district": null,
        "city": "Lelydorp",
        "state": "Wanica",
        "postcode": null,
        "country": "Suriname",
        "country_code": "sr"
      },
      "address": "Sumatraweg, Lelydorp, Wanica, Suriname"
    },
    {
      "lat": 5.6832696818805015,
      "lon": -55.23413683509079,
      "geoinfo": {
        "display_name": "Javaweg, Lelydorp, Wanica, Suriname",
        "road": "Javaweg",
        "house_number": null,
        "neighbourhood": null,
        "suburb": null,
        "city_district": null,
        "city": "Lelydorp",
        "state": "Wanica",
        "postcode": null,
        "country": "Suriname",
        "country_code": "sr"
      },
      "address": "Javaweg, Lelydorp, Wanica, Suriname"
    },
    {
      "lat": 5.712981276139472,
      "lon": -55.222033738792035,
      "geoinfo": {
        "display_name": "Braamshoopweg, Lelydorp, Wanica, Suriname",
        "road": "Braamshoopweg",
        "house_number": null,
        "neighbourhood": null,
        "suburb": null,
        "city_district": null,
        "city": "Lelydorp",
        "state": "Wanica",
        "postcode": null,
        "country": "Suriname",
        "country_code": "sr"
      },
      "address": "Braamshoopweg, Lelydorp, Wanica, Suriname"
    },
    {
      "lat": 5.702045738231381,
      "lon": -55.23277569209549,
      "geoinfo": {
        "display_name": "115, Tawajarieweg, Lelydorp, Wanica, Suriname",
        "road": "Tawajarieweg",
        "house_number": "115",
        "neighbourhood": null,
        "suburb": null,
        "city_district": null,
        "city": "Lelydorp",
        "state": "Wanica",
        "postcode": null,
        "country": "Suriname",
        "country_code": "sr"
      },
      "address": "115 Tawajarieweg, Lelydorp, Wanica, Suriname"
    },
    {
      "lat": 5.677236652069115,
      "lon": -55.221077116288065,
      "geoinfo": {
        "display_name": "Van Hattemweg, Lelydorp, Wanica, Suriname",
        "road": "Van Hattemweg",
        "house_number": null,
        "neighbourhood": null,
        "suburb": null,
        "city_district": null,
        "city": "Lelydorp",
        "state": "Wanica",
        "postcode": null,
        "country": "Suriname",
        "country_code": "sr"
      },
      "address": "Van Hattemweg, Lelydorp, Wanica, Suriname"
    },
    {
      "lat": 5.723546494871155,
      "lon": -55.26410931885954,
      "geoinfo": {
        "display_name": "Li Taipostraat, Grand Village Braamshoop, Lelydorp, Wanica, Suriname",
        "road": "Li Taipostraat",
        "house_number": null,
        "neighbourhood": null,
        "suburb": null,
        "city_district": null,
        "city": "Lelydorp",
        "state": "Wanica",
        "postcode": null,
        "country": "Suriname",
        "country_code": "sr"
      },
      "address": "Li Taipostraat, Lelydorp, Wanica, Suriname"
    },
    {
      "lat": 5.660128308968127,
      "lon": -55.23884839571465,
      "geoinfo": {
        "display_name": "Noord, Para, Suriname",
        "road": null,
        "house_number": null,
        "neighbourhood": null,
        "suburb": null,
        "city_district": null,
        "city": null,
        "state": "Para",
        "postcode": null,
        "country": "Suriname",
        "country_code": "sr"
      },
      "address": "Lelydorp, Para, Suriname"
    },
    {
      "lat": 5.703915125769488,
      "lon": -55.25029731275448,
      "geoinfo": {
        "display_name": "De Craneweg, Lelydorp, Wanica, Suriname",
        "road": "De Craneweg",
        "house_number": null,
        "neighbourhood": null,
        "suburb": null,
        "city_district": null,
        "city": "Lelydorp",
        "state": "Wanica",
        "postcode": null,
        "country": "Suriname",
        "country_code": "sr"
      },
      "address": "De Craneweg, Lelydorp, Wanica, Suriname"
    },
    {
      "lat": 5.70532767936791,
      "lon": -55.23636835381668,
      "geoinfo": {
        "display_name": "Tawajarieweg, Lelydorp, Wanica, Suriname",
        "road": "Tawajarieweg",
        "house_number": null,
        "neighbourhood": null,
        "suburb": null,
        "city_district": null,
        "city": "Lelydorp",
        "state": "Wanica",
        "postcode": null,
        "country": "Suriname",
        "country_code": "sr"
      },
      "address": "Tawajarieweg, Lelydorp, Wanica, Suriname"
    },
    {
      "lat": 5.732864808790824,
      "lon": -55.2129381572429,
      "geoinfo": {
        "display_name": "286, Indira Gandhiweg, De Nieuwe Grond, Wanica, Suriname",
        "road": "Indira Gandhiweg",
        "house_number": "286",
        "neighbourhood": null,
        "suburb": null,
        "city_district": null,
        "city": "De Nieuwe Grond",
        "state": "Wanica",
        "postcode": null,
        "country": "Suriname",
        "country_code": "sr"
      },
      "address": "286 Indira Gandhiweg, Lelydorp, Wanica, Suriname"
    },
    {
      "lat": 5.699292638031999,
      "lon": -55.244912117846035,
      "geoinfo": {
        "display_name": "Paikem Notopawiroweg, Lelydorp, Wanica, Suriname",
        "road": "Paikem Notopawiroweg",
        "house_number": null,
        "neighbourhood": null,
        "suburb": null,
        "city_district": null,
        "city": "Lelydorp",
        "state": "Wanica",
        "postcode": null,
        "country": "Suriname",
        "country_code": "sr"
      },
      "address": "Paikem Notopawiroweg, Lelydorp, Wanica, Suriname"
    },
    {
      "lat": 5.700610478428663,
      "lon": -55.21110400100105,
      "geoinfo": {
        "display_name": "Sastrodisoemaweg, Lelydorp, Wanica, Suriname",
        "road": "Sastrodisoemaweg",
        "house_number": null,
        "neighbourhood": null,
        "suburb": null,
        "city_district": null,
        "city": "Lelydorp",
        "state": "Wanica",
        "postcode": null,
        "country": "Suriname",
        "country_code": "sr"
      },
      "address": "Sastrodisoemaweg, Lelydorp, Wanica, Suriname"
    },
    {
      "lat": 5.680472328091117,
      "lon": -55.19773392209799,
      "geoinfo": {
        "display_name": "Schotelweg, Lelydorp, Wanica, Suriname",
        "road": "Schotelweg",
        "house_number": null,
        "neighbourhood": null,
        "suburb": null,
        "city_district": null,
        "city": "Lelydorp",
        "state": "Wanica",
        "postcode": null,
        "country": "Suriname",
        "country_code": "sr"
      },
      "address": "Schotelweg, Lelydorp, Wanica, Suriname"
    },
    {
      "lat": 5.714717270622895,
      "lon": -55.2712520476274,
      "geoinfo": {
        "display_name": "Sidodadieweg, Lelydorp, Wanica, Suriname",
        "road": "Sidodadieweg",
        "house_number": null,
        "neighbourhood": null,
        "suburb": null,
        "city_district": null,
        "city": "Lelydorp",
        "state": "Wanica",
        "postcode": null,
        "country": "Suriname",
        "country_code": "sr"
      },
      "address": "Sidodadieweg, Lelydorp, Wanica, Suriname"
    },
    {
      "lat": 5.724527043974908,
      "lon": -55.24786698247143,
      "geoinfo": {
        "display_name": "Verlengde Braamshoopweg, Grand Village Braamshoop, Lelydorp, Wanica, Suriname",
        "road": "Verlengde Braamshoopweg",
        "house_number": null,
        "neighbourhood": null,
        "suburb": null,
        "city_district": null,
        "city": "Lelydorp",
        "state": "Wanica",
        "postcode": null,
        "country": "Suriname",
        "country_code": "sr"
      },
      "address": "Verlengde Braamshoopweg, Lelydorp, Wanica, Suriname"
    },
    {
      "lat": 5.689918011251044,
      "lon": -55.20840874415029,
      "geoinfo": {
        "display_name": "Lelydorperweg, Lelydorp, Wanica, Suriname",
        "road": "Lelydorperweg",
        "house_number": null,
        "neighbourhood": null,
        "suburb": null,
        "city_district": null,
        "city": "Lelydorp",
        "state": "Wanica",
        "postcode": null,
        "country": "Suriname",
        "country_code": "sr"
      },
      "address": "Lelydorperweg, Lelydorp, Wanica, Suriname"
    },
    {
      "lat": 5.712397831528126,
      "lon": -55.22852712466115,
      "geoinfo": {
        "display_name": "Prambananweg, Lelydorp, Wanica, Suriname",
        "road": "Prambananweg",
        "house_number": null,
        "neighbourhood": null,
        "suburb": null,
        "city_district": null,
        "city": "Lelydorp",
        "state": "Wanica",
        "postcode": null,
        "country": "Suriname",
        "country_code": "sr"
      },
      "address": "Prambananweg, Lelydorp, Wanica, Suriname"
    },
    {
      "lat": 5.678892572111541,
      "lon": -55.210205201370655,
      "geoinfo": {
        "display_name": "Rudie Djotirtostraat, Lelydorp, Wanica, Suriname",
        "road": "Rudie Djotirtostraat",
        "house_number": null,
        "neighbourhood": null,
        "suburb": null,
        "city_district": null,
        "city": "Lelydorp",
        "state": "Wanica",
        "postcode": null,
        "country": "Suriname",
        "country_code": "sr"
      },
      "address": "Rudie Djotirtostraat, Lelydorp, Wanica, Suriname"
    },
    {
      "lat": 5.695380958494397,
      "lon": -55.21083871065431,
      "geoinfo": {
        "display_name": "Saioenstraat, Lelydorp, Wanica, Suriname",
        "road": "Saioenstraat",
        "house_number": null,
        "neighbourhood": null,
        "suburb": null,
        "city_district": null,
        "city": "Lelydorp",
        "state": "Wanica",
        "postcode": null,
        "country": "Suriname",
        "country_code": "sr"
      },
      "address": "Saioenstraat, Lelydorp, Wanica, Suriname"
    },
    {
      "lat": 5.733908416609399,
      "lon": -55.206141752374265,
      "geoinfo": {
        "display_name": "Tout Lui Faut Weg, De Nieuwe Grond, Wanica, Suriname",
        "road": "Tout Lui Faut Weg",
        "house_number": null,
        "neighbourhood": null,
        "suburb": null,
        "city_district": null,
        "city": "De Nieuwe Grond",
        "state": "Wanica",
        "postcode": null,
        "country": "Suriname",
        "country_code": "sr"
      },
      "address": "Tout Lui Faut Weg, Lelydorp, Wanica, Suriname"
    },
    {
      "lat": 5.658768683502511,
      "lon": -55.22517215816778,
      "geoinfo": {
        "display_name": "Indira Gandhiweg, Lelydorp, Noord, Para, Suriname",
        "road": "Indira Gandhiweg",
        "house_number": null,
        "neighbourhood": null,
        "suburb": null,
        "city_district": null,
        "city": "Lelydorp",
        "state": "Para",
        "postcode": null,
        "country": "Suriname",
        "country_code": "sr"
      },
      "address": "Indira Gandhiweg, Lelydorp, Para, Suriname"
    },
    {
      "lat": 5.6971876196624205,
      "lon": -55.20664214614058,
      "geoinfo": {
        "display_name": "Kunti Raghunandanweg, Lelydorp, Wanica, Suriname",
        "road": "Kunti Raghunandanweg",
        "house_number": null,
        "neighbourhood": null,
        "suburb": null,
        "city_district": null,
        "city": "Lelydorp",
        "state": "Wanica",
        "postcode": null,
        "country": "Suriname",
        "country_code": "sr"
      },
      "address": "Kunti Raghunandanweg, Lelydorp, Wanica, Suriname"
    },
    {
      "lat": 5.717091385484919,
      "lon": -55.264006619143764,
      "geoinfo": {
        "display_name": "Sidoredjo weg, Lelydorp, Wanica, Suriname",
        "road": "Sidoredjo weg",
        "house_number": null,
        "neighbourhood": null,
        "suburb": null,
        "city_district": null,
        "city": "Lelydorp",
        "state": "Wanica",
        "postcode": null,
        "country": "Suriname",
        "country_code": "sr"
      },
      "address": "Sidoredjo weg, Lelydorp, Wanica, Suriname"
    },
    {
      "lat": 5.669056097450166,
      "lon": -55.20530694612381,
      "geoinfo": {
        "display_name": "Haul road, Lelydorp, Wanica, Suriname",
        "road": "Haul road",
        "house_number": null,
        "neighbourhood": null,
        "suburb": null,
        "city_district": null,
        "city": "Lelydorp",
        "state": "Wanica",
        "postcode": null,
        "country": "Suriname",
        "country_code": "sr"
      },
      "address": "Haul road, Lelydorp, Wanica, Suriname"
    },
    {
      "lat": 5.672796081840842,
      "lon": -55.20344369464642,
      "geoinfo": {
        "display_name": "Ngatmin Senit Mikoenweg, Lelydorp, Wanica, Suriname",
        "road": "Ngatmin Senit Mikoenweg",
        "house_number": null,
        "neighbourhood": null,
        "suburb": null,
        "city_district": null,
        "city": "Lelydorp",
        "state": "Wanica",
        "postcode": null,
        "country": "Suriname",
        "country_code": "sr"
      },
      "address": "Ngatmin Senit Mikoenweg, Lelydorp, Wanica, Suriname"
    },
    {
      "lat": 5.7110549248488836,
      "lon": -55.19925370940656,
      "geoinfo": {
        "display_name": "Bergenshoopweg, Lelydorp, Wanica, Suriname",
        "road": "Bergenshoopweg",
        "house_number": null,
        "neighbourhood": null,
        "suburb": null,
        "city_district": null,
        "city": "Lelydorp",
        "state": "Wanica",
        "postcode": null,
        "country": "Suriname",
        "country_code": "sr"
      },
      "address": "Bergenshoopweg, Lelydorp, Wanica, Suriname"
    },
    {
      "lat": 5.694196635742866,
      "lon": -55.26010080115557,
      "geoinfo": {
        "display_name": "Pardjo Amattamsirweg, Lelydorp, Wanica, Suriname",
        "road": "Pardjo Amattamsirweg",
        "house_number": null,
        "neighbourhood": null,
        "suburb": null,
        "city_district": null,
        "city": "Lelydorp",
        "state": "Wanica",
        "postcode": null,
        "country": "Suriname",
        "country_code": "sr"
      },
      "address": "Pardjo Amattamsirweg, Lelydorp, Wanica, Suriname"
    },
    {
      "lat": 5.674612427561511,
      "lon": -55.21838809788257,
      "geoinfo": {
        "display_name": "Indira Gandhiweg, Lelydorp, Wanica, Suriname",
        "road": "Indira Gandhiweg",
        "house_number": null,
        "neighbourhood": null,
        "suburb": null,
        "city_district": null,
        "city": "Lelydorp",
        "state": "Wanica",
        "postcode": null,
        "country": "Suriname",
        "country_code": "sr"
      },
      "address": "Indira Gandhiweg, Lelydorp, Wanica, Suriname"
    },
    {
      "lat": 5.671386204080206,
      "lon": -55.20282447117701,
      "geoinfo": {
        "display_name": "Mangoensentonostraat, Lelydorp, Wanica, Suriname",
        "road": "Mangoensentonostraat",
        "house_number": null,
        "neighbourhood": null,
        "suburb": null,
        "city_district": null,
        "city": "Lelydorp",
        "state": "Wanica",
        "postcode": null,
        "country": "Suriname",
        "country_code": "sr"
      },
      "address": "Mangoensentonostraat, Lelydorp, Wanica, Suriname"
    },
    {
      "lat": 5.667929441909582,
      "lon": -55.20860022556342,
      "geoinfo": {
        "display_name": "Bonaireweg, Lelydorp, Wanica, Suriname",
        "road": "Bonaireweg",
        "house_number": null,
        "neighbourhood": null,
        "suburb": null,
        "city_district": null,
        "city": "Lelydorp",
        "state": "Wanica",
        "postcode": null,
        "country": "Suriname",
        "country_code": "sr"
      },
      "address": "Bonaireweg, Lelydorp, Wanica, Suriname"
    },
    {
      "lat": 5.720652279250117,
      "lon": -55.22048819001281,
      "geoinfo": {
        "display_name": "Nejalweg, Lelydorp, Wanica, Suriname",
        "road": "Nejalweg",
        "house_number": null,
        "neighbourhood": null,
        "suburb": null,
        "city_district": null,
        "city": "Lelydorp",
        "state": "Wanica",
        "postcode": null,
        "country": "Suriname",
        "country_code": "sr"
      },
      "address": "Nejalweg, Lelydorp, Wanica, Suriname"
    },
    {
      "lat": 5.663107901420205,
      "lon": -55.21417058065982,
      "geoinfo": {
        "display_name": "Haul road, Noord, Para, Suriname",
        "road": "Haul road",
        "house_number": null,
        "neighbourhood": null,
        "suburb": null,
        "city_district": null,
        "city": null,
        "state": "Para",
        "postcode": null,
        "country": "Suriname",
        "country_code": "sr"
      },
      "address": "Haul road, Lelydorp, Para, Suriname"
    },
    {
      "lat": 5.695321473709403,
      "lon": -55.209598553928004,
      "geoinfo": {
        "display_name": "Ngarip Ngarimanweg, Lelydorp, Wanica, Suriname",
        "road": "Ngarip Ngarimanweg",
        "house_number": null,
        "neighbourhood": null,
        "suburb": null,
        "city_district": null,
        "city": "Lelydorp",
        "state": "Wanica",
        "postcode": null,
        "country": "Suriname",
        "country_code": "sr"
      },
      "address": "Ngarip Ngarimanweg, Lelydorp, Wanica, Suriname"
    },
    {
      "lat": 5.732557474106627,
      "lon": -55.2321795492809,
      "geoinfo": {
        "display_name": "Struikgrasweg, De Nieuwe Grond, Wanica, Suriname",
        "road": "Struikgrasweg",
        "house_number": null,
        "neighbourhood": null,
        "suburb": null,
        "city_district": null,
        "city": "De Nieuwe Grond",
        "state": "Wanica",
        "postcode": null,
        "country": "Suriname",
        "country_code": "sr"
      },
      "address": "Struikgrasweg, Lelydorp, Wanica, Suriname"
    },
    {
      "lat": 5.729430062250476,
      "lon": -55.23219106430225,
      "geoinfo": {
        "display_name": "Poerwodadieweg, Lelydorp, Wanica, Suriname",
        "road": "Poerwodadieweg",
        "house_number": null,
        "neighbourhood": null,
        "suburb": null,
        "city_district": null,
        "city": "Lelydorp",
        "state": "Wanica",
        "postcode": null,
        "country": "Suriname",
        "country_code": "sr"
      },
      "address": "Poerwodadieweg, Lelydorp, Wanica, Suriname"
    },
    {
      "lat": 5.697864080810879,
      "lon": -55.195565906707806,
      "geoinfo": {
        "display_name": "Kaseranweg, Lelydorp, Wanica, Suriname",
        "road": "Kaseranweg",
        "house_number": null,
        "neighbourhood": null,
        "suburb": null,
        "city_district": null,
        "city": "Lelydorp",
        "state": "Wanica",
        "postcode": null,
        "country": "Suriname",
        "country_code": "sr"
      },
      "address": "Kaseranweg, Lelydorp, Wanica, Suriname"
    },
    {
      "lat": 5.680548309712199,
      "lon": -55.19410150300626,
      "geoinfo": {
        "display_name": "Verlengde Lelydorperweg, Lelydorp, Wanica, Suriname",
        "road": "Verlengde Lelydorperweg",
        "house_number": null,
        "neighbourhood": null,
        "suburb": null,
        "city_district": null,
        "city": "Lelydorp",
        "state": "Wanica",
        "postcode": null,
        "country": "Suriname",
        "country_code": "sr"
      },
      "address": "Verlengde Lelydorperweg, Lelydorp, Wanica, Suriname"
    },
    {
      "lat": 5.708806083650912,
      "lon": -55.23882979304416,
      "geoinfo": {
        "display_name": "Soekodadie weg, Lelydorp, Wanica, Suriname",
        "road": "Soekodadie weg",
        "house_number": null,
        "neighbourhood": null,
        "suburb": null,
        "city_district": null,
        "city": "Lelydorp",
        "state": "Wanica",
        "postcode": null,
        "country": "Suriname",
        "country_code": "sr"
      },
      "address": "Soekodadie weg, Lelydorp, Wanica, Suriname"
    },
    {
      "lat": 5.710471016504517,
      "lon": -55.21044561218527,
      "geoinfo": {
        "display_name": "Saidaweg, Lelydorp, Wanica, Suriname",
        "road": "Saidaweg",
        "house_number": null,
        "neighbourhood": null,
        "suburb": null,
        "city_district": null,
        "city": "Lelydorp",
        "state": "Wanica",
        "postcode": null,
        "country": "Suriname",
        "country_code": "sr"
      },
      "address": "Saidaweg, Lelydorp, Wanica, Suriname"
    },
    {
      "lat": 5.682043624700385,
      "lon": -55.206450156646056,
      "geoinfo": {
        "display_name": "Wagiman Kartowidjojostraat, Lelydorp, Wanica, Suriname",
        "road": "Wagiman Kartowidjojostraat",
        "house_number": null,
        "neighbourhood": null,
        "suburb": null,
        "city_district": null,
        "city": "Lelydorp",
        "state": "Wanica",
        "postcode": null,
        "country": "Suriname",
        "country_code": "sr"
      },
      "address": "Wagiman Kartowidjojostraat, Lelydorp, Wanica, Suriname"
    },
    {
      "lat": 5.701957416744792,
      "lon": -55.21743767736197,
      "geoinfo": {
        "display_name": "Raja Harry Chandreweg, Lelydorp, Wanica, Suriname",
        "road": "Raja Harry Chandreweg",
        "house_number": null,
        "neighbourhood": null,
        "suburb": null,
        "city_district": null,
        "city": "Lelydorp",
        "state": "Wanica",
        "postcode": null,
        "country": "Suriname",
        "country_code": "sr"
      },
      "address": "Raja Harry Chandreweg, Lelydorp, Wanica, Suriname"
    },
    {
      "lat": 5.664534394555578,
      "lon": -55.212116856251775,
      "geoinfo": {
        "display_name": "Haul road, Noord, Para, Suriname",
        "road": "Haul road",
        "house_number": null,
        "neighbourhood": null,
        "suburb": null,
        "city_district": null,
        "city": null,
        "state": "Para",
        "postcode": null,
        "country": "Suriname",
        "country_code": "sr"
      },
      "address": "398, Haul road, Lelydorp, 88340 Para, Suriname"
    },
    {
      "lat": 5.702134866777027,
      "lon": -55.21722929763838,
      "geoinfo": {
        "display_name": "Raja Harry Chandreweg, Lelydorp, Wanica, Suriname",
        "road": "Raja Harry Chandreweg",
        "house_number": null,
        "neighbourhood": null,
        "suburb": null,
        "city_district": null,
        "city": "Lelydorp",
        "state": "Wanica",
        "postcode": null,
        "country": "Suriname",
        "country_code": "sr"
      },
      "address": "968, Raja Harry Chandreweg, Lelydorp, 73019 Wanica, Suriname"
    },
    {
      "lat": 5.685525552323498,
      "lon": -55.27515974694774,
      "geoinfo": {
        "display_name": "Lelydorp, Wanica, Suriname",
        "road": null,
        "house_number": null,
        "neighbourhood": null,
        "suburb": null,
        "city_district": null,
        "city": "Lelydorp",
        "state": "Wanica",
        "postcode": null,
        "country": "Suriname",
        "country_code": "sr"
      },
      "address": "280, Lelydorp, 60714 Wanica, Suriname"
    },
    {
      "lat": 5.667961487068382,
      "lon": -55.20286271485716,
      "geoinfo": {
        "display_name": "Haul road, Lelydorp, Wanica, Suriname",
        "road": "Haul road",
        "house_number": null,
        "neighbourhood": null,
        "suburb": null,
        "city_district": null,
        "city": "Lelydorp",
        "state": "Wanica",
        "postcode": null,
        "country": "Suriname",
        "country_code": "sr"
      },
      "address": "464, Haul road, Lelydorp, 22044 Wanica, Suriname"
    },
    {
      "lat": 5.67200998601416,
      "lon": -55.22373983808504,
      "geoinfo": {
        "display_name": "Libanonweg, Lelydorp, Wanica, Suriname",
        "road": "Libanonweg",
        "house_number": null,
        "neighbourhood": null,
        "suburb": null,
        "city_district": null,
        "city": "Lelydorp",
        "state": "Wanica",
        "postcode": null,
        "country": "Suriname",
        "country_code": "sr"
      },
      "address": "368, Libanonweg, Lelydorp, 49673 Wanica, Suriname"
    },
    {
      "lat": 5.702870025554325,
      "lon": -55.194821312844326,
      "geoinfo": {
        "display_name": "Sabanweg, Lelydorp, Wanica, Suriname",
        "road": "Sabanweg",
        "house_number": null,
        "neighbourhood": null,
        "suburb": null,
        "city_district": null,
        "city": "Lelydorp",
        "state": "Wanica",
        "postcode": null,
        "country": "Suriname",
        "country_code": "sr"
      },
      "address": "383, Sabanweg, Lelydorp, 85514 Wanica, Suriname"
    },
    {
      "lat": 5.7185416909980855,
      "lon": -55.23744845968698,
      "geoinfo": {
        "display_name": "Lelydorp, Wanica, Suriname",
        "road": null,
        "house_number": null,
        "neighbourhood": null,
        "suburb": null,
        "city_district": null,
        "city": "Lelydorp",
        "state": "Wanica",
        "postcode": null,
        "country": "Suriname",
        "country_code": "sr"
      },
      "address": "843, Lelydorp, 05214 Wanica, Suriname"
    },
    {
      "lat": 5.66548489811666,
      "lon": -55.206770179247066,
      "geoinfo": {
        "display_name": "Haul road, Lelydorp, Noord, Para, Suriname",
        "road": "Haul road",
        "house_number": null,
        "neighbourhood": null,
        "suburb": null,
        "city_district": null,
        "city": "Lelydorp",
        "state": "Para",
        "postcode": null,
        "country": "Suriname",
        "country_code": "sr"
      },
      "address": "383, Haul road, Lelydorp, Noord, 00608 Para, Suriname"
    },
    {
      "lat": 5.705665188339504,
      "lon": -55.232470631297375,
      "geoinfo": {
        "display_name": "Tawajarieweg, Lelydorp, Wanica, Suriname",
        "road": "Tawajarieweg",
        "house_number": null,
        "neighbourhood": null,
        "suburb": null,
        "city_district": null,
        "city": "Lelydorp",
        "state": "Wanica",
        "postcode": null,
        "country": "Suriname",
        "country_code": "sr"
      },
      "address": "504, Tawajarieweg, Lelydorp, 63524 Wanica, Suriname"
    },
    {
      "lat": 5.6941284306668765,
      "lon": -55.188639016420055,
      "geoinfo": {
        "display_name": "Verlengde Sastrodisoemoweg, Lelydorp, Wanica, Suriname",
        "road": "Verlengde Sastrodisoemoweg",
        "house_number": null,
        "neighbourhood": null,
        "suburb": null,
        "city_district": null,
        "city": "Lelydorp",
        "state": "Wanica",
        "postcode": null,
        "country": "Suriname",
        "country_code": "sr"
      },
      "address": "134, Verlengde Sastrodisoemoweg, Lelydorp, 87709 Wanica, Suriname"
    },
    {
      "lat": 5.712214499218809,
      "lon": -55.25108237173285,
      "geoinfo": {
        "display_name": "Sidoredjo weg, Lelydorp, Wanica, Suriname",
        "road": "Sidoredjo weg",
        "house_number": null,
        "neighbourhood": null,
        "suburb": null,
        "city_district": null,
        "city": "Lelydorp",
        "state": "Wanica",
        "postcode": null,
        "country": "Suriname",
        "country_code": "sr"
      },
      "address": "674, Sidoredjo weg, Lelydorp, 54097 Wanica, Suriname"
    },
    {
      "lat": 5.731135371877612,
      "lon": -55.21687622476281,
      "geoinfo": {
        "display_name": "De Nieuwe Grond, Wanica, Suriname",
        "road": null,
        "house_number": null,
        "neighbourhood": null,
        "suburb": null,
        "city_district": null,
        "city": "De Nieuwe Grond",
        "state": "Wanica",
        "postcode": null,
        "country": "Suriname",
        "country_code": "sr"
      },
      "address": "559, Lelydorp, 14052 Wanica, Suriname"
    },
    {
      "lat": 5.669955779355135,
      "lon": -55.22428942118579,
      "geoinfo": {
        "display_name": "Libanonweg, Lelydorp, Wanica, Suriname",
        "road": "Libanonweg",
        "house_number": null,
        "neighbourhood": null,
        "suburb": null,
        "city_district": null,
        "city": "Lelydorp",
        "state": "Wanica",
        "postcode": null,
        "country": "Suriname",
        "country_code": "sr"
      },
      "address": "635, Libanonweg, Lelydorp, 32855 Wanica, Suriname"
    },
    {
      "lat": 5.726267853921159,
      "lon": -55.212450850793644,
      "geoinfo": {
        "display_name": "Vredenburgweg, De Nieuwe Grond, Wanica, Suriname",
        "road": "Vredenburgweg",
        "house_number": null,
        "neighbourhood": null,
        "suburb": null,
        "city_district": null,
        "city": "De Nieuwe Grond",
        "state": "Wanica",
        "postcode": null,
        "country": "Suriname",
        "country_code": "sr"
      },
      "address": "995, Vredenburgweg, Lelydorp, 52735 Wanica, Suriname"
    },
    {
      "lat": 5.671785997596736,
      "lon": -55.2366520780449,
      "geoinfo": {
        "display_name": "Libanonweg, Lelydorp, Wanica, Suriname",
        "road": "Libanonweg",
        "house_number": null,
        "neighbourhood": null,
        "suburb": null,
        "city_district": null,
        "city": "Lelydorp",
        "state": "Wanica",
        "postcode": null,
        "country": "Suriname",
        "country_code": "sr"
      },
      "address": "943, Libanonweg, Lelydorp, 45186 Wanica, Suriname"
    },
    {
      "lat": 5.678236244719571,
      "lon": -55.22381536336483,
      "geoinfo": {
        "display_name": "Van Hattemweg, Lelydorp, Wanica, Suriname",
        "road": "Van Hattemweg",
        "house_number": null,
        "neighbourhood": null,
        "suburb": null,
        "city_district": null,
        "city": "Lelydorp",
        "state": "Wanica",
        "postcode": null,
        "country": "Suriname",
        "country_code": "sr"
      },
      "address": "946, Van Hattemweg, Lelydorp, 71956 Wanica, Suriname"
    },
    {
      "lat": 5.738604188181132,
      "lon": -55.22335273866131,
      "geoinfo": {
        "display_name": "De Nieuwe Grond, Wanica, Suriname",
        "road": null,
        "house_number": null,
        "neighbourhood": null,
        "suburb": null,
        "city_district": null,
        "city": "De Nieuwe Grond",
        "state": "Wanica",
        "postcode": null,
        "country": "Suriname",
        "country_code": "sr"
      },
      "address": "173, Lelydorp, 28033 Wanica, Suriname"
    },
    {
      "lat": 5.691940188102053,
      "lon": -55.223877818227095,
      "geoinfo": {
        "display_name": "Lelydorp, Wanica, Suriname",
        "road": null,
        "house_number": null,
        "neighbourhood": null,
        "suburb": null,
        "city_district": null,
        "city": "Lelydorp",
        "state": "Wanica",
        "postcode": null,
        "country": "Suriname",
        "country_code": "sr"
      },
      "address": "115, Lelydorp, 61747 Wanica, Suriname"
    },
    {
      "lat": 5.708461824050853,
      "lon": -55.26617663705884,
      "geoinfo": {
        "display_name": "De Craneweg, Lelydorp, Wanica, Suriname",
        "road": "De Craneweg",
        "house_number": null,
        "neighbourhood": null,
        "suburb": null,
        "city_district": null,
        "city": "Lelydorp",
        "state": "Wanica",
        "postcode": null,
        "country": "Suriname",
        "country_code": "sr"
      },
      "address": "372, De Craneweg, Lelydorp, 16309 Wanica, Suriname"
    },
    {
      "lat": 5.72604032891076,
      "lon": -55.262320983049946,
      "geoinfo": {
        "display_name": "Verlengde Braamshoopweg, Grand Village Braamshoop, Lelydorp, Wanica, Suriname",
        "road": "Verlengde Braamshoopweg",
        "house_number": null,
        "neighbourhood": null,
        "suburb": null,
        "city_district": null,
        "city": "Lelydorp",
        "state": "Wanica",
        "postcode": null,
        "country": "Suriname",
        "country_code": "sr"
      },
      "address": "147, Verlengde Braamshoopweg, Grand Village Braamshoop, Lelydorp, 91030 Wanica, Suriname"
    },
    {
      "lat": 5.6905330109498635,
      "lon": -55.20890506309467,
      "geoinfo": {
        "display_name": "Lelydorperweg, Lelydorp, Wanica, Suriname",
        "road": "Lelydorperweg",
        "house_number": null,
        "neighbourhood": null,
        "suburb": null,
        "city_district": null,
        "city": "Lelydorp",
        "state": "Wanica",
        "postcode": null,
        "country": "Suriname",
        "country_code": "sr"
      },
      "address": "869, Lelydorperweg, Lelydorp, 97340 Wanica, Suriname"
    },
    {
      "lat": 5.697944747769421,
      "lon": -55.26607044534773,
      "geoinfo": {
        "display_name": "Javaweg, Lelydorp, Wanica, Suriname",
        "road": "Javaweg",
        "house_number": null,
        "neighbourhood": null,
        "suburb": null,
        "city_district": null,
        "city": "Lelydorp",
        "state": "Wanica",
        "postcode": null,
        "country": "Suriname",
        "country_code": "sr"
      },
      "address": "868, Javaweg, Lelydorp, 06693 Wanica, Suriname"
    },
    {
      "lat": 5.724908582712765,
      "lon": -55.23807469874137,
      "geoinfo": {
        "display_name": "Lelydorp, Wanica, Suriname",
        "road": null,
        "house_number": null,
        "neighbourhood": null,
        "suburb": null,
        "city_district": null,
        "city": "Lelydorp",
        "state": "Wanica",
        "postcode": null,
        "country": "Suriname",
        "country_code": "sr"
      },
      "address": "412, Lelydorp, 88601 Wanica, Suriname"
    },
    {
      "lat": 5.704627652787821,
      "lon": -55.196104155968385,
      "geoinfo": {
        "display_name": "Sumatraweg, Lelydorp, Wanica, Suriname",
        "road": "Sumatraweg",
        "house_number": null,
        "neighbourhood": null,
        "suburb": null,
        "city_district": null,
        "city": "Lelydorp",
        "state": "Wanica",
        "postcode": null,
        "country": "Suriname",
        "country_code": "sr"
      },
      "address": "291, Sumatraweg, Lelydorp, 55684 Wanica, Suriname"
    },
    {
      "lat": 5.672179294334792,
      "lon": -55.25628421621664,
      "geoinfo": {
        "display_name": "Libanonweg, Lelydorp, Wanica, Suriname",
        "road": "Libanonweg",
        "house_number": null,
        "neighbourhood": null,
        "suburb": null,
        "city_district": null,
        "city": "Lelydorp",
        "state": "Wanica",
        "postcode": null,
        "country": "Suriname",
        "country_code": "sr"
      },
      "address": "492, Libanonweg, Lelydorp, 01278 Wanica, Suriname"
    },
    {
      "lat": 5.694006142240587,
      "lon": -55.23784084743576,
      "geoinfo": {
        "display_name": "Lelydorp, Wanica, Suriname",
        "road": null,
        "house_number": null,
        "neighbourhood": null,
        "suburb": null,
        "city_district": null,
        "city": "Lelydorp",
        "state": "Wanica",
        "postcode": null,
        "country": "Suriname",
        "country_code": "sr"
      },
      "address": "793, Lelydorp, 37244 Wanica, Suriname"
    },
    {
      "lat": 5.710871485388674,
      "lon": -55.241508194667674,
      "geoinfo": {
        "display_name": "Sidoredjo weg, Lelydorp, Wanica, Suriname",
        "road": "Sidoredjo weg",
        "house_number": null,
        "neighbourhood": null,
        "suburb": null,
        "city_district": null,
        "city": "Lelydorp",
        "state": "Wanica",
        "postcode": null,
        "country": "Suriname",
        "country_code": "sr"
      },
      "address": "350, Sidoredjo weg, Lelydorp, 13488 Wanica, Suriname"
    },
    {
      "lat": 5.727777277716243,
      "lon": -55.219700301181184,
      "geoinfo": {
        "display_name": "Johannes Michelsweg, Lelydorp, Wanica, Suriname",
        "road": "Johannes Michelsweg",
        "house_number": null,
        "neighbourhood": null,
        "suburb": null,
        "city_district": null,
        "city": "Lelydorp",
        "state": "Wanica",
        "postcode": null,
        "country": "Suriname",
        "country_code": "sr"
      },
      "address": "621, Johannes Michelsweg, Lelydorp, 10357 Wanica, Suriname"
    },
    {
      "lat": 5.725631381810372,
      "lon": -55.24659115497606,
      "geoinfo": {
        "display_name": "Lelydorp, Wanica, Suriname",
        "road": null,
        "house_number": null,
        "neighbourhood": null,
        "suburb": null,
        "city_district": null,
        "city": "Lelydorp",
        "state": "Wanica",
        "postcode": null,
        "country": "Suriname",
        "country_code": "sr"
      },
      "address": "077, Lelydorp, 62907 Wanica, Suriname"
    },
    {
      "lat": 5.7050074467759115,
      "lon": -55.265607519431924,
      "geoinfo": {
        "display_name": "De Craneweg, Lelydorp, Wanica, Suriname",
        "road": "De Craneweg",
        "house_number": null,
        "neighbourhood": null,
        "suburb": null,
        "city_district": null,
        "city": "Lelydorp",
        "state": "Wanica",
        "postcode": null,
        "country": "Suriname",
        "country_code": "sr"
      },
      "address": "642, De Craneweg, Lelydorp, 11111 Wanica, Suriname"
    },
    {
      "lat": 5.691748732251556,
      "lon": -55.23702764082586,
      "geoinfo": {
        "display_name": "Javaweg, Lelydorp, Wanica, Suriname",
        "road": "Javaweg",
        "house_number": null,
        "neighbourhood": null,
        "suburb": null,
        "city_district": null,
        "city": "Lelydorp",
        "state": "Wanica",
        "postcode": null,
        "country": "Suriname",
        "country_code": "sr"
      },
      "address": "413, Javaweg, Lelydorp, 22433 Wanica, Suriname"
    },
    {
      "lat": 5.719278435798114,
      "lon": -55.27287151452409,
      "geoinfo": {
        "display_name": "Grand Village Braamshoop, Lelydorp, Wanica, Suriname",
        "road": null,
        "house_number": null,
        "neighbourhood": null,
        "suburb": null,
        "city_district": null,
        "city": "Lelydorp",
        "state": "Wanica",
        "postcode": null,
        "country": "Suriname",
        "country_code": "sr"
      },
      "address": "879, Grand Village Braamshoop, Lelydorp, 60905 Wanica, Suriname"
    },
    {
      "lat": 5.713443488751259,
      "lon": -55.275955645846146,
      "geoinfo": {
        "display_name": "Sidodadieweg, Lelydorp, Wanica, Suriname",
        "road": "Sidodadieweg",
        "house_number": null,
        "neighbourhood": null,
        "suburb": null,
        "city_district": null,
        "city": "Lelydorp",
        "state": "Wanica",
        "postcode": null,
        "country": "Suriname",
        "country_code": "sr"
      },
      "address": "532, Sidodadieweg, Lelydorp, 13827 Wanica, Suriname"
    },
    {
      "lat": 5.702871431987235,
      "lon": -55.25210116997253,
      "geoinfo": {
        "display_name": "De Craneweg, Lelydorp, Wanica, Suriname",
        "road": "De Craneweg",
        "house_number": null,
        "neighbourhood": null,
        "suburb": null,
        "city_district": null,
        "city": "Lelydorp",
        "state": "Wanica",
        "postcode": null,
        "country": "Suriname",
        "country_code": "sr"
      },
      "address": "185, De Craneweg, Lelydorp, 22405 Wanica, Suriname"
    },
    {
      "lat": 5.681365742812309,
      "lon": -55.21264780864069,
      "geoinfo": {
        "display_name": "Altonaweg, Lelydorp, Wanica, Suriname",
        "road": "Altonaweg",
        "house_number": null,
        "neighbourhood": null,
        "suburb": null,
        "city_district": null,
        "city": "Lelydorp",
        "state": "Wanica",
        "postcode": null,
        "country": "Suriname",
        "country_code": "sr"
      },
      "address": "672, Altonaweg, Lelydorp, 04969 Wanica, Suriname"
    },
    {
      "lat": 5.679598572334384,
      "lon": -55.224940130401045,
      "geoinfo": {
        "display_name": "Van Hattemweg, Lelydorp, Wanica, Suriname",
        "road": "Van Hattemweg",
        "house_number": null,
        "neighbourhood": null,
        "suburb": null,
        "city_district": null,
        "city": "Lelydorp",
        "state": "Wanica",
        "postcode": null,
        "country": "Suriname",
        "country_code": "sr"
      },
      "address": "328, Van Hattemweg, Lelydorp, 91318 Wanica, Suriname"
    },
    {
      "lat": 5.7418231014369425,
      "lon": -55.221737983606936,
      "geoinfo": {
        "display_name": "De Nieuwe Grond, Wanica, Suriname",
        "road": null,
        "house_number": null,
        "neighbourhood": null,
        "suburb": null,
        "city_district": null,
        "city": "De Nieuwe Grond",
        "state": "Wanica",
        "postcode": null,
        "country": "Suriname",
        "country_code": "sr"
      },
      "address": "174, Lelydorp, 11437 Wanica, Suriname"
    },
    {
      "lat": 5.706753719728239,
      "lon": -55.19189994287761,
      "geoinfo": {
        "display_name": "Verlengde Houttuinweg, Lelydorp, Wanica, Suriname",
        "road": "Verlengde Houttuinweg",
        "house_number": null,
        "neighbourhood": null,
        "suburb": null,
        "city_district": null,
        "city": "Lelydorp",
        "state": "Wanica",
        "postcode": null,
        "country": "Suriname",
        "country_code": "sr"
      },
      "address": "048, Verlengde Houttuinweg, Lelydorp, 98319 Wanica, Suriname"
    },
    {
      "lat": 5.682685966011888,
      "lon": -55.2184872083305,
      "geoinfo": {
        "display_name": "Indira Gandhiweg, Lelydorp, Wanica, Suriname",
        "road": "Indira Gandhiweg",
        "house_number": null,
        "neighbourhood": null,
        "suburb": null,
        "city_district": null,
        "city": "Lelydorp",
        "state": "Wanica",
        "postcode": null,
        "country": "Suriname",
        "country_code": "sr"
      },
      "address": "720, Indira Gandhiweg, Lelydorp, 30425 Wanica, Suriname"
    },
    {
      "lat": 5.720014618047895,
      "lon": -55.26807086798251,
      "geoinfo": {
        "display_name": "Grand Village Braamshoop, Lelydorp, Wanica, Suriname",
        "road": null,
        "house_number": null,
        "neighbourhood": null,
        "suburb": null,
        "city_district": null,
        "city": "Lelydorp",
        "state": "Wanica",
        "postcode": null,
        "country": "Suriname",
        "country_code": "sr"
      },
      "address": "104, Grand Village Braamshoop, Lelydorp, 07550 Wanica, Suriname"
    },
    {
      "lat": 5.698486038592332,
      "lon": -55.24899427166926,
      "geoinfo": {
        "display_name": "De Craneweg, Lelydorp, Wanica, Suriname",
        "road": "De Craneweg",
        "house_number": null,
        "neighbourhood": null,
        "suburb": null,
        "city_district": null,
        "city": "Lelydorp",
        "state": "Wanica",
        "postcode": null,
        "country": "Suriname",
        "country_code": "sr"
      },
      "address": "008, De Craneweg, Lelydorp, 15749 Wanica, Suriname"
    },
    {
      "lat": 5.692562091312537,
      "lon": -55.22559957129209,
      "geoinfo": {
        "display_name": "Sranan Fowruweg, Lelydorp, Wanica, Suriname",
        "road": "Sranan Fowruweg",
        "house_number": null,
        "neighbourhood": null,
        "suburb": null,
        "city_district": null,
        "city": "Lelydorp",
        "state": "Wanica",
        "postcode": null,
        "country": "Suriname",
        "country_code": "sr"
      },
      "address": "910, Sranan Fowruweg, Lelydorp, 64619 Wanica, Suriname"
    },
    {
      "lat": 5.6733644079508005,
      "lon": -55.215928798721244,
      "geoinfo": {
        "display_name": "Tomohamatweg, Lelydorp, Wanica, Suriname",
        "road": "Tomohamatweg",
        "house_number": null,
        "neighbourhood": null,
        "suburb": null,
        "city_district": null,
        "city": "Lelydorp",
        "state": "Wanica",
        "postcode": null,
        "country": "Suriname",
        "country_code": "sr"
      },
      "address": "801, Tomohamatweg, Lelydorp, 42974 Wanica, Suriname"
    },
    {
      "lat": 5.699515609568209,
      "lon": -55.22607281908303,
      "geoinfo": {
        "display_name": "Franklin Coronelstraat, Lelydorp, Wanica, Suriname",
        "road": "Franklin Coronelstraat",
        "house_number": null,
        "neighbourhood": null,
        "suburb": null,
        "city_district": null,
        "city": "Lelydorp",
        "state": "Wanica",
        "postcode": null,
        "country": "Suriname",
        "country_code": "sr"
      },
      "address": "485, Franklin Coronelstraat, Lelydorp, 10101 Wanica, Suriname"
    }
  ],
  "updated_at": "2025-10-19T05:37:12.334507+00:00",
  "_kind": "geo_samples"
}