{
  "country_code": "BJ",
  "country": "Benin",
  "city": "Athiémé",
  "geonameid": 2395510,
  "target_addresses": 10,
  "samples": [
    {
      "lat": 6.589181680984148,
      "lon": 1.708677937413762,
      "geoinfo": {
        "display_name": "Yénawa, Agbobada, Athiémé, Mono Department, Benin",
        "road": null,
        "house_number": null,
        "neighbourhood": null,
        "suburb": null,
        "city_district": null,
        "city": "Agbobada",
        "state": "Mono Department",
        "postcode": null,
        "country": "Benin",
        "country_code": "bj"
      },
      "address": "Athiémé, Mono Department, Benin"
    },
    {
      "lat": 6.596889759503197,
      "lon": 1.7076434472234714,
      "geoinfo": {
        "display_name": "Colodo, Gokpamè, Avédji, Athiémé, Mono Department, Benin",
        "road": "Colodo",
        "house_number": null,
        "neighbourhood": null,
        "suburb": null,
        "city_district": null,
        "city": "Avédji",
        "state": "Mono Department",
        "postcode": null,
        "country": "Benin",
        "country_code": "bj"
      },
      "address": "Colodo, Athiémé, Mono Department, Benin"
    },
    {
      "lat": 6.599744914469417,
      "lon": 1.636488774303978,
      "geoinfo": {
        "display_name": "Ahanmè, Lokossa, Athiémé, Mono Department, Benin",
        "road": null,
        "house_number": null,
        "neighbourhood": null,
        "suburb": null,
        "city_district": null,
        "city": "Lokossa",
        "state": "Mono Department",
        "postcode": null,
        "country": "Benin",
        "country_code": "bj"
      },
      "address": "Athiémé, 56667 Mono Department, Benin"
    },
    {
      "lat": 6.554295728659922,
      "lon": 1.6848401744855463,
      "geoinfo": {
        "display_name": "Athiémé, Mono Department, Benin",
        "road": null,
        "house_number": null,
        "neighbourhood": null,
        "suburb": null,
        "city_district": null,
        "city": "Athiémé",
        "state": "Mono Department",
        "postcode": null,
        "country": "Benin",
        "country_code": "bj"
      },
      "address": "Athiémé, 42337 Mono Department, Benin"
    },
    {
      "lat": 6.597359040442525,
      "lon": 1.6416265468755993,
      "geoinfo": {
        "display_name": "Ahanmè, Lokossa, Athiémé, Mono Department, Benin",
        "road": null,
        "house_number": null,
        "neighbourhood": null,
        "suburb": null,
        "city_district": null,
        "city": "Lokossa",
        "state": "Mono Department",
        "postcode": null,
        "country": "Benin",
        "country_code": "bj"
      },
      "address": "189, Athiémé, 44020 Mono Department, Benin"
    },
    {
      "lat": 6.603965645912064,
      "lon": 1.6879018683358287,
      "geoinfo": {
        "display_name": "Kpota, Sazué-Kpota, Athiémé, Mono Department, Benin",
        "road": null,
        "house_number": null,
        "neighbourhood": null,
        "suburb": null,
        "city_district": null,
        "city": "Sazué-Kpota",
        "state": "Mono Department",
        "postcode": null,
        "country": "Benin",
        "country_code": "bj"
      },
      "address": "322, Kpota, Sazué-Kpota, Athiémé, 67649 Mono Department, Benin"
    },
    {
      "lat": 6.621331156263672,
      "lon": 1.6551368715604136,
      "geoinfo": {
        "display_name": "Houndjafohoué, Awamè-Agbovèdji, Lokossa, Mono Department, Benin",
        "road": null,
        "house_number": null,
        "neighbourhood": null,
        "suburb": null,
        "city_district": null,
        "city": "Lokossa",
        "state": "Mono Department",
        "postcode": null,
        "country": "Benin",
        "country_code": "bj"
      },
      "address": "012, Houndjafohoué, Awamè-Agbovèdji, Lokossa, 79272 Mono Department, Benin"
    },
    {
      "lat": 6.582303389934079,
      "lon": 1.6675543405096434,
      "geoinfo": {
        "display_name": "old RN 2 ter, Pompito, Adanlokpé, Athiémé, Mono Department, Benin",
        "road": "old RN 2 ter",
        "house_number": null,
        "neighbourhood": null,
        "suburb": null,
        "city_district": null,
        "city": "Adanlokpé",
        "state": "Mono Department",
        "postcode": null,
        "country": "Benin",
        "country_code": "bj"
      },
      "address": "old RN 2 ter, Pompito, Adanlokpé, Athiémé, 16431 Mono Department, Benin"
    },
    {
      "lat": 6.586707685136489,
      "lon": 1.6629641160197415,
      "geoinfo": {
        "display_name": "Latévikondji, Athiémé, Mono Department, Benin",
        "road": null,
        "house_number": null,
        "neighbourhood": null,
        "suburb": null,
        "city_district": null,
        "city": "Athiémé",
        "state": "Mono Department",
        "postcode": null,
        "country": "Benin",
        "country_code": "bj"
      },
      "address": "928, Latévikondji, Athiémé, 26931 Mono Department, Benin"
    },
    {
      "lat": 6.557024357707127,
      "lon": 1.6869513886028211,
      "geoinfo": {
        "display_name": "Athiémé, Mono Department, Benin",
        "road": null,
        "house_number": null,
        "neighbourhood": null,
        "suburb": null,
        "city_district": null,
        "city": "Athiémé",
        "state": "Mono Department",
        "postcode": null,
        "country": "Benin",
        "country_code": "bj"
      },
      "address": "733, Athiémé, 45386 Mono Department, Benin"
    }
  ],
  "updated_at": "2025-10-19T03:30:16.751374+00:00",
  "_kind": "geo_samples"
}