{
  "country_code": "BJ",
  "country": "Benin",
  "city": "Banigbé",
  "geonameid": 2395325,
  "target_addresses": 2,
  "samples": [
    {
      "lat": 6.613127053901534,
      "lon": 2.698092354282481,
      "geoinfo": {
        "display_name": "Tamondo, Ifangni, Plateau Department, Benin",
        "road": null,
        "house_number": null,
        "neighbourhood": null,
        "suburb": null,
        "city_district": null,
        "city": "Ifangni",
        "state": "Plateau Department",
        "postcode": null,
        "country": "Benin",
        "country_code": "bj"
      },
      "address": "Banigbé, Plateau Department, Benin"
    },
    {
      "lat": 6.680650815937123,
      "lon": 2.7150771784761805,
      "geoinfo": {
        "display_name": "RNIE 1, Zian, Ifangni, Sakété, Plateau Department, Benin",
        "road": "RNIE 1",
        "house_number": null,
        "neighbourhood": null,
        "suburb": null,
        "city_district": null,
        "city": "Ifangni",
        "state": "Plateau Department",
        "postcode": null,
        "country": "Benin",
        "country_code": "bj"
      },
      "address": "RNIE 1, Banigbé, Plateau Department, Benin"
    },
    {
      "lat": 6.665213627171315,
      "lon": 2.7144048538258687,
      "geoinfo": {
        "display_name": "Sobè-Ayéwaladjè, Ganmi, Ifangni, Plateau Department, Benin",
        "road": null,
        "house_number": null,
        "neighbourhood": null,
        "suburb": null,
        "city_district": null,
        "city": "Ifangni",
        "state": "Plateau Department",
        "postcode": null,
        "country": "Benin",
        "country_code": "bj"
      },
      "address": "187, Banigbé, 43042 Plateau Department, Benin"
    },
    {
      "lat": 6.636702904009793,
      "lon": 2.6891994595536066,
      "geoinfo": {
        "display_name": "Tandji, Lokossa-Alihogodo, Ifangni, Plateau Department, Benin",
        "road": null,
        "house_number": null,
        "neighbourhood": null,
        "suburb": null,
        "city_district": null,
        "city": "Ifangni",
        "state": "Plateau Department",
        "postcode": null,
        "country": "Benin",
        "country_code": "bj"
      },
      "address": "829, Banigbé, 31095 Plateau Department, Benin"
    }
  ],
  "updated_at": "2025-10-19T02:40:55.412211+00:00",
  "_kind": "geo_samples"
}