{
  "country_code": "BJ",
  "country": "Benin",
  "city": "Bohicon",
  "geonameid": 2395049,
  "target_addresses": 2,
  "samples": [
    {
      "lat": 7.162204066340095,
      "lon": 2.0836275996041396,
      "geoinfo": {
        "display_name": "RNIE 4, Djèssouhogon, Sodohomè, Bohicon, Zou Department, Benin",
        "road": "RNIE 4",
        "house_number": null,
        "neighbourhood": "Djèssouhogon",
        "suburb": null,
        "city_district": null,
        "city": "Bohicon",
        "state": "Zou Department",
        "postcode": null,
        "country": "Benin",
        "country_code": "bj"
      },
      "address": "RNIE 4, Bohicon, Zou Department, Benin"
    },
    {
      "lat": 7.172983099536677,
      "lon": 2.0813098211415917,
      "geoinfo": {
        "display_name": "CEG 1 BOHICON, RN 20, Zoungoudo, Agbanwémè, Agongointo, Bohicon, Zou Department, Benin",
        "road": "RN 20",
        "house_number": null,
        "neighbourhood": "Zoungoudo",
        "suburb": null,
        "city_district": null,
        "city": "Bohicon",
        "state": "Zou Department",
        "postcode": null,
        "country": "Benin",
        "country_code": "bj"
      },
      "address": "RN 20, Bohicon, Zou Department, Benin"
    },
    {
      "lat": 7.151313552535136,
      "lon": 2.0503550758718627,
      "geoinfo": {
        "display_name": "Hadagon, Abomey, Zou Department, Benin",
        "road": null,
        "house_number": null,
        "neighbourhood": null,
        "suburb": null,
        "city_district": null,
        "city": "Hadagon",
        "state": "Zou Department",
        "postcode": null,
        "country": "Benin",
        "country_code": "bj"
      },
      "address": "956, Hadagon, Abomey, 40987 Zou Department, Benin"
    },
    {
      "lat": 7.143977790635607,
      "lon": 2.043719267620547,
      "geoinfo": {
        "display_name": "Houndanou, Adingnigon, Abomey, Zou Department, Benin",
        "road": null,
        "house_number": null,
        "neighbourhood": null,
        "suburb": null,
        "city_district": null,
        "city": "Adingnigon",
        "state": "Zou Department",
        "postcode": null,
        "country": "Benin",
        "country_code": "bj"
      },
      "address": "606, Houndanou, Adingnigon, Abomey, 25202 Zou Department, Benin"
    }
  ],
  "updated_at": "2025-10-19T03:02:30.027684+00:00",
  "_kind": "geo_samples"
}