{
  "country_code": "BJ",
  "country": "Benin",
  "city": "Comé",
  "geonameid": 2394824,
  "target_addresses": 2,
  "samples": [
    {
      "lat": 6.388801132793777,
      "lon": 1.9194315294099973,
      "geoinfo": {
        "display_name": "Hounzè, Agatogbo, Comé, Mono Department, Benin",
        "road": null,
        "house_number": null,
        "neighbourhood": null,
        "suburb": null,
        "city_district": null,
        "city": "Agatogbo",
        "state": "Mono Department",
        "postcode": null,
        "country": "Benin",
        "country_code": "bj"
      },
      "address": "Comé, Mono Department, Benin"
    },
    {
      "lat": 6.425570662014541,
      "lon": 1.8709470130595762,
      "geoinfo": {
        "display_name": "Hôtel-de-Ville, Yamèdjicodji, Comè, Comé, Mono Department, Benin",
        "road": null,
        "house_number": null,
        "neighbourhood": "Hôtel-de-Ville",
        "suburb": null,
        "city_district": null,
        "city": "Comè",
        "state": "Mono Department",
        "postcode": null,
        "country": "Benin",
        "country_code": "bj"
      },
      "address": "Hôtel-de-Ville, Comé, Mono Department, Benin"
    },
    {
      "lat": 6.385915764711597,
      "lon": 1.8958571460136289,
      "geoinfo": {
        "display_name": "Agbanou, Agoutomè, Comè, Comé, Mono Department, Benin",
        "road": null,
        "house_number": null,
        "neighbourhood": "Agbanou",
        "suburb": null,
        "city_district": null,
        "city": "Comè",
        "state": "Mono Department",
        "postcode": null,
        "country": "Benin",
        "country_code": "bj"
      },
      "address": "415, Agbanou, Agoutomè, Comè, Comé, 65728 Mono Department, Benin"
    },
    {
      "lat": 6.395119288736477,
      "lon": 1.840616513126666,
      "geoinfo": {
        "display_name": "Vadavè, Djanglanmey, Grand-Popo, Mono Department, Benin",
        "road": null,
        "house_number": null,
        "neighbourhood": null,
        "suburb": null,
        "city_district": null,
        "city": "Djanglanmey",
        "state": "Mono Department",
        "postcode": null,
        "country": "Benin",
        "country_code": "bj"
      },
      "address": "533, Comé, 52209 Mono Department, Benin"
    }
  ],
  "updated_at": "2025-10-19T01:11:19.256924+00:00",
  "_kind": "geo_samples"
}