{
  "country_code": "BJ",
  "country": "Benin",
  "city": "Djougou",
  "geonameid": 2394560,
  "target_addresses": 10,
  "samples": [
    {
      "lat": 9.702278617723907,
      "lon": 1.6378351626620313,
      "geoinfo": {
        "display_name": "Gah, Djougou, Donga Department, Benin",
        "road": null,
        "house_number": null,
        "neighbourhood": null,
        "suburb": null,
        "city_district": null,
        "city": "Djougou",
        "state": "Donga Department",
        "postcode": null,
        "country": "Benin",
        "country_code": "bj"
      },
      "address": "Djougou, Donga Department, Benin"
    },
    {
      "lat": 9.713973719558858,
      "lon": 1.6975541553758813,
      "geoinfo": {
        "display_name": "RN 6, Zountori, Dabaro, Sehvessi, Djougou, Donga Department, Benin",
        "road": "RN 6",
        "house_number": null,
        "neighbourhood": null,
        "suburb": null,
        "city_district": null,
        "city": "Sehvessi",
        "state": "Donga Department",
        "postcode": null,
        "country": "Benin",
        "country_code": "bj"
      },
      "address": "RN 6, Djougou, Donga Department, Benin"
    },
    {
      "lat": 9.722682504566057,
      "lon": 1.693822883606487,
      "geoinfo": {
        "display_name": "Formagazi, Gando, Djougou, Donga Department, Benin",
        "road": null,
        "house_number": null,
        "neighbourhood": null,
        "suburb": null,
        "city_district": null,
        "city": "Djougou",
        "state": "Donga Department",
        "postcode": null,
        "country": "Benin",
        "country_code": "bj"
      },
      "address": "Djougou, 24259 Donga Department, Benin"
    },
    {
      "lat": 9.725372940068793,
      "lon": 1.6497252345169668,
      "geoinfo": {
        "display_name": "Dompago-Tchori, Goumouhou, Djougou, Donga Department, Benin",
        "road": null,
        "house_number": null,
        "neighbourhood": null,
        "suburb": null,
        "city_district": null,
        "city": "Djougou",
        "state": "Donga Department",
        "postcode": null,
        "country": "Benin",
        "country_code": "bj"
      },
      "address": "Djougou, 93541 Donga Department, Benin"
    },
    {
      "lat": 9.689142281677075,
      "lon": 1.626698498039873,
      "geoinfo": {
        "display_name": "Nmakoulrha, Djougou, Donga Department, Benin",
        "road": null,
        "house_number": null,
        "neighbourhood": null,
        "suburb": null,
        "city_district": null,
        "city": "Djougou",
        "state": "Donga Department",
        "postcode": null,
        "country": "Benin",
        "country_code": "bj"
      },
      "address": "876, Nmakoulrha, Djougou, 14346 Donga Department, Benin"
    },
    {
      "lat": 9.71626572148774,
      "lon": 1.694506877912882,
      "geoinfo": {
        "display_name": "Formagazi, Gando, Djougou, Donga Department, Benin",
        "road": null,
        "house_number": null,
        "neighbourhood": null,
        "suburb": null,
        "city_district": null,
        "city": "Djougou",
        "state": "Donga Department",
        "postcode": null,
        "country": "Benin",
        "country_code": "bj"
      },
      "address": "225, Djougou, 95425 Donga Department, Benin"
    },
    {
      "lat": 9.690943846940346,
      "lon": 1.6437816397922638,
      "geoinfo": {
        "display_name": "Djougou, Donga Department, Benin",
        "road": null,
        "house_number": null,
        "neighbourhood": null,
        "suburb": null,
        "city_district": null,
        "city": "Djougou",
        "state": "Donga Department",
        "postcode": null,
        "country": "Benin",
        "country_code": "bj"
      },
      "address": "846, Djougou, 85888 Donga Department, Benin"
    },
    {
      "lat": 9.726720974546074,
      "lon": 1.628609680755475,
      "geoinfo": {
        "display_name": "Sidikpara, Bourondi, Djougou, Donga Department, Benin",
        "road": null,
        "house_number": null,
        "neighbourhood": null,
        "suburb": null,
        "city_district": null,
        "city": "Bourondi",
        "state": "Donga Department",
        "postcode": null,
        "country": "Benin",
        "country_code": "bj"
      },
      "address": "228, Sidikpara, Bourondi, Djougou, 79164 Donga Department, Benin"
    },
    {
      "lat": 9.715451158516077,
      "lon": 1.6910218176828677,
      "geoinfo": {
        "display_name": "Djougou, Donga Department, Benin",
        "road": null,
        "house_number": null,
        "neighbourhood": null,
        "suburb": null,
        "city_district": null,
        "city": "Djougou",
        "state": "Donga Department",
        "postcode": null,
        "country": "Benin",
        "country_code": "bj"
      },
      "address": "603, Djougou, 40347 Donga Department, Benin"
    },
    {
      "lat": 9.736744855186949,
      "lon": 1.6825348316270543,
      "geoinfo": {
        "display_name": "Djougou, Donga Department, Benin",
        "road": null,
        "house_number": null,
        "neighbourhood": null,
        "suburb": null,
        "city_district": null,
        "city": "Djougou",
        "state": "Donga Department",
        "postcode": null,
        "country": "Benin",
        "country_code": "bj"
      },
      "address": "828, Djougou, 00453 Donga Department, Benin"
    }
  ],
  "updated_at": "2025-10-19T03:29:56.758450+00:00",
  "_kind": "geo_samples"
}