{
  "country_code": "RS",
  "country": "Serbia",
  "city": "Belgrade",
  "geonameid": 792680,
  "target_addresses": 11,
  "samples": [
    {
      "lat": 44.765211036788614,
      "lon": 20.489990418440094,
      "geoinfo": {
        "display_name": "31, Bulevar Peka Dapčevića, МЗ Горњи Вождовац, Voždovac, Belgrade, City of Belgrade, Central Serbia, 11040, Serbia",
        "road": "Bulevar Peka Dapčevića",
        "house_number": "31",
        "neighbourhood": "МЗ Горњи Вождовац",
        "suburb": "Voždovac",
        "city_district": null,
        "city": "Belgrade",
        "state": "Central Serbia",
        "postcode": "11040",
        "country": "Serbia",
        "country_code": "rs"
      },
      "address": "31 Bulevar Peka Dapčevića, Belgrade, Central Serbia, Serbia"
    },
    {
      "lat": 44.803620170072044,
      "lon": 20.455916414674377,
      "geoinfo": {
        "display_name": "15, Milosa Pocerca, МЗ Слободан Пенезић-Крцун, Savski venac, Belgrade, City of Belgrade, Central Serbia, 11102, Serbia",
        "road": "Milosa Pocerca",
        "house_number": "15",
        "neighbourhood": "МЗ Слободан Пенезић-Крцун",
        "suburb": "Savski venac",
        "city_district": null,
        "city": "Belgrade",
        "state": "Central Serbia",
        "postcode": "11102",
        "country": "Serbia",
        "country_code": "rs"
      },
      "address": "15 Milosa Pocerca, Belgrade, Central Serbia, Serbia"
    },
    {
      "lat": 44.76693643668673,
      "lon": 20.45113093767337,
      "geoinfo": {
        "display_name": "White Palace, Пивљанина Баја, Lisičji potok, МЗ Дедиње, Savski venac, Belgrade, City of Belgrade, Central Serbia, 11090, Serbia",
        "road": "Пивљанина Баја",
        "house_number": null,
        "neighbourhood": "Lisičji potok",
        "suburb": "Savski venac",
        "city_district": null,
        "city": "Belgrade",
        "state": "Central Serbia",
        "postcode": "11090",
        "country": "Serbia",
        "country_code": "rs"
      },
      "address": "White Palace, Пивљанина Баја, Lisičji potok, МЗ Дедиње, Savski venac, Belgrade, City of Belgrade, Central Serbia, 11090, Serbia"
    },
    {
      "lat": 44.78249544579848,
      "lon": 20.43486581342929,
      "geoinfo": {
        "display_name": "Official road, Mihajlovac, Čukarica, Cukarica Urban Municipality, City of Belgrade, Central Serbia, 11002, Serbia",
        "road": "Official road",
        "house_number": null,
        "neighbourhood": "Mihajlovac",
        "suburb": "Čukarica",
        "city_district": null,
        "city": "Cukarica Urban Municipality",
        "state": "Central Serbia",
        "postcode": "11002",
        "country": "Serbia",
        "country_code": "rs"
      },
      "address": "406, Official road, Mihajlovac, Čukarica, Cukarica Urban Municipality, City of Belgrade, Central Serbia, 11002, Serbia"
    },
    {
      "lat": 44.77088867543969,
      "lon": 20.502288315068217,
      "geoinfo": {
        "display_name": "Svetozara Radojcica, Medaković II, МЗ Милорад Медаковић, Voždovac, Belgrade, City of Belgrade, Central Serbia, 11040, Serbia",
        "road": "Svetozara Radojcica",
        "house_number": null,
        "neighbourhood": "Medaković II",
        "suburb": "Voždovac",
        "city_district": null,
        "city": "Belgrade",
        "state": "Central Serbia",
        "postcode": "11040",
        "country": "Serbia",
        "country_code": "rs"
      },
      "address": "119, Svetozara Radojcica, Medaković II, МЗ Милорад Медаковић, Voždovac, Belgrade, City of Belgrade, Central Serbia, 11040, Serbia"
    },
    {
      "lat": 44.84489361162789,
      "lon": 20.440115036673035,
      "geoinfo": {
        "display_name": "Горана Бережана, Stara Borča, Borča, Palilula Urban Municipality, City of Belgrade, Central Serbia, 11000, Serbia",
        "road": "Горана Бережана",
        "house_number": null,
        "neighbourhood": null,
        "suburb": "Palilula Urban Municipality",
        "city_district": null,
        "city": "Borča",
        "state": "Central Serbia",
        "postcode": "11000",
        "country": "Serbia",
        "country_code": "rs"
      },
      "address": "736, Горана Бережана, Stara Borča, Borča, Palilula Urban Municipality, City of Belgrade, Central Serbia, 11000, Serbia"
    },
    {
      "lat": 44.84460044522036,
      "lon": 20.470787364338424,
      "geoinfo": {
        "display_name": "7, Загорке Беровић, Дунавски венац, Palilula, Palilula Urban Municipality, Belgrade, City of Belgrade, Central Serbia, 11060, Serbia",
        "road": "Загорке Беровић",
        "house_number": "7",
        "neighbourhood": null,
        "suburb": "Palilula",
        "city_district": null,
        "city": "Belgrade",
        "state": "Central Serbia",
        "postcode": "11060",
        "country": "Serbia",
        "country_code": "rs"
      },
      "address": "7, Загорке Беровић, Дунавски венац, Palilula, Palilula Urban Municipality, Belgrade, City of Belgrade, Central Serbia, 11060, Serbia"
    },
    {
      "lat": 44.78762307224548,
      "lon": 20.46348875051277,
      "geoinfo": {
        "display_name": "Динарска, Др Милутина Ивковића, МЗ Војвода Мишић (Савски венац), Savski venac, Belgrade, City of Belgrade, Central Serbia, 11115, Serbia",
        "road": "Др Милутина Ивковића",
        "house_number": null,
        "neighbourhood": "МЗ Војвода Мишић (Савски венац)",
        "suburb": "Savski venac",
        "city_district": null,
        "city": "Belgrade",
        "state": "Central Serbia",
        "postcode": "11115",
        "country": "Serbia",
        "country_code": "rs"
      },
      "address": "876, Др Милутина Ивковића, Belgrade, 11115 Central Serbia, Serbia"
    },
    {
      "lat": 44.800592136825216,
      "lon": 20.498690320417687,
      "geoinfo": {
        "display_name": "Клиничко-болнички центар „Звездара”, 161, Димитрија Туцовића, МЗ Славујев поток, Београд (Звездара), Zvezdara Urban Municipality, Belgrade, City of Belgrade, Central Serbia, 11000, Serbia",
        "road": "Димитрија Туцовића",
        "house_number": "161",
        "neighbourhood": null,
        "suburb": "Београд (Звездара)",
        "city_district": null,
        "city": "Belgrade",
        "state": "Central Serbia",
        "postcode": "11000",
        "country": "Serbia",
        "country_code": "rs"
      },
      "address": "Клиничко-болнички центар „Звездара”, 161, Димитрија Туцовића, МЗ Славујев поток, Београд (Звездара), Zvezdara Urban Municipality, Belgrade, City of Belgrade, Central Serbia, 11000, Serbia"
    },
    {
      "lat": 44.80783726713519,
      "lon": 20.425218049299115,
      "geoinfo": {
        "display_name": "ОШ „Лаза Костић”, 72, Милентија Поповића, MZ Gazela, New Belgrade Urban Municipality, Belgrade, City of Belgrade, Central Serbia, 11070, Serbia",
        "road": "Милентија Поповића",
        "house_number": "72",
        "neighbourhood": "MZ Gazela",
        "suburb": "New Belgrade Urban Municipality",
        "city_district": null,
        "city": "Belgrade",
        "state": "Central Serbia",
        "postcode": "11070",
        "country": "Serbia",
        "country_code": "rs"
      },
      "address": "ОШ „Лаза Костић”, 72, Милентија Поповића, MZ Gazela, New Belgrade Urban Municipality, Belgrade, City of Belgrade, Central Serbia, 11070, Serbia"
    },
    {
      "lat": 44.78695742547069,
      "lon": 20.467265989291857,
      "geoinfo": {
        "display_name": "11a, Vojvode Stepe, Autokomanda, МЗ Аутокоманда, Voždovac, Belgrade, City of Belgrade, Central Serbia, 11040, Serbia",
        "road": "Vojvode Stepe",
        "house_number": "11a",
        "neighbourhood": "Autokomanda",
        "suburb": "Voždovac",
        "city_district": null,
        "city": "Belgrade",
        "state": "Central Serbia",
        "postcode": "11040",
        "country": "Serbia",
        "country_code": "rs"
      },
      "address": "11a, Vojvode Stepe, Autokomanda, МЗ Аутокоманда, Voždovac, Belgrade, City of Belgrade, Central Serbia, 11040, Serbia"
    }
  ],
  "updated_at": "2025-10-19T06:13:00.546880+00:00",
  "_kind": "geo_samples"
}