{
  "country_code": "RS",
  "country": "Serbia",
  "city": "Gornji Milanovac",
  "geonameid": 790367,
  "target_addresses": 2,
  "samples": [
    {
      "lat": 44.061172824122856,
      "lon": 20.43997303451154,
      "geoinfo": {
        "display_name": "некадашња пруга уског колосека Лајковац–Чачак, Ljutovnica, Gornji Milanovac Municipality, Moravica Administrative District, Central Serbia, Serbia",
        "road": "некадашња пруга уског колосека Лајковац–Чачак",
        "house_number": null,
        "neighbourhood": null,
        "suburb": null,
        "city_district": null,
        "city": "Gornji Milanovac Municipality",
        "state": "Central Serbia",
        "postcode": null,
        "country": "Serbia",
        "country_code": "rs"
      },
      "address": "некадашња пруга уског колосека Лајковац–Чачак, Gornji Milanovac, Central Serbia, Serbia"
    },
    {
      "lat": 44.02121636728285,
      "lon": 20.402325452062694,
      "geoinfo": {
        "display_name": "Петлово брдо, Semedraz, Gornji Milanovac Municipality, Moravica Administrative District, Central Serbia, Serbia",
        "road": "Петлово брдо",
        "house_number": null,
        "neighbourhood": null,
        "suburb": null,
        "city_district": null,
        "city": "Gornji Milanovac Municipality",
        "state": "Central Serbia",
        "postcode": null,
        "country": "Serbia",
        "country_code": "rs"
      },
      "address": "Петлово брдо, Gornji Milanovac, Central Serbia, Serbia"
    },
    {
      "lat": 44.04752937901525,
      "lon": 20.411783038096274,
      "geoinfo": {
        "display_name": "Војводе Живојина Мишића, Klaticevo, Gornji Milanovac Municipality, Moravica Administrative District, Central Serbia, Serbia",
        "road": "Војводе Живојина Мишића",
        "house_number": null,
        "neighbourhood": null,
        "suburb": null,
        "city_district": null,
        "city": "Gornji Milanovac Municipality",
        "state": "Central Serbia",
        "postcode": null,
        "country": "Serbia",
        "country_code": "rs"
      },
      "address": "363, Војводе Живојина Мишића, Klaticevo, Gornji Milanovac Municipality, Moravica Administrative District, 90952 Central Serbia, Serbia"
    },
    {
      "lat": 44.05529846592683,
      "lon": 20.424744368504875,
      "geoinfo": {
        "display_name": "86, Устаничка, Klaticevo, Gornji Milanovac Municipality, Moravica Administrative District, Central Serbia, Serbia",
        "road": "Устаничка",
        "house_number": "86",
        "neighbourhood": null,
        "suburb": null,
        "city_district": null,
        "city": "Gornji Milanovac Municipality",
        "state": "Central Serbia",
        "postcode": null,
        "country": "Serbia",
        "country_code": "rs"
      },
      "address": "86, Устаничка, Klaticevo, Gornji Milanovac Municipality, Moravica Administrative District, 51555 Central Serbia, Serbia"
    }
  ],
  "updated_at": "2025-10-19T09:26:53.967833+00:00",
  "_kind": "geo_samples"
}