{
  "country_code": "RS",
  "country": "Serbia",
  "city": "Kikinda",
  "geonameid": 789518,
  "target_addresses": 2,
  "samples": [
    {
      "lat": 45.83761807660982,
      "lon": 20.525710651571785,
      "geoinfo": {
        "display_name": "Kikinda, City of Kikinda, North Banat Administrative District, Vojvodina, 23300, Serbia",
        "road": null,
        "house_number": null,
        "neighbourhood": null,
        "suburb": null,
        "city_district": null,
        "city": "Kikinda",
        "state": "Vojvodina",
        "postcode": "23300",
        "country": "Serbia",
        "country_code": "rs"
      },
      "address": "Kikinda, Vojvodina, Serbia"
    },
    {
      "lat": 45.83501208681522,
      "lon": 20.44333935633125,
      "geoinfo": {
        "display_name": "36, Save Lipovanova, Насеље Гаврило Принцип, Kikinda, City of Kikinda, North Banat Administrative District, Vojvodina, 23300, Serbia",
        "road": "Save Lipovanova",
        "house_number": "36",
        "neighbourhood": "Насеље Гаврило Принцип",
        "suburb": null,
        "city_district": null,
        "city": "Kikinda",
        "state": "Vojvodina",
        "postcode": "23300",
        "country": "Serbia",
        "country_code": "rs"
      },
      "address": "36 Save Lipovanova, Kikinda, Vojvodina, Serbia"
    },
    {
      "lat": 45.80011781890351,
      "lon": 20.464162993440116,
      "geoinfo": {
        "display_name": "Тозино насеље, Kikinda, City of Kikinda, North Banat Administrative District, Vojvodina, 23300, Serbia",
        "road": null,
        "house_number": null,
        "neighbourhood": "Тозино насеље",
        "suburb": null,
        "city_district": null,
        "city": "Kikinda",
        "state": "Vojvodina",
        "postcode": "23300",
        "country": "Serbia",
        "country_code": "rs"
      },
      "address": "049, Тозино насеље, Kikinda, City of Kikinda, North Banat Administrative District, Vojvodina, 23300, Serbia"
    },
    {
      "lat": 45.83516021849882,
      "lon": 20.469213022093886,
      "geoinfo": {
        "display_name": "50, Vojvode Putnika, Центар, Kikinda, City of Kikinda, North Banat Administrative District, Vojvodina, 23300, Serbia",
        "road": "Vojvode Putnika",
        "house_number": "50",
        "neighbourhood": "Центар",
        "suburb": null,
        "city_district": null,
        "city": "Kikinda",
        "state": "Vojvodina",
        "postcode": "23300",
        "country": "Serbia",
        "country_code": "rs"
      },
      "address": "50, Vojvode Putnika, Центар, Kikinda, City of Kikinda, North Banat Administrative District, Vojvodina, 23300, Serbia"
    }
  ],
  "updated_at": "2025-10-19T06:20:22.327867+00:00",
  "_kind": "geo_samples"
}