{
  "country_code": "RS",
  "country": "Serbia",
  "city": "Kraljevo",
  "geonameid": 789107,
  "target_addresses": 2,
  "samples": [
    {
      "lat": 43.71835827849141,
      "lon": 20.743487801739185,
      "geoinfo": {
        "display_name": "4, Старине Новака, Ratina, City of Kraljevo, Raska Administrative District, Central Serbia, Serbia",
        "road": "Старине Новака",
        "house_number": "4",
        "neighbourhood": null,
        "suburb": null,
        "city_district": null,
        "city": "Ratina",
        "state": "Central Serbia",
        "postcode": null,
        "country": "Serbia",
        "country_code": "rs"
      },
      "address": "4 Старине Новака, Kraljevo, Central Serbia, Serbia"
    },
    {
      "lat": 43.72924677734938,
      "lon": 20.68903088836101,
      "geoinfo": {
        "display_name": "9, Индустријска, Насеље Моше Пијаде, Сијаће Поље, Kraljevo, City of Kraljevo, Raska Administrative District, Central Serbia, 36101, Serbia",
        "road": "Индустријска",
        "house_number": "9",
        "neighbourhood": "Насеље Моше Пијаде",
        "suburb": "Сијаће Поље",
        "city_district": null,
        "city": "Kraljevo",
        "state": "Central Serbia",
        "postcode": "36101",
        "country": "Serbia",
        "country_code": "rs"
      },
      "address": "9 Индустријска, Kraljevo, Central Serbia, Serbia"
    },
    {
      "lat": 43.71447474292127,
      "lon": 20.701293577488226,
      "geoinfo": {
        "display_name": "6, Милорада Павића, Сијаће Поље, Kraljevo, City of Kraljevo, Raska Administrative District, Central Serbia, 36101, Serbia",
        "road": "Милорада Павића",
        "house_number": "6",
        "neighbourhood": null,
        "suburb": "Сијаће Поље",
        "city_district": null,
        "city": "Kraljevo",
        "state": "Central Serbia",
        "postcode": "36101",
        "country": "Serbia",
        "country_code": "rs"
      },
      "address": "6, Милорада Павића, Сијаће Поље, Kraljevo, City of Kraljevo, Raska Administrative District, Central Serbia, 36101, Serbia"
    },
    {
      "lat": 43.729936428466196,
      "lon": 20.703715156283117,
      "geoinfo": {
        "display_name": "Стадионска, Насеље Моше Пијаде, Сијаће Поље, Kraljevo, City of Kraljevo, Raska Administrative District, Central Serbia, 36101, Serbia",
        "road": "Стадионска",
        "house_number": null,
        "neighbourhood": "Насеље Моше Пијаде",
        "suburb": "Сијаће Поље",
        "city_district": null,
        "city": "Kraljevo",
        "state": "Central Serbia",
        "postcode": "36101",
        "country": "Serbia",
        "country_code": "rs"
      },
      "address": "389, Стадионска, Насеље Моше Пијаде, Сијаће Поље, Kraljevo, City of Kraljevo, Raska Administrative District, Central Serbia, 36101, Serbia"
    }
  ],
  "updated_at": "2025-10-19T09:26:41.982821+00:00",
  "_kind": "geo_samples"
}