{
  "country_code": "RS",
  "country": "Serbia",
  "city": "Loznica",
  "geonameid": 3196153,
  "target_addresses": 2,
  "samples": [
    {
      "lat": 44.57329488990391,
      "lon": 19.263138763046936,
      "geoinfo": {
        "display_name": "2, Владимира Божића, Lipnicki Sor, City of Loznica, Macva Administrative District, Central Serbia, 15341, Serbia",
        "road": "Владимира Божића",
        "house_number": "2",
        "neighbourhood": null,
        "suburb": null,
        "city_district": null,
        "city": "Lipnicki Sor",
        "state": "Central Serbia",
        "postcode": "15341",
        "country": "Serbia",
        "country_code": "rs"
      },
      "address": "2 Владимира Божића, Loznica, Central Serbia, Serbia"
    },
    {
      "lat": 44.51240184218998,
      "lon": 19.2271400632671,
      "geoinfo": {
        "display_name": "Кнеза Михаила, Basceluci, City of Loznica, Macva Administrative District, Central Serbia, 15300, Serbia",
        "road": "Кнеза Михаила",
        "house_number": null,
        "neighbourhood": null,
        "suburb": null,
        "city_district": null,
        "city": "Basceluci",
        "state": "Central Serbia",
        "postcode": "15300",
        "country": "Serbia",
        "country_code": "rs"
      },
      "address": "Кнеза Михаила, Loznica, Central Serbia, Serbia"
    },
    {
      "lat": 44.54017894553826,
      "lon": 19.222783442851373,
      "geoinfo": {
        "display_name": "24, Luke Stevica, Loznicko Polje, City of Loznica, Macva Administrative District, Central Serbia, 15300, Serbia",
        "road": "Luke Stevica",
        "house_number": "24",
        "neighbourhood": null,
        "suburb": null,
        "city_district": null,
        "city": "Loznicko Polje",
        "state": "Central Serbia",
        "postcode": "15300",
        "country": "Serbia",
        "country_code": "rs"
      },
      "address": "24, Luke Stevica, Loznicko Polje, City of Loznica, Macva Administrative District, Central Serbia, 15300, Serbia"
    },
    {
      "lat": 44.50691348777199,
      "lon": 19.194250448885445,
      "geoinfo": {
        "display_name": "67, Вере Бајан, Radovanovici, Trbusnica, City of Loznica, Macva Administrative District, Central Serbia, 15316, Serbia",
        "road": "Вере Бајан",
        "house_number": "67",
        "neighbourhood": null,
        "suburb": null,
        "city_district": null,
        "city": "Trbusnica",
        "state": "Central Serbia",
        "postcode": "15316",
        "country": "Serbia",
        "country_code": "rs"
      },
      "address": "67, Вере Бајан, Radovanovici, Trbusnica, City of Loznica, Macva Administrative District, Central Serbia, 15316, Serbia"
    }
  ],
  "updated_at": "2025-10-19T04:30:29.080169+00:00",
  "_kind": "geo_samples"
}