{
  "country_code": "RS",
  "country": "Serbia",
  "city": "Prokuplje",
  "geonameid": 786690,
  "target_addresses": 11,
  "samples": [
    {
      "lat": 43.19788106509373,
      "lon": 21.558978946167176,
      "geoinfo": {
        "display_name": "Добротић, Dobrotic, City of Prokuplje, Toplica Administrative District, Central Serbia, Serbia",
        "road": "Добротић",
        "house_number": null,
        "neighbourhood": null,
        "suburb": null,
        "city_district": null,
        "city": null,
        "state": "Central Serbia",
        "postcode": null,
        "country": "Serbia",
        "country_code": "rs"
      },
      "address": "Добротић, Prokuplje, Central Serbia, Serbia"
    },
    {
      "lat": 43.23573579416861,
      "lon": 21.61883111130391,
      "geoinfo": {
        "display_name": "Ново село, Novo Selo, City of Prokuplje, Toplica Administrative District, Central Serbia, 18400, Serbia",
        "road": "Ново село",
        "house_number": null,
        "neighbourhood": null,
        "suburb": null,
        "city_district": null,
        "city": "Novo Selo",
        "state": "Central Serbia",
        "postcode": "18400",
        "country": "Serbia",
        "country_code": "rs"
      },
      "address": "Ново село, Prokuplje, Central Serbia, Serbia"
    },
    {
      "lat": 43.24369182105278,
      "lon": 21.604999956606903,
      "geoinfo": {
        "display_name": "Pojate, Prokuplje, City of Prokuplje, Toplica Administrative District, Central Serbia, 18400, Serbia",
        "road": null,
        "house_number": null,
        "neighbourhood": null,
        "suburb": null,
        "city_district": null,
        "city": "Prokuplje",
        "state": "Central Serbia",
        "postcode": "18400",
        "country": "Serbia",
        "country_code": "rs"
      },
      "address": "Pojate, Prokuplje, City of Prokuplje, Toplica Administrative District, Central Serbia, 18400, Serbia"
    },
    {
      "lat": 43.25418411163178,
      "lon": 21.6026141206592,
      "geoinfo": {
        "display_name": "Donja Strazava, City of Prokuplje, Toplica Administrative District, Central Serbia, 18400, Serbia",
        "road": null,
        "house_number": null,
        "neighbourhood": null,
        "suburb": null,
        "city_district": null,
        "city": "Donja Strazava",
        "state": "Central Serbia",
        "postcode": "18400",
        "country": "Serbia",
        "country_code": "rs"
      },
      "address": "246, Donja Strazava, City of Prokuplje, Toplica Administrative District, Central Serbia, 18400, Serbia"
    },
    {
      "lat": 43.27084284293199,
      "lon": 21.574788056681793,
      "geoinfo": {
        "display_name": "227, Горња Стражава, Gornja Strazava, City of Prokuplje, Toplica Administrative District, Central Serbia, 18400, Serbia",
        "road": "Горња Стражава",
        "house_number": "227",
        "neighbourhood": null,
        "suburb": null,
        "city_district": null,
        "city": "Gornja Strazava",
        "state": "Central Serbia",
        "postcode": "18400",
        "country": "Serbia",
        "country_code": "rs"
      },
      "address": "227, Горња Стражава, Gornja Strazava, City of Prokuplje, Toplica Administrative District, Central Serbia, 18400, Serbia"
    },
    {
      "lat": 43.226859652576465,
      "lon": 21.5442504132468,
      "geoinfo": {
        "display_name": "64, Бела вода, Bela Voda, City of Prokuplje, Toplica Administrative District, Central Serbia, Serbia",
        "road": "Бела вода",
        "house_number": "64",
        "neighbourhood": null,
        "suburb": null,
        "city_district": null,
        "city": "Bela Voda",
        "state": "Central Serbia",
        "postcode": null,
        "country": "Serbia",
        "country_code": "rs"
      },
      "address": "64, Бела вода, Bela Voda, City of Prokuplje, Toplica Administrative District, 14173 Central Serbia, Serbia"
    },
    {
      "lat": 43.244806114774256,
      "lon": 21.645415283211346,
      "geoinfo": {
        "display_name": "100, Нова Божурна, Nova Bozurna, City of Prokuplje, Toplica Administrative District, Central Serbia, 18412, Serbia",
        "road": "Нова Божурна",
        "house_number": "100",
        "neighbourhood": null,
        "suburb": null,
        "city_district": null,
        "city": "Nova Bozurna",
        "state": "Central Serbia",
        "postcode": "18412",
        "country": "Serbia",
        "country_code": "rs"
      },
      "address": "100, Нова Божурна, Nova Bozurna, City of Prokuplje, Toplica Administrative District, Central Serbia, 18412, Serbia"
    },
    {
      "lat": 43.24257785743408,
      "lon": 21.644024042730237,
      "geoinfo": {
        "display_name": "88, Нова Божурна, Nova Bozurna, City of Prokuplje, Toplica Administrative District, Central Serbia, 18412, Serbia",
        "road": "Нова Божурна",
        "house_number": "88",
        "neighbourhood": null,
        "suburb": null,
        "city_district": null,
        "city": "Nova Bozurna",
        "state": "Central Serbia",
        "postcode": "18412",
        "country": "Serbia",
        "country_code": "rs"
      },
      "address": "88, Нова Божурна, Nova Bozurna, City of Prokuplje, Toplica Administrative District, Central Serbia, 18412, Serbia"
    },
    {
      "lat": 43.19734263815164,
      "lon": 21.57995074183611,
      "geoinfo": {
        "display_name": "Seliste, City of Prokuplje, Toplica Administrative District, Central Serbia, 18400, Serbia",
        "road": null,
        "house_number": null,
        "neighbourhood": null,
        "suburb": null,
        "city_district": null,
        "city": null,
        "state": "Central Serbia",
        "postcode": "18400",
        "country": "Serbia",
        "country_code": "rs"
      },
      "address": "970, Seliste, City of Prokuplje, Toplica Administrative District, Central Serbia, 18400, Serbia"
    },
    {
      "lat": 43.199137441624984,
      "lon": 21.584316446641278,
      "geoinfo": {
        "display_name": "Селиште, Seliste, Prokuplje, City of Prokuplje, Toplica Administrative District, Central Serbia, 18400, Serbia",
        "road": "Селиште",
        "house_number": null,
        "neighbourhood": null,
        "suburb": null,
        "city_district": null,
        "city": "Prokuplje",
        "state": "Central Serbia",
        "postcode": "18400",
        "country": "Serbia",
        "country_code": "rs"
      },
      "address": "075, Селиште, Seliste, Prokuplje, City of Prokuplje, Toplica Administrative District, Central Serbia, 18400, Serbia"
    },
    {
      "lat": 43.196969621918946,
      "lon": 21.619908887839575,
      "geoinfo": {
        "display_name": "76, Бериље, Berilje, City of Prokuplje, Toplica Administrative District, Central Serbia, 18412, Serbia",
        "road": "Бериље",
        "house_number": "76",
        "neighbourhood": null,
        "suburb": null,
        "city_district": null,
        "city": "Berilje",
        "state": "Central Serbia",
        "postcode": "18412",
        "country": "Serbia",
        "country_code": "rs"
      },
      "address": "76, Бериље, Berilje, City of Prokuplje, Toplica Administrative District, Central Serbia, 18412, Serbia"
    }
  ],
  "updated_at": "2025-10-19T06:12:37.286686+00:00",
  "_kind": "geo_samples"
}