{
  "country_code": "RS",
  "country": "Serbia",
  "city": "Sremčica",
  "geonameid": 785615,
  "target_addresses": 2,
  "samples": [
    {
      "lat": 44.654161677929814,
      "lon": 20.375713780895406,
      "geoinfo": {
        "display_name": "33g, Липовачка, Velika Mostanica, Cukarica Urban Municipality, City of Belgrade, Central Serbia, 11253, Serbia",
        "road": "Липовачка",
        "house_number": "33g",
        "neighbourhood": null,
        "suburb": null,
        "city_district": null,
        "city": "Cukarica Urban Municipality",
        "state": "Central Serbia",
        "postcode": "11253",
        "country": "Serbia",
        "country_code": "rs"
      },
      "address": "33g Липовачка, Sremčica, Central Serbia, Serbia"
    },
    {
      "lat": 44.650315901433004,
      "lon": 20.39805385588518,
      "geoinfo": {
        "display_name": "11, Породице Нешић, Sremčica, Cukarica Urban Municipality, City of Belgrade, Central Serbia, 11253, Serbia",
        "road": "Породице Нешић",
        "house_number": "11",
        "neighbourhood": null,
        "suburb": "Sremčica",
        "city_district": null,
        "city": "Cukarica Urban Municipality",
        "state": "Central Serbia",
        "postcode": "11253",
        "country": "Serbia",
        "country_code": "rs"
      },
      "address": "11 Породице Нешић, Sremčica, Central Serbia, Serbia"
    },
    {
      "lat": 44.6600877153808,
      "lon": 20.41289526829934,
      "geoinfo": {
        "display_name": "Sremčica, Cukarica Urban Municipality, City of Belgrade, Central Serbia, 11253, Serbia",
        "road": null,
        "house_number": null,
        "neighbourhood": null,
        "suburb": "Sremčica",
        "city_district": null,
        "city": "Cukarica Urban Municipality",
        "state": "Central Serbia",
        "postcode": "11253",
        "country": "Serbia",
        "country_code": "rs"
      },
      "address": "046, Sremčica, Cukarica Urban Municipality, City of Belgrade, Central Serbia, 11253, Serbia"
    },
    {
      "lat": 44.70005892020595,
      "lon": 20.39361675956162,
      "geoinfo": {
        "display_name": "Шумски рај, Sremčica, Cukarica Urban Municipality, City of Belgrade, Central Serbia, 11253, Serbia",
        "road": "Шумски рај",
        "house_number": null,
        "neighbourhood": null,
        "suburb": "Sremčica",
        "city_district": null,
        "city": "Cukarica Urban Municipality",
        "state": "Central Serbia",
        "postcode": "11253",
        "country": "Serbia",
        "country_code": "rs"
      },
      "address": "949, Шумски рај, Sremčica, Cukarica Urban Municipality, City of Belgrade, Central Serbia, 11253, Serbia"
    }
  ],
  "updated_at": "2025-10-19T06:46:21.778609+00:00",
  "_kind": "geo_samples"
}