{
  "country_code": "RS",
  "country": "Serbia",
  "city": "Sremska Mitrovica",
  "geonameid": 3190103,
  "target_addresses": 2,
  "samples": [
    {
      "lat": 44.95613678299553,
      "lon": 19.628740128883365,
      "geoinfo": {
        "display_name": "Савски насип, Salas Nocajski, City of Sremska Mitrovica, Srem Administrative District, Vojvodina, 22202, Serbia",
        "road": "Савски насип",
        "house_number": null,
        "neighbourhood": null,
        "suburb": null,
        "city_district": null,
        "city": "Salas Nocajski",
        "state": "Vojvodina",
        "postcode": "22202",
        "country": "Serbia",
        "country_code": "rs"
      },
      "address": "Савски насип, Sremska Mitrovica, Vojvodina, Serbia"
    },
    {
      "lat": 45.01641723026983,
      "lon": 19.586853019532285,
      "geoinfo": {
        "display_name": "A3, Lacarak, City of Sremska Mitrovica, Srem Administrative District, Vojvodina, 22221, Serbia",
        "road": "A3",
        "house_number": null,
        "neighbourhood": null,
        "suburb": null,
        "city_district": null,
        "city": "Lacarak",
        "state": "Vojvodina",
        "postcode": "22221",
        "country": "Serbia",
        "country_code": "rs"
      },
      "address": "A3, Sremska Mitrovica, Vojvodina, Serbia"
    },
    {
      "lat": 44.96876501414673,
      "lon": 19.6017782618199,
      "geoinfo": {
        "display_name": "Дом здравља III, 1, Променада, Центар, Sremska Mitrovica, City of Sremska Mitrovica, Srem Administrative District, Vojvodina, 22000, Serbia",
        "road": "Променада",
        "house_number": "1",
        "neighbourhood": null,
        "suburb": null,
        "city_district": null,
        "city": "Sremska Mitrovica",
        "state": "Vojvodina",
        "postcode": "22000",
        "country": "Serbia",
        "country_code": "rs"
      },
      "address": "Дом здравља III, 1, Променада, Центар, Sremska Mitrovica, City of Sremska Mitrovica, Srem Administrative District, Vojvodina, 22000, Serbia"
    },
    {
      "lat": 44.99155467092022,
      "lon": 19.66561262956833,
      "geoinfo": {
        "display_name": "Sremska Mitrovica, City of Sremska Mitrovica, Srem Administrative District, Vojvodina, 22000, Serbia",
        "road": null,
        "house_number": null,
        "neighbourhood": null,
        "suburb": null,
        "city_district": null,
        "city": "Sremska Mitrovica",
        "state": "Vojvodina",
        "postcode": "22000",
        "country": "Serbia",
        "country_code": "rs"
      },
      "address": "370, Sremska Mitrovica, City of Sremska Mitrovica, Srem Administrative District, Vojvodina, 22000, Serbia"
    }
  ],
  "updated_at": "2025-10-19T04:30:21.900047+00:00",
  "_kind": "geo_samples"
}