{
  "country_code": "RS",
  "country": "Serbia",
  "city": "Subotica",
  "geonameid": 3189595,
  "target_addresses": 2,
  "samples": [
    {
      "lat": 46.105623379437745,
      "lon": 19.72729370040115,
      "geoinfo": {
        "display_name": "Радановац, Сегедински пут, Радановац, МЗ Радановац, Subotica, City of Subotica, North Backa Administrative District, Vojvodina, 24000, Serbia",
        "road": "Сегедински пут",
        "house_number": null,
        "neighbourhood": null,
        "suburb": "Радановац",
        "city_district": "Subotica",
        "city": "Subotica",
        "state": "Vojvodina",
        "postcode": "24000",
        "country": "Serbia",
        "country_code": "rs"
      },
      "address": "Сегедински пут, Subotica, Vojvodina, Serbia"
    },
    {
      "lat": 46.07565313986061,
      "lon": 19.632748209216413,
      "geoinfo": {
        "display_name": "4, 14. нова, Црвено село, МЗ Мали Бајмок, Subotica, City of Subotica, North Backa Administrative District, Vojvodina, 24000, Serbia",
        "road": "14. нова",
        "house_number": "4",
        "neighbourhood": null,
        "suburb": "МЗ Мали Бајмок",
        "city_district": "Subotica",
        "city": "Subotica",
        "state": "Vojvodina",
        "postcode": "24000",
        "country": "Serbia",
        "country_code": "rs"
      },
      "address": "4 14. нова, Subotica, Vojvodina, Serbia"
    },
    {
      "lat": 46.13739402114011,
      "lon": 19.631131250833224,
      "geoinfo": {
        "display_name": "182, 11. нова, Zorka, МЗ Зорка, Subotica, City of Subotica, North Backa Administrative District, Vojvodina, 24000, Serbia",
        "road": "11. нова",
        "house_number": "182",
        "neighbourhood": null,
        "suburb": "Zorka",
        "city_district": "Subotica",
        "city": "Subotica",
        "state": "Vojvodina",
        "postcode": "24000",
        "country": "Serbia",
        "country_code": "rs"
      },
      "address": "182, 11. нова, Zorka, МЗ Зорка, Subotica, City of Subotica, North Backa Administrative District, Vojvodina, 24000, Serbia"
    },
    {
      "lat": 46.0994828833617,
      "lon": 19.686986139606034,
      "geoinfo": {
        "display_name": "72, Сегедински пут, New Town, МЗ Нови град, Subotica, City of Subotica, North Backa Administrative District, Vojvodina, 24000, Serbia",
        "road": "Сегедински пут",
        "house_number": "72",
        "neighbourhood": null,
        "suburb": "New Town",
        "city_district": "Subotica",
        "city": "Subotica",
        "state": "Vojvodina",
        "postcode": "24000",
        "country": "Serbia",
        "country_code": "rs"
      },
      "address": "72, Сегедински пут, New Town, МЗ Нови град, Subotica, City of Subotica, North Backa Administrative District, Vojvodina, 24000, Serbia"
    }
  ],
  "updated_at": "2025-10-19T06:47:09.120500+00:00",
  "_kind": "geo_samples"
}