{
  "country_code": "RS",
  "country": "Serbia",
  "city": "Vrbas",
  "geonameid": 3187297,
  "target_addresses": 2,
  "samples": [
    {
      "lat": 45.53217593368754,
      "lon": 19.669884780444704,
      "geoinfo": {
        "display_name": "Стари Врбас, Vrbas, Vrbas Municipality, South Backa Administrative District, Vojvodina, 21460, Serbia",
        "road": null,
        "house_number": null,
        "neighbourhood": null,
        "suburb": "Стари Врбас",
        "city_district": null,
        "city": "Vrbas Municipality",
        "state": "Vojvodina",
        "postcode": "21460",
        "country": "Serbia",
        "country_code": "rs"
      },
      "address": "Стари Врбас, Vrbas, Vojvodina, Serbia"
    },
    {
      "lat": 45.53455425306764,
      "lon": 19.66274809383245,
      "geoinfo": {
        "display_name": "Мира, Vrbas, Vrbas Municipality, South Backa Administrative District, Vojvodina, 21460, Serbia",
        "road": "Мира",
        "house_number": null,
        "neighbourhood": null,
        "suburb": null,
        "city_district": null,
        "city": "Vrbas Municipality",
        "state": "Vojvodina",
        "postcode": "21460",
        "country": "Serbia",
        "country_code": "rs"
      },
      "address": "Мира, Vrbas, Vojvodina, Serbia"
    },
    {
      "lat": 45.58804734707169,
      "lon": 19.59013283883817,
      "geoinfo": {
        "display_name": "129, Кулски пут, Колонија шећеране, Vrbas, Vrbas Municipality, South Backa Administrative District, Vojvodina, Serbia",
        "road": "Кулски пут",
        "house_number": "129",
        "neighbourhood": "Колонија шећеране",
        "suburb": null,
        "city_district": null,
        "city": "Vrbas Municipality",
        "state": "Vojvodina",
        "postcode": null,
        "country": "Serbia",
        "country_code": "rs"
      },
      "address": "129, Кулски пут, Колонија шећеране, Vrbas, Vrbas Municipality, South Backa Administrative District, 14331 Vojvodina, Serbia"
    },
    {
      "lat": 45.545354882639735,
      "lon": 19.66274473013804,
      "geoinfo": {
        "display_name": "17, Мира, Vrbas, Vrbas Municipality, South Backa Administrative District, Vojvodina, 21460, Serbia",
        "road": "Мира",
        "house_number": "17",
        "neighbourhood": null,
        "suburb": null,
        "city_district": null,
        "city": "Vrbas Municipality",
        "state": "Vojvodina",
        "postcode": "21460",
        "country": "Serbia",
        "country_code": "rs"
      },
      "address": "17, Мира, Vrbas, Vrbas Municipality, South Backa Administrative District, Vojvodina, 21460, Serbia"
    }
  ],
  "updated_at": "2025-10-19T09:27:05.899921+00:00",
  "_kind": "geo_samples"
}