{
  "country_code": "RS",
  "country": "Serbia",
  "city": "Ćuprija",
  "geonameid": 791678,
  "target_addresses": 2,
  "samples": [
    {
      "lat": 43.95411215160309,
      "lon": 21.410111454712478,
      "geoinfo": {
        "display_name": "Dobricevo, Cuprija, Cuprija Municipality, Pomoravlje Administrative District, Central Serbia, 35230, Serbia",
        "road": null,
        "house_number": null,
        "neighbourhood": null,
        "suburb": null,
        "city_district": null,
        "city": "Cuprija Municipality",
        "state": "Central Serbia",
        "postcode": "35230",
        "country": "Serbia",
        "country_code": "rs"
      },
      "address": "Ćuprija, Central Serbia, Serbia"
    },
    {
      "lat": 43.91387029276524,
      "lon": 21.38086595549001,
      "geoinfo": {
        "display_name": "Техничка школа, Kneza Milosa, Cuprija, Cuprija Municipality, Pomoravlje Administrative District, Central Serbia, 35230, Serbia",
        "road": "Kneza Milosa",
        "house_number": null,
        "neighbourhood": null,
        "suburb": null,
        "city_district": null,
        "city": "Cuprija Municipality",
        "state": "Central Serbia",
        "postcode": "35230",
        "country": "Serbia",
        "country_code": "rs"
      },
      "address": "Kneza Milosa, Ćuprija, Central Serbia, Serbia"
    },
    {
      "lat": 43.91124341056739,
      "lon": 21.345158147534505,
      "geoinfo": {
        "display_name": "21, Десанке Милосављевић, Cuprija, Cuprija Municipality, Pomoravlje Administrative District, Central Serbia, 35230, Serbia",
        "road": "Десанке Милосављевић",
        "house_number": "21",
        "neighbourhood": null,
        "suburb": null,
        "city_district": null,
        "city": "Cuprija Municipality",
        "state": "Central Serbia",
        "postcode": "35230",
        "country": "Serbia",
        "country_code": "rs"
      },
      "address": "21, Десанке Милосављевић, Ćuprija, 35230 Central Serbia, Serbia"
    },
    {
      "lat": 43.92379179171852,
      "lon": 21.426790778186255,
      "geoinfo": {
        "display_name": "Карађорђева, Batinac, Cuprija Municipality, Pomoravlje Administrative District, Central Serbia, Serbia",
        "road": "Карађорђева",
        "house_number": null,
        "neighbourhood": null,
        "suburb": null,
        "city_district": null,
        "city": "Cuprija Municipality",
        "state": "Central Serbia",
        "postcode": null,
        "country": "Serbia",
        "country_code": "rs"
      },
      "address": "171, Карађорђева, Ćuprija, 40075 Central Serbia, Serbia"
    }
  ],
  "updated_at": "2025-10-19T06:20:30.320136+00:00",
  "_kind": "geo_samples"
}