{
  "country_code": "KM",
  "country": "Comoros",
  "city": "Fomboni",
  "geonameid": 921889,
  "target_addresses": 31,
  "samples": [
    {
      "lat": -12.277175362861664,
      "lon": 43.7714916435796,
      "geoinfo": {
        "display_name": "Djoiezi, Moili Mdjini, Moheli, Comoros",
        "road": null,
        "house_number": null,
        "neighbourhood": null,
        "suburb": null,
        "city_district": null,
        "city": "Moili Mdjini",
        "state": "Moheli",
        "postcode": null,
        "country": "Comoros",
        "country_code": "km"
      },
      "address": "Fomboni, Moheli, Comoros"
    },
    {
      "lat": -12.296751369108094,
      "lon": 43.76948370234786,
      "geoinfo": {
        "display_name": "Aérodrome de Mohéli, Route Nationale 32, Djoiezi, Moili Mdjini, Moheli, Comoros",
        "road": "Route Nationale 32",
        "house_number": null,
        "neighbourhood": null,
        "suburb": null,
        "city_district": null,
        "city": "Moili Mdjini",
        "state": "Moheli",
        "postcode": null,
        "country": "Comoros",
        "country_code": "km"
      },
      "address": "Route Nationale 32, Fomboni, Moheli, Comoros"
    },
    {
      "lat": -12.284890124889243,
      "lon": 43.785541596374536,
      "geoinfo": {
        "display_name": "Djoiezi, Moili Mdjini, Moheli, Comoros",
        "road": null,
        "house_number": null,
        "neighbourhood": null,
        "suburb": null,
        "city_district": null,
        "city": "Moili Mdjini",
        "state": "Moheli",
        "postcode": null,
        "country": "Comoros",
        "country_code": "km"
      },
      "address": "498, Fomboni, 72014 Moheli, Comoros"
    },
    {
      "lat": -12.280955447741933,
      "lon": 43.700120927463416,
      "geoinfo": {
        "display_name": "Mbatsé, Moimbassa, Moheli, Comoros",
        "road": null,
        "house_number": null,
        "neighbourhood": null,
        "suburb": null,
        "city_district": null,
        "city": "Moimbassa",
        "state": "Moheli",
        "postcode": null,
        "country": "Comoros",
        "country_code": "km"
      },
      "address": "073, Fomboni, 06446 Moheli, Comoros"
    },
    {
      "lat": -12.32642705910487,
      "lon": 43.757105131758635,
      "geoinfo": {
        "display_name": "Djoiezi, Moili Mdjini, Moheli, Comoros",
        "road": null,
        "house_number": null,
        "neighbourhood": null,
        "suburb": null,
        "city_district": null,
        "city": "Moili Mdjini",
        "state": "Moheli",
        "postcode": null,
        "country": "Comoros",
        "country_code": "km"
      },
      "address": "189, Fomboni, 16495 Moheli, Comoros"
    },
    {
      "lat": -12.267607906512081,
      "lon": 43.78457999338025,
      "geoinfo": {
        "display_name": "Djoiezi, Moili Mdjini, Moheli, Comoros",
        "road": null,
        "house_number": null,
        "neighbourhood": null,
        "suburb": null,
        "city_district": null,
        "city": "Moili Mdjini",
        "state": "Moheli",
        "postcode": null,
        "country": "Comoros",
        "country_code": "km"
      },
      "address": "104, Fomboni, 24585 Moheli, Comoros"
    },
    {
      "lat": -12.282990162341159,
      "lon": 43.7535783813877,
      "geoinfo": {
        "display_name": "Djoiezi, Moili Mdjini, Moheli, Comoros",
        "road": null,
        "house_number": null,
        "neighbourhood": null,
        "suburb": null,
        "city_district": null,
        "city": "Moili Mdjini",
        "state": "Moheli",
        "postcode": null,
        "country": "Comoros",
        "country_code": "km"
      },
      "address": "271, Fomboni, 67077 Moheli, Comoros"
    },
    {
      "lat": -12.290632467715545,
      "lon": 43.713294785187855,
      "geoinfo": {
        "display_name": "Fomboni, Moheli, Comoros",
        "road": null,
        "house_number": null,
        "neighbourhood": null,
        "suburb": null,
        "city_district": null,
        "city": "Fomboni",
        "state": "Moheli",
        "postcode": null,
        "country": "Comoros",
        "country_code": "km"
      },
      "address": "165, Fomboni, 27834 Moheli, Comoros"
    },
    {
      "lat": -12.275033762025913,
      "lon": 43.75658038130033,
      "geoinfo": {
        "display_name": "Djoiezi, Moili Mdjini, Moheli, Comoros",
        "road": null,
        "house_number": null,
        "neighbourhood": null,
        "suburb": null,
        "city_district": null,
        "city": "Moili Mdjini",
        "state": "Moheli",
        "postcode": null,
        "country": "Comoros",
        "country_code": "km"
      },
      "address": "015, Fomboni, 63415 Moheli, Comoros"
    },
    {
      "lat": -12.320980443392502,
      "lon": 43.72455317569347,
      "geoinfo": {
        "display_name": "Nioumachoua, M'lédjélé, Moheli, Comoros",
        "road": null,
        "house_number": null,
        "neighbourhood": null,
        "suburb": null,
        "city_district": null,
        "city": "M'lédjélé",
        "state": "Moheli",
        "postcode": null,
        "country": "Comoros",
        "country_code": "km"
      },
      "address": "625, Fomboni, 26250 Moheli, Comoros"
    },
    {
      "lat": -12.274402040857229,
      "lon": 43.76554418061138,
      "geoinfo": {
        "display_name": "Djoiezi, Moili Mdjini, Moheli, Comoros",
        "road": null,
        "house_number": null,
        "neighbourhood": null,
        "suburb": null,
        "city_district": null,
        "city": "Moili Mdjini",
        "state": "Moheli",
        "postcode": null,
        "country": "Comoros",
        "country_code": "km"
      },
      "address": "677, Fomboni, 99165 Moheli, Comoros"
    },
    {
      "lat": -12.27424219354689,
      "lon": 43.73457863787375,
      "geoinfo": {
        "display_name": "Fomboni, Moheli, Comoros",
        "road": null,
        "house_number": null,
        "neighbourhood": null,
        "suburb": null,
        "city_district": null,
        "city": "Fomboni",
        "state": "Moheli",
        "postcode": null,
        "country": "Comoros",
        "country_code": "km"
      },
      "address": "119, Fomboni, 36485 Moheli, Comoros"
    },
    {
      "lat": -12.309080262182746,
      "lon": 43.74669118616626,
      "geoinfo": {
        "display_name": "Djoiezi, Moili Mdjini, Moheli, Comoros",
        "road": null,
        "house_number": null,
        "neighbourhood": null,
        "suburb": null,
        "city_district": null,
        "city": "Moili Mdjini",
        "state": "Moheli",
        "postcode": null,
        "country": "Comoros",
        "country_code": "km"
      },
      "address": "452, Fomboni, 06571 Moheli, Comoros"
    },
    {
      "lat": -12.289155366239635,
      "lon": 43.756999626454636,
      "geoinfo": {
        "display_name": "Route Nationale 32, Djoiezi, Moili Mdjini, Moheli, Comoros",
        "road": "Route Nationale 32",
        "house_number": null,
        "neighbourhood": null,
        "suburb": null,
        "city_district": null,
        "city": "Moili Mdjini",
        "state": "Moheli",
        "postcode": null,
        "country": "Comoros",
        "country_code": "km"
      },
      "address": "Route Nationale 32, Fomboni, 30300 Moheli, Comoros"
    },
    {
      "lat": -12.275210748338946,
      "lon": 43.75156216003681,
      "geoinfo": {
        "display_name": "Djoiezi, Moili Mdjini, Moheli, Comoros",
        "road": null,
        "house_number": null,
        "neighbourhood": null,
        "suburb": null,
        "city_district": null,
        "city": "Moili Mdjini",
        "state": "Moheli",
        "postcode": null,
        "country": "Comoros",
        "country_code": "km"
      },
      "address": "422, Fomboni, 73846 Moheli, Comoros"
    },
    {
      "lat": -12.32885085257645,
      "lon": 43.75032839937404,
      "geoinfo": {
        "display_name": "Djoiezi, Moili Mdjini, Moheli, Comoros",
        "road": null,
        "house_number": null,
        "neighbourhood": null,
        "suburb": null,
        "city_district": null,
        "city": "Moili Mdjini",
        "state": "Moheli",
        "postcode": null,
        "country": "Comoros",
        "country_code": "km"
      },
      "address": "855, Fomboni, 07276 Moheli, Comoros"
    },
    {
      "lat": -12.276572235815625,
      "lon": 43.78616410320545,
      "geoinfo": {
        "display_name": "Djoiezi, Moili Mdjini, Moheli, Comoros",
        "road": null,
        "house_number": null,
        "neighbourhood": null,
        "suburb": null,
        "city_district": null,
        "city": "Moili Mdjini",
        "state": "Moheli",
        "postcode": null,
        "country": "Comoros",
        "country_code": "km"
      },
      "address": "517, Fomboni, 28986 Moheli, Comoros"
    },
    {
      "lat": -12.292959494302272,
      "lon": 43.782512890197424,
      "geoinfo": {
        "display_name": "Djoiezi, Moili Mdjini, Moheli, Comoros",
        "road": null,
        "house_number": null,
        "neighbourhood": null,
        "suburb": null,
        "city_district": null,
        "city": "Moili Mdjini",
        "state": "Moheli",
        "postcode": null,
        "country": "Comoros",
        "country_code": "km"
      },
      "address": "450, Fomboni, 51410 Moheli, Comoros"
    },
    {
      "lat": -12.307630158977608,
      "lon": 43.77974056403984,
      "geoinfo": {
        "display_name": "Route Nationale 32, Djoiezi, Moili Mdjini, Moheli, Comoros",
        "road": "Route Nationale 32",
        "house_number": null,
        "neighbourhood": null,
        "suburb": null,
        "city_district": null,
        "city": "Moili Mdjini",
        "state": "Moheli",
        "postcode": null,
        "country": "Comoros",
        "country_code": "km"
      },
      "address": "Route Nationale 32, Fomboni, 41075 Moheli, Comoros"
    },
    {
      "lat": -12.277462837871685,
      "lon": 43.720866032759346,
      "geoinfo": {
        "display_name": "Route Nationale 32, Fomboni, Moheli, Comoros",
        "road": "Route Nationale 32",
        "house_number": null,
        "neighbourhood": null,
        "suburb": null,
        "city_district": null,
        "city": "Fomboni",
        "state": "Moheli",
        "postcode": null,
        "country": "Comoros",
        "country_code": "km"
      },
      "address": "Route Nationale 32, Fomboni, 73724 Moheli, Comoros"
    },
    {
      "lat": -12.26367395542149,
      "lon": 43.77841479312578,
      "geoinfo": {
        "display_name": "Djoiezi, Moili Mdjini, Moheli, Comoros",
        "road": null,
        "house_number": null,
        "neighbourhood": null,
        "suburb": null,
        "city_district": null,
        "city": "Moili Mdjini",
        "state": "Moheli",
        "postcode": null,
        "country": "Comoros",
        "country_code": "km"
      },
      "address": "465, Fomboni, 93241 Moheli, Comoros"
    },
    {
      "lat": -12.305123064862418,
      "lon": 43.74244527897113,
      "geoinfo": {
        "display_name": "Fomboni, Moheli, Comoros",
        "road": null,
        "house_number": null,
        "neighbourhood": null,
        "suburb": null,
        "city_district": null,
        "city": "Fomboni",
        "state": "Moheli",
        "postcode": null,
        "country": "Comoros",
        "country_code": "km"
      },
      "address": "439, Fomboni, 50662 Moheli, Comoros"
    },
    {
      "lat": -12.268242526197195,
      "lon": 43.70245003723923,
      "geoinfo": {
        "display_name": "Route Nationale 32, Fomboni, Moimbassa, Moheli, Comoros",
        "road": "Route Nationale 32",
        "house_number": null,
        "neighbourhood": null,
        "suburb": null,
        "city_district": null,
        "city": "Fomboni",
        "state": "Moheli",
        "postcode": null,
        "country": "Comoros",
        "country_code": "km"
      },
      "address": "Route Nationale 32, Fomboni, Moimbassa, 04641 Moheli, Comoros"
    },
    {
      "lat": -12.292515468414583,
      "lon": 43.758658959376454,
      "geoinfo": {
        "display_name": "Auberge les Abou, Route Nationale 32, Djoiezi, Moili Mdjini, Moheli, Comoros",
        "road": "Route Nationale 32",
        "house_number": null,
        "neighbourhood": null,
        "suburb": null,
        "city_district": null,
        "city": "Moili Mdjini",
        "state": "Moheli",
        "postcode": null,
        "country": "Comoros",
        "country_code": "km"
      },
      "address": "Route Nationale 32, Fomboni, 18937 Moheli, Comoros"
    },
    {
      "lat": -12.325807869655048,
      "lon": 43.7600422712687,
      "geoinfo": {
        "display_name": "Djoiezi, Moili Mdjini, Moheli, Comoros",
        "road": null,
        "house_number": null,
        "neighbourhood": null,
        "suburb": null,
        "city_district": null,
        "city": "Moili Mdjini",
        "state": "Moheli",
        "postcode": null,
        "country": "Comoros",
        "country_code": "km"
      },
      "address": "975, Fomboni, 10381 Moheli, Comoros"
    },
    {
      "lat": -12.293074989693814,
      "lon": 43.702134473814446,
      "geoinfo": {
        "display_name": "Fomboni, Moheli, Comoros",
        "road": null,
        "house_number": null,
        "neighbourhood": null,
        "suburb": null,
        "city_district": null,
        "city": "Fomboni",
        "state": "Moheli",
        "postcode": null,
        "country": "Comoros",
        "country_code": "km"
      },
      "address": "112, Fomboni, 26992 Moheli, Comoros"
    },
    {
      "lat": -12.29884972805116,
      "lon": 43.784718190004035,
      "geoinfo": {
        "display_name": "Djoiezi, Moili Mdjini, Moheli, Comoros",
        "road": null,
        "house_number": null,
        "neighbourhood": null,
        "suburb": null,
        "city_district": null,
        "city": "Moili Mdjini",
        "state": "Moheli",
        "postcode": null,
        "country": "Comoros",
        "country_code": "km"
      },
      "address": "988, Fomboni, 62650 Moheli, Comoros"
    },
    {
      "lat": -12.289395906987995,
      "lon": 43.7500510380994,
      "geoinfo": {
        "display_name": "Route Nationale 32, Djoiezi, Moili Mdjini, Moheli, Comoros",
        "road": "Route Nationale 32",
        "house_number": null,
        "neighbourhood": null,
        "suburb": null,
        "city_district": null,
        "city": "Moili Mdjini",
        "state": "Moheli",
        "postcode": null,
        "country": "Comoros",
        "country_code": "km"
      },
      "address": "Route Nationale 32, Fomboni, 68288 Moheli, Comoros"
    },
    {
      "lat": -12.302144930320942,
      "lon": 43.76164513796185,
      "geoinfo": {
        "display_name": "Route Nationale 32, Djoiezi, Moili Mdjini, Moheli, Comoros",
        "road": "Route Nationale 32",
        "house_number": null,
        "neighbourhood": null,
        "suburb": null,
        "city_district": null,
        "city": "Moili Mdjini",
        "state": "Moheli",
        "postcode": null,
        "country": "Comoros",
        "country_code": "km"
      },
      "address": "Route Nationale 32, Fomboni, 82492 Moheli, Comoros"
    },
    {
      "lat": -12.31237436152054,
      "lon": 43.77653799043599,
      "geoinfo": {
        "display_name": "Djoiezi, Moili Mdjini, Moheli, Comoros",
        "road": null,
        "house_number": null,
        "neighbourhood": null,
        "suburb": null,
        "city_district": null,
        "city": "Moili Mdjini",
        "state": "Moheli",
        "postcode": null,
        "country": "Comoros",
        "country_code": "km"
      },
      "address": "389, Fomboni, 88682 Moheli, Comoros"
    },
    {
      "lat": -12.28330579589694,
      "lon": 43.75198367427598,
      "geoinfo": {
        "display_name": "Djoiezi, Moili Mdjini, Moheli, Comoros",
        "road": null,
        "house_number": null,
        "neighbourhood": null,
        "suburb": null,
        "city_district": null,
        "city": "Moili Mdjini",
        "state": "Moheli",
        "postcode": null,
        "country": "Comoros",
        "country_code": "km"
      },
      "address": "696, Fomboni, 68917 Moheli, Comoros"
    },
    {
      "lat": -12.292903781521415,
      "lon": 43.78265638113068,
      "geoinfo": {
        "display_name": "Djoiezi, Moili Mdjini, Moheli, Comoros",
        "road": null,
        "house_number": null,
        "neighbourhood": null,
        "suburb": null,
        "city_district": null,
        "city": "Moili Mdjini",
        "state": "Moheli",
        "postcode": null,
        "country": "Comoros",
        "country_code": "km"
      },
      "address": "964, Fomboni, 84697 Moheli, Comoros"
    },
    {
      "lat": -12.247307048499929,
      "lon": 43.72807650172653,
      "geoinfo": {
        "display_name": "Mbatsé, Moimbassa, Moheli, Comoros",
        "road": null,
        "house_number": null,
        "neighbourhood": null,
        "suburb": null,
        "city_district": null,
        "city": "Moimbassa",
        "state": "Moheli",
        "postcode": null,
        "country": "Comoros",
        "country_code": "km"
      },
      "address": "892, Fomboni, 35121 Moheli, Comoros"
    },
    {
      "lat": -12.283224485939021,
      "lon": 43.75189458252199,
      "geoinfo": {
        "display_name": "Djoiezi, Moili Mdjini, Moheli, Comoros",
        "road": null,
        "house_number": null,
        "neighbourhood": null,
        "suburb": null,
        "city_district": null,
        "city": "Moili Mdjini",
        "state": "Moheli",
        "postcode": null,
        "country": "Comoros",
        "country_code": "km"
      },
      "address": "569, Fomboni, 82761 Moheli, Comoros"
    },
    {
      "lat": -12.279724801760267,
      "lon": 43.72560434608389,
      "geoinfo": {
        "display_name": "Route Nationale 32, Fomboni, Moheli, Comoros",
        "road": "Route Nationale 32",
        "house_number": null,
        "neighbourhood": null,
        "suburb": null,
        "city_district": null,
        "city": "Fomboni",
        "state": "Moheli",
        "postcode": null,
        "country": "Comoros",
        "country_code": "km"
      },
      "address": "Route Nationale 32, Fomboni, 18837 Moheli, Comoros"
    },
    {
      "lat": -12.281108677005157,
      "lon": 43.75768828815266,
      "geoinfo": {
        "display_name": "Djoiezi, Moili Mdjini, Moheli, Comoros",
        "road": null,
        "house_number": null,
        "neighbourhood": null,
        "suburb": null,
        "city_district": null,
        "city": "Moili Mdjini",
        "state": "Moheli",
        "postcode": null,
        "country": "Comoros",
        "country_code": "km"
      },
      "address": "173, Fomboni, 51228 Moheli, Comoros"
    }
  ],
  "updated_at": "2025-10-21T20:57:45.437720+00:00",
  "_kind": "geo_samples"
}