{
  "country_code": "GF",
  "country": "French Guiana",
  "city": "Saint-Laurent-du-Maroni",
  "geonameid": 3380387,
  "target_addresses": 20,
  "samples": [
    {
      "lat": 5.4825310470750415,
      "lon": -53.995584149447794,
      "geoinfo": {
        "display_name": "N 1, Saint-Laurent-du-Maroni, French Guiana, 97320, France",
        "road": "N 1",
        "house_number": null,
        "neighbourhood": null,
        "suburb": null,
        "city_district": null,
        "city": "Saint-Laurent-du-Maroni",
        "state": "French Guiana",
        "postcode": "97320",
        "country": "France",
        "country_code": "fr"
      },
      "address": "N 1, Saint-Laurent-du-Maroni, French Guiana, French Guiana"
    },
    {
      "lat": 5.4778453445993485,
      "lon": -54.011523343957506,
      "geoinfo": {
        "display_name": "Avenue Paul Castaing, Cheke Paaty, Saint-Laurent-du-Maroni, French Guiana, 97320, France",
        "road": "Avenue Paul Castaing",
        "house_number": null,
        "neighbourhood": null,
        "suburb": null,
        "city_district": null,
        "city": "Saint-Laurent-du-Maroni",
        "state": "French Guiana",
        "postcode": "97320",
        "country": "France",
        "country_code": "fr"
      },
      "address": "Avenue Paul Castaing, Saint-Laurent-du-Maroni, French Guiana, French Guiana"
    },
    {
      "lat": 5.502676587872202,
      "lon": -53.98678472942545,
      "geoinfo": {
        "display_name": "Margot, Saint-Laurent-du-Maroni, French Guiana, 97320, France",
        "road": null,
        "house_number": null,
        "neighbourhood": null,
        "suburb": null,
        "city_district": null,
        "city": "Saint-Laurent-du-Maroni",
        "state": "French Guiana",
        "postcode": "97320",
        "country": "France",
        "country_code": "fr"
      },
      "address": "Saint-Laurent-du-Maroni, French Guiana, French Guiana"
    },
    {
      "lat": 5.476796725662136,
      "lon": -54.04624581630867,
      "geoinfo": {
        "display_name": "Route de Saint-Louis, Saint Louis, Saint-Laurent-du-Maroni, French Guiana, 97320, France",
        "road": "Route de Saint-Louis",
        "house_number": null,
        "neighbourhood": null,
        "suburb": null,
        "city_district": null,
        "city": "Saint-Laurent-du-Maroni",
        "state": "French Guiana",
        "postcode": "97320",
        "country": "France",
        "country_code": "fr"
      },
      "address": "Route de Saint-Louis, Saint-Laurent-du-Maroni, French Guiana, French Guiana"
    },
    {
      "lat": 5.518440503304081,
      "lon": -54.0079360188513,
      "geoinfo": {
        "display_name": "Paddock - Paradis - Jérusalem, Saint-Laurent-du-Maroni, French Guiana, 97320, France",
        "road": null,
        "house_number": null,
        "neighbourhood": "Paddock - Paradis - Jérusalem",
        "suburb": null,
        "city_district": null,
        "city": "Saint-Laurent-du-Maroni",
        "state": "French Guiana",
        "postcode": "97320",
        "country": "France",
        "country_code": "fr"
      },
      "address": "Paddock - Paradis - Jérusalem, Saint-Laurent-du-Maroni, French Guiana, French Guiana"
    },
    {
      "lat": 5.48229779037686,
      "lon": -54.055153402217215,
      "geoinfo": {
        "display_name": "Balaté, Saint-Laurent-du-Maroni, French Guiana, 97320, France",
        "road": null,
        "house_number": null,
        "neighbourhood": "Balaté",
        "suburb": null,
        "city_district": null,
        "city": "Saint-Laurent-du-Maroni",
        "state": "French Guiana",
        "postcode": "97320",
        "country": "France",
        "country_code": "fr"
      },
      "address": "Balaté, Saint-Laurent-du-Maroni, French Guiana, French Guiana"
    },
    {
      "lat": 5.470323874977938,
      "lon": -54.03162504117081,
      "geoinfo": {
        "display_name": "Saint-Maurice, Saint-Laurent-du-Maroni, French Guiana, 97320, France",
        "road": null,
        "house_number": null,
        "neighbourhood": "Saint-Maurice",
        "suburb": null,
        "city_district": null,
        "city": "Saint-Laurent-du-Maroni",
        "state": "French Guiana",
        "postcode": "97320",
        "country": "France",
        "country_code": "fr"
      },
      "address": "Saint-Maurice, Saint-Laurent-du-Maroni, French Guiana, French Guiana"
    },
    {
      "lat": 5.48686249513699,
      "lon": -54.01551108512474,
      "geoinfo": {
        "display_name": "École maternelle Suzette Labadie Cambot, Allée des Vetivers, La Carrière, Saint-Laurent-du-Maroni, French Guiana, 97320, France",
        "road": "Allée des Vetivers",
        "house_number": null,
        "neighbourhood": null,
        "suburb": null,
        "city_district": null,
        "city": "Saint-Laurent-du-Maroni",
        "state": "French Guiana",
        "postcode": "97320",
        "country": "France",
        "country_code": "fr"
      },
      "address": "Allée des Vetivers, Saint-Laurent-du-Maroni, French Guiana, French Guiana"
    },
    {
      "lat": 5.508573046054242,
      "lon": -54.03199567751964,
      "geoinfo": {
        "display_name": "Edith Cavell, Boulevard Malouet, Les Marinas, Saint-Laurent-du-Maroni, French Guiana, 97320, France",
        "road": "Boulevard Malouet",
        "house_number": null,
        "neighbourhood": "Les Marinas",
        "suburb": null,
        "city_district": null,
        "city": "Saint-Laurent-du-Maroni",
        "state": "French Guiana",
        "postcode": "97320",
        "country": "France",
        "country_code": "fr"
      },
      "address": "Boulevard Malouet, Saint-Laurent-du-Maroni, French Guiana, French Guiana"
    },
    {
      "lat": 5.478228334603752,
      "lon": -54.04100625715766,
      "geoinfo": {
        "display_name": "Dahlia, Saint-Laurent-du-Maroni, French Guiana, 97320, France",
        "road": null,
        "house_number": null,
        "neighbourhood": "Dahlia",
        "suburb": null,
        "city_district": null,
        "city": "Saint-Laurent-du-Maroni",
        "state": "French Guiana",
        "postcode": "97320",
        "country": "France",
        "country_code": "fr"
      },
      "address": "Dahlia, Saint-Laurent-du-Maroni, French Guiana, French Guiana"
    },
    {
      "lat": 5.495972017623766,
      "lon": -54.01841133900709,
      "geoinfo": {
        "display_name": "Avenue Gaston Monnerville, Village Malgache, Saint-Laurent-du-Maroni, French Guiana, 97320, France",
        "road": "Avenue Gaston Monnerville",
        "house_number": null,
        "neighbourhood": null,
        "suburb": null,
        "city_district": null,
        "city": "Saint-Laurent-du-Maroni",
        "state": "French Guiana",
        "postcode": "97320",
        "country": "France",
        "country_code": "fr"
      },
      "address": "Avenue Gaston Monnerville, Saint-Laurent-du-Maroni, French Guiana, French Guiana"
    },
    {
      "lat": 5.5218986026337475,
      "lon": -54.022734912881674,
      "geoinfo": {
        "display_name": "Les Marinas, Saint-Laurent-du-Maroni, French Guiana, 97320, France",
        "road": null,
        "house_number": null,
        "neighbourhood": "Les Marinas",
        "suburb": null,
        "city_district": null,
        "city": "Saint-Laurent-du-Maroni",
        "state": "French Guiana",
        "postcode": "97320",
        "country": "France",
        "country_code": "fr"
      },
      "address": "Les Marinas, Saint-Laurent-du-Maroni, French Guiana, French Guiana"
    },
    {
      "lat": 5.490798937634534,
      "lon": -53.998219884502696,
      "geoinfo": {
        "display_name": "Chemin de la Crique Tafia, Saint-Laurent-du-Maroni, French Guiana, 97320, France",
        "road": "Chemin de la Crique Tafia",
        "house_number": null,
        "neighbourhood": null,
        "suburb": null,
        "city_district": null,
        "city": "Saint-Laurent-du-Maroni",
        "state": "French Guiana",
        "postcode": "97320",
        "country": "France",
        "country_code": "fr"
      },
      "address": "Chemin de la Crique Tafia, Saint-Laurent-du-Maroni, French Guiana, French Guiana"
    },
    {
      "lat": 5.5125563957686685,
      "lon": -54.02721939500105,
      "geoinfo": {
        "display_name": "Débarcadère du bagne de Saint-Laurent-du-Maroni, Avenue du Président Franklin Roosevelt, Les Marinas, Saint-Laurent-du-Maroni, French Guiana, 97320, France",
        "road": "Avenue du Président Franklin Roosevelt",
        "house_number": null,
        "neighbourhood": "Les Marinas",
        "suburb": null,
        "city_district": null,
        "city": "Saint-Laurent-du-Maroni",
        "state": "French Guiana",
        "postcode": "97320",
        "country": "France",
        "country_code": "fr"
      },
      "address": "Avenue du Président Franklin Roosevelt, Saint-Laurent-du-Maroni, French Guiana, French Guiana"
    },
    {
      "lat": 5.466797803032292,
      "lon": -54.03824731527056,
      "geoinfo": {
        "display_name": "Rhumerie Saint-Maurice, Route des chutes voltaire (Paul Insard), Saint-Maurice, Saint-Laurent-du-Maroni, French Guiana, 97320, France",
        "road": "Route des chutes voltaire (Paul Insard)",
        "house_number": null,
        "neighbourhood": "Saint-Maurice",
        "suburb": null,
        "city_district": null,
        "city": "Saint-Laurent-du-Maroni",
        "state": "French Guiana",
        "postcode": "97320",
        "country": "France",
        "country_code": "fr"
      },
      "address": "Route des chutes voltaire (Paul Insard), Saint-Laurent-du-Maroni, French Guiana, French Guiana"
    },
    {
      "lat": 5.486853312031427,
      "lon": -54.03644325278717,
      "geoinfo": {
        "display_name": "Rue des Caïmans, Moucaya - Nemman, Saint-Laurent-du-Maroni, French Guiana, 97320, France",
        "road": "Rue des Caïmans",
        "house_number": null,
        "neighbourhood": "Moucaya - Nemman",
        "suburb": null,
        "city_district": null,
        "city": "Saint-Laurent-du-Maroni",
        "state": "French Guiana",
        "postcode": "97320",
        "country": "France",
        "country_code": "fr"
      },
      "address": "Rue des Caïmans, Saint-Laurent-du-Maroni, French Guiana, French Guiana"
    },
    {
      "lat": 5.490954731650629,
      "lon": -54.03588035564527,
      "geoinfo": {
        "display_name": "Rue des Tortues, La Charbonnière - Bardeaux, Saint-Laurent-du-Maroni, French Guiana, 97320, France",
        "road": "Rue des Tortues",
        "house_number": null,
        "neighbourhood": "La Charbonnière - Bardeaux",
        "suburb": null,
        "city_district": null,
        "city": "Saint-Laurent-du-Maroni",
        "state": "French Guiana",
        "postcode": "97320",
        "country": "France",
        "country_code": "fr"
      },
      "address": "Rue des Tortues, Saint-Laurent-du-Maroni, French Guiana, French Guiana"
    },
    {
      "lat": 5.495195806514466,
      "lon": -54.0173877748126,
      "geoinfo": {
        "display_name": "Allée des Gardénias, Village Malgache, Saint-Laurent-du-Maroni, French Guiana, 97320, France",
        "road": "Allée des Gardénias",
        "house_number": null,
        "neighbourhood": null,
        "suburb": null,
        "city_district": null,
        "city": "Saint-Laurent-du-Maroni",
        "state": "French Guiana",
        "postcode": "97320",
        "country": "France",
        "country_code": "fr"
      },
      "address": "Allée des Gardénias, Saint-Laurent-du-Maroni, French Guiana, French Guiana"
    },
    {
      "lat": 5.504171460357875,
      "lon": -54.028739043395305,
      "geoinfo": {
        "display_name": "Collège Eugénie Tell-Eboué, 2, Avenue Félix Éboué, Les Cultures, Saint-Laurent-du-Maroni, French Guiana, 97320, France",
        "road": "Avenue Félix Éboué",
        "house_number": "2",
        "neighbourhood": "Les Cultures",
        "suburb": null,
        "city_district": null,
        "city": "Saint-Laurent-du-Maroni",
        "state": "French Guiana",
        "postcode": "97320",
        "country": "France",
        "country_code": "fr"
      },
      "address": "2 Avenue Félix Éboué, Saint-Laurent-du-Maroni, French Guiana, French Guiana"
    },
    {
      "lat": 5.485543668639873,
      "lon": -54.029335595710364,
      "geoinfo": {
        "display_name": "Allée des Merises, Flore Maryflore, Saint-Laurent-du-Maroni, French Guiana, 97320, France",
        "road": "Allée des Merises",
        "house_number": null,
        "neighbourhood": "Flore Maryflore",
        "suburb": null,
        "city_district": null,
        "city": "Saint-Laurent-du-Maroni",
        "state": "French Guiana",
        "postcode": "97320",
        "country": "France",
        "country_code": "fr"
      },
      "address": "Allée des Merises, Saint-Laurent-du-Maroni, French Guiana, French Guiana"
    },
    {
      "lat": 5.480216580547114,
      "lon": -54.00746894749379,
      "geoinfo": {
        "display_name": "Rue des Comous, Les Sables Blancs - Vampires, Saint-Laurent-du-Maroni, French Guiana, 97320, France",
        "road": "Rue des Comous",
        "house_number": null,
        "neighbourhood": null,
        "suburb": null,
        "city_district": null,
        "city": "Saint-Laurent-du-Maroni",
        "state": "French Guiana",
        "postcode": "97320",
        "country": "France",
        "country_code": "fr"
      },
      "address": "174, Rue des Comous, Saint-Laurent-du-Maroni, 97320 French Guiana, French Guiana"
    },
    {
      "lat": 5.509817832971427,
      "lon": -53.99789873833767,
      "geoinfo": {
        "display_name": "Zone 55 - Malgaches - Chez Bibi - Quartier Haïtien, Saint-Laurent-du-Maroni, French Guiana, 97320, France",
        "road": null,
        "house_number": null,
        "neighbourhood": null,
        "suburb": null,
        "city_district": null,
        "city": "Saint-Laurent-du-Maroni",
        "state": "French Guiana",
        "postcode": "97320",
        "country": "France",
        "country_code": "fr"
      },
      "address": "318, Saint-Laurent-du-Maroni, 97320 French Guiana, French Guiana"
    },
    {
      "lat": 5.490319268998622,
      "lon": -54.01645479462792,
      "geoinfo": {
        "display_name": "La Carrière, Saint-Laurent-du-Maroni, French Guiana, 97320, France",
        "road": null,
        "house_number": null,
        "neighbourhood": null,
        "suburb": null,
        "city_district": null,
        "city": "Saint-Laurent-du-Maroni",
        "state": "French Guiana",
        "postcode": "97320",
        "country": "France",
        "country_code": "fr"
      },
      "address": "619, Saint-Laurent-du-Maroni, 97320 French Guiana, French Guiana"
    },
    {
      "lat": 5.534078447721239,
      "lon": -54.013973152084766,
      "geoinfo": {
        "display_name": "Saint-Laurent-du-Maroni, French Guiana, 97320, France",
        "road": null,
        "house_number": null,
        "neighbourhood": null,
        "suburb": null,
        "city_district": null,
        "city": "Saint-Laurent-du-Maroni",
        "state": "French Guiana",
        "postcode": "97320",
        "country": "France",
        "country_code": "fr"
      },
      "address": "887, Saint-Laurent-du-Maroni, 97320 French Guiana, French Guiana"
    },
    {
      "lat": 5.472311917383793,
      "lon": -54.01939353866004,
      "geoinfo": {
        "display_name": "Bois Canon, Saint-Laurent-du-Maroni, French Guiana, 97320, France",
        "road": null,
        "house_number": null,
        "neighbourhood": null,
        "suburb": null,
        "city_district": null,
        "city": "Saint-Laurent-du-Maroni",
        "state": "French Guiana",
        "postcode": "97320",
        "country": "France",
        "country_code": "fr"
      },
      "address": "726, Saint-Laurent-du-Maroni, 97320 French Guiana, French Guiana"
    },
    {
      "lat": 5.467672238995152,
      "lon": -54.0350987516347,
      "geoinfo": {
        "display_name": "Saint-Maurice, Saint-Laurent-du-Maroni, French Guiana, 97320, France",
        "road": null,
        "house_number": null,
        "neighbourhood": "Saint-Maurice",
        "suburb": null,
        "city_district": null,
        "city": "Saint-Laurent-du-Maroni",
        "state": "French Guiana",
        "postcode": "97320",
        "country": "France",
        "country_code": "fr"
      },
      "address": "469, Saint-Maurice, Saint-Laurent-du-Maroni, 97320 French Guiana, French Guiana"
    },
    {
      "lat": 5.522725050883361,
      "lon": -54.01549481116689,
      "geoinfo": {
        "display_name": "Paddock - Paradis - Jérusalem, Saint-Laurent-du-Maroni, French Guiana, 97320, France",
        "road": null,
        "house_number": null,
        "neighbourhood": "Paddock - Paradis - Jérusalem",
        "suburb": null,
        "city_district": null,
        "city": "Saint-Laurent-du-Maroni",
        "state": "French Guiana",
        "postcode": "97320",
        "country": "France",
        "country_code": "fr"
      },
      "address": "452, Paddock - Paradis - Jérusalem, Saint-Laurent-du-Maroni, 97320 French Guiana, French Guiana"
    },
    {
      "lat": 5.511389132876223,
      "lon": -53.99494935724924,
      "geoinfo": {
        "display_name": "Zone 55 - Malgaches - Chez Bibi - Quartier Haïtien, Saint-Laurent-du-Maroni, French Guiana, 97320, France",
        "road": null,
        "house_number": null,
        "neighbourhood": null,
        "suburb": null,
        "city_district": null,
        "city": "Saint-Laurent-du-Maroni",
        "state": "French Guiana",
        "postcode": "97320",
        "country": "France",
        "country_code": "fr"
      },
      "address": "042, Saint-Laurent-du-Maroni, 97320 French Guiana, French Guiana"
    },
    {
      "lat": 5.474987772869388,
      "lon": -54.03861353143236,
      "geoinfo": {
        "display_name": "Lac Bleu, Saint-Laurent-du-Maroni, French Guiana, 97320, France",
        "road": null,
        "house_number": null,
        "neighbourhood": "Lac Bleu",
        "suburb": null,
        "city_district": null,
        "city": "Saint-Laurent-du-Maroni",
        "state": "French Guiana",
        "postcode": "97320",
        "country": "France",
        "country_code": "fr"
      },
      "address": "618, Lac Bleu, Saint-Laurent-du-Maroni, 97320 French Guiana, French Guiana"
    },
    {
      "lat": 5.4788417845643025,
      "lon": -54.05274956364462,
      "geoinfo": {
        "display_name": "Balaté, Saint-Laurent-du-Maroni, French Guiana, 97320, France",
        "road": null,
        "house_number": null,
        "neighbourhood": "Balaté",
        "suburb": null,
        "city_district": null,
        "city": "Saint-Laurent-du-Maroni",
        "state": "French Guiana",
        "postcode": "97320",
        "country": "France",
        "country_code": "fr"
      },
      "address": "169, Balaté, Saint-Laurent-du-Maroni, 97320 French Guiana, French Guiana"
    },
    {
      "lat": 5.5135518993712225,
      "lon": -54.019854742899305,
      "geoinfo": {
        "display_name": "Chemin Paradis, Paddock - Paradis - Jérusalem, Saint-Laurent-du-Maroni, French Guiana, 97320, France",
        "road": "Chemin Paradis",
        "house_number": null,
        "neighbourhood": "Paddock - Paradis - Jérusalem",
        "suburb": null,
        "city_district": null,
        "city": "Saint-Laurent-du-Maroni",
        "state": "French Guiana",
        "postcode": "97320",
        "country": "France",
        "country_code": "fr"
      },
      "address": "961, Chemin Paradis, Saint-Laurent-du-Maroni, 97320 French Guiana, French Guiana"
    },
    {
      "lat": 5.469641485861671,
      "lon": -54.03497657266746,
      "geoinfo": {
        "display_name": "Route des Chutes Voltaire, Paul Isnard Eglise, Saint-Laurent-du-Maroni, French Guiana, 97320, France",
        "road": "Route des Chutes Voltaire",
        "house_number": null,
        "neighbourhood": null,
        "suburb": null,
        "city_district": null,
        "city": "Saint-Laurent-du-Maroni",
        "state": "French Guiana",
        "postcode": "97320",
        "country": "France",
        "country_code": "fr"
      },
      "address": "538, Route des Chutes Voltaire, Saint-Laurent-du-Maroni, 97320 French Guiana, French Guiana"
    },
    {
      "lat": 5.461553216859018,
      "lon": -54.04773249068494,
      "geoinfo": {
        "display_name": "Chemin marécageux, Village Pierre, Saint-Laurent-du-Maroni, French Guiana, 97320, France",
        "road": "Chemin marécageux",
        "house_number": null,
        "neighbourhood": "Village Pierre",
        "suburb": null,
        "city_district": null,
        "city": "Saint-Laurent-du-Maroni",
        "state": "French Guiana",
        "postcode": "97320",
        "country": "France",
        "country_code": "fr"
      },
      "address": "114, Chemin marécageux, Saint-Laurent-du-Maroni, 97320 French Guiana, French Guiana"
    },
    {
      "lat": 5.488489627744339,
      "lon": -54.00698259570207,
      "geoinfo": {
        "display_name": "Zone 55 - Malgaches - Chez Bibi - Quartier Haïtien, Saint-Laurent-du-Maroni, French Guiana, 97320, France",
        "road": null,
        "house_number": null,
        "neighbourhood": null,
        "suburb": null,
        "city_district": null,
        "city": "Saint-Laurent-du-Maroni",
        "state": "French Guiana",
        "postcode": "97320",
        "country": "France",
        "country_code": "fr"
      },
      "address": "580, Saint-Laurent-du-Maroni, 97320 French Guiana, French Guiana"
    }
  ],
  "updated_at": "2025-10-19T05:30:27.053358+00:00",
  "_kind": "geo_samples"
}