{
  "country_code": "PY",
  "country": "Paraguay",
  "city": "Caacupé",
  "geonameid": 3439320,
  "target_addresses": 20,
  "samples": [
    {
      "lat": -25.360793610031408,
      "lon": -57.12580912101374,
      "geoinfo": {
        "display_name": "Cordillera Department, Región Oriental, 030103, Paraguay",
        "road": null,
        "house_number": null,
        "neighbourhood": null,
        "suburb": null,
        "city_district": null,
        "city": null,
        "state": "Cordillera Department",
        "postcode": "030103",
        "country": "Paraguay",
        "country_code": "py"
      },
      "address": "Caacupé, Cordillera Department, Paraguay"
    },
    {
      "lat": -25.379537023636257,
      "lon": -57.105415040882136,
      "geoinfo": {
        "display_name": "Circunvalación de Caacupé, Cordillera Department, Región Oriental, 030103, Paraguay",
        "road": "Circunvalación de Caacupé",
        "house_number": null,
        "neighbourhood": null,
        "suburb": null,
        "city_district": null,
        "city": null,
        "state": "Cordillera Department",
        "postcode": "030103",
        "country": "Paraguay",
        "country_code": "py"
      },
      "address": "Circunvalación de Caacupé, Caacupé, Cordillera Department, Paraguay"
    },
    {
      "lat": -25.390786314549253,
      "lon": -57.16245649373696,
      "geoinfo": {
        "display_name": "08 de Diciembre, Yboty, Caacupé, Cordillera Department, Región Oriental, 030103, Paraguay",
        "road": "08 de Diciembre",
        "house_number": null,
        "neighbourhood": "Yboty",
        "suburb": null,
        "city_district": null,
        "city": "Caacupé",
        "state": "Cordillera Department",
        "postcode": "030103",
        "country": "Paraguay",
        "country_code": "py"
      },
      "address": "08 de Diciembre, Caacupé, Cordillera Department, Paraguay"
    },
    {
      "lat": -25.38824950238818,
      "lon": -57.145835612526334,
      "geoinfo": {
        "display_name": "8 de diciembre, Caacupé, Cordillera Department, Región Oriental, 030103, Paraguay",
        "road": "8 de diciembre",
        "house_number": null,
        "neighbourhood": null,
        "suburb": null,
        "city_district": null,
        "city": "Caacupé",
        "state": "Cordillera Department",
        "postcode": "030103",
        "country": "Paraguay",
        "country_code": "py"
      },
      "address": "8 de diciembre, Caacupé, Cordillera Department, Paraguay"
    },
    {
      "lat": -25.347969677272967,
      "lon": -57.13686847762947,
      "geoinfo": {
        "display_name": "Candia, Cordillera Department, Región Oriental, 030402, Paraguay",
        "road": null,
        "house_number": null,
        "neighbourhood": null,
        "suburb": null,
        "city_district": null,
        "city": "Candia",
        "state": "Cordillera Department",
        "postcode": "030402",
        "country": "Paraguay",
        "country_code": "py"
      },
      "address": "Caacupé, 21755 Cordillera Department, Paraguay"
    },
    {
      "lat": -25.39662700440884,
      "lon": -57.148716899529234,
      "geoinfo": {
        "display_name": "Caacupé, Cordillera Department, Región Oriental, 030103, Paraguay",
        "road": null,
        "house_number": null,
        "neighbourhood": null,
        "suburb": null,
        "city_district": null,
        "city": "Caacupé",
        "state": "Cordillera Department",
        "postcode": "030103",
        "country": "Paraguay",
        "country_code": "py"
      },
      "address": "408, Caacupé, Cordillera Department, Región Oriental, 030103, Paraguay"
    },
    {
      "lat": -25.412565752825767,
      "lon": -57.13851439254954,
      "geoinfo": {
        "display_name": "Caacupé, Cordillera Department, Región Oriental, 030103, Paraguay",
        "road": null,
        "house_number": null,
        "neighbourhood": null,
        "suburb": null,
        "city_district": null,
        "city": "Caacupé",
        "state": "Cordillera Department",
        "postcode": "030103",
        "country": "Paraguay",
        "country_code": "py"
      },
      "address": "528, Caacupé, Cordillera Department, Región Oriental, 030103, Paraguay"
    },
    {
      "lat": -25.379363995687942,
      "lon": -57.14929150372426,
      "geoinfo": {
        "display_name": "Club 12 de Octubre, Doctor Venancio Pino, Caacupé, Cordillera Department, Región Oriental, 030103, Paraguay",
        "road": "Doctor Venancio Pino",
        "house_number": null,
        "neighbourhood": null,
        "suburb": null,
        "city_district": null,
        "city": "Caacupé",
        "state": "Cordillera Department",
        "postcode": "030103",
        "country": "Paraguay",
        "country_code": "py"
      },
      "address": "Club 12 de Octubre, Doctor Venancio Pino, Caacupé, Cordillera Department, Región Oriental, 030103, Paraguay"
    },
    {
      "lat": -25.4039806515416,
      "lon": -57.11996153621701,
      "geoinfo": {
        "display_name": "Juan E. O´leary, Barrio Daniel Escurra, Caacupé, Cordillera Department, Región Oriental, 030103, Paraguay",
        "road": "Juan E. O´leary",
        "house_number": null,
        "neighbourhood": "Barrio Daniel Escurra",
        "suburb": null,
        "city_district": null,
        "city": "Caacupé",
        "state": "Cordillera Department",
        "postcode": "030103",
        "country": "Paraguay",
        "country_code": "py"
      },
      "address": "004, Juan E. O´leary, Barrio Daniel Escurra, Caacupé, Cordillera Department, Región Oriental, 030103, Paraguay"
    },
    {
      "lat": -25.39249491606146,
      "lon": -57.14070005425401,
      "geoinfo": {
        "display_name": "Juan León Mallorquín, Barrio Daniel Escurra, Caacupé, Cordillera Department, Región Oriental, 030103, Paraguay",
        "road": "Juan León Mallorquín",
        "house_number": null,
        "neighbourhood": "Barrio Daniel Escurra",
        "suburb": null,
        "city_district": null,
        "city": "Caacupé",
        "state": "Cordillera Department",
        "postcode": "030103",
        "country": "Paraguay",
        "country_code": "py"
      },
      "address": "474, Juan León Mallorquín, Barrio Daniel Escurra, Caacupé, Cordillera Department, Región Oriental, 030103, Paraguay"
    },
    {
      "lat": -25.35918799559871,
      "lon": -57.10654461723913,
      "geoinfo": {
        "display_name": "Cordillera Department, Región Oriental, Paraguay",
        "road": null,
        "house_number": null,
        "neighbourhood": null,
        "suburb": null,
        "city_district": null,
        "city": null,
        "state": "Cordillera Department",
        "postcode": null,
        "country": "Paraguay",
        "country_code": "py"
      },
      "address": "146, Caacupé, 55244 Cordillera Department, Paraguay"
    },
    {
      "lat": -25.38346798712474,
      "lon": -57.104961687994546,
      "geoinfo": {
        "display_name": "Cordillera Department, Región Oriental, 030103, Paraguay",
        "road": null,
        "house_number": null,
        "neighbourhood": null,
        "suburb": null,
        "city_district": null,
        "city": null,
        "state": "Cordillera Department",
        "postcode": "030103",
        "country": "Paraguay",
        "country_code": "py"
      },
      "address": "202, Caacupé, 030103 Cordillera Department, Paraguay"
    },
    {
      "lat": -25.377630575266192,
      "lon": -57.13808741834212,
      "geoinfo": {
        "display_name": "Teniente Fernández, Barrio San Francisco, Caacupé, Cordillera Department, Región Oriental, 030103, Paraguay",
        "road": "Teniente Fernández",
        "house_number": null,
        "neighbourhood": "Barrio San Francisco",
        "suburb": null,
        "city_district": null,
        "city": "Caacupé",
        "state": "Cordillera Department",
        "postcode": "030103",
        "country": "Paraguay",
        "country_code": "py"
      },
      "address": "784, Teniente Fernández, Barrio San Francisco, Caacupé, Cordillera Department, Región Oriental, 030103, Paraguay"
    },
    {
      "lat": -25.373565524231505,
      "lon": -57.17809608272156,
      "geoinfo": {
        "display_name": "Cabañas, Cordillera Department, Región Oriental, 030103, Paraguay",
        "road": null,
        "house_number": null,
        "neighbourhood": null,
        "suburb": null,
        "city_district": null,
        "city": "Cabañas",
        "state": "Cordillera Department",
        "postcode": "030103",
        "country": "Paraguay",
        "country_code": "py"
      },
      "address": "114, Caacupé, 030103 Cordillera Department, Paraguay"
    },
    {
      "lat": -25.392133458762586,
      "lon": -57.143530784157825,
      "geoinfo": {
        "display_name": "Caacupé, Cordillera Department, Región Oriental, 030103, Paraguay",
        "road": null,
        "house_number": null,
        "neighbourhood": null,
        "suburb": null,
        "city_district": null,
        "city": "Caacupé",
        "state": "Cordillera Department",
        "postcode": "030103",
        "country": "Paraguay",
        "country_code": "py"
      },
      "address": "333, Caacupé, Cordillera Department, Región Oriental, 030103, Paraguay"
    },
    {
      "lat": -25.40843894554616,
      "lon": -57.10597993003228,
      "geoinfo": {
        "display_name": "Cordillera Department, Región Oriental, 031406, Paraguay",
        "road": null,
        "house_number": null,
        "neighbourhood": null,
        "suburb": null,
        "city_district": null,
        "city": null,
        "state": "Cordillera Department",
        "postcode": "031406",
        "country": "Paraguay",
        "country_code": "py"
      },
      "address": "461, Caacupé, 031406 Cordillera Department, Paraguay"
    },
    {
      "lat": -25.393933133408797,
      "lon": -57.10569622405184,
      "geoinfo": {
        "display_name": "Ruta Nacional Mariscal Estigarribia, Cordillera Department, Región Oriental, 030103, Paraguay",
        "road": "Ruta Nacional Mariscal Estigarribia",
        "house_number": null,
        "neighbourhood": null,
        "suburb": null,
        "city_district": null,
        "city": null,
        "state": "Cordillera Department",
        "postcode": "030103",
        "country": "Paraguay",
        "country_code": "py"
      },
      "address": "161, Ruta Nacional Mariscal Estigarribia, Caacupé, 030103 Cordillera Department, Paraguay"
    },
    {
      "lat": -25.367901871005042,
      "lon": -57.138831146605135,
      "geoinfo": {
        "display_name": "Caacupé, Cordillera Department, Región Oriental, 030103, Paraguay",
        "road": null,
        "house_number": null,
        "neighbourhood": null,
        "suburb": null,
        "city_district": null,
        "city": "Caacupé",
        "state": "Cordillera Department",
        "postcode": "030103",
        "country": "Paraguay",
        "country_code": "py"
      },
      "address": "542, Caacupé, Cordillera Department, Región Oriental, 030103, Paraguay"
    },
    {
      "lat": -25.35773064222185,
      "lon": -57.129593531505456,
      "geoinfo": {
        "display_name": "Cordillera Department, Región Oriental, 030103, Paraguay",
        "road": null,
        "house_number": null,
        "neighbourhood": null,
        "suburb": null,
        "city_district": null,
        "city": null,
        "state": "Cordillera Department",
        "postcode": "030103",
        "country": "Paraguay",
        "country_code": "py"
      },
      "address": "333, Caacupé, 030103 Cordillera Department, Paraguay"
    },
    {
      "lat": -25.38754401553677,
      "lon": -57.190260300961036,
      "geoinfo": {
        "display_name": "Ruta Nacional Mariscal Estigarribia, Potrero Poi, Cordillera Department, Región Oriental, 090903, Paraguay",
        "road": "Ruta Nacional Mariscal Estigarribia",
        "house_number": null,
        "neighbourhood": null,
        "suburb": null,
        "city_district": null,
        "city": "Potrero Poi",
        "state": "Cordillera Department",
        "postcode": "090903",
        "country": "Paraguay",
        "country_code": "py"
      },
      "address": "525, Ruta Nacional Mariscal Estigarribia, Caacupé, 090903 Cordillera Department, Paraguay"
    }
  ],
  "updated_at": "2025-10-19T06:09:29.646004+00:00",
  "_kind": "geo_samples"
}