{
  "country_code": "PY",
  "country": "Paraguay",
  "city": "Concepción",
  "geonameid": 3438834,
  "target_addresses": 4,
  "samples": [
    {
      "lat": -23.41201308000819,
      "lon": -57.44739439501375,
      "geoinfo": {
        "display_name": "Intendente Rufino Spika, Inmaculada, Concepción, Región Oriental, 010107, Paraguay",
        "road": "Intendente Rufino Spika",
        "house_number": null,
        "neighbourhood": null,
        "suburb": "Inmaculada",
        "city_district": null,
        "city": "Concepción",
        "state": "Concepción",
        "postcode": "010107",
        "country": "Paraguay",
        "country_code": "py"
      },
      "address": "Intendente Rufino Spika, Concepción, Concepción, Paraguay"
    },
    {
      "lat": -23.431714227263935,
      "lon": -57.457734941240076,
      "geoinfo": {
        "display_name": "Villa Hayes, Presidente Hayes, Región Occidental, Paraguay",
        "road": null,
        "house_number": null,
        "neighbourhood": null,
        "suburb": null,
        "city_district": null,
        "city": "Villa Hayes",
        "state": "Presidente Hayes",
        "postcode": null,
        "country": "Paraguay",
        "country_code": "py"
      },
      "address": "Concepción, Presidente Hayes, Paraguay"
    },
    {
      "lat": -23.377965288938963,
      "lon": -57.41737794950286,
      "geoinfo": {
        "display_name": "Acceso Paracel Celulosa, Concepción, Región Oriental, Paraguay",
        "road": "Acceso Paracel Celulosa",
        "house_number": null,
        "neighbourhood": null,
        "suburb": null,
        "city_district": null,
        "city": null,
        "state": "Concepción",
        "postcode": null,
        "country": "Paraguay",
        "country_code": "py"
      },
      "address": "Acceso Paracel Celulosa, Concepción, Concepción, Paraguay"
    },
    {
      "lat": -23.398092601289452,
      "lon": -57.40572180304238,
      "geoinfo": {
        "display_name": "Concepción, Región Oriental, 010107, Paraguay",
        "road": null,
        "house_number": null,
        "neighbourhood": null,
        "suburb": null,
        "city_district": null,
        "city": null,
        "state": "Concepción",
        "postcode": "010107",
        "country": "Paraguay",
        "country_code": "py"
      },
      "address": "Concepción, Concepción, Paraguay"
    },
    {
      "lat": -23.425009108422238,
      "lon": -57.41866553477576,
      "geoinfo": {
        "display_name": "Santo Domingo de Guzmán, Concepción, Región Oriental, 010107, Paraguay",
        "road": null,
        "house_number": null,
        "neighbourhood": null,
        "suburb": "Santo Domingo de Guzmán",
        "city_district": null,
        "city": null,
        "state": "Concepción",
        "postcode": "010107",
        "country": "Paraguay",
        "country_code": "py"
      },
      "address": "616, Santo Domingo de Guzmán, Concepción, Región Oriental, 010107, Paraguay"
    },
    {
      "lat": -23.382098551392264,
      "lon": -57.44400099165223,
      "geoinfo": {
        "display_name": "Obrero, Concepción, Región Oriental, 010107, Paraguay",
        "road": null,
        "house_number": null,
        "neighbourhood": null,
        "suburb": "Obrero",
        "city_district": null,
        "city": "Concepción",
        "state": "Concepción",
        "postcode": "010107",
        "country": "Paraguay",
        "country_code": "py"
      },
      "address": "375, Obrero, Concepción, Región Oriental, 010107, Paraguay"
    },
    {
      "lat": -23.411899630998754,
      "lon": -57.42971605464183,
      "geoinfo": {
        "display_name": "Jardín de Europa, Concepción, Región Oriental, 010107, Paraguay",
        "road": null,
        "house_number": null,
        "neighbourhood": null,
        "suburb": "Jardín de Europa",
        "city_district": null,
        "city": null,
        "state": "Concepción",
        "postcode": "010107",
        "country": "Paraguay",
        "country_code": "py"
      },
      "address": "366, Jardín de Europa, Concepción, Región Oriental, 010107, Paraguay"
    },
    {
      "lat": -23.403400117736552,
      "lon": -57.42291792246427,
      "geoinfo": {
        "display_name": "Concepción, Región Oriental, 010107, Paraguay",
        "road": null,
        "house_number": null,
        "neighbourhood": null,
        "suburb": null,
        "city_district": null,
        "city": "Concepción",
        "state": "Concepción",
        "postcode": "010107",
        "country": "Paraguay",
        "country_code": "py"
      },
      "address": "116, Concepción, Región Oriental, 010107, Paraguay"
    }
  ],
  "updated_at": "2025-10-19T05:17:36.972033+00:00",
  "_kind": "geo_samples"
}