{
  "country_code": "PY",
  "country": "Paraguay",
  "city": "Encarnación",
  "geonameid": 3438735,
  "target_addresses": 4,
  "samples": [
    {
      "lat": -27.31462399009819,
      "lon": -55.847073445490146,
      "geoinfo": {
        "display_name": "Ruta Nacional Juan León Mallorquín, Chaipé, Encarnacion, Itapúa, Región Oriental, Paraguay",
        "road": "Ruta Nacional Juan León Mallorquín",
        "house_number": null,
        "neighbourhood": null,
        "suburb": "Chaipé",
        "city_district": null,
        "city": "Encarnacion",
        "state": "Itapúa",
        "postcode": null,
        "country": "Paraguay",
        "country_code": "py"
      },
      "address": "Ruta Nacional Juan León Mallorquín, Encarnación, Itapúa, Paraguay"
    },
    {
      "lat": -27.322264818703797,
      "lon": -55.91546670094418,
      "geoinfo": {
        "display_name": "Mboí Ka'e, Mboi Ka'e, Encarnacion, Itapúa, Región Oriental, Paraguay",
        "road": null,
        "house_number": null,
        "neighbourhood": null,
        "suburb": "Mboí Ka'e",
        "city_district": "Mboi Ka'e",
        "city": "Encarnacion",
        "state": "Itapúa",
        "postcode": null,
        "country": "Paraguay",
        "country_code": "py"
      },
      "address": "Mboí Ka'e, Encarnación, Itapúa, Paraguay"
    },
    {
      "lat": -27.339991152262836,
      "lon": -55.86244927208105,
      "geoinfo": {
        "display_name": "Lomas Valentinas, La Victoria, Ciudad Nueva, Encarnacion, Itapúa, Región Oriental, Paraguay",
        "road": "Lomas Valentinas",
        "house_number": null,
        "neighbourhood": "La Victoria",
        "suburb": "Ciudad Nueva",
        "city_district": null,
        "city": "Encarnacion",
        "state": "Itapúa",
        "postcode": null,
        "country": "Paraguay",
        "country_code": "py"
      },
      "address": "Lomas Valentinas, Encarnación, Itapúa, Paraguay"
    },
    {
      "lat": -27.349836809295816,
      "lon": -55.86138265870735,
      "geoinfo": {
        "display_name": "Carmen de Lara Castro, San Roque González, Encarnacion, Itapúa, Región Oriental, Paraguay",
        "road": "Carmen de Lara Castro",
        "house_number": null,
        "neighbourhood": null,
        "suburb": null,
        "city_district": "San Roque González",
        "city": "Encarnacion",
        "state": "Itapúa",
        "postcode": null,
        "country": "Paraguay",
        "country_code": "py"
      },
      "address": "Carmen de Lara Castro, Encarnación, Itapúa, Paraguay"
    },
    {
      "lat": -27.328664658809558,
      "lon": -55.8756827552496,
      "geoinfo": {
        "display_name": "Santa Rosa, Mboí Ka'e, Encarnacion, Itapúa, Región Oriental, Paraguay",
        "road": null,
        "house_number": null,
        "neighbourhood": "Santa Rosa",
        "suburb": "Mboí Ka'e",
        "city_district": null,
        "city": "Encarnacion",
        "state": "Itapúa",
        "postcode": null,
        "country": "Paraguay",
        "country_code": "py"
      },
      "address": "649, Santa Rosa, Encarnación, 47262 Itapúa, Paraguay"
    },
    {
      "lat": -27.305003450065495,
      "lon": -55.8795450908763,
      "geoinfo": {
        "display_name": "Ka'aguy Rory, Mboí Ka'e, Encarnacion, Itapúa, Región Oriental, Paraguay",
        "road": null,
        "house_number": null,
        "neighbourhood": null,
        "suburb": "Mboí Ka'e",
        "city_district": null,
        "city": "Encarnacion",
        "state": "Itapúa",
        "postcode": null,
        "country": "Paraguay",
        "country_code": "py"
      },
      "address": "663, Mboí Ka'e, Encarnación, 76225 Itapúa, Paraguay"
    },
    {
      "lat": -27.300621009071488,
      "lon": -55.886932768952754,
      "geoinfo": {
        "display_name": "Loreto Vega Millan, Quiteria, Encarnacion, Itapúa, Región Oriental, 070101, Paraguay",
        "road": "Loreto Vega Millan",
        "house_number": null,
        "neighbourhood": null,
        "suburb": null,
        "city_district": null,
        "city": "Encarnacion",
        "state": "Itapúa",
        "postcode": "070101",
        "country": "Paraguay",
        "country_code": "py"
      },
      "address": "087, Loreto Vega Millan, Encarnación, 070101 Itapúa, Paraguay"
    },
    {
      "lat": -27.32920619092296,
      "lon": -55.90591002699916,
      "geoinfo": {
        "display_name": "Mboí Ka'e, Mboi Ka'e, Encarnacion, Itapúa, Región Oriental, Paraguay",
        "road": null,
        "house_number": null,
        "neighbourhood": null,
        "suburb": "Mboí Ka'e",
        "city_district": "Mboi Ka'e",
        "city": "Encarnacion",
        "state": "Itapúa",
        "postcode": null,
        "country": "Paraguay",
        "country_code": "py"
      },
      "address": "178, Mboí Ka'e, Encarnación, 58591 Itapúa, Paraguay"
    }
  ],
  "updated_at": "2025-10-19T06:42:08.357596+00:00",
  "_kind": "geo_samples"
}