{
  "country_code": "PY",
  "country": "Paraguay",
  "city": "Itauguá",
  "geonameid": 3437918,
  "target_addresses": 4,
  "samples": [
    {
      "lat": -25.41569141285538,
      "lon": -57.31773334078018,
      "geoinfo": {
        "display_name": "Guazú Virá, District of Itauguá, Central Department, Región Oriental, 111702, Paraguay",
        "road": null,
        "house_number": null,
        "neighbourhood": null,
        "suburb": null,
        "city_district": null,
        "city": "District of Itauguá",
        "state": "Central Department",
        "postcode": "111702",
        "country": "Paraguay",
        "country_code": "py"
      },
      "address": "Itauguá, Central Department, Paraguay"
    },
    {
      "lat": -25.38574538954354,
      "lon": -57.34503208998067,
      "geoinfo": {
        "display_name": "Barrio Virgen del Rosario, District of Itauguá, Central Department, Región Oriental, 110611, Paraguay",
        "road": null,
        "house_number": null,
        "neighbourhood": "Barrio Virgen del Rosario",
        "suburb": null,
        "city_district": null,
        "city": "District of Itauguá",
        "state": "Central Department",
        "postcode": "110611",
        "country": "Paraguay",
        "country_code": "py"
      },
      "address": "Barrio Virgen del Rosario, Itauguá, Central Department, Paraguay"
    },
    {
      "lat": -25.382741267647326,
      "lon": -57.356963336259774,
      "geoinfo": {
        "display_name": "Valle Care, Cañadita, District of Itauguá, Central Department, Región Oriental, 110611, Paraguay",
        "road": null,
        "house_number": null,
        "neighbourhood": "Valle Care",
        "suburb": null,
        "city_district": null,
        "city": "District of Itauguá",
        "state": "Central Department",
        "postcode": "110611",
        "country": "Paraguay",
        "country_code": "py"
      },
      "address": "Valle Care, Itauguá, Central Department, Paraguay"
    },
    {
      "lat": -25.389531639094404,
      "lon": -57.33853773629022,
      "geoinfo": {
        "display_name": "Barrio Cuarto, District of Itauguá, Central Department, Región Oriental, 110611, Paraguay",
        "road": null,
        "house_number": null,
        "neighbourhood": "Barrio Cuarto",
        "suburb": null,
        "city_district": null,
        "city": "District of Itauguá",
        "state": "Central Department",
        "postcode": "110611",
        "country": "Paraguay",
        "country_code": "py"
      },
      "address": "Barrio Cuarto, Itauguá, Central Department, Paraguay"
    },
    {
      "lat": -25.369340213242847,
      "lon": -57.36746276762608,
      "geoinfo": {
        "display_name": "Ruta Departamental 076, District of Itauguá, Central Department, Región Oriental, 110611, Paraguay",
        "road": "Ruta Departamental 076",
        "house_number": null,
        "neighbourhood": null,
        "suburb": null,
        "city_district": null,
        "city": "District of Itauguá",
        "state": "Central Department",
        "postcode": "110611",
        "country": "Paraguay",
        "country_code": "py"
      },
      "address": "Ruta Departamental 076, District of Itauguá, Central Department, Región Oriental, 110611, Paraguay"
    },
    {
      "lat": -25.40475849377649,
      "lon": -57.400199214031105,
      "geoinfo": {
        "display_name": "Capiatá, Central Department, Región Oriental, 110610, Paraguay",
        "road": null,
        "house_number": null,
        "neighbourhood": null,
        "suburb": null,
        "city_district": null,
        "city": "Capiatá",
        "state": "Central Department",
        "postcode": "110610",
        "country": "Paraguay",
        "country_code": "py"
      },
      "address": "053, Capiatá, Central Department, Región Oriental, 110610, Paraguay"
    },
    {
      "lat": -25.412957701570573,
      "lon": -57.31900291902672,
      "geoinfo": {
        "display_name": "Guazú Virá, District of Itauguá, Central Department, Región Oriental, 110610, Paraguay",
        "road": null,
        "house_number": null,
        "neighbourhood": null,
        "suburb": null,
        "city_district": null,
        "city": "District of Itauguá",
        "state": "Central Department",
        "postcode": "110610",
        "country": "Paraguay",
        "country_code": "py"
      },
      "address": "166, Guazú Virá, District of Itauguá, Central Department, Región Oriental, 110610, Paraguay"
    },
    {
      "lat": -25.405155779529455,
      "lon": -57.39790285532856,
      "geoinfo": {
        "display_name": "Ruta Departamental 73, District of Itauguá, Central Department, Región Oriental, 110610, Paraguay",
        "road": "Ruta Departamental 73",
        "house_number": null,
        "neighbourhood": null,
        "suburb": null,
        "city_district": null,
        "city": "District of Itauguá",
        "state": "Central Department",
        "postcode": "110610",
        "country": "Paraguay",
        "country_code": "py"
      },
      "address": "Ruta Departamental 73, District of Itauguá, Central Department, Región Oriental, 110610, Paraguay"
    }
  ],
  "updated_at": "2025-10-19T06:16:50.536750+00:00",
  "_kind": "geo_samples"
}