{
  "country_code": "PY",
  "country": "Paraguay",
  "city": "Lambaré",
  "geonameid": 3437863,
  "target_addresses": 4,
  "samples": [
    {
      "lat": -25.32656817574251,
      "lon": -57.577251123247265,
      "geoinfo": {
        "display_name": "San Pablo, Asuncion, Distrito Capital, Región Oriental, 001429, Paraguay",
        "road": null,
        "house_number": null,
        "neighbourhood": "San Pablo",
        "suburb": null,
        "city_district": null,
        "city": "Asuncion",
        "state": null,
        "postcode": "001429",
        "country": "Paraguay",
        "country_code": "py"
      },
      "address": "San Pablo, Lambaré, Central Department, Paraguay"
    },
    {
      "lat": -25.36678456832628,
      "lon": -57.64277280297999,
      "geoinfo": {
        "display_name": "594, Paseo del Yacht y Golf Club, Itá Enramada, Asuncion, Distrito Capital, Región Oriental, 001307, Paraguay",
        "road": "Paseo del Yacht y Golf Club",
        "house_number": "594",
        "neighbourhood": "Itá Enramada",
        "suburb": null,
        "city_district": null,
        "city": "Asuncion",
        "state": null,
        "postcode": "001307",
        "country": "Paraguay",
        "country_code": "py"
      },
      "address": "594 Paseo del Yacht y Golf Club, Lambaré, Central Department, Paraguay"
    },
    {
      "lat": -25.371500896267168,
      "lon": -57.64219959758446,
      "geoinfo": {
        "display_name": "Asuncion, Distrito Capital, Región Oriental, Paraguay",
        "road": null,
        "house_number": null,
        "neighbourhood": null,
        "suburb": null,
        "city_district": null,
        "city": "Asuncion",
        "state": null,
        "postcode": null,
        "country": "Paraguay",
        "country_code": "py"
      },
      "address": "Lambaré, Central Department, Paraguay"
    },
    {
      "lat": -25.312589416620856,
      "lon": -57.592135313200934,
      "geoinfo": {
        "display_name": "Nazareth, Asuncion, Distrito Capital, Región Oriental, 001420, Paraguay",
        "road": "Nazareth",
        "house_number": null,
        "neighbourhood": "Nazareth",
        "suburb": null,
        "city_district": null,
        "city": "Asuncion",
        "state": null,
        "postcode": "001420",
        "country": "Paraguay",
        "country_code": "py"
      },
      "address": "Nazareth, Lambaré, Central Department, Paraguay"
    },
    {
      "lat": -25.347119529230355,
      "lon": -57.61306747135517,
      "geoinfo": {
        "display_name": "Ypane, Valle Apu´a I, Lambaré, Central Department, Región Oriental, 110719, Paraguay",
        "road": "Ypane",
        "house_number": null,
        "neighbourhood": null,
        "suburb": null,
        "city_district": null,
        "city": "Lambaré",
        "state": "Central Department",
        "postcode": "110719",
        "country": "Paraguay",
        "country_code": "py"
      },
      "address": "977, Ypane, Valle Apu´a I, Lambaré, Central Department, Región Oriental, 110719, Paraguay"
    },
    {
      "lat": -25.37029883364489,
      "lon": -57.61310619299555,
      "geoinfo": {
        "display_name": "Avenida Tape Tuya, Puerto Pabla, Lambaré, Central Department, Región Oriental, 110719, Paraguay",
        "road": "Avenida Tape Tuya",
        "house_number": null,
        "neighbourhood": null,
        "suburb": null,
        "city_district": null,
        "city": "Lambaré",
        "state": "Central Department",
        "postcode": "110719",
        "country": "Paraguay",
        "country_code": "py"
      },
      "address": "709, Avenida Tape Tuya, Puerto Pabla, Lambaré, Central Department, Región Oriental, 110719, Paraguay"
    },
    {
      "lat": -25.356365463115637,
      "lon": -57.595144294933256,
      "geoinfo": {
        "display_name": "Miguelito Burguer, Avenida Defensores del Chaco, Santa Rosa I, Lambaré, Central Department, Región Oriental, 110716, Paraguay",
        "road": "Avenida Defensores del Chaco",
        "house_number": null,
        "neighbourhood": null,
        "suburb": null,
        "city_district": null,
        "city": "Lambaré",
        "state": "Central Department",
        "postcode": "110716",
        "country": "Paraguay",
        "country_code": "py"
      },
      "address": "608, Avenida Defensores del Chaco, Lambaré, 110716 Central Department, Paraguay"
    },
    {
      "lat": -25.317471502110482,
      "lon": -57.62809208324501,
      "geoinfo": {
        "display_name": "Ingavi, San Vicente, Asuncion, Distrito Capital, Región Oriental, 110704, Paraguay",
        "road": "Ingavi",
        "house_number": null,
        "neighbourhood": "San Vicente",
        "suburb": null,
        "city_district": null,
        "city": "Asuncion",
        "state": null,
        "postcode": "110704",
        "country": "Paraguay",
        "country_code": "py"
      },
      "address": "815, Ingavi, San Vicente, Asuncion, Distrito Capital, Región Oriental, 110704, Paraguay"
    }
  ],
  "updated_at": "2025-10-19T04:27:21.438959+00:00",
  "_kind": "geo_samples"
}