{
  "country_code": "PY",
  "country": "Paraguay",
  "city": "Mariano Roque Alonso",
  "geonameid": 3438995,
  "target_addresses": 4,
  "samples": [
    {
      "lat": -25.176868432686533,
      "lon": -57.534819682662956,
      "geoinfo": {
        "display_name": "Surubi´i, Mariano Roque Alonso, Central Department, Región Oriental, 111009, Paraguay",
        "road": null,
        "house_number": null,
        "neighbourhood": null,
        "suburb": null,
        "city_district": null,
        "city": "Mariano Roque Alonso",
        "state": "Central Department",
        "postcode": "111009",
        "country": "Paraguay",
        "country_code": "py"
      },
      "address": "Mariano Roque Alonso, Central Department, Paraguay"
    },
    {
      "lat": -25.23982707075466,
      "lon": -57.53043482191904,
      "geoinfo": {
        "display_name": "Waldino Ramón Lovera, San Blas, Mariano Roque Alonso, Central Department, Región Oriental, 111021, Paraguay",
        "road": "Waldino Ramón Lovera",
        "house_number": null,
        "neighbourhood": null,
        "suburb": null,
        "city_district": null,
        "city": "Mariano Roque Alonso",
        "state": "Central Department",
        "postcode": "111021",
        "country": "Paraguay",
        "country_code": "py"
      },
      "address": "Waldino Ramón Lovera, Mariano Roque Alonso, Central Department, Paraguay"
    },
    {
      "lat": -25.201277659038656,
      "lon": -57.519608233325386,
      "geoinfo": {
        "display_name": "Arasapy, Arecayá, Mariano Roque Alonso, Central Department, Región Oriental, 111009, Paraguay",
        "road": "Arasapy",
        "house_number": null,
        "neighbourhood": null,
        "suburb": null,
        "city_district": null,
        "city": "Mariano Roque Alonso",
        "state": "Central Department",
        "postcode": "111009",
        "country": "Paraguay",
        "country_code": "py"
      },
      "address": "Arasapy, Mariano Roque Alonso, Central Department, Paraguay"
    },
    {
      "lat": -25.174604575865825,
      "lon": -57.52403253263297,
      "geoinfo": {
        "display_name": "Avenida Sububi'i, Surubi´i, Arza, Mariano Roque Alonso, Central Department, Región Oriental, 111009, Paraguay",
        "road": "Avenida Sububi'i",
        "house_number": null,
        "neighbourhood": null,
        "suburb": "Arza",
        "city_district": null,
        "city": "Mariano Roque Alonso",
        "state": "Central Department",
        "postcode": "111009",
        "country": "Paraguay",
        "country_code": "py"
      },
      "address": "Avenida Sububi'i, Mariano Roque Alonso, Central Department, Paraguay"
    },
    {
      "lat": -25.186691300297568,
      "lon": -57.49689729502434,
      "geoinfo": {
        "display_name": "Colectora Ruta Nacional General Aquino, Limpio, Central Department, Región Oriental, 111009, Paraguay",
        "road": "Colectora Ruta Nacional General Aquino",
        "house_number": null,
        "neighbourhood": null,
        "suburb": null,
        "city_district": null,
        "city": "Limpio",
        "state": "Central Department",
        "postcode": "111009",
        "country": "Paraguay",
        "country_code": "py"
      },
      "address": "896, Colectora Ruta Nacional General Aquino, Limpio, Central Department, Región Oriental, 111009, Paraguay"
    },
    {
      "lat": -25.219313469679985,
      "lon": -57.540714493457294,
      "geoinfo": {
        "display_name": "Lorenzo Leguizamon, Defensores del Chaco, Mariano Roque Alonso, Central Department, Región Oriental, 111018, Paraguay",
        "road": "Lorenzo Leguizamon",
        "house_number": null,
        "neighbourhood": null,
        "suburb": null,
        "city_district": null,
        "city": "Mariano Roque Alonso",
        "state": "Central Department",
        "postcode": "111018",
        "country": "Paraguay",
        "country_code": "py"
      },
      "address": "271, Lorenzo Leguizamon, Defensores del Chaco, Mariano Roque Alonso, Central Department, Región Oriental, 111018, Paraguay"
    },
    {
      "lat": -25.18854475621234,
      "lon": -57.50835737343662,
      "geoinfo": {
        "display_name": "Surubi´i, Mariano Roque Alonso, Central Department, Región Oriental, 111009, Paraguay",
        "road": null,
        "house_number": null,
        "neighbourhood": null,
        "suburb": null,
        "city_district": null,
        "city": "Mariano Roque Alonso",
        "state": "Central Department",
        "postcode": "111009",
        "country": "Paraguay",
        "country_code": "py"
      },
      "address": "932, Surubi´i, Mariano Roque Alonso, Central Department, Región Oriental, 111009, Paraguay"
    },
    {
      "lat": -25.163825013266745,
      "lon": -57.5405068694428,
      "geoinfo": {
        "display_name": "Ovidio Altemburger, Villa Hayes, Presidente Hayes, Región Occidental, Paraguay",
        "road": "Ovidio Altemburger",
        "house_number": null,
        "neighbourhood": null,
        "suburb": null,
        "city_district": null,
        "city": "Villa Hayes",
        "state": "Presidente Hayes",
        "postcode": null,
        "country": "Paraguay",
        "country_code": "py"
      },
      "address": "563, Ovidio Altemburger, Villa Hayes, Presidente Hayes, 89255 Región Occidental, Paraguay"
    }
  ],
  "updated_at": "2025-10-19T06:42:22.461372+00:00",
  "_kind": "geo_samples"
}