{
  "country_code": "PY",
  "country": "Paraguay",
  "city": "Pilar",
  "geonameid": 3437526,
  "target_addresses": 4,
  "samples": [
    {
      "lat": -26.84995591216256,
      "lon": -58.29345480457817,
      "geoinfo": {
        "display_name": "Tuyutì, Pilar, Ñeembucú, Región Oriental, 120104, Paraguay",
        "road": "Tuyutì",
        "house_number": null,
        "neighbourhood": null,
        "suburb": null,
        "city_district": null,
        "city": "Pilar",
        "state": "Ñeembucú",
        "postcode": "120104",
        "country": "Paraguay",
        "country_code": "py"
      },
      "address": "Tuyutì, Pilar, Ñeembucú, Paraguay"
    },
    {
      "lat": -26.86574708118734,
      "lon": -58.3162025924087,
      "geoinfo": {
        "display_name": "Pablo Ezpinola, Pilar, Ñeembucú, Región Oriental, 120104, Paraguay",
        "road": "Pablo Ezpinola",
        "house_number": null,
        "neighbourhood": null,
        "suburb": null,
        "city_district": null,
        "city": "Pilar",
        "state": "Ñeembucú",
        "postcode": "120104",
        "country": "Paraguay",
        "country_code": "py"
      },
      "address": "Pablo Ezpinola, Pilar, Ñeembucú, Paraguay"
    },
    {
      "lat": -26.89742136255542,
      "lon": -58.30102793040522,
      "geoinfo": {
        "display_name": "Circunvalación de Pilar, Ñeembucú, Región Oriental, 120104, Paraguay",
        "road": "Circunvalación de Pilar",
        "house_number": null,
        "neighbourhood": null,
        "suburb": null,
        "city_district": null,
        "city": null,
        "state": "Ñeembucú",
        "postcode": "120104",
        "country": "Paraguay",
        "country_code": "py"
      },
      "address": "Circunvalación de Pilar, Pilar, Ñeembucú, Paraguay"
    },
    {
      "lat": -26.884644928880768,
      "lon": -58.26545495362973,
      "geoinfo": {
        "display_name": "Ytororo, Pilar, Ñeembucú, Región Oriental, 120104, Paraguay",
        "road": null,
        "house_number": null,
        "neighbourhood": "Ytororo",
        "suburb": null,
        "city_district": null,
        "city": "Pilar",
        "state": "Ñeembucú",
        "postcode": "120104",
        "country": "Paraguay",
        "country_code": "py"
      },
      "address": "Ytororo, Pilar, Ñeembucú, Paraguay"
    },
    {
      "lat": -26.877806569023043,
      "lon": -58.28442045058379,
      "geoinfo": {
        "display_name": "Ytororo, Pilar, Ñeembucú, Región Oriental, 120104, Paraguay",
        "road": null,
        "house_number": null,
        "neighbourhood": "Ytororo",
        "suburb": null,
        "city_district": null,
        "city": "Pilar",
        "state": "Ñeembucú",
        "postcode": "120104",
        "country": "Paraguay",
        "country_code": "py"
      },
      "address": "929, Ytororo, Pilar, Ñeembucú, Región Oriental, 120104, Paraguay"
    },
    {
      "lat": -26.854481060980767,
      "lon": -58.29553100354195,
      "geoinfo": {
        "display_name": "Mayor Gardel, Loma Clavel, Pilar, Ñeembucú, Región Oriental, 120104, Paraguay",
        "road": "Mayor Gardel",
        "house_number": null,
        "neighbourhood": "Loma Clavel",
        "suburb": null,
        "city_district": null,
        "city": "Pilar",
        "state": "Ñeembucú",
        "postcode": "120104",
        "country": "Paraguay",
        "country_code": "py"
      },
      "address": "486, Mayor Gardel, Loma Clavel, Pilar, Ñeembucú, Región Oriental, 120104, Paraguay"
    },
    {
      "lat": -26.863299559851708,
      "lon": -58.27833790727882,
      "geoinfo": {
        "display_name": "Ñeembucú, Región Oriental, 120104, Paraguay",
        "road": null,
        "house_number": null,
        "neighbourhood": null,
        "suburb": null,
        "city_district": null,
        "city": null,
        "state": "Ñeembucú",
        "postcode": "120104",
        "country": "Paraguay",
        "country_code": "py"
      },
      "address": "501, Pilar, 120104 Ñeembucú, Paraguay"
    },
    {
      "lat": -26.83958245052363,
      "lon": -58.31881889867265,
      "geoinfo": {
        "display_name": "Pilar, Ñeembucú, Región Oriental, 120104, Paraguay",
        "road": null,
        "house_number": null,
        "neighbourhood": null,
        "suburb": null,
        "city_district": null,
        "city": "Pilar",
        "state": "Ñeembucú",
        "postcode": "120104",
        "country": "Paraguay",
        "country_code": "py"
      },
      "address": "731, Pilar, Ñeembucú, Región Oriental, 120104, Paraguay"
    }
  ],
  "updated_at": "2025-10-19T06:40:13.585413+00:00",
  "_kind": "geo_samples"
}