{
  "country_code": "PY",
  "country": "Paraguay",
  "city": "Presidente Franco",
  "geonameid": 3437444,
  "target_addresses": 4,
  "samples": [
    {
      "lat": -25.534677949554016,
      "lon": -54.59694336461934,
      "geoinfo": {
        "display_name": "Santa Librada, Área 2, Ciudad del Este, Alto Paraná, Región Oriental, 100151, Paraguay",
        "road": null,
        "house_number": null,
        "neighbourhood": null,
        "suburb": "Área 2",
        "city_district": "Área 2",
        "city": "Ciudad del Este",
        "state": "Alto Paraná",
        "postcode": "100151",
        "country": "Paraguay",
        "country_code": "py"
      },
      "address": "Área 2, Presidente Franco, Alto Paraná, Paraguay"
    },
    {
      "lat": -25.54092862235522,
      "lon": -54.64988073553692,
      "geoinfo": {
        "display_name": "Santa Ana, Presidente Franco, Alto Paraná, Región Oriental, 100151, Paraguay",
        "road": null,
        "house_number": null,
        "neighbourhood": null,
        "suburb": "Santa Ana",
        "city_district": null,
        "city": "Presidente Franco",
        "state": "Alto Paraná",
        "postcode": "100151",
        "country": "Paraguay",
        "country_code": "py"
      },
      "address": "Santa Ana, Presidente Franco, Alto Paraná, Paraguay"
    },
    {
      "lat": -25.591864713713466,
      "lon": -54.602104991110046,
      "geoinfo": {
        "display_name": "Rotonda de Tres Fronteras, San Francisco, Presidente Franco, Alto Paraná, Región Oriental, Paraguay",
        "road": "Rotonda de Tres Fronteras",
        "house_number": null,
        "neighbourhood": "San Francisco",
        "suburb": "San Francisco",
        "city_district": null,
        "city": "Presidente Franco",
        "state": "Alto Paraná",
        "postcode": null,
        "country": "Paraguay",
        "country_code": "py"
      },
      "address": "Rotonda de Tres Fronteras, Presidente Franco, Alto Paraná, Paraguay"
    },
    {
      "lat": -25.605570972958212,
      "lon": -54.6283330390468,
      "geoinfo": {
        "display_name": "Tres Fronteras, Presidente Franco, Alto Paraná, Región Oriental, Paraguay",
        "road": null,
        "house_number": null,
        "neighbourhood": null,
        "suburb": "Tres Fronteras",
        "city_district": null,
        "city": "Presidente Franco",
        "state": "Alto Paraná",
        "postcode": null,
        "country": "Paraguay",
        "country_code": "py"
      },
      "address": "Tres Fronteras, Presidente Franco, Alto Paraná, Paraguay"
    },
    {
      "lat": -25.543916763859347,
      "lon": -54.61268007007565,
      "geoinfo": {
        "display_name": "Fátima I, Presidente Franco, Alto Paraná, Región Oriental, 100151, Paraguay",
        "road": null,
        "house_number": null,
        "neighbourhood": null,
        "suburb": "Fátima I",
        "city_district": null,
        "city": "Presidente Franco",
        "state": "Alto Paraná",
        "postcode": "100151",
        "country": "Paraguay",
        "country_code": "py"
      },
      "address": "853, Fátima I, Presidente Franco, Alto Paraná, Región Oriental, 100151, Paraguay"
    },
    {
      "lat": -25.545621901282416,
      "lon": -54.65380335597434,
      "geoinfo": {
        "display_name": "Santa Clara, Presidente Franco, Alto Paraná, Región Oriental, 100170, Paraguay",
        "road": null,
        "house_number": null,
        "neighbourhood": null,
        "suburb": "Santa Clara",
        "city_district": null,
        "city": "Presidente Franco",
        "state": "Alto Paraná",
        "postcode": "100170",
        "country": "Paraguay",
        "country_code": "py"
      },
      "address": "139, Santa Clara, Presidente Franco, Alto Paraná, Región Oriental, 100170, Paraguay"
    },
    {
      "lat": -25.595985848237337,
      "lon": -54.6075475286818,
      "geoinfo": {
        "display_name": "Tres Fronteras, Presidente Franco, Alto Paraná, Región Oriental, Paraguay",
        "road": null,
        "house_number": null,
        "neighbourhood": "Tres Fronteras",
        "suburb": "Tres Fronteras",
        "city_district": null,
        "city": "Presidente Franco",
        "state": "Alto Paraná",
        "postcode": null,
        "country": "Paraguay",
        "country_code": "py"
      },
      "address": "956, Tres Fronteras, Presidente Franco, Alto Paraná, 91296 Región Oriental, Paraguay"
    },
    {
      "lat": -25.56122716578971,
      "lon": -54.607695783919816,
      "geoinfo": {
        "display_name": "Fulgencio Yegros, Las Mercedes, Presidente Franco, Alto Paraná, Región Oriental, 100151, Paraguay",
        "road": "Fulgencio Yegros",
        "house_number": null,
        "neighbourhood": null,
        "suburb": "Las Mercedes",
        "city_district": null,
        "city": "Presidente Franco",
        "state": "Alto Paraná",
        "postcode": "100151",
        "country": "Paraguay",
        "country_code": "py"
      },
      "address": "109, Fulgencio Yegros, Las Mercedes, Presidente Franco, Alto Paraná, Región Oriental, 100151, Paraguay"
    }
  ],
  "updated_at": "2025-10-19T05:17:08.344310+00:00",
  "_kind": "geo_samples"
}