{
  "country_code": "PY",
  "country": "Paraguay",
  "city": "San Antonio",
  "geonameid": 3437127,
  "target_addresses": 4,
  "samples": [
    {
      "lat": -25.465589145633928,
      "lon": -57.54043471903488,
      "geoinfo": {
        "display_name": "Ypané, Central Department, Región Oriental, Paraguay",
        "road": null,
        "house_number": null,
        "neighbourhood": null,
        "suburb": null,
        "city_district": null,
        "city": "Ypané",
        "state": "Central Department",
        "postcode": null,
        "country": "Paraguay",
        "country_code": "py"
      },
      "address": "San Antonio, Central Department, Paraguay"
    },
    {
      "lat": -25.434203784120758,
      "lon": -57.55446026017451,
      "geoinfo": {
        "display_name": "Avenida San Antonio, Achucarro, San Antonio, Central Department, Región Oriental, 111216, Paraguay",
        "road": "Avenida San Antonio",
        "house_number": null,
        "neighbourhood": null,
        "suburb": "Achucarro",
        "city_district": null,
        "city": "San Antonio",
        "state": "Central Department",
        "postcode": "111216",
        "country": "Paraguay",
        "country_code": "py"
      },
      "address": "Avenida San Antonio, San Antonio, Central Department, Paraguay"
    },
    {
      "lat": -25.43436258213354,
      "lon": -57.55008297343395,
      "geoinfo": {
        "display_name": "Sauce, Achucarro, San Antonio, Central Department, Región Oriental, 111215, Paraguay",
        "road": "Sauce",
        "house_number": null,
        "neighbourhood": null,
        "suburb": "Achucarro",
        "city_district": null,
        "city": "San Antonio",
        "state": "Central Department",
        "postcode": "111215",
        "country": "Paraguay",
        "country_code": "py"
      },
      "address": "Sauce, San Antonio, Central Department, Paraguay"
    },
    {
      "lat": -25.407335841960588,
      "lon": -57.57783243165671,
      "geoinfo": {
        "display_name": "Riachuelo, Las Garzas, San Antonio, Central Department, Región Oriental, 111215, Paraguay",
        "road": "Riachuelo",
        "house_number": null,
        "neighbourhood": null,
        "suburb": "Las Garzas",
        "city_district": null,
        "city": "San Antonio",
        "state": "Central Department",
        "postcode": "111215",
        "country": "Paraguay",
        "country_code": "py"
      },
      "address": "Riachuelo, San Antonio, Central Department, Paraguay"
    },
    {
      "lat": -25.45113558818147,
      "lon": -57.51523179925949,
      "geoinfo": {
        "display_name": "Ypané, Central Department, Región Oriental, Paraguay",
        "road": null,
        "house_number": null,
        "neighbourhood": null,
        "suburb": null,
        "city_district": null,
        "city": "Ypané",
        "state": "Central Department",
        "postcode": null,
        "country": "Paraguay",
        "country_code": "py"
      },
      "address": "088, San Antonio, 25908 Central Department, Paraguay"
    },
    {
      "lat": -25.46297066597961,
      "lon": -57.532673533469406,
      "geoinfo": {
        "display_name": "Ypané, Central Department, Región Oriental, Paraguay",
        "road": null,
        "house_number": null,
        "neighbourhood": null,
        "suburb": null,
        "city_district": null,
        "city": "Ypané",
        "state": "Central Department",
        "postcode": null,
        "country": "Paraguay",
        "country_code": "py"
      },
      "address": "278, San Antonio, 41884 Central Department, Paraguay"
    },
    {
      "lat": -25.414148146819564,
      "lon": -57.526708738528136,
      "geoinfo": {
        "display_name": "Caaguazú, Ñemby, Central Department, Región Oriental, 111220, Paraguay",
        "road": null,
        "house_number": null,
        "neighbourhood": null,
        "suburb": "Caaguazú",
        "city_district": null,
        "city": "Ñemby",
        "state": "Central Department",
        "postcode": "111220",
        "country": "Paraguay",
        "country_code": "py"
      },
      "address": "495, Caaguazú, Ñemby, Central Department, Región Oriental, 111220, Paraguay"
    },
    {
      "lat": -25.382862114947454,
      "lon": -57.536553321889215,
      "geoinfo": {
        "display_name": "San Carlos, Ñemby, Central Department, Región Oriental, 111216, Paraguay",
        "road": null,
        "house_number": null,
        "neighbourhood": null,
        "suburb": "San Carlos",
        "city_district": null,
        "city": "Ñemby",
        "state": "Central Department",
        "postcode": "111216",
        "country": "Paraguay",
        "country_code": "py"
      },
      "address": "100, San Carlos, Ñemby, Central Department, Región Oriental, 111216, Paraguay"
    }
  ],
  "updated_at": "2025-10-19T09:21:01.558338+00:00",
  "_kind": "geo_samples"
}