{
  "country_code": "PY",
  "country": "Paraguay",
  "city": "Villa Hayes",
  "geonameid": 3436725,
  "target_addresses": 4,
  "samples": [
    {
      "lat": -25.108641995689055,
      "lon": -57.55990681323709,
      "geoinfo": {
        "display_name": "Pa'i Roberto, Villa Hayes, Presidente Hayes, Región Occidental, Paraguay",
        "road": null,
        "house_number": null,
        "neighbourhood": null,
        "suburb": "Pa'i Roberto",
        "city_district": null,
        "city": "Villa Hayes",
        "state": "Presidente Hayes",
        "postcode": null,
        "country": "Paraguay",
        "country_code": "py"
      },
      "address": "Pa'i Roberto, Villa Hayes, Presidente Hayes, Paraguay"
    },
    {
      "lat": -25.089941341570714,
      "lon": -57.5553292107676,
      "geoinfo": {
        "display_name": "Sueños y Esperanzas, Villa Hayes, Presidente Hayes, Región Occidental, Paraguay",
        "road": null,
        "house_number": null,
        "neighbourhood": null,
        "suburb": "Sueños y Esperanzas",
        "city_district": null,
        "city": "Villa Hayes",
        "state": "Presidente Hayes",
        "postcode": null,
        "country": "Paraguay",
        "country_code": "py"
      },
      "address": "Sueños y Esperanzas, Villa Hayes, Presidente Hayes, Paraguay"
    },
    {
      "lat": -25.07020055813472,
      "lon": -57.55495829144336,
      "geoinfo": {
        "display_name": "Dionicio Ríos, Rosa Mistica, Ciudad Nueva, Villa Hayes, Presidente Hayes, Región Occidental, Paraguay",
        "road": "Dionicio Ríos",
        "house_number": null,
        "neighbourhood": null,
        "suburb": "Ciudad Nueva",
        "city_district": null,
        "city": "Villa Hayes",
        "state": "Presidente Hayes",
        "postcode": null,
        "country": "Paraguay",
        "country_code": "py"
      },
      "address": "Dionicio Ríos, Villa Hayes, Presidente Hayes, Paraguay"
    },
    {
      "lat": -25.063230954237007,
      "lon": -57.55235660850521,
      "geoinfo": {
        "display_name": "Benjamín Aceval, Presidente Hayes, Región Occidental, Paraguay",
        "road": null,
        "house_number": null,
        "neighbourhood": null,
        "suburb": null,
        "city_district": null,
        "city": "Benjamín Aceval",
        "state": "Presidente Hayes",
        "postcode": null,
        "country": "Paraguay",
        "country_code": "py"
      },
      "address": "Villa Hayes, Presidente Hayes, Paraguay"
    },
    {
      "lat": -25.105186368299147,
      "lon": -57.513542418729536,
      "geoinfo": {
        "display_name": "Limpio, Central Department, Región Oriental, Paraguay",
        "road": null,
        "house_number": null,
        "neighbourhood": null,
        "suburb": null,
        "city_district": null,
        "city": "Limpio",
        "state": "Central Department",
        "postcode": null,
        "country": "Paraguay",
        "country_code": "py"
      },
      "address": "654, Limpio, Central Department, 51390 Región Oriental, Paraguay"
    },
    {
      "lat": -25.066429072568226,
      "lon": -57.54690474649406,
      "geoinfo": {
        "display_name": "Dionicio Ríos, Rosa Mistica, Ciudad Nueva, Villa Hayes, Presidente Hayes, Región Occidental, Paraguay",
        "road": "Dionicio Ríos",
        "house_number": null,
        "neighbourhood": null,
        "suburb": "Ciudad Nueva",
        "city_district": null,
        "city": "Villa Hayes",
        "state": "Presidente Hayes",
        "postcode": null,
        "country": "Paraguay",
        "country_code": "py"
      },
      "address": "748, Dionicio Ríos, Rosa Mistica, Ciudad Nueva, Villa Hayes, Presidente Hayes, 41770 Región Occidental, Paraguay"
    },
    {
      "lat": -25.12911651411129,
      "lon": -57.52007165081927,
      "geoinfo": {
        "display_name": "Limpio, Central Department, Región Oriental, Paraguay",
        "road": null,
        "house_number": null,
        "neighbourhood": null,
        "suburb": null,
        "city_district": null,
        "city": "Limpio",
        "state": "Central Department",
        "postcode": null,
        "country": "Paraguay",
        "country_code": "py"
      },
      "address": "777, Limpio, Central Department, 22802 Región Oriental, Paraguay"
    },
    {
      "lat": -25.10240165261288,
      "lon": -57.547670673754865,
      "geoinfo": {
        "display_name": "Ruta Nacional Presidente Carlos Antonio López, Pa'i Roberto, Villa Hayes, Presidente Hayes, Región Occidental, Paraguay",
        "road": "Ruta Nacional Presidente Carlos Antonio López",
        "house_number": null,
        "neighbourhood": null,
        "suburb": "Pa'i Roberto",
        "city_district": null,
        "city": "Villa Hayes",
        "state": "Presidente Hayes",
        "postcode": null,
        "country": "Paraguay",
        "country_code": "py"
      },
      "address": "147, Ruta Nacional Presidente Carlos Antonio López, Pa'i Roberto, Villa Hayes, Presidente Hayes, 48339 Región Occidental, Paraguay"
    }
  ],
  "updated_at": "2025-10-19T06:41:21.941603+00:00",
  "_kind": "geo_samples"
}