{
  "country_code": "IL",
  "country": "Israel",
  "city": "Eṭ Ṭaiyiba",
  "geonameid": 295130,
  "target_addresses": 4,
  "samples": [
    {
      "lat": 32.25840544336784,
      "lon": 34.97941568651356,
      "geoinfo": {
        "display_name": "Taibe, HaSharon Subdistrict, Center District, Israel",
        "road": null,
        "house_number": null,
        "neighbourhood": null,
        "suburb": null,
        "city_district": null,
        "city": "Taibe",
        "state": "Center District",
        "postcode": null,
        "country": "Israel",
        "country_code": "il"
      },
      "address": "Eṭ Ṭaiyiba, Center District, Israel"
    },
    {
      "lat": 32.28497762393608,
      "lon": 34.998275757277916,
      "geoinfo": {
        "display_name": "HaTavor, Shaar Efraim, Lev HaSharon Regional Council, HaSharon Subdistrict, Center District, 4283000, Israel",
        "road": "HaTavor",
        "house_number": null,
        "neighbourhood": null,
        "suburb": null,
        "city_district": null,
        "city": "Shaar Efraim",
        "state": "Center District",
        "postcode": "4283000",
        "country": "Israel",
        "country_code": "il"
      },
      "address": "894, HaTavor, Shaar Efraim, Lev HaSharon Regional Council, HaSharon Subdistrict, Center District, 4283000, Israel"
    },
    {
      "lat": 32.25524535491392,
      "lon": 35.01678230677054,
      "geoinfo": {
        "display_name": "Taibe, HaSharon Subdistrict, Center District, Israel",
        "road": null,
        "house_number": null,
        "neighbourhood": null,
        "suburb": null,
        "city_district": null,
        "city": "Taibe",
        "state": "Center District",
        "postcode": null,
        "country": "Israel",
        "country_code": "il"
      },
      "address": "406, Eṭ Ṭaiyiba, 67928 Center District, Israel"
    },
    {
      "lat": 32.28201461675125,
      "lon": 34.967468102926674,
      "geoinfo": {
        "display_name": "Kalanswa, HaSharon Subdistrict, Center District, 4282300, Israel",
        "road": null,
        "house_number": null,
        "neighbourhood": null,
        "suburb": null,
        "city_district": null,
        "city": "Kalanswa",
        "state": "Center District",
        "postcode": "4282300",
        "country": "Israel",
        "country_code": "il"
      },
      "address": "624, Eṭ Ṭaiyiba, 4282300 Center District, Israel"
    }
  ],
  "updated_at": "2025-10-19T04:51:36.638948+00:00",
  "_kind": "geo_samples"
}