{
  "country_code": "IL",
  "country": "Israel",
  "city": "Hod HaSharon",
  "geonameid": 294760,
  "target_addresses": 4,
  "samples": [
    {
      "lat": 32.15967781120856,
      "lon": 34.921408985345,
      "geoinfo": {
        "display_name": "HaGolan, Shikkun Gil Amal, Hod HaSharon, עיריית הוד השרוו -מחלקת הרווחה והשירותים החברתיים, Petah Tikva Subdistrict, Center District, 4537305, Israel",
        "road": "HaGolan",
        "house_number": null,
        "neighbourhood": null,
        "suburb": "Shikkun Gil Amal",
        "city_district": null,
        "city": "Hod HaSharon",
        "state": "Center District",
        "postcode": "4537305",
        "country": "Israel",
        "country_code": "il"
      },
      "address": "HaGolan, Hod HaSharon, Center District, Israel"
    },
    {
      "lat": 32.16638298907815,
      "lon": 34.86461690920992,
      "geoinfo": {
        "display_name": "Portsei HaDerech, Neve Amal, Herzliya, Tel Aviv Subdistrict, Tel-Aviv District, 4620527, Israel",
        "road": "Portsei HaDerech",
        "house_number": null,
        "neighbourhood": null,
        "suburb": "Neve Amal",
        "city_district": null,
        "city": "Herzliya",
        "state": "Tel-Aviv District",
        "postcode": "4620527",
        "country": "Israel",
        "country_code": "il"
      },
      "address": "694, Portsei HaDerech, Neve Amal, Herzliya, Tel Aviv Subdistrict, Tel-Aviv District, 4620527, Israel"
    },
    {
      "lat": 32.175780351351186,
      "lon": 34.87975575095989,
      "geoinfo": {
        "display_name": "לבהרכי, Raanana, Petah Tikva Subdistrict, Center District, 4361204, Israel",
        "road": "לבהרכי",
        "house_number": null,
        "neighbourhood": null,
        "suburb": null,
        "city_district": null,
        "city": "Raanana",
        "state": "Center District",
        "postcode": "4361204",
        "country": "Israel",
        "country_code": "il"
      },
      "address": "338, לבהרכי, Raanana, Petah Tikva Subdistrict, Center District, 4361204, Israel"
    },
    {
      "lat": 32.14814778363717,
      "lon": 34.85830147705749,
      "geoinfo": {
        "display_name": "IMI Ramat HaSharon, Taas Hasharon, Hod HaSharon, Petah Tikva Subdistrict, Center District, 4642261, Israel",
        "road": null,
        "house_number": null,
        "neighbourhood": null,
        "suburb": "Taas Hasharon",
        "city_district": null,
        "city": "Hod HaSharon",
        "state": "Center District",
        "postcode": "4642261",
        "country": "Israel",
        "country_code": "il"
      },
      "address": "138, IMI Ramat HaSharon, Taas Hasharon, Hod HaSharon, Petah Tikva Subdistrict, Center District, 4642261, Israel"
    }
  ],
  "updated_at": "2025-10-19T04:51:12.606467+00:00",
  "_kind": "geo_samples"
}