{
  "country_code": "IL",
  "country": "Israel",
  "city": "Kiryat Ono",
  "geonameid": 12031840,
  "target_addresses": 4,
  "samples": [
    {
      "lat": 32.04561135575803,
      "lon": 34.84243245839436,
      "geoinfo": {
        "display_name": "Tel HaShomer Hospital, Rafael Eitan, Tel HaShomer, Ramat Gan, Tel Aviv Subdistrict, Tel-Aviv District, 5262657, Israel",
        "road": "Rafael Eitan",
        "house_number": null,
        "neighbourhood": null,
        "suburb": "Tel HaShomer",
        "city_district": null,
        "city": "Ramat Gan",
        "state": "Tel-Aviv District",
        "postcode": "5262657",
        "country": "Israel",
        "country_code": "il"
      },
      "address": "Rafael Eitan, Kiryat Ono, Tel-Aviv District, Israel"
    },
    {
      "lat": 32.077024534117356,
      "lon": 34.85606476646562,
      "geoinfo": {
        "display_name": "Levi Eshkol, Ramat Hadar, Givat Shmuel, Petah Tikva Subdistrict, Center District, 5401773, Israel",
        "road": "Levi Eshkol",
        "house_number": null,
        "neighbourhood": null,
        "suburb": "Ramat Hadar",
        "city_district": null,
        "city": "Givat Shmuel",
        "state": "Center District",
        "postcode": "5401773",
        "country": "Israel",
        "country_code": "il"
      },
      "address": "288, Levi Eshkol, Ramat Hadar, Givat Shmuel, Petah Tikva Subdistrict, Center District, 5401773, Israel"
    },
    {
      "lat": 32.038078867957445,
      "lon": 34.86654498624275,
      "geoinfo": {
        "display_name": "לוחמי האש, Kiryat Ono, Tel Aviv Subdistrict, Tel-Aviv District, 6040725, Israel",
        "road": "לוחמי האש",
        "house_number": null,
        "neighbourhood": null,
        "suburb": null,
        "city_district": null,
        "city": "Kiryat Ono",
        "state": "Tel-Aviv District",
        "postcode": "6040725",
        "country": "Israel",
        "country_code": "il"
      },
      "address": "895, לוחמי האש, Kiryat Ono, Tel Aviv Subdistrict, Tel-Aviv District, 6040725, Israel"
    },
    {
      "lat": 32.10033985751799,
      "lon": 34.84586153752726,
      "geoinfo": {
        "display_name": "Em HaMoshavot, Tel Giborim, Bnei Brak, Tel Aviv Subdistrict, Tel-Aviv District, 6971001, Israel",
        "road": "Em HaMoshavot",
        "house_number": null,
        "neighbourhood": null,
        "suburb": "Tel Giborim",
        "city_district": null,
        "city": "Bnei Brak",
        "state": "Tel-Aviv District",
        "postcode": "6971001",
        "country": "Israel",
        "country_code": "il"
      },
      "address": "062, Em HaMoshavot, Tel Giborim, Bnei Brak, Tel Aviv Subdistrict, Tel-Aviv District, 6971001, Israel"
    }
  ],
  "updated_at": "2025-10-19T04:52:49.598547+00:00",
  "_kind": "geo_samples"
}