{
  "country_code": "IL",
  "country": "Israel",
  "city": "West Jerusalem",
  "geonameid": 7498240,
  "target_addresses": 4,
  "samples": [
    {
      "lat": 31.802552892702693,
      "lon": 35.201042989097274,
      "geoinfo": {
        "display_name": "Yitzhak Shamir, Ramot Bet, Jerusalem, Jerusalem Subdistrict, Jerusalem District, 9754901, Israel",
        "road": "Yitzhak Shamir",
        "house_number": null,
        "neighbourhood": null,
        "suburb": "Ramot Bet",
        "city_district": null,
        "city": "Jerusalem",
        "state": "Jerusalem District",
        "postcode": "9754901",
        "country": "Israel",
        "country_code": "il"
      },
      "address": "Yitzhak Shamir, West Jerusalem, Jerusalem District, Israel"
    },
    {
      "lat": 31.790220969636223,
      "lon": 35.192598911349094,
      "geoinfo": {
        "display_name": "18, Amram Gaon, Givat Shaul, Jerusalem, Jerusalem Subdistrict, Jerusalem District, 9546522, Israel",
        "road": "Amram Gaon",
        "house_number": "18",
        "neighbourhood": null,
        "suburb": "Givat Shaul",
        "city_district": null,
        "city": "Jerusalem",
        "state": "Jerusalem District",
        "postcode": "9546522",
        "country": "Israel",
        "country_code": "il"
      },
      "address": "18, Amram Gaon, Givat Shaul, Jerusalem, Jerusalem Subdistrict, Jerusalem District, 9546522, Israel"
    },
    {
      "lat": 31.73849316246543,
      "lon": 35.21853685311692,
      "geoinfo": {
        "display_name": "Leib Yafe, Ramat Rahel, Mate Yehuda Regional Council, Jerusalem Subdistrict, Jerusalem District, 9350004, Israel",
        "road": "Leib Yafe",
        "house_number": null,
        "neighbourhood": null,
        "suburb": null,
        "city_district": null,
        "city": "Mate Yehuda Regional Council",
        "state": "Jerusalem District",
        "postcode": "9350004",
        "country": "Israel",
        "country_code": "il"
      },
      "address": "768, Leib Yafe, Ramat Rahel, Mate Yehuda Regional Council, Jerusalem Subdistrict, Jerusalem District, 9350004, Israel"
    },
    {
      "lat": 31.79642847285261,
      "lon": 35.1997125861624,
      "geoinfo": {
        "display_name": "43, HaMem Gimel, Kiryat Mattersdorf, Romema, Jerusalem, Jerusalem Subdistrict, Jerusalem District, 9546522, Israel",
        "road": "HaMem Gimel",
        "house_number": "43",
        "neighbourhood": "Kiryat Mattersdorf",
        "suburb": "Romema",
        "city_district": null,
        "city": "Jerusalem",
        "state": "Jerusalem District",
        "postcode": "9546522",
        "country": "Israel",
        "country_code": "il"
      },
      "address": "43, HaMem Gimel, Kiryat Mattersdorf, Romema, Jerusalem, Jerusalem Subdistrict, Jerusalem District, 9546522, Israel"
    }
  ],
  "updated_at": "2025-10-19T04:52:20.589437+00:00",
  "_kind": "geo_samples"
}