{
  "country_code": "AE",
  "country_name": "United Arab Emirates",
  "cities": {
    "Dubai": [
      {
        "geonameid": 292223,
        "lat": 25.07725,
        "lon": 55.30927,
        "population": 3790000,
        "street_sample": {
          "source_domain": "nominatim.openstreetmap.org",
          "display_name": "Sheikh Mohammed Bin Zayed Road, City of Arabia, Dubai, United Arab Emirates",
          "latitude": 25.0777002,
          "longitude": 55.3088786,
          "road": "Sheikh Mohammed Bin Zayed Road",
          "house_number": null,
          "neighbourhood": null,
          "suburb": "City of Arabia",
          "city": null,
          "state": "Dubai",
          "country": "United Arab Emirates",
          "postal_code": null
        }
      }
    ],
    "Abu Dhabi": [
      {
        "geonameid": 292968,
        "lat": 24.45118,
        "lon": 54.39696,
        "population": 1807000,
        "street_sample": {
          "source_domain": "nominatim.openstreetmap.org",
          "display_name": "Sultan Bin Zayed The First Street, Al Nahyan, Abu Dhabi, Abu Dhabi Emirate, United Arab Emirates",
          "latitude": 24.451151,
          "longitude": 54.3969296,
          "road": "Sultan Bin Zayed The First Street",
          "house_number": null,
          "neighbourhood": null,
          "suburb": "Al Nahyan",
          "city": "Abu Dhabi",
          "state": "Abu Dhabi Emirate",
          "country": "United Arab Emirates",
          "postal_code": null
        }
      }
    ],
    "Sharjah": [
      {
        "geonameid": 292672,
        "lat": 25.33737,
        "lon": 55.41206,
        "population": 1800000,
        "street_sample": {
          "source_domain": "nominatim.openstreetmap.org",
          "display_name": "garage near gmc, Sheikh Khalifa bin Zayed Al Nahyan Road, Industrial Area, Sharjah, Sharjah Emirate, United Arab Emirates",
          "latitude": 25.3363626,
          "longitude": 55.4114352,
          "road": "Sheikh Khalifa bin Zayed Al Nahyan Road",
          "house_number": null,
          "neighbourhood": null,
          "suburb": "Industrial Area",
          "city": "Sharjah",
          "state": "Sharjah Emirate",
          "country": "United Arab Emirates",
          "postal_code": null
        }
      }
    ],
    "Al Ain City": [
      {
        "geonameid": 292913,
        "lat": 24.19167,
        "lon": 55.76056,
        "population": 846747,
        "street_sample": {
          "source_domain": "geocode.maps.co",
          "display_name": "13, Al Mantaqah As Sina'iyah 9 Street, Sanaiya Industrial, Industrial Area, Al Ain, Abu Dhabi Emirate, 30908, United Arab Emirates",
          "latitude": 24.1915144,
          "longitude": 55.7604939,
          "road": "Al Mantaqah As Sina'iyah 9 Street",
          "house_number": "13",
          "neighbourhood": null,
          "suburb": null,
          "city": "Industrial Area",
          "state": "Abu Dhabi Emirate",
          "country": "United Arab Emirates",
          "postal_code": "30908"
        }
      }
    ],
    "Ajman City": [
      {
        "geonameid": 292932,
        "lat": 25.40177,
        "lon": 55.47878,
        "population": 490035,
        "street_sample": {
          "source_domain": "nominatim.openstreetmap.org",
          "display_name": "Sheikh Humaid bin Rashid Bridge, Al Jerf, Ajman, Ajman Emirate, United Arab Emirates",
          "latitude": 25.4003009,
          "longitude": 55.4780198,
          "road": "Sheikh Humaid bin Rashid Bridge",
          "house_number": null,
          "neighbourhood": null,
          "suburb": "Al Jerf",
          "city": "Ajman",
          "state": "Ajman Emirate",
          "country": "United Arab Emirates",
          "postal_code": null
        }
      }
    ],
    "Dayrah": [
      {
        "geonameid": 292261,
        "lat": 25.27143,
        "lon": 55.30207,
        "population": 400000,
        "street_sample": {
          "source_domain": "nominatim.openstreetmap.org",
          "display_name": "Naif Road, Deira, Al Sabkha, Deira, Dubai, United Arab Emirates",
          "latitude": 25.2713792,
          "longitude": 55.3020922,
          "road": "Naif Road",
          "house_number": null,
          "neighbourhood": "Deira",
          "suburb": "Al Sabkha",
          "city": "Deira",
          "state": "Dubai",
          "country": "United Arab Emirates",
          "postal_code": null
        }
      }
    ],
    "Ras Al Khaimah City": [
      {
        "geonameid": 291074,
        "lat": 25.78953,
        "lon": 55.9432,
        "population": 351943,
        "street_sample": {
          "source_domain": "geocode.maps.co",
          "display_name": "Dubai Library Bookshop, Sheikh Muhammad Bin Salem Road, Burial Khor Ras Al Khaimah, Ras Al Khaimah, Ras al-Khaimah, United Arab Emirates",
          "latitude": 25.789466,
          "longitude": 55.94315719767418,
          "road": "Sheikh Muhammad Bin Salem Road",
          "house_number": null,
          "neighbourhood": null,
          "suburb": "Burial Khor Ras Al Khaimah",
          "city": "Ras Al Khaimah",
          "state": "Ras al-Khaimah",
          "country": "United Arab Emirates",
          "postal_code": null
        }
      }
    ],
    "Musaffah": [
      {
        "geonameid": 12042053,
        "lat": 24.35893,
        "lon": 54.48267,
        "population": 243341,
        "street_sample": {
          "source_domain": "nominatim.openstreetmap.org",
          "display_name": "Al Kawakib Street, Musaffah Industrial Area, Musaffah, Abu Dhabi, Abu Dhabi Emirate, United Arab Emirates",
          "latitude": 24.3586411,
          "longitude": 54.4826399,
          "road": "Al Kawakib Street",
          "house_number": null,
          "neighbourhood": null,
          "suburb": "Musaffah Industrial Area",
          "city": "Musaffah",
          "state": "Abu Dhabi Emirate",
          "country": "United Arab Emirates",
          "postal_code": null
        }
      }
    ],
    "Jebel Ali": [
      {
        "geonameid": 11524601,
        "lat": 25.00255,
        "lon": 55.10811,
        "population": 210000,
        "street_sample": {
          "source_domain": "nominatim.openstreetmap.org",
          "display_name": "Salam Al Madina, First Al Khail Street, Jabal Ali Industrial, Jabal Ali, Dubai, United Arab Emirates",
          "latitude": 25.0021604,
          "longitude": 55.1084311,
          "road": "First Al Khail Street",
          "house_number": null,
          "neighbourhood": null,
          "suburb": "Jabal Ali",
          "city": null,
          "state": "Dubai",
          "country": "United Arab Emirates",
          "postal_code": null
        }
      }
    ]
  }
}