{
  "country_code": "TN",
  "country": "Tunisia",
  "city": "Dar el Haj Taïeb",
  "geonameid": 2584420,
  "target_addresses": 3,
  "samples": [
    {
      "lat": 34.7464417116925,
      "lon": 10.767073065954577,
      "geoinfo": {
        "display_name": "نهج محمد البقلوطي, المنطقة الصناعية البودريار 1, حي المعارف, البساتين, معتمدية صفاقس المدينة, Sfax, 3099, Tunisia",
        "road": "نهج محمد البقلوطي",
        "house_number": null,
        "neighbourhood": null,
        "suburb": "حي المعارف",
        "city_district": null,
        "city": null,
        "state": "Sfax",
        "postcode": "3099",
        "country": "Tunisia",
        "country_code": "tn"
      },
      "address": "نهج محمد البقلوطي, المنطقة الصناعية البودريار 1, حي المعارف, البساتين, معتمدية صفاقس المدينة, Sfax, 3099, Tunisia"
    },
    {
      "lat": 34.823475098561254,
      "lon": 10.74910067088771,
      "geoinfo": {
        "display_name": "Essedra, السدرة, معتمدية ساقية الزيت, Sfax, 3021, Tunisia",
        "road": null,
        "house_number": null,
        "neighbourhood": null,
        "suburb": "Essedra",
        "city_district": null,
        "city": null,
        "state": "Sfax",
        "postcode": "3021",
        "country": "Tunisia",
        "country_code": "tn"
      },
      "address": "613, Essedra, السدرة, معتمدية ساقية الزيت, Sfax, 3021, Tunisia"
    },
    {
      "lat": 34.808451484580395,
      "lon": 10.716977028287888,
      "geoinfo": {
        "display_name": "الحي الجديد قرمدة, بوزيان, معتمدية صفاقس الجنوبية, Sfax, 3012, Tunisia",
        "road": null,
        "house_number": null,
        "neighbourhood": null,
        "suburb": "الحي الجديد قرمدة",
        "city_district": null,
        "city": null,
        "state": "Sfax",
        "postcode": "3012",
        "country": "Tunisia",
        "country_code": "tn"
      },
      "address": "241, الحي الجديد قرمدة, بوزيان, معتمدية صفاقس الجنوبية, Sfax, 3012, Tunisia"
    }
  ],
  "updated_at": "2025-10-19T06:30:11.942784+00:00",
  "_kind": "geo_samples"
}