{
  "country_code": "TN",
  "country": "Tunisia",
  "city": "Ez Zahra",
  "geonameid": 2586370,
  "target_addresses": 3,
  "samples": [
    {
      "lat": 36.74727197172252,
      "lon": 10.275144599128708,
      "geoinfo": {
        "display_name": "الطريق الوطنية تونس - رأس جدير, رادس الغابة, Radès, البساتين, معتمدية رادس, Ben Arous, 2097, Tunisia",
        "road": "الطريق الوطنية تونس - رأس جدير",
        "house_number": null,
        "neighbourhood": null,
        "suburb": null,
        "city_district": "رادس الغابة",
        "city": "Radès",
        "state": "Ben Arous",
        "postcode": "2097",
        "country": "Tunisia",
        "country_code": "tn"
      },
      "address": "الطريق الوطنية تونس - رأس جدير, Ez Zahra, Ben Arous, Tunisia"
    },
    {
      "lat": 36.77224697251756,
      "lon": 10.322947676122066,
      "geoinfo": {
        "display_name": "Ezzahra, حي الحبيب, معتمدية الزهراء, Ben Arous, 2034, Tunisia",
        "road": null,
        "house_number": null,
        "neighbourhood": null,
        "suburb": null,
        "city_district": null,
        "city": "Ezzahra",
        "state": "Ben Arous",
        "postcode": "2034",
        "country": "Tunisia",
        "country_code": "tn"
      },
      "address": "913, Ezzahra, حي الحبيب, معتمدية الزهراء, Ben Arous, 2034, Tunisia"
    },
    {
      "lat": 36.758819323239905,
      "lon": 10.341249388952209,
      "geoinfo": {
        "display_name": "Hammam-Lif, حمام الانف المدينة, معتمدية حمام الأنف, Ben Arous, 2093, Tunisia",
        "road": null,
        "house_number": null,
        "neighbourhood": null,
        "suburb": null,
        "city_district": null,
        "city": "Hammam-Lif",
        "state": "Ben Arous",
        "postcode": "2093",
        "country": "Tunisia",
        "country_code": "tn"
      },
      "address": "785, Hammam-Lif, حمام الانف المدينة, معتمدية حمام الأنف, Ben Arous, 2093, Tunisia"
    }
  ],
  "updated_at": "2025-10-19T06:30:14.125283+00:00",
  "_kind": "geo_samples"
}