{
  "country_code": "TN",
  "country": "Tunisia",
  "city": "Sidi Bouzid",
  "geonameid": 2465840,
  "target_addresses": 3,
  "samples": [
    {
      "lat": 35.00877820769171,
      "lon": 9.496137691837303,
      "geoinfo": {
        "display_name": "الأحواز, معتمدية سيدي بوزيد الشرقية, Sidi Bouzid, 9100, Tunisia",
        "road": null,
        "house_number": null,
        "neighbourhood": null,
        "suburb": null,
        "city_district": null,
        "city": null,
        "state": "Sidi Bouzid",
        "postcode": "9100",
        "country": "Tunisia",
        "country_code": "tn"
      },
      "address": "Sidi Bouzid, Sidi Bouzid, Tunisia"
    },
    {
      "lat": 35.04416688098202,
      "lon": 9.457948195138737,
      "geoinfo": {
        "display_name": "سيدي سالم, معتمدية سيدي بوزيد الغربية, Sidi Bouzid, 9100, Tunisia",
        "road": null,
        "house_number": null,
        "neighbourhood": null,
        "suburb": null,
        "city_district": null,
        "city": null,
        "state": "Sidi Bouzid",
        "postcode": "9100",
        "country": "Tunisia",
        "country_code": "tn"
      },
      "address": "817, Sidi Bouzid, 9100 Sidi Bouzid, Tunisia"
    },
    {
      "lat": 35.054806194870935,
      "lon": 9.515345543952536,
      "geoinfo": {
        "display_name": "لسودة, معتمدية سيدي بوزيد الشرقية, Sidi Bouzid, 9100, Tunisia",
        "road": null,
        "house_number": null,
        "neighbourhood": null,
        "suburb": null,
        "city_district": null,
        "city": null,
        "state": "Sidi Bouzid",
        "postcode": "9100",
        "country": "Tunisia",
        "country_code": "tn"
      },
      "address": "293, لسودة, معتمدية سيدي بوزيد الشرقية, Sidi Bouzid, 9100, Tunisia"
    }
  ],
  "updated_at": "2025-10-19T06:29:32.379844+00:00",
  "_kind": "geo_samples"
}