{
  "country_code": "SA",
  "country": "Saudi Arabia",
  "city": "Al ‘Awwāmīyah",
  "geonameid": 109998,
  "target_addresses": 2,
  "samples": [
    {
      "lat": 26.629727856592126,
      "lon": 49.98883731044912,
      "geoinfo": {
        "display_name": "Al `Awwamiyah, Qatif Governorate, Eastern Province, 32641, Saudi Arabia",
        "road": null,
        "house_number": null,
        "neighbourhood": null,
        "suburb": null,
        "city_district": null,
        "city": "Al `Awwamiyah",
        "state": "Eastern Province",
        "postcode": "32641",
        "country": "Saudi Arabia",
        "country_code": "sa"
      },
      "address": "Al ‘Awwāmīyah, Eastern Province, Saudi Arabia"
    },
    {
      "lat": 26.619840610327127,
      "lon": 49.976161335401194,
      "geoinfo": {
        "display_name": "Ath Thuraiya, Al `Awwamiyah, Qatif Governorate, Eastern Province, 32827, Saudi Arabia",
        "road": null,
        "house_number": null,
        "neighbourhood": "Ath Thuraiya",
        "suburb": null,
        "city_district": null,
        "city": "Al `Awwamiyah",
        "state": "Eastern Province",
        "postcode": "32827",
        "country": "Saudi Arabia",
        "country_code": "sa"
      },
      "address": "Ath Thuraiya, Al ‘Awwāmīyah, Eastern Province, Saudi Arabia"
    },
    {
      "lat": 26.583452465600285,
      "lon": 49.938108568756746,
      "geoinfo": {
        "display_name": "Al Aujam, Al Awjam, Qatif Governorate, Eastern Province, 32656, Saudi Arabia",
        "road": null,
        "house_number": null,
        "neighbourhood": "Al Aujam",
        "suburb": null,
        "city_district": null,
        "city": "Al Awjam",
        "state": "Eastern Province",
        "postcode": "32656",
        "country": "Saudi Arabia",
        "country_code": "sa"
      },
      "address": "624, Al Aujam, Al Awjam, Qatif Governorate, Eastern Province, 32656, Saudi Arabia"
    },
    {
      "lat": 26.62258660518065,
      "lon": 49.97297064147299,
      "geoinfo": {
        "display_name": "طريق الإمام علي بن أبي طالب, Al Marwah, Safwa, Qatif Governorate, Eastern Province, 32827, Saudi Arabia",
        "road": "طريق الإمام علي بن أبي طالب",
        "house_number": null,
        "neighbourhood": "Al Marwah",
        "suburb": null,
        "city_district": null,
        "city": "Safwa",
        "state": "Eastern Province",
        "postcode": "32827",
        "country": "Saudi Arabia",
        "country_code": "sa"
      },
      "address": "889, طريق الإمام علي بن أبي طالب, Al Marwah, Safwa, Qatif Governorate, Eastern Province, 32827, Saudi Arabia"
    }
  ],
  "updated_at": "2025-10-19T06:31:58.829137+00:00",
  "_kind": "geo_samples"
}