{
  "country_code": "SA",
  "country": "Saudi Arabia",
  "city": "Al Bukayrīyah",
  "geonameid": 109878,
  "target_addresses": 2,
  "samples": [
    {
      "lat": 26.145450874847615,
      "lon": 43.616469679202375,
      "geoinfo": {
        "display_name": "Al Bukayriyah, Al-Qassim Province, 51941, Saudi Arabia",
        "road": null,
        "house_number": null,
        "neighbourhood": null,
        "suburb": null,
        "city_district": null,
        "city": "Al Bukayriyah",
        "state": "Al-Qassim Province",
        "postcode": "51941",
        "country": "Saudi Arabia",
        "country_code": "sa"
      },
      "address": "Al Bukayrīyah, Al-Qassim Province, Saudi Arabia"
    },
    {
      "lat": 26.12550858626411,
      "lon": 43.650445541119076,
      "geoinfo": {
        "display_name": "طريق الامير سلطان, مخطط المشيحة, Al Hilaliyah, Al Bukayriyah, Al-Qassim Province, 51941, Saudi Arabia",
        "road": "طريق الامير سلطان",
        "house_number": null,
        "neighbourhood": "مخطط المشيحة",
        "suburb": "Al Hilaliyah",
        "city_district": null,
        "city": "Al Bukayriyah",
        "state": "Al-Qassim Province",
        "postcode": "51941",
        "country": "Saudi Arabia",
        "country_code": "sa"
      },
      "address": "طريق الامير سلطان, Al Bukayrīyah, Al-Qassim Province, Saudi Arabia"
    },
    {
      "lat": 26.125040382494326,
      "lon": 43.6202258911058,
      "geoinfo": {
        "display_name": "Al Bukayriyah, Al-Qassim Province, 51941, Saudi Arabia",
        "road": null,
        "house_number": null,
        "neighbourhood": null,
        "suburb": null,
        "city_district": null,
        "city": "Al Bukayriyah",
        "state": "Al-Qassim Province",
        "postcode": "51941",
        "country": "Saudi Arabia",
        "country_code": "sa"
      },
      "address": "716, Al Bukayriyah, Al-Qassim Province, 51941, Saudi Arabia"
    },
    {
      "lat": 26.1572134333302,
      "lon": 43.61635697230034,
      "geoinfo": {
        "display_name": "Al Bukayriyah, Al-Qassim Province, 51941, Saudi Arabia",
        "road": null,
        "house_number": null,
        "neighbourhood": null,
        "suburb": null,
        "city_district": null,
        "city": "Al Bukayriyah",
        "state": "Al-Qassim Province",
        "postcode": "51941",
        "country": "Saudi Arabia",
        "country_code": "sa"
      },
      "address": "813, Al Bukayriyah, Al-Qassim Province, 51941, Saudi Arabia"
    }
  ],
  "updated_at": "2025-10-19T06:31:49.288656+00:00",
  "_kind": "geo_samples"
}