{
  "country_code": "SA",
  "country": "Saudi Arabia",
  "city": "Al Munayzilah",
  "geonameid": 109059,
  "target_addresses": 2,
  "samples": [
    {
      "lat": 25.40453728361113,
      "lon": 49.63407551060847,
      "geoinfo": {
        "display_name": "Al-Hofuf, Al Ahsa Governorate, Eastern Province, 36343, Saudi Arabia",
        "road": null,
        "house_number": null,
        "neighbourhood": null,
        "suburb": null,
        "city_district": null,
        "city": "Al-Hofuf",
        "state": "Eastern Province",
        "postcode": "36343",
        "country": "Saudi Arabia",
        "country_code": "sa"
      },
      "address": "Al Munayzilah, Eastern Province, Saudi Arabia"
    },
    {
      "lat": 25.38190374072956,
      "lon": 49.63702243390017,
      "geoinfo": {
        "display_name": "Al Luwaymi District, قرية بني معن, Al Ahsa Governorate, Eastern Province, 36343, Saudi Arabia",
        "road": null,
        "house_number": null,
        "neighbourhood": "Al Luwaymi District",
        "suburb": null,
        "city_district": null,
        "city": "Al Ahsa Governorate",
        "state": "Eastern Province",
        "postcode": "36343",
        "country": "Saudi Arabia",
        "country_code": "sa"
      },
      "address": "Al Luwaymi District, Al Munayzilah, Eastern Province, Saudi Arabia"
    },
    {
      "lat": 25.414633743507316,
      "lon": 49.69709035372573,
      "geoinfo": {
        "display_name": "Tuwaythir, Al Ahsa Governorate, Eastern Province, 36351, Saudi Arabia",
        "road": null,
        "house_number": null,
        "neighbourhood": null,
        "suburb": null,
        "city_district": null,
        "city": "Al Ahsa Governorate",
        "state": "Eastern Province",
        "postcode": "36351",
        "country": "Saudi Arabia",
        "country_code": "sa"
      },
      "address": "521, Tuwaythir, Al Ahsa Governorate, Eastern Province, 36351, Saudi Arabia"
    },
    {
      "lat": 25.396338466856836,
      "lon": 49.65927406854036,
      "geoinfo": {
        "display_name": "Jubail, Ash Shaharin, Al Mansourah, Jubail, Eastern Province, 36343, Saudi Arabia",
        "road": null,
        "house_number": null,
        "neighbourhood": null,
        "suburb": null,
        "city_district": null,
        "city": "Al Mansourah",
        "state": "Eastern Province",
        "postcode": "36343",
        "country": "Saudi Arabia",
        "country_code": "sa"
      },
      "address": "094, Al Munayzilah, 36343 Eastern Province, Saudi Arabia"
    }
  ],
  "updated_at": "2025-10-19T06:57:37.833158+00:00",
  "_kind": "geo_samples"
}