{
  "country_code": "SA",
  "country": "Saudi Arabia",
  "city": "Fayfā’",
  "geonameid": 106667,
  "target_addresses": 2,
  "samples": [
    {
      "lat": 17.251454543300046,
      "lon": 43.11140078645149,
      "geoinfo": {
        "display_name": "Niaed Aldara, Faifa, Jazan Province, 83581, Saudi Arabia",
        "road": null,
        "house_number": null,
        "neighbourhood": null,
        "suburb": null,
        "city_district": null,
        "city": "Faifa",
        "state": "Jazan Province",
        "postcode": "83581",
        "country": "Saudi Arabia",
        "country_code": "sa"
      },
      "address": "Fayfā’, Jazan Province, Saudi Arabia"
    },
    {
      "lat": 17.2918416735094,
      "lon": 43.10299969094437,
      "geoinfo": {
        "display_name": "نيد مجبا, Faifa, Jazan Province, 83581, Saudi Arabia",
        "road": null,
        "house_number": null,
        "neighbourhood": null,
        "suburb": null,
        "city_district": null,
        "city": "Faifa",
        "state": "Jazan Province",
        "postcode": "83581",
        "country": "Saudi Arabia",
        "country_code": "sa"
      },
      "address": "122, Fayfā’, 83581 Jazan Province, Saudi Arabia"
    },
    {
      "lat": 17.29993566042107,
      "lon": 43.166325819195855,
      "geoinfo": {
        "display_name": "alddayer bani malik, Jazan Province, 83863, Saudi Arabia",
        "road": null,
        "house_number": null,
        "neighbourhood": null,
        "suburb": null,
        "city_district": null,
        "city": null,
        "state": "Jazan Province",
        "postcode": "83863",
        "country": "Saudi Arabia",
        "country_code": "sa"
      },
      "address": "646, Fayfā’, 83863 Jazan Province, Saudi Arabia"
    }
  ],
  "updated_at": "2025-10-19T09:43:38.063997+00:00",
  "_kind": "geo_samples"
}