{
  "country_code": "SA",
  "country": "Saudi Arabia",
  "city": "Riyāḑ al Khabrā’",
  "geonameid": 11835536,
  "target_addresses": 2,
  "samples": [
    {
      "lat": 26.06772205538118,
      "lon": 43.51824983990906,
      "geoinfo": {
        "display_name": "Qasim Madinah Road, Riyad Al Khabra, Riyadh Al Khabra, Al-Qassim Province, Saudi Arabia",
        "road": "Qasim Madinah Road",
        "house_number": null,
        "neighbourhood": null,
        "suburb": null,
        "city_district": null,
        "city": "Riyad Al Khabra",
        "state": "Al-Qassim Province",
        "postcode": null,
        "country": "Saudi Arabia",
        "country_code": "sa"
      },
      "address": "Qasim Madinah Road, Riyāḑ al Khabrā’, Al-Qassim Province, Saudi Arabia"
    },
    {
      "lat": 26.03435897711076,
      "lon": 43.54829496395298,
      "geoinfo": {
        "display_name": "Riyad Al Khabra, Riyadh Al Khabra, Al-Qassim Province, Saudi Arabia",
        "road": null,
        "house_number": null,
        "neighbourhood": null,
        "suburb": null,
        "city_district": null,
        "city": "Riyad Al Khabra",
        "state": "Al-Qassim Province",
        "postcode": null,
        "country": "Saudi Arabia",
        "country_code": "sa"
      },
      "address": "Riyāḑ al Khabrā’, Al-Qassim Province, Saudi Arabia"
    },
    {
      "lat": 26.082508210308866,
      "lon": 43.5384376655136,
      "geoinfo": {
        "display_name": "Riyad Al Khabra, Riyadh Al Khabra, Al-Qassim Province, Saudi Arabia",
        "road": null,
        "house_number": null,
        "neighbourhood": null,
        "suburb": null,
        "city_district": null,
        "city": "Riyad Al Khabra",
        "state": "Al-Qassim Province",
        "postcode": null,
        "country": "Saudi Arabia",
        "country_code": "sa"
      },
      "address": "565, Riyad Al Khabra, Riyadh Al Khabra, 14415 Al-Qassim Province, Saudi Arabia"
    },
    {
      "lat": 26.04409342995805,
      "lon": 43.5780028475898,
      "geoinfo": {
        "display_name": "An Nufayyid, Riyad Al Khabra, Riyadh Al Khabra, Al-Qassim Province, Saudi Arabia",
        "road": null,
        "house_number": null,
        "neighbourhood": null,
        "suburb": null,
        "city_district": null,
        "city": "Riyad Al Khabra",
        "state": "Al-Qassim Province",
        "postcode": null,
        "country": "Saudi Arabia",
        "country_code": "sa"
      },
      "address": "125, An Nufayyid, Riyad Al Khabra, Riyadh Al Khabra, 88266 Al-Qassim Province, Saudi Arabia"
    }
  ],
  "updated_at": "2025-10-19T06:53:14.616725+00:00",
  "_kind": "geo_samples"
}