{
  "country_code": "SA",
  "country": "Saudi Arabia",
  "city": "Sayhﾄ》",
  "geonameid": 102318,
  "target_addresses": 2,
  "samples": [
    {
      "lat": 26.483234030592477,
      "lon": 50.04472885077971,
      "geoinfo": {
        "display_name": "Al Muntazah, Sayhat, Qatif Governorate, Eastern Province, 32452, Saudi Arabia",
        "road": null,
        "house_number": null,
        "neighbourhood": "Al Muntazah",
        "suburb": null,
        "city_district": null,
        "city": "Sayhat",
        "state": "Eastern Province",
        "postcode": "32452",
        "country": "Saudi Arabia",
        "country_code": "sa"
      },
      "address": "Al Muntazah, Sayhﾄ》, Eastern Province, Saudi Arabia"
    },
    {
      "lat": 26.462098830039405,
      "lon": 50.06280915864663,
      "geoinfo": {
        "display_name": "Al Aziziyah, Sayhat, Qatif Governorate, Eastern Province, 32424, Saudi Arabia",
        "road": null,
        "house_number": null,
        "neighbourhood": "Al Aziziyah",
        "suburb": null,
        "city_district": null,
        "city": "Sayhat",
        "state": "Eastern Province",
        "postcode": "32424",
        "country": "Saudi Arabia",
        "country_code": "sa"
      },
      "address": "Al Aziziyah, Sayhﾄ》, Eastern Province, Saudi Arabia"
    },
    {
      "lat": 26.494431565585906,
      "lon": 50.019289941976105,
      "geoinfo": {
        "display_name": "613, Al Badi, Al Badrani, Al Awjam, Qatif Governorate, Eastern Province, 32656, Saudi Arabia",
        "road": "613",
        "house_number": null,
        "neighbourhood": "Al Badi",
        "suburb": null,
        "city_district": null,
        "city": "Al Awjam",
        "state": "Eastern Province",
        "postcode": "32656",
        "country": "Saudi Arabia",
        "country_code": "sa"
      },
      "address": "613, Al Badi, Al Badrani, Al Awjam, Qatif Governorate, Eastern Province, 32656, Saudi Arabia"
    },
    {
      "lat": 26.510038691603494,
      "lon": 50.0224162610715,
      "geoinfo": {
        "display_name": "Al Badr, `Inak, Qatif Governorate, Eastern Province, 32453, Saudi Arabia",
        "road": null,
        "house_number": null,
        "neighbourhood": "Al Badr",
        "suburb": null,
        "city_district": null,
        "city": "`Inak",
        "state": "Eastern Province",
        "postcode": "32453",
        "country": "Saudi Arabia",
        "country_code": "sa"
      },
      "address": "517, Al Badr, Sayhﾄ》, 32453 Eastern Province, Saudi Arabia"
    }
  ],
  "updated_at": "2025-10-19T06:30:56.546039+00:00",
  "_kind": "geo_samples"
}