{
  "country_code": "LS",
  "country": "Lesotho",
  "city": "Maputsoe",
  "geonameid": 932521,
  "target_addresses": 10,
  "samples": [
    {
      "lat": -28.914758520932374,
      "lon": 27.93835735569767,
      "geoinfo": {
        "display_name": "Matšoaneng, Leribe District, 350, Lesotho",
        "road": null,
        "house_number": null,
        "neighbourhood": null,
        "suburb": null,
        "city_district": null,
        "city": "Matšoaneng",
        "state": "Leribe District",
        "postcode": "350",
        "country": "Lesotho",
        "country_code": "ls"
      },
      "address": "Maputsoe, Leribe District, Lesotho"
    },
    {
      "lat": -28.86952305031207,
      "lon": 27.928429922775887,
      "geoinfo": {
        "display_name": "D1011, Litlomokong (Ha-'Mathata), Taung, Saint Monica's, Leribe District, Lesotho",
        "road": "D1011",
        "house_number": null,
        "neighbourhood": "Litlomokong (Ha-'Mathata)",
        "suburb": null,
        "city_district": null,
        "city": "Saint Monica's",
        "state": "Leribe District",
        "postcode": null,
        "country": "Lesotho",
        "country_code": "ls"
      },
      "address": "D1011, Maputsoe, Leribe District, Lesotho"
    },
    {
      "lat": -28.92708362664403,
      "lon": 27.887263325315658,
      "geoinfo": {
        "display_name": "Hleoheng Secondary School, A1, Leribe District, 350, Lesotho",
        "road": "A1",
        "house_number": null,
        "neighbourhood": null,
        "suburb": null,
        "city_district": null,
        "city": null,
        "state": "Leribe District",
        "postcode": "350",
        "country": "Lesotho",
        "country_code": "ls"
      },
      "address": "A1, Maputsoe, Leribe District, Lesotho"
    },
    {
      "lat": -28.893853338818868,
      "lon": 27.903426607538794,
      "geoinfo": {
        "display_name": "Jabavu (Ha-Chonapase), Makitiring (Ha Maputsoe), Ha Maputsoe, Leribe District, 350, Lesotho",
        "road": null,
        "house_number": null,
        "neighbourhood": "Jabavu (Ha-Chonapase)",
        "suburb": "Makitiring (Ha Maputsoe)",
        "city_district": null,
        "city": "Ha Maputsoe",
        "state": "Leribe District",
        "postcode": "350",
        "country": "Lesotho",
        "country_code": "ls"
      },
      "address": "Jabavu (Ha-Chonapase), Maputsoe, Leribe District, Lesotho"
    },
    {
      "lat": -28.879270183544556,
      "lon": 27.896957747685597,
      "geoinfo": {
        "display_name": "Ha-Moholisa (Ha Maputsoe), Ha Maputsoe, Leribe District, 350, Lesotho",
        "road": null,
        "house_number": null,
        "neighbourhood": null,
        "suburb": "Ha-Moholisa (Ha Maputsoe)",
        "city_district": null,
        "city": "Ha Maputsoe",
        "state": "Leribe District",
        "postcode": "350",
        "country": "Lesotho",
        "country_code": "ls"
      },
      "address": "Ha-Moholisa (Ha Maputsoe), Maputsoe, Leribe District, Lesotho"
    },
    {
      "lat": -28.887165835391453,
      "lon": 27.90062229203455,
      "geoinfo": {
        "display_name": "Sir Seretse Khama Road, Try-Hoek (Ha Motlalehi), Makitiring (Ha Maputsoe), Ha Maputsoe, Leribe District, 350, Lesotho",
        "road": "Sir Seretse Khama Road",
        "house_number": null,
        "neighbourhood": "Try-Hoek (Ha Motlalehi)",
        "suburb": "Makitiring (Ha Maputsoe)",
        "city_district": null,
        "city": "Ha Maputsoe",
        "state": "Leribe District",
        "postcode": "350",
        "country": "Lesotho",
        "country_code": "ls"
      },
      "address": "Sir Seretse Khama Road, Maputsoe, Leribe District, Lesotho"
    }
  ],
  "updated_at": "2025-10-16T18:35:46.231684+00:00",
  "_kind": "geo_samples"
}