{
  "country_code": "LS",
  "country": "Lesotho",
  "city": "Quthing",
  "geonameid": 932183,
  "target_addresses": 10,
  "samples": [
    {
      "lat": -30.380005260347588,
      "lon": 27.70607599353949,
      "geoinfo": {
        "display_name": "A4, Lekhalong (Ha Mofetoli), Maboelleng, Welkom, Quthing District, Lesotho",
        "road": "A4",
        "house_number": null,
        "neighbourhood": "Lekhalong (Ha Mofetoli)",
        "suburb": null,
        "city_district": null,
        "city": "Welkom",
        "state": "Quthing District",
        "postcode": null,
        "country": "Lesotho",
        "country_code": "ls"
      },
      "address": "A4, Quthing, Quthing District, Lesotho"
    },
    {
      "lat": -30.41294422255976,
      "lon": 27.69945587378447,
      "geoinfo": {
        "display_name": "D2010, Matsatseng (Ha Lekete), Ha Sikara (Quthing), Lihlabeng (Thlakoaneng), Quthing District, Lesotho",
        "road": "D2010",
        "house_number": null,
        "neighbourhood": "Matsatseng (Ha Lekete)",
        "suburb": "Ha Sikara (Quthing)",
        "city_district": null,
        "city": "Lihlabeng (Thlakoaneng)",
        "state": "Quthing District",
        "postcode": null,
        "country": "Lesotho",
        "country_code": "ls"
      },
      "address": "D2010, Quthing, Quthing District, Lesotho"
    },
    {
      "lat": -30.417726693274453,
      "lon": 27.67227240029496,
      "geoinfo": {
        "display_name": "Ha Mots'oane, Quthing District, Lesotho",
        "road": null,
        "house_number": null,
        "neighbourhood": null,
        "suburb": null,
        "city_district": null,
        "city": "Ha Mots'oane",
        "state": "Quthing District",
        "postcode": null,
        "country": "Lesotho",
        "country_code": "ls"
      },
      "address": "Quthing, Quthing District, Lesotho"
    },
    {
      "lat": -30.39666536822294,
      "lon": 27.71647318719454,
      "geoinfo": {
        "display_name": "Mothse-Mocha (K'hok'hobe), Motse-Mocha Ha Sikara (Quthing), K'hok'hobe, Quthing District, Lesotho",
        "road": null,
        "house_number": null,
        "neighbourhood": "Mothse-Mocha (K'hok'hobe)",
        "suburb": "Motse-Mocha Ha Sikara (Quthing)",
        "city_district": null,
        "city": "K'hok'hobe",
        "state": "Quthing District",
        "postcode": null,
        "country": "Lesotho",
        "country_code": "ls"
      },
      "address": "Mothse-Mocha (K'hok'hobe), Quthing, Quthing District, Lesotho"
    },
    {
      "lat": -30.39982441937582,
      "lon": 27.696821020625844,
      "geoinfo": {
        "display_name": "Ha Lehlabela (Quthing), Quthing, Quthing District, Lesotho",
        "road": null,
        "house_number": null,
        "neighbourhood": null,
        "suburb": "Ha Lehlabela (Quthing)",
        "city_district": null,
        "city": "Quthing",
        "state": "Quthing District",
        "postcode": null,
        "country": "Lesotho",
        "country_code": "ls"
      },
      "address": "Ha Lehlabela (Quthing), Quthing, Quthing District, Lesotho"
    },
    {
      "lat": -30.37763820524796,
      "lon": 27.694527683425246,
      "geoinfo": {
        "display_name": "Lekhalong (Ha Mofetoli), Ha Marase, Sekants'ing, Quthing District, Lesotho",
        "road": null,
        "house_number": null,
        "neighbourhood": "Lekhalong (Ha Mofetoli)",
        "suburb": null,
        "city_district": null,
        "city": "Sekants'ing",
        "state": "Quthing District",
        "postcode": null,
        "country": "Lesotho",
        "country_code": "ls"
      },
      "address": "Lekhalong (Ha Mofetoli), Quthing, Quthing District, Lesotho"
    },
    {
      "lat": -30.396006204031263,
      "lon": 27.732557900790255,
      "geoinfo": {
        "display_name": "C411, Thoteng Upper Moyeni (Quthing), Quthing, Quthing District, Lesotho",
        "road": "C411",
        "house_number": null,
        "neighbourhood": null,
        "suburb": "Thoteng Upper Moyeni (Quthing)",
        "city_district": null,
        "city": "Quthing",
        "state": "Quthing District",
        "postcode": null,
        "country": "Lesotho",
        "country_code": "ls"
      },
      "address": "C411, Quthing, Quthing District, Lesotho"
    },
    {
      "lat": -30.38245421838077,
      "lon": 27.722540197714533,
      "geoinfo": {
        "display_name": "D4001, Khorong (Ha 'Makepile), Ha Mokhalo, Makanise, Quthing District, Lesotho",
        "road": "D4001",
        "house_number": null,
        "neighbourhood": "Khorong (Ha 'Makepile)",
        "suburb": null,
        "city_district": null,
        "city": "Makanise",
        "state": "Quthing District",
        "postcode": null,
        "country": "Lesotho",
        "country_code": "ls"
      },
      "address": "D4001, Quthing, Quthing District, Lesotho"
    },
    {
      "lat": -30.42568860742619,
      "lon": 27.74228992952442,
      "geoinfo": {
        "display_name": "Ha Ratlali (Qomoqomong), Qomoqomong, Quthing District, Lesotho",
        "road": null,
        "house_number": null,
        "neighbourhood": null,
        "suburb": "Ha Ratlali (Qomoqomong)",
        "city_district": null,
        "city": "Qomoqomong",
        "state": "Quthing District",
        "postcode": null,
        "country": "Lesotho",
        "country_code": "ls"
      },
      "address": "Ha Ratlali (Qomoqomong), Quthing, Quthing District, Lesotho"
    },
    {
      "lat": -30.3883010885686,
      "lon": 27.655246920894818,
      "geoinfo": {
        "display_name": "Sekoting (Mokanametsong), Ha Zakia, Quthing District, Lesotho",
        "road": null,
        "house_number": null,
        "neighbourhood": "Sekoting (Mokanametsong)",
        "suburb": null,
        "city_district": null,
        "city": "Ha Zakia",
        "state": "Quthing District",
        "postcode": null,
        "country": "Lesotho",
        "country_code": "ls"
      },
      "address": "Sekoting (Mokanametsong), Quthing, Quthing District, Lesotho"
    },
    {
      "lat": -30.376762387520515,
      "lon": 27.676193447854967,
      "geoinfo": {
        "display_name": "Maaoeng, Sehlabeng (Ha Mohapi), Quthing District, Lesotho",
        "road": null,
        "house_number": null,
        "neighbourhood": null,
        "suburb": null,
        "city_district": null,
        "city": "Sehlabeng (Ha Mohapi)",
        "state": "Quthing District",
        "postcode": null,
        "country": "Lesotho",
        "country_code": "ls"
      },
      "address": "497, Maaoeng, Sehlabeng (Ha Mohapi), 07193 Quthing District, Lesotho"
    },
    {
      "lat": -30.41401947700456,
      "lon": 27.6691159025792,
      "geoinfo": {
        "display_name": "Ha Mots'oane, Quthing District, Lesotho",
        "road": null,
        "house_number": null,
        "neighbourhood": null,
        "suburb": null,
        "city_district": null,
        "city": "Ha Mots'oane",
        "state": "Quthing District",
        "postcode": null,
        "country": "Lesotho",
        "country_code": "ls"
      },
      "address": "739, Ha Mots'oane, 72824 Quthing District, Lesotho"
    },
    {
      "lat": -30.425663714054817,
      "lon": 27.701947108584804,
      "geoinfo": {
        "display_name": "Upper Moyeni (Quthing), Quthing, Quthing District, Lesotho",
        "road": null,
        "house_number": null,
        "neighbourhood": null,
        "suburb": "Upper Moyeni (Quthing)",
        "city_district": null,
        "city": "Quthing",
        "state": "Quthing District",
        "postcode": null,
        "country": "Lesotho",
        "country_code": "ls"
      },
      "address": "973, Upper Moyeni (Quthing), Quthing, 80716 Quthing District, Lesotho"
    },
    {
      "lat": -30.36327241901368,
      "lon": 27.709773857296202,
      "geoinfo": {
        "display_name": "Machotoane (Ha Pokola), Quthing District, Lesotho",
        "road": null,
        "house_number": null,
        "neighbourhood": null,
        "suburb": null,
        "city_district": null,
        "city": "Machotoane (Ha Pokola)",
        "state": "Quthing District",
        "postcode": null,
        "country": "Lesotho",
        "country_code": "ls"
      },
      "address": "076, Machotoane (Ha Pokola), 69782 Quthing District, Lesotho"
    },
    {
      "lat": -30.407486237979672,
      "lon": 27.65238467225862,
      "geoinfo": {
        "display_name": "A4, Tsekong (Mokanametsong), Mangaung, Mokanametsong, Quthing District, Lesotho",
        "road": "A4",
        "house_number": null,
        "neighbourhood": "Tsekong (Mokanametsong)",
        "suburb": null,
        "city_district": null,
        "city": "Mokanametsong",
        "state": "Quthing District",
        "postcode": null,
        "country": "Lesotho",
        "country_code": "ls"
      },
      "address": "A4, Tsekong (Mokanametsong), Mangaung, Mokanametsong, 29291 Quthing District, Lesotho"
    },
    {
      "lat": -30.43107456144305,
      "lon": 27.686744922400273,
      "geoinfo": {
        "display_name": "Lihlabeng (Thlakoaneng), Quthing District, Lesotho",
        "road": null,
        "house_number": null,
        "neighbourhood": null,
        "suburb": null,
        "city_district": null,
        "city": "Lihlabeng (Thlakoaneng)",
        "state": "Quthing District",
        "postcode": null,
        "country": "Lesotho",
        "country_code": "ls"
      },
      "address": "536, Lihlabeng (Thlakoaneng), 36131 Quthing District, Lesotho"
    },
    {
      "lat": -30.39988790172597,
      "lon": 27.673759639096794,
      "geoinfo": {
        "display_name": "A4, Tsekong (Mokanametsong), Mangaung, Mokanametsong, Quthing District, Lesotho",
        "road": "A4",
        "house_number": null,
        "neighbourhood": "Tsekong (Mokanametsong)",
        "suburb": null,
        "city_district": null,
        "city": "Mokanametsong",
        "state": "Quthing District",
        "postcode": null,
        "country": "Lesotho",
        "country_code": "ls"
      },
      "address": "A4, Tsekong (Mokanametsong), Mangaung, Mokanametsong, 63434 Quthing District, Lesotho"
    },
    {
      "lat": -30.402647350431735,
      "lon": 27.6515668285241,
      "geoinfo": {
        "display_name": "Ha Thaba-Kholo (Masitise), Ha Mototane, Quthing District, Lesotho",
        "road": null,
        "house_number": null,
        "neighbourhood": "Ha Thaba-Kholo (Masitise)",
        "suburb": null,
        "city_district": null,
        "city": "Ha Mototane",
        "state": "Quthing District",
        "postcode": null,
        "country": "Lesotho",
        "country_code": "ls"
      },
      "address": "771, Ha Thaba-Kholo (Masitise), Ha Mototane, 35876 Quthing District, Lesotho"
    },
    {
      "lat": -30.438862664559505,
      "lon": 27.677633182033613,
      "geoinfo": {
        "display_name": "D2010, Matsatseng (Ha Lekete), Ha Sikara (Quthing), Lihlabeng (Thlakoaneng), Quthing District, Lesotho",
        "road": "D2010",
        "house_number": null,
        "neighbourhood": "Matsatseng (Ha Lekete)",
        "suburb": "Ha Sikara (Quthing)",
        "city_district": null,
        "city": "Lihlabeng (Thlakoaneng)",
        "state": "Quthing District",
        "postcode": null,
        "country": "Lesotho",
        "country_code": "ls"
      },
      "address": "D2010, Matsatseng (Ha Lekete), Ha Sikara (Quthing), Lihlabeng (Thlakoaneng), 77256 Quthing District, Lesotho"
    },
    {
      "lat": -30.426983978909316,
      "lon": 27.66830978996527,
      "geoinfo": {
        "display_name": "Tlhakoaneng Primary School, D2010, Matsatseng (Ha Lekete), Ha Sikara (Quthing), Lihlabeng (Thlakoaneng), Quthing District, Lesotho",
        "road": "D2010",
        "house_number": null,
        "neighbourhood": "Matsatseng (Ha Lekete)",
        "suburb": "Ha Sikara (Quthing)",
        "city_district": null,
        "city": "Lihlabeng (Thlakoaneng)",
        "state": "Quthing District",
        "postcode": null,
        "country": "Lesotho",
        "country_code": "ls"
      },
      "address": "D2010, Quthing, 36514 Quthing District, Lesotho"
    }
  ],
  "updated_at": "2025-10-19T03:44:49.423848+00:00",
  "_kind": "geo_samples"
}