{
  "country_code": "VC",
  "country": "Saint Vincent and the Grenadines",
  "city": "Calliaqua",
  "geonameid": 3748746,
  "target_addresses": 50,
  "samples": [
    {
      "lat": 13.168573068507776,
      "lon": -61.18218622850937,
      "geoinfo": {
        "display_name": "Calder Ridge Gap, Belmont, Saint George, VC0100, Saint Vincent and the Grenadines",
        "road": null,
        "house_number": null,
        "neighbourhood": null,
        "suburb": null,
        "city_district": null,
        "city": "Belmont",
        "state": null,
        "postcode": "VC0100",
        "country": "Saint Vincent and the Grenadines",
        "country_code": "vc"
      },
      "address": "Calliaqua, Saint Vincent and the Grenadines"
    },
    {
      "lat": 13.133179109280283,
      "lon": -61.204565440902826,
      "geoinfo": {
        "display_name": "Indian Bay Petroglyphs, Rose Cottage Road, Villa, Calliaqua, Saint George, VC0100, Saint Vincent and the Grenadines",
        "road": "Rose Cottage Road",
        "house_number": null,
        "neighbourhood": null,
        "suburb": null,
        "city_district": null,
        "city": "Calliaqua",
        "state": null,
        "postcode": "VC0100",
        "country": "Saint Vincent and the Grenadines",
        "country_code": "vc"
      },
      "address": "Rose Cottage Road, Calliaqua, Saint Vincent and the Grenadines"
    },
    {
      "lat": 13.16492006591562,
      "lon": -61.17695024445811,
      "geoinfo": {
        "display_name": "Vigie Highway, Calder Ridge Gap, Belmont, Saint George, VC0100, Saint Vincent and the Grenadines",
        "road": "Vigie Highway",
        "house_number": null,
        "neighbourhood": null,
        "suburb": null,
        "city_district": null,
        "city": "Belmont",
        "state": null,
        "postcode": "VC0100",
        "country": "Saint Vincent and the Grenadines",
        "country_code": "vc"
      },
      "address": "Vigie Highway, Calliaqua, Saint Vincent and the Grenadines"
    },
    {
      "lat": 13.123199495287139,
      "lon": -61.18646676613167,
      "geoinfo": {
        "display_name": "Shrewsbury Aquatic Centre, Windward Highway, Calliqua, Brighton Gap, Ribishi, Saint George, VC0100, Saint Vincent and the Grenadines",
        "road": "Windward Highway",
        "house_number": null,
        "neighbourhood": null,
        "suburb": null,
        "city_district": null,
        "city": "Ribishi",
        "state": null,
        "postcode": "VC0100",
        "country": "Saint Vincent and the Grenadines",
        "country_code": "vc"
      },
      "address": "Windward Highway, Calliaqua, Saint Vincent and the Grenadines"
    },
    {
      "lat": 13.132185344209777,
      "lon": -61.186425265480125,
      "geoinfo": {
        "display_name": "Trinity College Road, Ribishi, Saint George, VC0100, Saint Vincent and the Grenadines",
        "road": "Trinity College Road",
        "house_number": null,
        "neighbourhood": null,
        "suburb": null,
        "city_district": null,
        "city": "Ribishi",
        "state": null,
        "postcode": "VC0100",
        "country": "Saint Vincent and the Grenadines",
        "country_code": "vc"
      },
      "address": "Trinity College Road, Calliaqua, Saint Vincent and the Grenadines"
    },
    {
      "lat": 13.171160500731414,
      "lon": -61.18684838811818,
      "geoinfo": {
        "display_name": "Belcair - Evesham Road, Mesopotamia, Saint George, VC0100, Saint Vincent and the Grenadines",
        "road": "Belcair - Evesham Road",
        "house_number": null,
        "neighbourhood": null,
        "suburb": null,
        "city_district": null,
        "city": "Mesopotamia",
        "state": null,
        "postcode": "VC0100",
        "country": "Saint Vincent and the Grenadines",
        "country_code": "vc"
      },
      "address": "Belcair - Evesham Road, Calliaqua, Saint Vincent and the Grenadines"
    },
    {
      "lat": 13.148081377307804,
      "lon": -61.18581981188918,
      "geoinfo": {
        "display_name": "Fair Hall Road, Calliqua, Calder Ridge Gap, Calliaqua, Saint George, VC0100, Saint Vincent and the Grenadines",
        "road": "Fair Hall Road",
        "house_number": null,
        "neighbourhood": null,
        "suburb": null,
        "city_district": null,
        "city": "Calliaqua",
        "state": null,
        "postcode": "VC0100",
        "country": "Saint Vincent and the Grenadines",
        "country_code": "vc"
      },
      "address": "Fair Hall Road, Calliaqua, Saint Vincent and the Grenadines"
    },
    {
      "lat": 13.151441514372813,
      "lon": -61.20099246948826,
      "geoinfo": {
        "display_name": "Cane Hall Road, Arnos Vale, Saint George, VC0100, Saint Vincent and the Grenadines",
        "road": "Cane Hall Road",
        "house_number": null,
        "neighbourhood": null,
        "suburb": null,
        "city_district": null,
        "city": "Arnos Vale",
        "state": null,
        "postcode": "VC0100",
        "country": "Saint Vincent and the Grenadines",
        "country_code": "vc"
      },
      "address": "Cane Hall Road, Calliaqua, Saint Vincent and the Grenadines"
    },
    {
      "lat": 13.16476652592087,
      "lon": -61.2086803898513,
      "geoinfo": {
        "display_name": "Dorsetshire Hill Road, Arnos Vale, Saint George, VC0100, Saint Vincent and the Grenadines",
        "road": "Dorsetshire Hill Road",
        "house_number": null,
        "neighbourhood": null,
        "suburb": null,
        "city_district": null,
        "city": "Arnos Vale",
        "state": null,
        "postcode": "VC0100",
        "country": "Saint Vincent and the Grenadines",
        "country_code": "vc"
      },
      "address": "Dorsetshire Hill Road, Calliaqua, Saint Vincent and the Grenadines"
    },
    {
      "lat": 13.151315506333392,
      "lon": -61.196089494670616,
      "geoinfo": {
        "display_name": "Villa Fountain Road, Villa, Arnos Vale, Saint George, VC0100, Saint Vincent and the Grenadines",
        "road": "Villa Fountain Road",
        "house_number": null,
        "neighbourhood": null,
        "suburb": null,
        "city_district": null,
        "city": "Arnos Vale",
        "state": null,
        "postcode": "VC0100",
        "country": "Saint Vincent and the Grenadines",
        "country_code": "vc"
      },
      "address": "Villa Fountain Road, Calliaqua, Saint Vincent and the Grenadines"
    },
    {
      "lat": 13.131144182651054,
      "lon": -61.178231896390315,
      "geoinfo": {
        "display_name": "B Street, Brighton Gap, Brighton, Saint George, Saint Vincent and the Grenadines",
        "road": "B Street",
        "house_number": null,
        "neighbourhood": null,
        "suburb": null,
        "city_district": null,
        "city": "Brighton",
        "state": null,
        "postcode": null,
        "country": "Saint Vincent and the Grenadines",
        "country_code": "vc"
      },
      "address": "B Street, Calliaqua, Saint Vincent and the Grenadines"
    },
    {
      "lat": 13.133307825590602,
      "lon": -61.18511750297095,
      "geoinfo": {
        "display_name": "Hercules Drive, Brighton Gap, Ribishi, Saint George, VC0100, Saint Vincent and the Grenadines",
        "road": "Hercules Drive",
        "house_number": null,
        "neighbourhood": null,
        "suburb": null,
        "city_district": null,
        "city": "Ribishi",
        "state": null,
        "postcode": "VC0100",
        "country": "Saint Vincent and the Grenadines",
        "country_code": "vc"
      },
      "address": "Hercules Drive, Calliaqua, Saint Vincent and the Grenadines"
    },
    {
      "lat": 13.149570685323837,
      "lon": -61.19031114322735,
      "geoinfo": {
        "display_name": "Upper Fair Hall Road, Choppins, Saint George, VC0100, Saint Vincent and the Grenadines",
        "road": "Upper Fair Hall Road",
        "house_number": null,
        "neighbourhood": null,
        "suburb": null,
        "city_district": null,
        "city": "Choppins",
        "state": null,
        "postcode": "VC0100",
        "country": "Saint Vincent and the Grenadines",
        "country_code": "vc"
      },
      "address": "Upper Fair Hall Road, Calliaqua, Saint Vincent and the Grenadines"
    },
    {
      "lat": 13.151353443558639,
      "lon": -61.22021030988404,
      "geoinfo": {
        "display_name": "Casson Hill Road, Arnos Vale, Saint George, VC0100, Saint Vincent and the Grenadines",
        "road": "Casson Hill Road",
        "house_number": null,
        "neighbourhood": null,
        "suburb": null,
        "city_district": null,
        "city": "Arnos Vale",
        "state": null,
        "postcode": "VC0100",
        "country": "Saint Vincent and the Grenadines",
        "country_code": "vc"
      },
      "address": "Casson Hill Road, Calliaqua, Saint Vincent and the Grenadines"
    },
    {
      "lat": 13.145526699265577,
      "lon": -61.21808320133101,
      "geoinfo": {
        "display_name": "Roseau Village Road, Sion Hill, Arnos Vale, Saint George, VC0100, Saint Vincent and the Grenadines",
        "road": "Roseau Village Road",
        "house_number": null,
        "neighbourhood": null,
        "suburb": null,
        "city_district": null,
        "city": "Arnos Vale",
        "state": null,
        "postcode": "VC0100",
        "country": "Saint Vincent and the Grenadines",
        "country_code": "vc"
      },
      "address": "Roseau Village Road, Calliaqua, Saint Vincent and the Grenadines"
    },
    {
      "lat": 13.15041798064569,
      "lon": -61.18031856162296,
      "geoinfo": {
        "display_name": "Enhams Road, Calder Ridge Gap, Mesopotamia, Saint George, VC0100, Saint Vincent and the Grenadines",
        "road": "Enhams Road",
        "house_number": null,
        "neighbourhood": null,
        "suburb": null,
        "city_district": null,
        "city": "Mesopotamia",
        "state": null,
        "postcode": "VC0100",
        "country": "Saint Vincent and the Grenadines",
        "country_code": "vc"
      },
      "address": "Enhams Road, Calliaqua, Saint Vincent and the Grenadines"
    },
    {
      "lat": 13.133548906750244,
      "lon": -61.21155750094224,
      "geoinfo": {
        "display_name": "Villa Point Road, Arnos Vale, Villa, Arnos Vale, Saint George, VC0100, Saint Vincent and the Grenadines",
        "road": "Villa Point Road",
        "house_number": null,
        "neighbourhood": null,
        "suburb": null,
        "city_district": null,
        "city": "Arnos Vale",
        "state": null,
        "postcode": "VC0100",
        "country": "Saint Vincent and the Grenadines",
        "country_code": "vc"
      },
      "address": "501, Villa Point Road, VC0100 Calliaqua, Saint Vincent and the Grenadines"
    },
    {
      "lat": 13.146366100862714,
      "lon": -61.20937124081336,
      "geoinfo": {
        "display_name": "Windward Highway, Arnos Vale, Saint George, VC0100, Saint Vincent and the Grenadines",
        "road": "Windward Highway",
        "house_number": null,
        "neighbourhood": null,
        "suburb": null,
        "city_district": null,
        "city": "Arnos Vale",
        "state": null,
        "postcode": "VC0100",
        "country": "Saint Vincent and the Grenadines",
        "country_code": "vc"
      },
      "address": "247, Windward Highway, VC0100 Calliaqua, Saint Vincent and the Grenadines"
    },
    {
      "lat": 13.157474057251486,
      "lon": -61.191565736033326,
      "geoinfo": {
        "display_name": "Calliaqua, Saint George, VC0100, Saint Vincent and the Grenadines",
        "road": null,
        "house_number": null,
        "neighbourhood": null,
        "suburb": null,
        "city_district": null,
        "city": "Calliaqua",
        "state": null,
        "postcode": "VC0100",
        "country": "Saint Vincent and the Grenadines",
        "country_code": "vc"
      },
      "address": "410, Calliaqua, Saint George, VC0100, Saint Vincent and the Grenadines"
    },
    {
      "lat": 13.127607427124314,
      "lon": -61.2024321407537,
      "geoinfo": {
        "display_name": "Windward Highway, Arnos Vale, Villa, Calliaqua, Saint George, VC0100, Saint Vincent and the Grenadines",
        "road": "Windward Highway",
        "house_number": null,
        "neighbourhood": null,
        "suburb": null,
        "city_district": null,
        "city": "Calliaqua",
        "state": null,
        "postcode": "VC0100",
        "country": "Saint Vincent and the Grenadines",
        "country_code": "vc"
      },
      "address": "418, Windward Highway, Arnos Vale, Villa, Calliaqua, Saint George, VC0100, Saint Vincent and the Grenadines"
    },
    {
      "lat": 13.10248196895811,
      "lon": -61.210620018075126,
      "geoinfo": {
        "display_name": "Calliaqua, Saint George, VC0100, Saint Vincent and the Grenadines",
        "road": null,
        "house_number": null,
        "neighbourhood": null,
        "suburb": null,
        "city_district": null,
        "city": "Calliaqua",
        "state": null,
        "postcode": "VC0100",
        "country": "Saint Vincent and the Grenadines",
        "country_code": "vc"
      },
      "address": "031, Calliaqua, Saint George, VC0100, Saint Vincent and the Grenadines"
    },
    {
      "lat": 13.151616625874826,
      "lon": -61.20062306780345,
      "geoinfo": {
        "display_name": "Cane Hall Road, Arnos Vale, Saint George, VC0100, Saint Vincent and the Grenadines",
        "road": "Cane Hall Road",
        "house_number": null,
        "neighbourhood": null,
        "suburb": null,
        "city_district": null,
        "city": "Arnos Vale",
        "state": null,
        "postcode": "VC0100",
        "country": "Saint Vincent and the Grenadines",
        "country_code": "vc"
      },
      "address": "999, Cane Hall Road, VC0100 Calliaqua, Saint Vincent and the Grenadines"
    },
    {
      "lat": 13.120969090604609,
      "lon": -61.204130750896134,
      "geoinfo": {
        "display_name": "Villa, Calliaqua, Saint George, VC0100, Saint Vincent and the Grenadines",
        "road": null,
        "house_number": null,
        "neighbourhood": null,
        "suburb": null,
        "city_district": null,
        "city": "Calliaqua",
        "state": null,
        "postcode": "VC0100",
        "country": "Saint Vincent and the Grenadines",
        "country_code": "vc"
      },
      "address": "711, Villa, Calliaqua, Saint George, VC0100, Saint Vincent and the Grenadines"
    },
    {
      "lat": 13.124340143557026,
      "lon": -61.2076658762602,
      "geoinfo": {
        "display_name": "Fort Duvernette, Windward Highway, Arnos Vale, Villa, Calliaqua, Saint George, VC0100, Saint Vincent and the Grenadines",
        "road": "Windward Highway",
        "house_number": null,
        "neighbourhood": null,
        "suburb": null,
        "city_district": null,
        "city": "Calliaqua",
        "state": null,
        "postcode": "VC0100",
        "country": "Saint Vincent and the Grenadines",
        "country_code": "vc"
      },
      "address": "030, Windward Highway, VC0100 Calliaqua, Saint Vincent and the Grenadines"
    },
    {
      "lat": 13.129420078033634,
      "lon": -61.19651824924526,
      "geoinfo": {
        "display_name": "Playing Field Road, Calliqua, Calliaqua, Saint George, VC0100, Saint Vincent and the Grenadines",
        "road": "Playing Field Road",
        "house_number": null,
        "neighbourhood": null,
        "suburb": null,
        "city_district": null,
        "city": "Calliaqua",
        "state": null,
        "postcode": "VC0100",
        "country": "Saint Vincent and the Grenadines",
        "country_code": "vc"
      },
      "address": "448, Playing Field Road, Calliqua, Calliaqua, Saint George, VC0100, Saint Vincent and the Grenadines"
    },
    {
      "lat": 13.15632389068479,
      "lon": -61.19529848186272,
      "geoinfo": {
        "display_name": "Calliaqua, Saint George, VC0100, Saint Vincent and the Grenadines",
        "road": null,
        "house_number": null,
        "neighbourhood": null,
        "suburb": null,
        "city_district": null,
        "city": "Calliaqua",
        "state": null,
        "postcode": "VC0100",
        "country": "Saint Vincent and the Grenadines",
        "country_code": "vc"
      },
      "address": "464, Calliaqua, Saint George, VC0100, Saint Vincent and the Grenadines"
    },
    {
      "lat": 13.084830279448116,
      "lon": -61.185079751497426,
      "geoinfo": {
        "display_name": "Calliaqua, Saint George, VC0100, Saint Vincent and the Grenadines",
        "road": null,
        "house_number": null,
        "neighbourhood": null,
        "suburb": null,
        "city_district": null,
        "city": "Calliaqua",
        "state": null,
        "postcode": "VC0100",
        "country": "Saint Vincent and the Grenadines",
        "country_code": "vc"
      },
      "address": "921, Calliaqua, Saint George, VC0100, Saint Vincent and the Grenadines"
    },
    {
      "lat": 13.121306457411483,
      "lon": -61.18312907989288,
      "geoinfo": {
        "display_name": "Windward Highway, Calliqua, Brighton Gap, Ribishi, Saint George, VC0100, Saint Vincent and the Grenadines",
        "road": "Windward Highway",
        "house_number": null,
        "neighbourhood": null,
        "suburb": null,
        "city_district": null,
        "city": "Ribishi",
        "state": null,
        "postcode": "VC0100",
        "country": "Saint Vincent and the Grenadines",
        "country_code": "vc"
      },
      "address": "182, Windward Highway, VC0100 Calliaqua, Saint Vincent and the Grenadines"
    },
    {
      "lat": 13.13165521104999,
      "lon": -61.18894971269817,
      "geoinfo": {
        "display_name": "Sugar Mill Road, Calliaqua, Saint George, VC0100, Saint Vincent and the Grenadines",
        "road": "Sugar Mill Road",
        "house_number": null,
        "neighbourhood": null,
        "suburb": null,
        "city_district": null,
        "city": "Calliaqua",
        "state": null,
        "postcode": "VC0100",
        "country": "Saint Vincent and the Grenadines",
        "country_code": "vc"
      },
      "address": "015, Sugar Mill Road, Calliaqua, Saint George, VC0100, Saint Vincent and the Grenadines"
    },
    {
      "lat": 13.102319189635917,
      "lon": -61.210597143563014,
      "geoinfo": {
        "display_name": "Calliaqua, Saint George, VC0100, Saint Vincent and the Grenadines",
        "road": null,
        "house_number": null,
        "neighbourhood": null,
        "suburb": null,
        "city_district": null,
        "city": "Calliaqua",
        "state": null,
        "postcode": "VC0100",
        "country": "Saint Vincent and the Grenadines",
        "country_code": "vc"
      },
      "address": "968, Calliaqua, Saint George, VC0100, Saint Vincent and the Grenadines"
    },
    {
      "lat": 13.164751353040474,
      "lon": -61.1713474653059,
      "geoinfo": {
        "display_name": "Vigie Highway, Calder Ridge Gap, Mesopotamia, Saint George, Saint Vincent and the Grenadines",
        "road": "Vigie Highway",
        "house_number": null,
        "neighbourhood": null,
        "suburb": null,
        "city_district": null,
        "city": "Mesopotamia",
        "state": null,
        "postcode": null,
        "country": "Saint Vincent and the Grenadines",
        "country_code": "vc"
      },
      "address": "330, Vigie Highway, 52593 Calliaqua, Saint Vincent and the Grenadines"
    },
    {
      "lat": 13.15980892037803,
      "lon": -61.18043141939119,
      "geoinfo": {
        "display_name": "Fair Hall Road, Calliqua, Calder Ridge Gap, Calliaqua, Saint George, VC0100, Saint Vincent and the Grenadines",
        "road": "Fair Hall Road",
        "house_number": null,
        "neighbourhood": null,
        "suburb": null,
        "city_district": null,
        "city": "Calliaqua",
        "state": null,
        "postcode": "VC0100",
        "country": "Saint Vincent and the Grenadines",
        "country_code": "vc"
      },
      "address": "977, Fair Hall Road, Calliqua, Calder Ridge Gap, Calliaqua, Saint George, VC0100, Saint Vincent and the Grenadines"
    },
    {
      "lat": 13.132410253428564,
      "lon": -61.18976125681426,
      "geoinfo": {
        "display_name": "Calliaqua, Saint George, VC0100, Saint Vincent and the Grenadines",
        "road": null,
        "house_number": null,
        "neighbourhood": null,
        "suburb": null,
        "city_district": null,
        "city": "Calliaqua",
        "state": null,
        "postcode": "VC0100",
        "country": "Saint Vincent and the Grenadines",
        "country_code": "vc"
      },
      "address": "686, Calliaqua, Saint George, VC0100, Saint Vincent and the Grenadines"
    },
    {
      "lat": 13.09507380776252,
      "lon": -61.20791895408728,
      "geoinfo": {
        "display_name": "Calliaqua, Saint George, VC0100, Saint Vincent and the Grenadines",
        "road": null,
        "house_number": null,
        "neighbourhood": null,
        "suburb": null,
        "city_district": null,
        "city": "Calliaqua",
        "state": null,
        "postcode": "VC0100",
        "country": "Saint Vincent and the Grenadines",
        "country_code": "vc"
      },
      "address": "431, Calliaqua, Saint George, VC0100, Saint Vincent and the Grenadines"
    },
    {
      "lat": 13.154826843813318,
      "lon": -61.21118320560004,
      "geoinfo": {
        "display_name": "Dorsetshire Hill Road, Arnos Vale, Saint George, VC0100, Saint Vincent and the Grenadines",
        "road": "Dorsetshire Hill Road",
        "house_number": null,
        "neighbourhood": null,
        "suburb": null,
        "city_district": null,
        "city": "Arnos Vale",
        "state": null,
        "postcode": "VC0100",
        "country": "Saint Vincent and the Grenadines",
        "country_code": "vc"
      },
      "address": "110, Dorsetshire Hill Road, VC0100 Calliaqua, Saint Vincent and the Grenadines"
    }
  ],
  "updated_at": "2025-10-19T07:46:52.835356+00:00",
  "_kind": "geo_samples"
}