{
  "country_code": "SR",
  "country": "Suriname",
  "city": "Paramaribo",
  "geonameid": 3383330,
  "target_addresses": 150,
  "samples": [
    {
      "lat": 5.847702997373849,
      "lon": -55.136233836009716,
      "geoinfo": {
        "display_name": "4, Rembrandtstraat, Maretraite 4, Noord, Blauwgrond, Paramaribo, Suriname",
        "road": "Rembrandtstraat",
        "house_number": "4",
        "neighbourhood": "Maretraite 4",
        "suburb": null,
        "city_district": null,
        "city": "Noord",
        "state": "Paramaribo",
        "postcode": null,
        "country": "Suriname",
        "country_code": "sr"
      },
      "address": "4 Rembrandtstraat, Paramaribo, Paramaribo, Suriname"
    },
    {
      "lat": 5.8781097537540905,
      "lon": -55.200939682776536,
      "geoinfo": {
        "display_name": "Parwaweg, Weg naar Zee, Paramaribo, Suriname",
        "road": "Parwaweg",
        "house_number": null,
        "neighbourhood": null,
        "suburb": null,
        "city_district": null,
        "city": null,
        "state": "Paramaribo",
        "postcode": null,
        "country": "Suriname",
        "country_code": "sr"
      },
      "address": "Parwaweg, Paramaribo, Paramaribo, Suriname"
    },
    {
      "lat": 5.870221933777706,
      "lon": -55.16269943622467,
      "geoinfo": {
        "display_name": "Tourtonne Garden, Rainville, Paramaribo, Suriname",
        "road": null,
        "house_number": null,
        "neighbourhood": "Tourtonne Garden",
        "suburb": null,
        "city_district": null,
        "city": null,
        "state": "Paramaribo",
        "postcode": null,
        "country": "Suriname",
        "country_code": "sr"
      },
      "address": "Tourtonne Garden, Paramaribo, Paramaribo, Suriname"
    },
    {
      "lat": 5.852128740448993,
      "lon": -55.18108847064944,
      "geoinfo": {
        "display_name": "Parijsstraat, Munder, Paramaribo, Suriname",
        "road": "Parijsstraat",
        "house_number": null,
        "neighbourhood": null,
        "suburb": null,
        "city_district": null,
        "city": "Munder",
        "state": "Paramaribo",
        "postcode": null,
        "country": "Suriname",
        "country_code": "sr"
      },
      "address": "Parijsstraat, Paramaribo, Paramaribo, Suriname"
    },
    {
      "lat": 5.8480835253543,
      "lon": -55.17591536648276,
      "geoinfo": {
        "display_name": "Peterseliestraat, Munder, Paramaribo, Suriname",
        "road": "Peterseliestraat",
        "house_number": null,
        "neighbourhood": null,
        "suburb": null,
        "city_district": null,
        "city": "Munder",
        "state": "Paramaribo",
        "postcode": null,
        "country": "Suriname",
        "country_code": "sr"
      },
      "address": "Peterseliestraat, Paramaribo, Paramaribo, Suriname"
    },
    {
      "lat": 5.904127664141395,
      "lon": -55.157930509279794,
      "geoinfo": {
        "display_name": "Rainville, Paramaribo, Suriname",
        "road": null,
        "house_number": null,
        "neighbourhood": null,
        "suburb": null,
        "city_district": null,
        "city": null,
        "state": "Paramaribo",
        "postcode": null,
        "country": "Suriname",
        "country_code": "sr"
      },
      "address": "Paramaribo, Paramaribo, Suriname"
    },
    {
      "lat": 5.847338492475742,
      "lon": -55.20326369567308,
      "geoinfo": {
        "display_name": "Eduard Prachtstraat, Weg naar Zee, Paramaribo, Suriname",
        "road": "Eduard Prachtstraat",
        "house_number": null,
        "neighbourhood": null,
        "suburb": null,
        "city_district": null,
        "city": "Weg naar Zee",
        "state": "Paramaribo",
        "postcode": null,
        "country": "Suriname",
        "country_code": "sr"
      },
      "address": "Eduard Prachtstraat, Paramaribo, Paramaribo, Suriname"
    },
    {
      "lat": 5.857083728454052,
      "lon": -55.15185678901192,
      "geoinfo": {
        "display_name": "Sidoestraat, Rainville, Paramaribo, Suriname",
        "road": "Sidoestraat",
        "house_number": null,
        "neighbourhood": null,
        "suburb": null,
        "city_district": null,
        "city": null,
        "state": "Paramaribo",
        "postcode": null,
        "country": "Suriname",
        "country_code": "sr"
      },
      "address": "Sidoestraat, Paramaribo, Paramaribo, Suriname"
    },
    {
      "lat": 5.887888856456216,
      "lon": -55.14776993971491,
      "geoinfo": {
        "display_name": "Leidschestraat, Pan American Project, Rainville, Paramaribo, Suriname",
        "road": "Leidschestraat",
        "house_number": null,
        "neighbourhood": null,
        "suburb": null,
        "city_district": null,
        "city": null,
        "state": "Paramaribo",
        "postcode": null,
        "country": "Suriname",
        "country_code": "sr"
      },
      "address": "Leidschestraat, Paramaribo, Paramaribo, Suriname"
    },
    {
      "lat": 5.844643222491401,
      "lon": -55.14095287766617,
      "geoinfo": {
        "display_name": "Mozartstraat, Maretraite 3, Noord, Blauwgrond, Paramaribo, Suriname",
        "road": "Mozartstraat",
        "house_number": null,
        "neighbourhood": "Maretraite 3",
        "suburb": null,
        "city_district": null,
        "city": "Noord",
        "state": "Paramaribo",
        "postcode": null,
        "country": "Suriname",
        "country_code": "sr"
      },
      "address": "Mozartstraat, Paramaribo, Paramaribo, Suriname"
    },
    {
      "lat": 5.840875276265632,
      "lon": -55.18023088540503,
      "geoinfo": {
        "display_name": "14, Kapasikelestraat, Munder, Paramaribo, Suriname",
        "road": "Kapasikelestraat",
        "house_number": "14",
        "neighbourhood": null,
        "suburb": null,
        "city_district": null,
        "city": "Munder",
        "state": "Paramaribo",
        "postcode": null,
        "country": "Suriname",
        "country_code": "sr"
      },
      "address": "14 Kapasikelestraat, Paramaribo, Paramaribo, Suriname"
    },
    {
      "lat": 5.858742773041987,
      "lon": -55.14599955472394,
      "geoinfo": {
        "display_name": "Yi Bin Supermarket, 107, Jeroen Boschstraat, Blauwgrond, Paramaribo, Suriname",
        "road": "Jeroen Boschstraat",
        "house_number": "107",
        "neighbourhood": null,
        "suburb": null,
        "city_district": null,
        "city": null,
        "state": "Paramaribo",
        "postcode": null,
        "country": "Suriname",
        "country_code": "sr"
      },
      "address": "107 Jeroen Boschstraat, Paramaribo, Paramaribo, Suriname"
    },
    {
      "lat": 5.869571627871446,
      "lon": -55.141927046758504,
      "geoinfo": {
        "display_name": "George Spierstraat, Blauwgrond, Paramaribo, Suriname",
        "road": "George Spierstraat",
        "house_number": null,
        "neighbourhood": null,
        "suburb": null,
        "city_district": null,
        "city": null,
        "state": "Paramaribo",
        "postcode": null,
        "country": "Suriname",
        "country_code": "sr"
      },
      "address": "George Spierstraat, Paramaribo, Paramaribo, Suriname"
    },
    {
      "lat": 5.853587037181452,
      "lon": -55.16312227493381,
      "geoinfo": {
        "display_name": "Hardoarweg, Rainville, Paramaribo, Suriname",
        "road": "Hardoarweg",
        "house_number": null,
        "neighbourhood": null,
        "suburb": null,
        "city_district": null,
        "city": null,
        "state": "Paramaribo",
        "postcode": null,
        "country": "Suriname",
        "country_code": "sr"
      },
      "address": "Hardoarweg, Paramaribo, Paramaribo, Suriname"
    },
    {
      "lat": 5.8776805332168705,
      "lon": -55.1433513740234,
      "geoinfo": {
        "display_name": "Bridj Village, Rainville, Paramaribo, Suriname",
        "road": null,
        "house_number": null,
        "neighbourhood": "Bridj Village",
        "suburb": null,
        "city_district": null,
        "city": null,
        "state": "Paramaribo",
        "postcode": null,
        "country": "Suriname",
        "country_code": "sr"
      },
      "address": "Bridj Village, Paramaribo, Paramaribo, Suriname"
    },
    {
      "lat": 5.828785334046498,
      "lon": -55.17320611804277,
      "geoinfo": {
        "display_name": "Van Landsbergestraat, Paramaribo, Centrum, Paramaribo, Suriname",
        "road": "Van Landsbergestraat",
        "house_number": null,
        "neighbourhood": null,
        "suburb": null,
        "city_district": null,
        "city": "Paramaribo",
        "state": "Paramaribo",
        "postcode": null,
        "country": "Suriname",
        "country_code": "sr"
      },
      "address": "Van Landsbergestraat, Paramaribo, Paramaribo, Suriname"
    },
    {
      "lat": 5.865655440470341,
      "lon": -55.18606057495364,
      "geoinfo": {
        "display_name": "Gummelsweg, Weg naar Zee, Paramaribo, Suriname",
        "road": "Gummelsweg",
        "house_number": null,
        "neighbourhood": null,
        "suburb": null,
        "city_district": null,
        "city": null,
        "state": "Paramaribo",
        "postcode": null,
        "country": "Suriname",
        "country_code": "sr"
      },
      "address": "Gummelsweg, Paramaribo, Paramaribo, Suriname"
    },
    {
      "lat": 5.841018746612968,
      "lon": -55.16052154592651,
      "geoinfo": {
        "display_name": "Kamponglaan 1, Rainville, Paramaribo, Suriname",
        "road": "Kamponglaan 1",
        "house_number": null,
        "neighbourhood": null,
        "suburb": null,
        "city_district": null,
        "city": null,
        "state": "Paramaribo",
        "postcode": null,
        "country": "Suriname",
        "country_code": "sr"
      },
      "address": "Kamponglaan 1, Paramaribo, Paramaribo, Suriname"
    },
    {
      "lat": 5.838654340558128,
      "lon": -55.15820888408438,
      "geoinfo": {
        "display_name": "Ministerie van Landbouw, Veeteelt en Visserij, Letitia Vriesdelaan, Rainville, Paramaribo, Suriname",
        "road": "Letitia Vriesdelaan",
        "house_number": null,
        "neighbourhood": null,
        "suburb": null,
        "city_district": null,
        "city": null,
        "state": "Paramaribo",
        "postcode": null,
        "country": "Suriname",
        "country_code": "sr"
      },
      "address": "Letitia Vriesdelaan, Paramaribo, Paramaribo, Suriname"
    },
    {
      "lat": 5.86316952308045,
      "lon": -55.163183452613865,
      "geoinfo": {
        "display_name": "Satyagrahweg, Rainville, Paramaribo, Suriname",
        "road": "Satyagrahweg",
        "house_number": null,
        "neighbourhood": null,
        "suburb": null,
        "city_district": null,
        "city": null,
        "state": "Paramaribo",
        "postcode": null,
        "country": "Suriname",
        "country_code": "sr"
      },
      "address": "Satyagrahweg, Paramaribo, Paramaribo, Suriname"
    },
    {
      "lat": 5.8502647515811,
      "lon": -55.205025539912974,
      "geoinfo": {
        "display_name": "Weegschaalweg, Weg naar Zee, Paramaribo, Suriname",
        "road": "Weegschaalweg",
        "house_number": null,
        "neighbourhood": null,
        "suburb": null,
        "city_district": null,
        "city": "Weg naar Zee",
        "state": "Paramaribo",
        "postcode": null,
        "country": "Suriname",
        "country_code": "sr"
      },
      "address": "Weegschaalweg, Paramaribo, Paramaribo, Suriname"
    },
    {
      "lat": 5.85195640101604,
      "lon": -55.16446871586574,
      "geoinfo": {
        "display_name": "Shaanstraat, Rainville, Paramaribo, Suriname",
        "road": "Shaanstraat",
        "house_number": null,
        "neighbourhood": null,
        "suburb": null,
        "city_district": null,
        "city": null,
        "state": "Paramaribo",
        "postcode": null,
        "country": "Suriname",
        "country_code": "sr"
      },
      "address": "Shaanstraat, Paramaribo, Paramaribo, Suriname"
    },
    {
      "lat": 5.872795888419777,
      "lon": -55.1563181164245,
      "geoinfo": {
        "display_name": "GreenView Lake 3, Rainville, Paramaribo, Suriname",
        "road": null,
        "house_number": null,
        "neighbourhood": "GreenView Lake 3",
        "suburb": null,
        "city_district": null,
        "city": null,
        "state": "Paramaribo",
        "postcode": null,
        "country": "Suriname",
        "country_code": "sr"
      },
      "address": "GreenView Lake 3, Paramaribo, Paramaribo, Suriname"
    },
    {
      "lat": 5.880262239096386,
      "lon": -55.196963175134705,
      "geoinfo": {
        "display_name": "Ingipipaweg, Weg naar Zee, Paramaribo, Suriname",
        "road": "Ingipipaweg",
        "house_number": null,
        "neighbourhood": null,
        "suburb": null,
        "city_district": null,
        "city": null,
        "state": "Paramaribo",
        "postcode": null,
        "country": "Suriname",
        "country_code": "sr"
      },
      "address": "Ingipipaweg, Paramaribo, Paramaribo, Suriname"
    },
    {
      "lat": 5.837127103912314,
      "lon": -55.16076553796309,
      "geoinfo": {
        "display_name": "Stadionlaan, Rainville, Paramaribo, Suriname",
        "road": "Stadionlaan",
        "house_number": null,
        "neighbourhood": null,
        "suburb": null,
        "city_district": null,
        "city": null,
        "state": "Paramaribo",
        "postcode": null,
        "country": "Suriname",
        "country_code": "sr"
      },
      "address": "Stadionlaan, Paramaribo, Paramaribo, Suriname"
    },
    {
      "lat": 5.85534669569819,
      "lon": -55.20577974207841,
      "geoinfo": {
        "display_name": "Tweelingenweg, Weg naar Zee, Paramaribo, Suriname",
        "road": "Tweelingenweg",
        "house_number": null,
        "neighbourhood": null,
        "suburb": null,
        "city_district": null,
        "city": "Weg naar Zee",
        "state": "Paramaribo",
        "postcode": null,
        "country": "Suriname",
        "country_code": "sr"
      },
      "address": "Tweelingenweg, Paramaribo, Paramaribo, Suriname"
    },
    {
      "lat": 5.821973753157191,
      "lon": -55.16492616821899,
      "geoinfo": {
        "display_name": "Dagblad Suriname, Zwartenhovenbrugstraat, Paramaribo, Centrum, Paramaribo, Suriname",
        "road": "Zwartenhovenbrugstraat",
        "house_number": null,
        "neighbourhood": null,
        "suburb": null,
        "city_district": null,
        "city": "Paramaribo",
        "state": "Paramaribo",
        "postcode": null,
        "country": "Suriname",
        "country_code": "sr"
      },
      "address": "Zwartenhovenbrugstraat, Paramaribo, Paramaribo, Suriname"
    },
    {
      "lat": 5.851780825417026,
      "lon": -55.12881929635798,
      "geoinfo": {
        "display_name": "IMEAO 1, Primostraat, Noord, Blauwgrond, Paramaribo, Suriname",
        "road": "Primostraat",
        "house_number": null,
        "neighbourhood": null,
        "suburb": null,
        "city_district": null,
        "city": "Noord",
        "state": "Paramaribo",
        "postcode": null,
        "country": "Suriname",
        "country_code": "sr"
      },
      "address": "Primostraat, Paramaribo, Paramaribo, Suriname"
    },
    {
      "lat": 5.851307451833318,
      "lon": -55.19485246246395,
      "geoinfo": {
        "display_name": "Justinestraat, Weg naar Zee, Paramaribo, Suriname",
        "road": "Justinestraat",
        "house_number": null,
        "neighbourhood": null,
        "suburb": null,
        "city_district": null,
        "city": "Weg naar Zee",
        "state": "Paramaribo",
        "postcode": null,
        "country": "Suriname",
        "country_code": "sr"
      },
      "address": "Justinestraat, Paramaribo, Paramaribo, Suriname"
    },
    {
      "lat": 5.824011692869327,
      "lon": -55.17807670562001,
      "geoinfo": {
        "display_name": "H.J. van Ommerenstraat, Paramaribo, Centrum, Paramaribo, Suriname",
        "road": "H.J. van Ommerenstraat",
        "house_number": null,
        "neighbourhood": null,
        "suburb": null,
        "city_district": null,
        "city": "Paramaribo",
        "state": "Paramaribo",
        "postcode": null,
        "country": "Suriname",
        "country_code": "sr"
      },
      "address": "H.J. van Ommerenstraat, Paramaribo, Paramaribo, Suriname"
    },
    {
      "lat": 5.84534390543337,
      "lon": -55.19729843912634,
      "geoinfo": {
        "display_name": "Van Engelbuitenweg, Weg naar Zee, Paramaribo, Suriname",
        "road": "Van Engelbuitenweg",
        "house_number": null,
        "neighbourhood": null,
        "suburb": null,
        "city_district": null,
        "city": "Weg naar Zee",
        "state": "Paramaribo",
        "postcode": null,
        "country": "Suriname",
        "country_code": "sr"
      },
      "address": "Van Engelbuitenweg, Paramaribo, Paramaribo, Suriname"
    },
    {
      "lat": 5.823312067848065,
      "lon": -55.17498527197863,
      "geoinfo": {
        "display_name": "Yong Chun Vruchten Import Company, Verlengde Gemenelandsweg, Paramaribo, Centrum, Paramaribo, Suriname",
        "road": "Verlengde Gemenelandsweg",
        "house_number": null,
        "neighbourhood": null,
        "suburb": null,
        "city_district": null,
        "city": "Paramaribo",
        "state": "Paramaribo",
        "postcode": null,
        "country": "Suriname",
        "country_code": "sr"
      },
      "address": "Verlengde Gemenelandsweg, Paramaribo, Paramaribo, Suriname"
    },
    {
      "lat": 5.888663713066144,
      "lon": -55.128330395280365,
      "geoinfo": {
        "display_name": "Emelie Alvaresstraat, Blauwgrond, Paramaribo, Suriname",
        "road": "Emelie Alvaresstraat",
        "house_number": null,
        "neighbourhood": null,
        "suburb": null,
        "city_district": null,
        "city": null,
        "state": "Paramaribo",
        "postcode": null,
        "country": "Suriname",
        "country_code": "sr"
      },
      "address": "Emelie Alvaresstraat, Paramaribo, Paramaribo, Suriname"
    },
    {
      "lat": 5.833215690999336,
      "lon": -55.15303218468678,
      "geoinfo": {
        "display_name": "51, Costerstraat, Rainville, Paramaribo, Suriname",
        "road": "Costerstraat",
        "house_number": "51",
        "neighbourhood": null,
        "suburb": null,
        "city_district": null,
        "city": null,
        "state": "Paramaribo",
        "postcode": null,
        "country": "Suriname",
        "country_code": "sr"
      },
      "address": "51 Costerstraat, Paramaribo, Paramaribo, Suriname"
    },
    {
      "lat": 5.835435060489778,
      "lon": -55.188051793339156,
      "geoinfo": {
        "display_name": "2, Van Maanenlaan, Welgelegen, Distrikt Paramaribo, Paramaribo, Suriname",
        "road": "Van Maanenlaan",
        "house_number": "2",
        "neighbourhood": null,
        "suburb": null,
        "city_district": null,
        "city": "Welgelegen",
        "state": "Paramaribo",
        "postcode": null,
        "country": "Suriname",
        "country_code": "sr"
      },
      "address": "2 Van Maanenlaan, Paramaribo, Paramaribo, Suriname"
    },
    {
      "lat": 5.83256633492203,
      "lon": -55.18301560416439,
      "geoinfo": {
        "display_name": "7, Barendstraat, Paramaribo, Centrum, Paramaribo, Suriname",
        "road": "Barendstraat",
        "house_number": "7",
        "neighbourhood": null,
        "suburb": null,
        "city_district": null,
        "city": "Paramaribo",
        "state": "Paramaribo",
        "postcode": null,
        "country": "Suriname",
        "country_code": "sr"
      },
      "address": "7 Barendstraat, Paramaribo, Paramaribo, Suriname"
    },
    {
      "lat": 5.836396430479853,
      "lon": -55.17282158390194,
      "geoinfo": {
        "display_name": "Jong A Kiem Meelproduktenfabriek, 66A, Kwattaweg, Paramaribo, Centrum, Paramaribo, Suriname",
        "road": "Kwattaweg",
        "house_number": "66A",
        "neighbourhood": null,
        "suburb": null,
        "city_district": null,
        "city": "Paramaribo",
        "state": "Paramaribo",
        "postcode": null,
        "country": "Suriname",
        "country_code": "sr"
      },
      "address": "66A Kwattaweg, Paramaribo, Paramaribo, Suriname"
    },
    {
      "lat": 5.847214708493484,
      "lon": -55.14895618507423,
      "geoinfo": {
        "display_name": "Johannes Kruislandstraat, Blauwgrond, Paramaribo, Suriname",
        "road": "Johannes Kruislandstraat",
        "house_number": null,
        "neighbourhood": null,
        "suburb": null,
        "city_district": null,
        "city": null,
        "state": "Paramaribo",
        "postcode": null,
        "country": "Suriname",
        "country_code": "sr"
      },
      "address": "Johannes Kruislandstraat, Paramaribo, Paramaribo, Suriname"
    },
    {
      "lat": 5.855793307495722,
      "lon": -55.15367919187354,
      "geoinfo": {
        "display_name": "Rock Crossfit Paramaribo, 36, Ringweg Noord, Rainville, Paramaribo, Suriname",
        "road": "Ringweg Noord",
        "house_number": "36",
        "neighbourhood": null,
        "suburb": null,
        "city_district": null,
        "city": null,
        "state": "Paramaribo",
        "postcode": null,
        "country": "Suriname",
        "country_code": "sr"
      },
      "address": "36 Ringweg Noord, Paramaribo, Paramaribo, Suriname"
    },
    {
      "lat": 5.852728339353014,
      "lon": -55.17487093405593,
      "geoinfo": {
        "display_name": "Bruine Boneweg, Munder, Paramaribo, Suriname",
        "road": "Bruine Boneweg",
        "house_number": null,
        "neighbourhood": null,
        "suburb": null,
        "city_district": null,
        "city": "Munder",
        "state": "Paramaribo",
        "postcode": null,
        "country": "Suriname",
        "country_code": "sr"
      },
      "address": "Bruine Boneweg, Paramaribo, Paramaribo, Suriname"
    },
    {
      "lat": 5.860067829828641,
      "lon": -55.13144284876471,
      "geoinfo": {
        "display_name": "25, Bazaltstraat, Morgenstond, Suriname, Noord, Blauwgrond, Paramaribo, Suriname",
        "road": "Bazaltstraat",
        "house_number": "25",
        "neighbourhood": null,
        "suburb": null,
        "city_district": null,
        "city": "Noord",
        "state": "Paramaribo",
        "postcode": null,
        "country": "Suriname",
        "country_code": "sr"
      },
      "address": "25 Bazaltstraat, Paramaribo, Paramaribo, Suriname"
    },
    {
      "lat": 5.870023186905827,
      "lon": -55.14303360328052,
      "geoinfo": {
        "display_name": "Vivian Ornastraat, Blauwgrond, Paramaribo, Suriname",
        "road": "Vivian Ornastraat",
        "house_number": null,
        "neighbourhood": null,
        "suburb": null,
        "city_district": null,
        "city": null,
        "state": "Paramaribo",
        "postcode": null,
        "country": "Suriname",
        "country_code": "sr"
      },
      "address": "Vivian Ornastraat, Paramaribo, Paramaribo, Suriname"
    },
    {
      "lat": 5.833791762967304,
      "lon": -55.18088101646493,
      "geoinfo": {
        "display_name": "Herman Snostraat, Paramaribo, Centrum, Paramaribo, Suriname",
        "road": "Herman Snostraat",
        "house_number": null,
        "neighbourhood": null,
        "suburb": null,
        "city_district": null,
        "city": "Paramaribo",
        "state": "Paramaribo",
        "postcode": null,
        "country": "Suriname",
        "country_code": "sr"
      },
      "address": "Herman Snostraat, Paramaribo, Paramaribo, Suriname"
    },
    {
      "lat": 5.853611551375238,
      "lon": -55.21000852302147,
      "geoinfo": {
        "display_name": "Zonstraat, Weg naar Zee, Paramaribo, Suriname",
        "road": "Zonstraat",
        "house_number": null,
        "neighbourhood": null,
        "suburb": null,
        "city_district": null,
        "city": "Weg naar Zee",
        "state": "Paramaribo",
        "postcode": null,
        "country": "Suriname",
        "country_code": "sr"
      },
      "address": "Zonstraat, Paramaribo, Paramaribo, Suriname"
    },
    {
      "lat": 5.8863180765283625,
      "lon": -55.15629938879006,
      "geoinfo": {
        "display_name": "Blaakstraat, Pan American Project, Rainville, Paramaribo, Suriname",
        "road": "Blaakstraat",
        "house_number": null,
        "neighbourhood": null,
        "suburb": null,
        "city_district": null,
        "city": null,
        "state": "Paramaribo",
        "postcode": null,
        "country": "Suriname",
        "country_code": "sr"
      },
      "address": "Blaakstraat, Paramaribo, Paramaribo, Suriname"
    },
    {
      "lat": 5.850565335990325,
      "lon": -55.17142837343962,
      "geoinfo": {
        "display_name": "Ramenas Jamesweg, Charlesburg, Munder, Paramaribo, Suriname",
        "road": "Ramenas Jamesweg",
        "house_number": null,
        "neighbourhood": "Charlesburg",
        "suburb": null,
        "city_district": null,
        "city": "Munder",
        "state": "Paramaribo",
        "postcode": null,
        "country": "Suriname",
        "country_code": "sr"
      },
      "address": "Ramenas Jamesweg, Paramaribo, Paramaribo, Suriname"
    },
    {
      "lat": 5.853868939157864,
      "lon": -55.1710811466822,
      "geoinfo": {
        "display_name": "Peperboomstraat, Munder, Paramaribo, Suriname",
        "road": "Peperboomstraat",
        "house_number": null,
        "neighbourhood": null,
        "suburb": null,
        "city_district": null,
        "city": "Munder",
        "state": "Paramaribo",
        "postcode": null,
        "country": "Suriname",
        "country_code": "sr"
      },
      "address": "Peperboomstraat, Paramaribo, Paramaribo, Suriname"
    },
    {
      "lat": 5.875465526170802,
      "lon": -55.173173901458895,
      "geoinfo": {
        "display_name": "Nieuwe Charlesburgweg, Munder, Paramaribo, Suriname",
        "road": "Nieuwe Charlesburgweg",
        "house_number": null,
        "neighbourhood": null,
        "suburb": null,
        "city_district": null,
        "city": null,
        "state": "Paramaribo",
        "postcode": null,
        "country": "Suriname",
        "country_code": "sr"
      },
      "address": "Nieuwe Charlesburgweg, Paramaribo, Paramaribo, Suriname"
    },
    {
      "lat": 5.891577185660609,
      "lon": -55.20184468961938,
      "geoinfo": {
        "display_name": "Brantimakaweg, Weg naar Zee, Paramaribo, Suriname",
        "road": "Brantimakaweg",
        "house_number": null,
        "neighbourhood": null,
        "suburb": null,
        "city_district": null,
        "city": null,
        "state": "Paramaribo",
        "postcode": null,
        "country": "Suriname",
        "country_code": "sr"
      },
      "address": "Brantimakaweg, Paramaribo, Paramaribo, Suriname"
    },
    {
      "lat": 5.8590276908849015,
      "lon": -55.13002936787154,
      "geoinfo": {
        "display_name": "Beryllstraat, Noord, Blauwgrond, Paramaribo, Suriname",
        "road": "Beryllstraat",
        "house_number": null,
        "neighbourhood": null,
        "suburb": null,
        "city_district": null,
        "city": "Noord",
        "state": "Paramaribo",
        "postcode": null,
        "country": "Suriname",
        "country_code": "sr"
      },
      "address": "Beryllstraat, Paramaribo, Paramaribo, Suriname"
    },
    {
      "lat": 5.900123568861062,
      "lon": -55.19324637626918,
      "geoinfo": {
        "display_name": "Paramaribo, Centrum, Paramaribo, Suriname",
        "road": null,
        "house_number": null,
        "neighbourhood": null,
        "suburb": null,
        "city_district": null,
        "city": "Paramaribo",
        "state": "Paramaribo",
        "postcode": null,
        "country": "Suriname",
        "country_code": "sr"
      },
      "address": "320, Paramaribo, Centrum, 17173 Paramaribo, Suriname"
    },
    {
      "lat": 5.90179662800952,
      "lon": -55.162167149209516,
      "geoinfo": {
        "display_name": "Rainville, Paramaribo, Suriname",
        "road": null,
        "house_number": null,
        "neighbourhood": null,
        "suburb": null,
        "city_district": null,
        "city": null,
        "state": "Paramaribo",
        "postcode": null,
        "country": "Suriname",
        "country_code": "sr"
      },
      "address": "668, Rainville, 82701 Paramaribo, Suriname"
    },
    {
      "lat": 5.889001395248459,
      "lon": -55.15738290413024,
      "geoinfo": {
        "display_name": "Bridj Village, Rainville, Paramaribo, Suriname",
        "road": null,
        "house_number": null,
        "neighbourhood": "Bridj Village",
        "suburb": null,
        "city_district": null,
        "city": null,
        "state": "Paramaribo",
        "postcode": null,
        "country": "Suriname",
        "country_code": "sr"
      },
      "address": "683, Bridj Village, Rainville, 18324 Paramaribo, Suriname"
    },
    {
      "lat": 5.830620905137915,
      "lon": -55.154824461017,
      "geoinfo": {
        "display_name": "21, Jessurunstraat, Rainville, Paramaribo, Suriname",
        "road": "Jessurunstraat",
        "house_number": "21",
        "neighbourhood": null,
        "suburb": null,
        "city_district": null,
        "city": null,
        "state": "Paramaribo",
        "postcode": null,
        "country": "Suriname",
        "country_code": "sr"
      },
      "address": "21, Jessurunstraat, Rainville, 98220 Paramaribo, Suriname"
    },
    {
      "lat": 5.837477923436118,
      "lon": -55.13415257739173,
      "geoinfo": {
        "display_name": "60, Plutostraat, Maretraite 3, Blauwgrond, Paramaribo, Suriname",
        "road": "Plutostraat",
        "house_number": "60",
        "neighbourhood": "Maretraite 3",
        "suburb": null,
        "city_district": null,
        "city": null,
        "state": "Paramaribo",
        "postcode": null,
        "country": "Suriname",
        "country_code": "sr"
      },
      "address": "60, Plutostraat, Maretraite 3, Blauwgrond, Paramaribo, Suriname"
    },
    {
      "lat": 5.832136806140764,
      "lon": -55.16936229750828,
      "geoinfo": {
        "display_name": "Van Radersstraat, Paramaribo, Centrum, Paramaribo, Suriname",
        "road": "Van Radersstraat",
        "house_number": null,
        "neighbourhood": null,
        "suburb": null,
        "city_district": null,
        "city": "Paramaribo",
        "state": "Paramaribo",
        "postcode": null,
        "country": "Suriname",
        "country_code": "sr"
      },
      "address": "802, Van Radersstraat, Paramaribo, Centrum, 84104 Paramaribo, Suriname"
    },
    {
      "lat": 5.883330802723317,
      "lon": -55.1377642925305,
      "geoinfo": {
        "display_name": "Blauwgrond, Paramaribo, Suriname",
        "road": null,
        "house_number": null,
        "neighbourhood": null,
        "suburb": null,
        "city_district": null,
        "city": null,
        "state": "Paramaribo",
        "postcode": null,
        "country": "Suriname",
        "country_code": "sr"
      },
      "address": "985, Paramaribo, 41250 Paramaribo, Suriname"
    },
    {
      "lat": 5.847821297775253,
      "lon": -55.155578157650005,
      "geoinfo": {
        "display_name": "Parbhoesingstraat, Rainville, Paramaribo, Suriname",
        "road": "Parbhoesingstraat",
        "house_number": null,
        "neighbourhood": null,
        "suburb": null,
        "city_district": null,
        "city": null,
        "state": "Paramaribo",
        "postcode": null,
        "country": "Suriname",
        "country_code": "sr"
      },
      "address": "331, Parbhoesingstraat, Rainville, 43954 Paramaribo, Suriname"
    },
    {
      "lat": 5.842460224453226,
      "lon": -55.141203638022986,
      "geoinfo": {
        "display_name": "Chopinstraat, Maretraite 3, Blauwgrond, Paramaribo, Suriname",
        "road": "Chopinstraat",
        "house_number": null,
        "neighbourhood": "Maretraite 3",
        "suburb": null,
        "city_district": null,
        "city": null,
        "state": "Paramaribo",
        "postcode": null,
        "country": "Suriname",
        "country_code": "sr"
      },
      "address": "189, Chopinstraat, Maretraite 3, Blauwgrond, Paramaribo, Suriname"
    },
    {
      "lat": 5.908759568766668,
      "lon": -55.16718162896582,
      "geoinfo": {
        "display_name": "Paramaribo, Centrum, Paramaribo, Suriname",
        "road": null,
        "house_number": null,
        "neighbourhood": null,
        "suburb": null,
        "city_district": null,
        "city": "Paramaribo",
        "state": "Paramaribo",
        "postcode": null,
        "country": "Suriname",
        "country_code": "sr"
      },
      "address": "279, Paramaribo, Centrum, 57101 Paramaribo, Suriname"
    },
    {
      "lat": 5.875443243017533,
      "lon": -55.12577378226353,
      "geoinfo": {
        "display_name": "Blauwgrond, Paramaribo, Suriname",
        "road": null,
        "house_number": null,
        "neighbourhood": null,
        "suburb": null,
        "city_district": null,
        "city": null,
        "state": "Paramaribo",
        "postcode": null,
        "country": "Suriname",
        "country_code": "sr"
      },
      "address": "005, Paramaribo, 21331 Paramaribo, Suriname"
    },
    {
      "lat": 5.8721423577110725,
      "lon": -55.131025107583895,
      "geoinfo": {
        "display_name": "Emelie Alvaresstraat, Blauwgrond, Paramaribo, Suriname",
        "road": "Emelie Alvaresstraat",
        "house_number": null,
        "neighbourhood": null,
        "suburb": null,
        "city_district": null,
        "city": null,
        "state": "Paramaribo",
        "postcode": null,
        "country": "Suriname",
        "country_code": "sr"
      },
      "address": "975, Emelie Alvaresstraat, Blauwgrond, 38028 Paramaribo, Suriname"
    },
    {
      "lat": 5.908995453250325,
      "lon": -55.16845602029728,
      "geoinfo": {
        "display_name": "Paramaribo, Centrum, Paramaribo, Suriname",
        "road": null,
        "house_number": null,
        "neighbourhood": null,
        "suburb": null,
        "city_district": null,
        "city": "Paramaribo",
        "state": "Paramaribo",
        "postcode": null,
        "country": "Suriname",
        "country_code": "sr"
      },
      "address": "044, Paramaribo, Centrum, 52258 Paramaribo, Suriname"
    },
    {
      "lat": 5.891185645709887,
      "lon": -55.152302993827405,
      "geoinfo": {
        "display_name": "Bridj Village, Rainville, Paramaribo, Suriname",
        "road": null,
        "house_number": null,
        "neighbourhood": "Bridj Village",
        "suburb": null,
        "city_district": null,
        "city": null,
        "state": "Paramaribo",
        "postcode": null,
        "country": "Suriname",
        "country_code": "sr"
      },
      "address": "209, Bridj Village, Rainville, 57207 Paramaribo, Suriname"
    },
    {
      "lat": 5.849105970915236,
      "lon": -55.19792339460712,
      "geoinfo": {
        "display_name": "Aquariusstraat, Weg naar Zee, Paramaribo, Suriname",
        "road": "Aquariusstraat",
        "house_number": null,
        "neighbourhood": null,
        "suburb": null,
        "city_district": null,
        "city": "Weg naar Zee",
        "state": "Paramaribo",
        "postcode": null,
        "country": "Suriname",
        "country_code": "sr"
      },
      "address": "363, Aquariusstraat, Weg naar Zee, 36766 Paramaribo, Suriname"
    },
    {
      "lat": 5.834936898235567,
      "lon": -55.1424364182113,
      "geoinfo": {
        "display_name": "Computronics, 28, Petrus Dondersstraat, Rainville, Paramaribo, Suriname",
        "road": "Petrus Dondersstraat",
        "house_number": "28",
        "neighbourhood": null,
        "suburb": null,
        "city_district": null,
        "city": "Rainville",
        "state": "Paramaribo",
        "postcode": null,
        "country": "Suriname",
        "country_code": "sr"
      },
      "address": "28, Petrus Dondersstraat, Paramaribo, 24325 Paramaribo, Suriname"
    },
    {
      "lat": 5.904924539220281,
      "lon": -55.189703420798516,
      "geoinfo": {
        "display_name": "Paramaribo, Centrum, Paramaribo, Suriname",
        "road": null,
        "house_number": null,
        "neighbourhood": null,
        "suburb": null,
        "city_district": null,
        "city": "Paramaribo",
        "state": "Paramaribo",
        "postcode": null,
        "country": "Suriname",
        "country_code": "sr"
      },
      "address": "471, Paramaribo, Centrum, 41728 Paramaribo, Suriname"
    },
    {
      "lat": 5.856471152641763,
      "lon": -55.18667644098848,
      "geoinfo": {
        "display_name": "Sao Paulostraat, Weg naar Zee, Paramaribo, Suriname",
        "road": "Sao Paulostraat",
        "house_number": null,
        "neighbourhood": null,
        "suburb": null,
        "city_district": null,
        "city": null,
        "state": "Paramaribo",
        "postcode": null,
        "country": "Suriname",
        "country_code": "sr"
      },
      "address": "904, Sao Paulostraat, Weg naar Zee, 55831 Paramaribo, Suriname"
    },
    {
      "lat": 5.865891124162492,
      "lon": -55.211962311122484,
      "geoinfo": {
        "display_name": "Tiengieholoweg, Weg naar Zee, Paramaribo, Suriname",
        "road": "Tiengieholoweg",
        "house_number": null,
        "neighbourhood": null,
        "suburb": null,
        "city_district": null,
        "city": null,
        "state": "Paramaribo",
        "postcode": null,
        "country": "Suriname",
        "country_code": "sr"
      },
      "address": "518, Tiengieholoweg, Weg naar Zee, 17793 Paramaribo, Suriname"
    },
    {
      "lat": 5.858050338002426,
      "lon": -55.18359674209616,
      "geoinfo": {
        "display_name": "Amazonestraat, Munder, Paramaribo, Suriname",
        "road": "Amazonestraat",
        "house_number": null,
        "neighbourhood": null,
        "suburb": null,
        "city_district": null,
        "city": "Munder",
        "state": "Paramaribo",
        "postcode": null,
        "country": "Suriname",
        "country_code": "sr"
      },
      "address": "688, Amazonestraat, Munder, 07487 Paramaribo, Suriname"
    },
    {
      "lat": 5.836523302744427,
      "lon": -55.19902597878588,
      "geoinfo": {
        "display_name": "17, Edmundstraat, Welgelegen, Distrikt Paramaribo, Paramaribo, Suriname",
        "road": "Edmundstraat",
        "house_number": "17",
        "neighbourhood": null,
        "suburb": null,
        "city_district": null,
        "city": "Welgelegen",
        "state": "Paramaribo",
        "postcode": null,
        "country": "Suriname",
        "country_code": "sr"
      },
      "address": "17, Edmundstraat, Welgelegen, Distrikt Paramaribo, 73813 Paramaribo, Suriname"
    },
    {
      "lat": 5.841789558497911,
      "lon": -55.167884771061445,
      "geoinfo": {
        "display_name": "Schimmelpenninckstraat, Munder, Paramaribo, Suriname",
        "road": "Schimmelpenninckstraat",
        "house_number": null,
        "neighbourhood": null,
        "suburb": null,
        "city_district": null,
        "city": "Munder",
        "state": "Paramaribo",
        "postcode": null,
        "country": "Suriname",
        "country_code": "sr"
      },
      "address": "620, Schimmelpenninckstraat, Munder, 37307 Paramaribo, Suriname"
    },
    {
      "lat": 5.891281633550746,
      "lon": -55.164072214755535,
      "geoinfo": {
        "display_name": "Rainville, Paramaribo, Suriname",
        "road": null,
        "house_number": null,
        "neighbourhood": null,
        "suburb": null,
        "city_district": null,
        "city": null,
        "state": "Paramaribo",
        "postcode": null,
        "country": "Suriname",
        "country_code": "sr"
      },
      "address": "464, Rainville, 25622 Paramaribo, Suriname"
    },
    {
      "lat": 5.877862252408082,
      "lon": -55.13207253541123,
      "geoinfo": {
        "display_name": "Suri Village II, Blauwgrond, Paramaribo, Suriname",
        "road": null,
        "house_number": null,
        "neighbourhood": null,
        "suburb": null,
        "city_district": null,
        "city": null,
        "state": "Paramaribo",
        "postcode": null,
        "country": "Suriname",
        "country_code": "sr"
      },
      "address": "249, Suri Village II, Blauwgrond, 31765 Paramaribo, Suriname"
    },
    {
      "lat": 5.8807795957369216,
      "lon": -55.13094030250783,
      "geoinfo": {
        "display_name": "Blauwgrond, Paramaribo, Suriname",
        "road": null,
        "house_number": null,
        "neighbourhood": null,
        "suburb": null,
        "city_district": null,
        "city": null,
        "state": "Paramaribo",
        "postcode": null,
        "country": "Suriname",
        "country_code": "sr"
      },
      "address": "874, Paramaribo, 45778 Paramaribo, Suriname"
    },
    {
      "lat": 5.8859252407746485,
      "lon": -55.17608095577882,
      "geoinfo": {
        "display_name": "Nieuwe Charlesburgweg, Munder, Paramaribo, Suriname",
        "road": "Nieuwe Charlesburgweg",
        "house_number": null,
        "neighbourhood": null,
        "suburb": null,
        "city_district": null,
        "city": null,
        "state": "Paramaribo",
        "postcode": null,
        "country": "Suriname",
        "country_code": "sr"
      },
      "address": "986, Nieuwe Charlesburgweg, Munder, 99327 Paramaribo, Suriname"
    },
    {
      "lat": 5.874211285842562,
      "lon": -55.13349606141381,
      "geoinfo": {
        "display_name": "Suri Village II, Blauwgrond, Paramaribo, Suriname",
        "road": null,
        "house_number": null,
        "neighbourhood": null,
        "suburb": null,
        "city_district": null,
        "city": null,
        "state": "Paramaribo",
        "postcode": null,
        "country": "Suriname",
        "country_code": "sr"
      },
      "address": "421, Suri Village II, Blauwgrond, 45625 Paramaribo, Suriname"
    },
    {
      "lat": 5.86072884789136,
      "lon": -55.147483186902925,
      "geoinfo": {
        "display_name": "Tiberiusstraat, Tourtonne Garden, Rainville, Paramaribo, Suriname",
        "road": "Tiberiusstraat",
        "house_number": null,
        "neighbourhood": "Tourtonne Garden",
        "suburb": null,
        "city_district": null,
        "city": null,
        "state": "Paramaribo",
        "postcode": null,
        "country": "Suriname",
        "country_code": "sr"
      },
      "address": "303, Tiberiusstraat, Tourtonne Garden, Rainville, 04745 Paramaribo, Suriname"
    },
    {
      "lat": 5.857488371652322,
      "lon": -55.172854434753695,
      "geoinfo": {
        "display_name": "Q'Delicia Products, 260, Ringweg Noord, Munder, Paramaribo, Suriname",
        "road": "Ringweg Noord",
        "house_number": "260",
        "neighbourhood": null,
        "suburb": null,
        "city_district": null,
        "city": null,
        "state": "Paramaribo",
        "postcode": null,
        "country": "Suriname",
        "country_code": "sr"
      },
      "address": "260, Q'Delicia Products, 260, Ringweg Noord, Munder, Paramaribo, Suriname"
    },
    {
      "lat": 5.841082572935677,
      "lon": -55.197720679207116,
      "geoinfo": {
        "display_name": "Welgelegen, Distrikt Paramaribo, Paramaribo, Suriname",
        "road": null,
        "house_number": null,
        "neighbourhood": null,
        "suburb": null,
        "city_district": null,
        "city": "Welgelegen",
        "state": "Paramaribo",
        "postcode": null,
        "country": "Suriname",
        "country_code": "sr"
      },
      "address": "359, Welgelegen, Distrikt Paramaribo, 37951 Paramaribo, Suriname"
    },
    {
      "lat": 5.8546350984868445,
      "lon": -55.15448957244083,
      "geoinfo": {
        "display_name": "HSDS Lifestyle Noord, 36, Ringweg Noord, Rainville, Paramaribo, Suriname",
        "road": "Ringweg Noord",
        "house_number": "36",
        "neighbourhood": null,
        "suburb": null,
        "city_district": null,
        "city": null,
        "state": "Paramaribo",
        "postcode": null,
        "country": "Suriname",
        "country_code": "sr"
      },
      "address": "36, Ringweg Noord, Paramaribo, 57385 Paramaribo, Suriname"
    },
    {
      "lat": 5.850819940287221,
      "lon": -55.149880222317634,
      "geoinfo": {
        "display_name": "Anton Favereystraat, Blauwgrond, Paramaribo, Suriname",
        "road": "Anton Favereystraat",
        "house_number": null,
        "neighbourhood": null,
        "suburb": null,
        "city_district": null,
        "city": null,
        "state": "Paramaribo",
        "postcode": null,
        "country": "Suriname",
        "country_code": "sr"
      },
      "address": "842, Anton Favereystraat, Blauwgrond, 63389 Paramaribo, Suriname"
    },
    {
      "lat": 5.841082011616611,
      "lon": -55.15191289789376,
      "geoinfo": {
        "display_name": "Tulip, 131, Tourtonnelaan, Rainville, Paramaribo, Suriname",
        "road": "Tourtonnelaan",
        "house_number": "131",
        "neighbourhood": null,
        "suburb": null,
        "city_district": null,
        "city": "Rainville",
        "state": "Paramaribo",
        "postcode": null,
        "country": "Suriname",
        "country_code": "sr"
      },
      "address": "131, Tulip, 131, Tourtonnelaan, Rainville, Paramaribo, Suriname"
    },
    {
      "lat": 5.865752155400675,
      "lon": -55.20796582710574,
      "geoinfo": {
        "display_name": "Weg naar Zee, Paramaribo, Suriname",
        "road": null,
        "house_number": null,
        "neighbourhood": null,
        "suburb": null,
        "city_district": null,
        "city": null,
        "state": "Paramaribo",
        "postcode": null,
        "country": "Suriname",
        "country_code": "sr"
      },
      "address": "217, Weg naar Zee, 27329 Paramaribo, Suriname"
    },
    {
      "lat": 5.894672027919368,
      "lon": -55.13979230989812,
      "geoinfo": {
        "display_name": "Bridj Village, Rainville, Paramaribo, Suriname",
        "road": null,
        "house_number": null,
        "neighbourhood": "Bridj Village",
        "suburb": null,
        "city_district": null,
        "city": null,
        "state": "Paramaribo",
        "postcode": null,
        "country": "Suriname",
        "country_code": "sr"
      },
      "address": "791, Bridj Village, Rainville, 16857 Paramaribo, Suriname"
    },
    {
      "lat": 5.883802491127693,
      "lon": -55.150101023475926,
      "geoinfo": {
        "display_name": "Brinkstraat, Pan American Project, Rainville, Paramaribo, Suriname",
        "road": "Brinkstraat",
        "house_number": null,
        "neighbourhood": null,
        "suburb": null,
        "city_district": null,
        "city": null,
        "state": "Paramaribo",
        "postcode": null,
        "country": "Suriname",
        "country_code": "sr"
      },
      "address": "997, Brinkstraat, Pan American Project, Rainville, 33358 Paramaribo, Suriname"
    },
    {
      "lat": 5.860052368786905,
      "lon": -55.12216869064112,
      "geoinfo": {
        "display_name": "Su Dong Resort, Powisistraat, Morgenstond, Suriname, Noord, Blauwgrond, Paramaribo, Suriname",
        "road": "Powisistraat",
        "house_number": null,
        "neighbourhood": null,
        "suburb": null,
        "city_district": null,
        "city": "Noord",
        "state": "Paramaribo",
        "postcode": null,
        "country": "Suriname",
        "country_code": "sr"
      },
      "address": "363, Powisistraat, Paramaribo, 08897 Paramaribo, Suriname"
    },
    {
      "lat": 5.838247545671942,
      "lon": -55.13567429806183,
      "geoinfo": {
        "display_name": "72, Plutostraat, Maretraite 3, Blauwgrond, Paramaribo, Suriname",
        "road": "Plutostraat",
        "house_number": "72",
        "neighbourhood": "Maretraite 3",
        "suburb": null,
        "city_district": null,
        "city": null,
        "state": "Paramaribo",
        "postcode": null,
        "country": "Suriname",
        "country_code": "sr"
      },
      "address": "72, Plutostraat, Maretraite 3, Blauwgrond, Paramaribo, Suriname"
    },
    {
      "lat": 5.846567805111591,
      "lon": -55.167609228680504,
      "geoinfo": {
        "display_name": "J. Koendanstraat, Charlesburg, Munder, Paramaribo, Suriname",
        "road": "J. Koendanstraat",
        "house_number": null,
        "neighbourhood": "Charlesburg",
        "suburb": null,
        "city_district": null,
        "city": "Munder",
        "state": "Paramaribo",
        "postcode": null,
        "country": "Suriname",
        "country_code": "sr"
      },
      "address": "349, J. Koendanstraat, Charlesburg, Munder, 44602 Paramaribo, Suriname"
    },
    {
      "lat": 5.881716932953666,
      "lon": -55.17442551604388,
      "geoinfo": {
        "display_name": "Nieuwe Charlesburgweg, Munder, Paramaribo, Suriname",
        "road": "Nieuwe Charlesburgweg",
        "house_number": null,
        "neighbourhood": null,
        "suburb": null,
        "city_district": null,
        "city": null,
        "state": "Paramaribo",
        "postcode": null,
        "country": "Suriname",
        "country_code": "sr"
      },
      "address": "995, Nieuwe Charlesburgweg, Munder, 12171 Paramaribo, Suriname"
    },
    {
      "lat": 5.836346286945507,
      "lon": -55.135171689694666,
      "geoinfo": {
        "display_name": "Sewbarath Misserstraat, Rainville, Paramaribo, Suriname",
        "road": "Sewbarath Misserstraat",
        "house_number": null,
        "neighbourhood": null,
        "suburb": null,
        "city_district": null,
        "city": "Rainville",
        "state": "Paramaribo",
        "postcode": null,
        "country": "Suriname",
        "country_code": "sr"
      },
      "address": "930, Sewbarath Misserstraat, Rainville, 34634 Paramaribo, Suriname"
    },
    {
      "lat": 5.883816138192197,
      "lon": -55.181528727338865,
      "geoinfo": {
        "display_name": "Munder, Paramaribo, Suriname",
        "road": null,
        "house_number": null,
        "neighbourhood": null,
        "suburb": null,
        "city_district": null,
        "city": null,
        "state": "Paramaribo",
        "postcode": null,
        "country": "Suriname",
        "country_code": "sr"
      },
      "address": "952, Munder, 33130 Paramaribo, Suriname"
    },
    {
      "lat": 5.846230129566904,
      "lon": -55.19512345967353,
      "geoinfo": {
        "display_name": "Soekhradjie Autarstraat, Weg naar Zee, Paramaribo, Suriname",
        "road": "Soekhradjie Autarstraat",
        "house_number": null,
        "neighbourhood": null,
        "suburb": null,
        "city_district": null,
        "city": "Weg naar Zee",
        "state": "Paramaribo",
        "postcode": null,
        "country": "Suriname",
        "country_code": "sr"
      },
      "address": "465, Soekhradjie Autarstraat, Weg naar Zee, 29084 Paramaribo, Suriname"
    },
    {
      "lat": 5.871349792859056,
      "lon": -55.18137238515688,
      "geoinfo": {
        "display_name": "Munder, Paramaribo, Suriname",
        "road": null,
        "house_number": null,
        "neighbourhood": null,
        "suburb": null,
        "city_district": null,
        "city": null,
        "state": "Paramaribo",
        "postcode": null,
        "country": "Suriname",
        "country_code": "sr"
      },
      "address": "622, Munder, 57853 Paramaribo, Suriname"
    },
    {
      "lat": 5.895389857585413,
      "lon": -55.17691316074138,
      "geoinfo": {
        "display_name": "Munder, Paramaribo, Suriname",
        "road": null,
        "house_number": null,
        "neighbourhood": null,
        "suburb": null,
        "city_district": null,
        "city": null,
        "state": "Paramaribo",
        "postcode": null,
        "country": "Suriname",
        "country_code": "sr"
      },
      "address": "483, Munder, 94495 Paramaribo, Suriname"
    },
    {
      "lat": 5.870230765019916,
      "lon": -55.14451383480282,
      "geoinfo": {
        "display_name": "Wolframstraat, Blauwgrond, Paramaribo, Suriname",
        "road": "Wolframstraat",
        "house_number": null,
        "neighbourhood": null,
        "suburb": null,
        "city_district": null,
        "city": null,
        "state": "Paramaribo",
        "postcode": null,
        "country": "Suriname",
        "country_code": "sr"
      },
      "address": "463, Wolframstraat, Blauwgrond, 18488 Paramaribo, Suriname"
    },
    {
      "lat": 5.868318286660296,
      "lon": -55.185016450929666,
      "geoinfo": {
        "display_name": "EAG International Airport, Gummelsweg, Weg naar Zee, Paramaribo, Suriname",
        "road": "Gummelsweg",
        "house_number": null,
        "neighbourhood": null,
        "suburb": null,
        "city_district": null,
        "city": null,
        "state": "Paramaribo",
        "postcode": null,
        "country": "Suriname",
        "country_code": "sr"
      },
      "address": "393, Gummelsweg, Paramaribo, 59544 Paramaribo, Suriname"
    },
    {
      "lat": 5.890428986924227,
      "lon": -55.17896495935604,
      "geoinfo": {
        "display_name": "Munder, Paramaribo, Suriname",
        "road": null,
        "house_number": null,
        "neighbourhood": null,
        "suburb": null,
        "city_district": null,
        "city": null,
        "state": "Paramaribo",
        "postcode": null,
        "country": "Suriname",
        "country_code": "sr"
      },
      "address": "220, Munder, 52922 Paramaribo, Suriname"
    },
    {
      "lat": 5.851390031178966,
      "lon": -55.193133015676736,
      "geoinfo": {
        "display_name": "Weg naar Zee, Paramaribo, Suriname",
        "road": null,
        "house_number": null,
        "neighbourhood": null,
        "suburb": null,
        "city_district": null,
        "city": "Weg naar Zee",
        "state": "Paramaribo",
        "postcode": null,
        "country": "Suriname",
        "country_code": "sr"
      },
      "address": "129, Weg naar Zee, 03547 Paramaribo, Suriname"
    },
    {
      "lat": 5.870998695312024,
      "lon": -55.17306595278189,
      "geoinfo": {
        "display_name": "Munder, Paramaribo, Suriname",
        "road": null,
        "house_number": null,
        "neighbourhood": null,
        "suburb": null,
        "city_district": null,
        "city": null,
        "state": "Paramaribo",
        "postcode": null,
        "country": "Suriname",
        "country_code": "sr"
      },
      "address": "761, Munder, 65706 Paramaribo, Suriname"
    },
    {
      "lat": 5.908843847697658,
      "lon": -55.15722675314065,
      "geoinfo": {
        "display_name": "Paramaribo, Centrum, Paramaribo, Suriname",
        "road": null,
        "house_number": null,
        "neighbourhood": null,
        "suburb": null,
        "city_district": null,
        "city": "Paramaribo",
        "state": "Paramaribo",
        "postcode": null,
        "country": "Suriname",
        "country_code": "sr"
      },
      "address": "594, Paramaribo, Centrum, 64561 Paramaribo, Suriname"
    },
    {
      "lat": 5.881254189682498,
      "lon": -55.128082522427775,
      "geoinfo": {
        "display_name": "Blauwgrond, Paramaribo, Suriname",
        "road": null,
        "house_number": null,
        "neighbourhood": null,
        "suburb": null,
        "city_district": null,
        "city": null,
        "state": "Paramaribo",
        "postcode": null,
        "country": "Suriname",
        "country_code": "sr"
      },
      "address": "576, Paramaribo, 05879 Paramaribo, Suriname"
    },
    {
      "lat": 5.893454462248722,
      "lon": -55.136044652815734,
      "geoinfo": {
        "display_name": "Blauwgrond, Paramaribo, Suriname",
        "road": null,
        "house_number": null,
        "neighbourhood": null,
        "suburb": null,
        "city_district": null,
        "city": null,
        "state": "Paramaribo",
        "postcode": null,
        "country": "Suriname",
        "country_code": "sr"
      },
      "address": "368, Paramaribo, 30111 Paramaribo, Suriname"
    },
    {
      "lat": 5.895152440816917,
      "lon": -55.18083170168543,
      "geoinfo": {
        "display_name": "Munder, Paramaribo, Suriname",
        "road": null,
        "house_number": null,
        "neighbourhood": null,
        "suburb": null,
        "city_district": null,
        "city": null,
        "state": "Paramaribo",
        "postcode": null,
        "country": "Suriname",
        "country_code": "sr"
      },
      "address": "239, Munder, 67681 Paramaribo, Suriname"
    },
    {
      "lat": 5.846135912774796,
      "lon": -55.176242721697996,
      "geoinfo": {
        "display_name": "Sohawanweg, Charlesburg, Munder, Paramaribo, Suriname",
        "road": "Sohawanweg",
        "house_number": null,
        "neighbourhood": "Charlesburg",
        "suburb": null,
        "city_district": null,
        "city": "Munder",
        "state": "Paramaribo",
        "postcode": null,
        "country": "Suriname",
        "country_code": "sr"
      },
      "address": "521, Sohawanweg, Charlesburg, Munder, 45250 Paramaribo, Suriname"
    },
    {
      "lat": 5.850286057886859,
      "lon": -55.20169947206104,
      "geoinfo": {
        "display_name": "Aquariusstraat, Weg naar Zee, Paramaribo, Suriname",
        "road": "Aquariusstraat",
        "house_number": null,
        "neighbourhood": null,
        "suburb": null,
        "city_district": null,
        "city": "Weg naar Zee",
        "state": "Paramaribo",
        "postcode": null,
        "country": "Suriname",
        "country_code": "sr"
      },
      "address": "764, Aquariusstraat, Weg naar Zee, 86030 Paramaribo, Suriname"
    },
    {
      "lat": 5.836505953726974,
      "lon": -55.15562477965557,
      "geoinfo": {
        "display_name": "Prinsessestraat, Rainville, Paramaribo, Suriname",
        "road": "Prinsessestraat",
        "house_number": null,
        "neighbourhood": null,
        "suburb": null,
        "city_district": null,
        "city": null,
        "state": "Paramaribo",
        "postcode": null,
        "country": "Suriname",
        "country_code": "sr"
      },
      "address": "467, Prinsessestraat, Rainville, 54262 Paramaribo, Suriname"
    },
    {
      "lat": 5.888066020572966,
      "lon": -55.18695547727483,
      "geoinfo": {
        "display_name": "Brantimakaweg, Weg naar Zee, Paramaribo, Suriname",
        "road": "Brantimakaweg",
        "house_number": null,
        "neighbourhood": null,
        "suburb": null,
        "city_district": null,
        "city": null,
        "state": "Paramaribo",
        "postcode": null,
        "country": "Suriname",
        "country_code": "sr"
      },
      "address": "959, Brantimakaweg, Weg naar Zee, 66428 Paramaribo, Suriname"
    },
    {
      "lat": 5.837974771547706,
      "lon": -55.140177887402494,
      "geoinfo": {
        "display_name": "Rierstraat, Rainville, Paramaribo, Suriname",
        "road": "Rierstraat",
        "house_number": null,
        "neighbourhood": null,
        "suburb": null,
        "city_district": null,
        "city": "Rainville",
        "state": "Paramaribo",
        "postcode": null,
        "country": "Suriname",
        "country_code": "sr"
      },
      "address": "809, Rierstraat, Rainville, 53610 Paramaribo, Suriname"
    },
    {
      "lat": 5.872654949278662,
      "lon": -55.17986288179763,
      "geoinfo": {
        "display_name": "Munder, Paramaribo, Suriname",
        "road": null,
        "house_number": null,
        "neighbourhood": null,
        "suburb": null,
        "city_district": null,
        "city": null,
        "state": "Paramaribo",
        "postcode": null,
        "country": "Suriname",
        "country_code": "sr"
      },
      "address": "853, Munder, 32968 Paramaribo, Suriname"
    },
    {
      "lat": 5.870535691750136,
      "lon": -55.17968667585658,
      "geoinfo": {
        "display_name": "Munder, Paramaribo, Suriname",
        "road": null,
        "house_number": null,
        "neighbourhood": null,
        "suburb": null,
        "city_district": null,
        "city": null,
        "state": "Paramaribo",
        "postcode": null,
        "country": "Suriname",
        "country_code": "sr"
      },
      "address": "878, Munder, 96487 Paramaribo, Suriname"
    },
    {
      "lat": 5.890834647000783,
      "lon": -55.16611517897713,
      "geoinfo": {
        "display_name": "Rainville, Paramaribo, Suriname",
        "road": null,
        "house_number": null,
        "neighbourhood": null,
        "suburb": null,
        "city_district": null,
        "city": null,
        "state": "Paramaribo",
        "postcode": null,
        "country": "Suriname",
        "country_code": "sr"
      },
      "address": "001, Rainville, 50243 Paramaribo, Suriname"
    },
    {
      "lat": 5.8724833360628415,
      "lon": -55.20496040036625,
      "geoinfo": {
        "display_name": "Weg naar Zee, Paramaribo, Suriname",
        "road": null,
        "house_number": null,
        "neighbourhood": null,
        "suburb": null,
        "city_district": null,
        "city": null,
        "state": "Paramaribo",
        "postcode": null,
        "country": "Suriname",
        "country_code": "sr"
      },
      "address": "697, Weg naar Zee, 93258 Paramaribo, Suriname"
    },
    {
      "lat": 5.830254347615013,
      "lon": -55.18845016095923,
      "geoinfo": {
        "display_name": "Johannes S. Mungrastraat, Welgelegen, Centrum, Paramaribo, Suriname",
        "road": "Johannes S. Mungrastraat",
        "house_number": null,
        "neighbourhood": null,
        "suburb": null,
        "city_district": null,
        "city": "Welgelegen",
        "state": "Paramaribo",
        "postcode": null,
        "country": "Suriname",
        "country_code": "sr"
      },
      "address": "790, Johannes S. Mungrastraat, Welgelegen, Centrum, 10809 Paramaribo, Suriname"
    },
    {
      "lat": 5.90577172465684,
      "lon": -55.14668953211458,
      "geoinfo": {
        "display_name": "Rainville, Paramaribo, Suriname",
        "road": null,
        "house_number": null,
        "neighbourhood": null,
        "suburb": null,
        "city_district": null,
        "city": null,
        "state": "Paramaribo",
        "postcode": null,
        "country": "Suriname",
        "country_code": "sr"
      },
      "address": "498, Rainville, 52279 Paramaribo, Suriname"
    },
    {
      "lat": 5.888506364861973,
      "lon": -55.14022815553393,
      "geoinfo": {
        "display_name": "Mayalaan, Rainville, Paramaribo, Suriname",
        "road": "Mayalaan",
        "house_number": null,
        "neighbourhood": null,
        "suburb": null,
        "city_district": null,
        "city": null,
        "state": "Paramaribo",
        "postcode": null,
        "country": "Suriname",
        "country_code": "sr"
      },
      "address": "882, Mayalaan, Rainville, 83228 Paramaribo, Suriname"
    },
    {
      "lat": 5.898305329034553,
      "lon": -55.1763567262262,
      "geoinfo": {
        "display_name": "Munder, Paramaribo, Suriname",
        "road": null,
        "house_number": null,
        "neighbourhood": null,
        "suburb": null,
        "city_district": null,
        "city": null,
        "state": "Paramaribo",
        "postcode": null,
        "country": "Suriname",
        "country_code": "sr"
      },
      "address": "280, Munder, 90892 Paramaribo, Suriname"
    },
    {
      "lat": 5.867717379331137,
      "lon": -55.19315710996698,
      "geoinfo": {
        "display_name": "EAG International Airport, Gummelsweg, Weg naar Zee, Paramaribo, Suriname",
        "road": "Gummelsweg",
        "house_number": null,
        "neighbourhood": null,
        "suburb": null,
        "city_district": null,
        "city": null,
        "state": "Paramaribo",
        "postcode": null,
        "country": "Suriname",
        "country_code": "sr"
      },
      "address": "448, Gummelsweg, Paramaribo, 53915 Paramaribo, Suriname"
    },
    {
      "lat": 5.886627830399794,
      "lon": -55.187252611634506,
      "geoinfo": {
        "display_name": "Weg naar Zee, Paramaribo, Suriname",
        "road": null,
        "house_number": null,
        "neighbourhood": null,
        "suburb": null,
        "city_district": null,
        "city": null,
        "state": "Paramaribo",
        "postcode": null,
        "country": "Suriname",
        "country_code": "sr"
      },
      "address": "892, Weg naar Zee, 79177 Paramaribo, Suriname"
    },
    {
      "lat": 5.883854600803438,
      "lon": -55.17940280009735,
      "geoinfo": {
        "display_name": "Munder, Paramaribo, Suriname",
        "road": null,
        "house_number": null,
        "neighbourhood": null,
        "suburb": null,
        "city_district": null,
        "city": null,
        "state": "Paramaribo",
        "postcode": null,
        "country": "Suriname",
        "country_code": "sr"
      },
      "address": "600, Munder, 56425 Paramaribo, Suriname"
    },
    {
      "lat": 5.8556226924578,
      "lon": -55.195027945749565,
      "geoinfo": {
        "display_name": "Justinestraat, Weg naar Zee, Paramaribo, Suriname",
        "road": "Justinestraat",
        "house_number": null,
        "neighbourhood": null,
        "suburb": null,
        "city_district": null,
        "city": "Weg naar Zee",
        "state": "Paramaribo",
        "postcode": null,
        "country": "Suriname",
        "country_code": "sr"
      },
      "address": "183, Justinestraat, Weg naar Zee, 96365 Paramaribo, Suriname"
    },
    {
      "lat": 5.840262051751916,
      "lon": -55.13993395384206,
      "geoinfo": {
        "display_name": "Scandia Gear The Caribbean, 85, David Simonsstraat, Rainville, Paramaribo, Suriname",
        "road": "David Simonsstraat",
        "house_number": "85",
        "neighbourhood": null,
        "suburb": null,
        "city_district": null,
        "city": "Rainville",
        "state": "Paramaribo",
        "postcode": null,
        "country": "Suriname",
        "country_code": "sr"
      },
      "address": "85, David Simonsstraat, Paramaribo, 15546 Paramaribo, Suriname"
    },
    {
      "lat": 5.885119279914912,
      "lon": -55.1280822972956,
      "geoinfo": {
        "display_name": "Lichtkeverstraat, Suri Village III, Blauwgrond, Paramaribo, Suriname",
        "road": "Lichtkeverstraat",
        "house_number": null,
        "neighbourhood": null,
        "suburb": null,
        "city_district": null,
        "city": null,
        "state": "Paramaribo",
        "postcode": null,
        "country": "Suriname",
        "country_code": "sr"
      },
      "address": "035, Lichtkeverstraat, Suri Village III, Blauwgrond, 97656 Paramaribo, Suriname"
    },
    {
      "lat": 5.838998940261376,
      "lon": -55.16263151784858,
      "geoinfo": {
        "display_name": "Tafrabonweg, Rainville, Paramaribo, Suriname",
        "road": "Tafrabonweg",
        "house_number": null,
        "neighbourhood": null,
        "suburb": null,
        "city_district": null,
        "city": null,
        "state": "Paramaribo",
        "postcode": null,
        "country": "Suriname",
        "country_code": "sr"
      },
      "address": "743, Tafrabonweg, Rainville, 36579 Paramaribo, Suriname"
    },
    {
      "lat": 5.901402455945639,
      "lon": -55.18749173668229,
      "geoinfo": {
        "display_name": "Paramaribo, Centrum, Paramaribo, Suriname",
        "road": null,
        "house_number": null,
        "neighbourhood": null,
        "suburb": null,
        "city_district": null,
        "city": "Paramaribo",
        "state": "Paramaribo",
        "postcode": null,
        "country": "Suriname",
        "country_code": "sr"
      },
      "address": "148, Paramaribo, Centrum, 16768 Paramaribo, Suriname"
    },
    {
      "lat": 5.873378857081488,
      "lon": -55.19315288660305,
      "geoinfo": {
        "display_name": "Parwaweg, Weg naar Zee, Paramaribo, Suriname",
        "road": "Parwaweg",
        "house_number": null,
        "neighbourhood": null,
        "suburb": null,
        "city_district": null,
        "city": null,
        "state": "Paramaribo",
        "postcode": null,
        "country": "Suriname",
        "country_code": "sr"
      },
      "address": "663, Parwaweg, Weg naar Zee, 06498 Paramaribo, Suriname"
    },
    {
      "lat": 5.852778495839973,
      "lon": -55.15636873511971,
      "geoinfo": {
        "display_name": "Blaka Kinstraat, Rainville, Paramaribo, Suriname",
        "road": "Blaka Kinstraat",
        "house_number": null,
        "neighbourhood": null,
        "suburb": null,
        "city_district": null,
        "city": null,
        "state": "Paramaribo",
        "postcode": null,
        "country": "Suriname",
        "country_code": "sr"
      },
      "address": "932, Blaka Kinstraat, Rainville, 07336 Paramaribo, Suriname"
    },
    {
      "lat": 5.8707181607298216,
      "lon": -55.16429871090312,
      "geoinfo": {
        "display_name": "Nieuwe Charlesburgweg, Rainville, Paramaribo, Suriname",
        "road": "Nieuwe Charlesburgweg",
        "house_number": null,
        "neighbourhood": null,
        "suburb": null,
        "city_district": null,
        "city": null,
        "state": "Paramaribo",
        "postcode": null,
        "country": "Suriname",
        "country_code": "sr"
      },
      "address": "056, Nieuwe Charlesburgweg, Rainville, 87706 Paramaribo, Suriname"
    },
    {
      "lat": 5.8509925078624985,
      "lon": -55.132478849700036,
      "geoinfo": {
        "display_name": "Josephine Samson Greenstraat, Noord, Blauwgrond, Paramaribo, Suriname",
        "road": "Josephine Samson Greenstraat",
        "house_number": null,
        "neighbourhood": null,
        "suburb": null,
        "city_district": null,
        "city": "Noord",
        "state": "Paramaribo",
        "postcode": null,
        "country": "Suriname",
        "country_code": "sr"
      },
      "address": "344, Josephine Samson Greenstraat, Noord, Blauwgrond, 34699 Paramaribo, Suriname"
    },
    {
      "lat": 5.861061948746059,
      "lon": -55.18909917417405,
      "geoinfo": {
        "display_name": "Gummelsweg, Weg naar Zee, Paramaribo, Suriname",
        "road": "Gummelsweg",
        "house_number": null,
        "neighbourhood": null,
        "suburb": null,
        "city_district": null,
        "city": null,
        "state": "Paramaribo",
        "postcode": null,
        "country": "Suriname",
        "country_code": "sr"
      },
      "address": "092, Gummelsweg, Weg naar Zee, 77041 Paramaribo, Suriname"
    },
    {
      "lat": 5.881354559846565,
      "lon": -55.16707685088451,
      "geoinfo": {
        "display_name": "Nieuwe Charlesburgweg, Munder, Paramaribo, Suriname",
        "road": "Nieuwe Charlesburgweg",
        "house_number": null,
        "neighbourhood": null,
        "suburb": null,
        "city_district": null,
        "city": null,
        "state": "Paramaribo",
        "postcode": null,
        "country": "Suriname",
        "country_code": "sr"
      },
      "address": "970, Nieuwe Charlesburgweg, Munder, 28189 Paramaribo, Suriname"
    },
    {
      "lat": 5.854890953144244,
      "lon": -55.13077447530662,
      "geoinfo": {
        "display_name": "LTS 4, Andesietstraat, Maretraite 5, Noord, Blauwgrond, Paramaribo, Suriname",
        "road": "Andesietstraat",
        "house_number": null,
        "neighbourhood": "Maretraite 5",
        "suburb": null,
        "city_district": null,
        "city": "Noord",
        "state": "Paramaribo",
        "postcode": null,
        "country": "Suriname",
        "country_code": "sr"
      },
      "address": "LTS 4, Andesietstraat, Maretraite 5, Noord, Blauwgrond, Paramaribo, Suriname"
    },
    {
      "lat": 5.888112994914331,
      "lon": -55.14102774434587,
      "geoinfo": {
        "display_name": "Mayalaan, Rainville, Paramaribo, Suriname",
        "road": "Mayalaan",
        "house_number": null,
        "neighbourhood": null,
        "suburb": null,
        "city_district": null,
        "city": null,
        "state": "Paramaribo",
        "postcode": null,
        "country": "Suriname",
        "country_code": "sr"
      },
      "address": "033, Mayalaan, Rainville, 42509 Paramaribo, Suriname"
    },
    {
      "lat": 5.8748959783330195,
      "lon": -55.14668009843606,
      "geoinfo": {
        "display_name": "Sahodra Bridjmohanlaan, Bridj Village, Rainville, Paramaribo, Suriname",
        "road": "Sahodra Bridjmohanlaan",
        "house_number": null,
        "neighbourhood": "Bridj Village",
        "suburb": null,
        "city_district": null,
        "city": null,
        "state": "Paramaribo",
        "postcode": null,
        "country": "Suriname",
        "country_code": "sr"
      },
      "address": "200, Sahodra Bridjmohanlaan, Bridj Village, Rainville, 81532 Paramaribo, Suriname"
    },
    {
      "lat": 5.856804295646649,
      "lon": -55.20203407794045,
      "geoinfo": {
        "display_name": "Weg naar Zee, Paramaribo, Suriname",
        "road": null,
        "house_number": null,
        "neighbourhood": null,
        "suburb": null,
        "city_district": null,
        "city": "Weg naar Zee",
        "state": "Paramaribo",
        "postcode": null,
        "country": "Suriname",
        "country_code": "sr"
      },
      "address": "940, Weg naar Zee, 09459 Paramaribo, Suriname"
    },
    {
      "lat": 5.898430204149648,
      "lon": -55.15628847747905,
      "geoinfo": {
        "display_name": "Rainville, Paramaribo, Suriname",
        "road": null,
        "house_number": null,
        "neighbourhood": null,
        "suburb": null,
        "city_district": null,
        "city": null,
        "state": "Paramaribo",
        "postcode": null,
        "country": "Suriname",
        "country_code": "sr"
      },
      "address": "476, Rainville, 22745 Paramaribo, Suriname"
    },
    {
      "lat": 5.830805424148212,
      "lon": -55.17041542210106,
      "geoinfo": {
        "display_name": "Nieuw Lina's Rust, Johan Adolf Pengelstraat, Paramaribo, Centrum, Paramaribo, Suriname",
        "road": "Johan Adolf Pengelstraat",
        "house_number": null,
        "neighbourhood": null,
        "suburb": null,
        "city_district": null,
        "city": "Paramaribo",
        "state": "Paramaribo",
        "postcode": null,
        "country": "Suriname",
        "country_code": "sr"
      },
      "address": "797, Johan Adolf Pengelstraat, Paramaribo, 70906 Paramaribo, Suriname"
    },
    {
      "lat": 5.876248191202022,
      "lon": -55.16302082340173,
      "geoinfo": {
        "display_name": "Nieuwe Charlesburgweg, Rainville, Paramaribo, Suriname",
        "road": "Nieuwe Charlesburgweg",
        "house_number": null,
        "neighbourhood": null,
        "suburb": null,
        "city_district": null,
        "city": null,
        "state": "Paramaribo",
        "postcode": null,
        "country": "Suriname",
        "country_code": "sr"
      },
      "address": "532, Nieuwe Charlesburgweg, Rainville, 57349 Paramaribo, Suriname"
    },
    {
      "lat": 5.893177816793565,
      "lon": -55.19509864325604,
      "geoinfo": {
        "display_name": "Brantimakaweg, Weg naar Zee, Paramaribo, Suriname",
        "road": "Brantimakaweg",
        "house_number": null,
        "neighbourhood": null,
        "suburb": null,
        "city_district": null,
        "city": null,
        "state": "Paramaribo",
        "postcode": null,
        "country": "Suriname",
        "country_code": "sr"
      },
      "address": "846, Brantimakaweg, Weg naar Zee, 36777 Paramaribo, Suriname"
    },
    {
      "lat": 5.877521576085376,
      "lon": -55.20097299999639,
      "geoinfo": {
        "display_name": "Parwaweg, Weg naar Zee, Paramaribo, Suriname",
        "road": "Parwaweg",
        "house_number": null,
        "neighbourhood": null,
        "suburb": null,
        "city_district": null,
        "city": null,
        "state": "Paramaribo",
        "postcode": null,
        "country": "Suriname",
        "country_code": "sr"
      },
      "address": "683, Parwaweg, Weg naar Zee, 68962 Paramaribo, Suriname"
    },
    {
      "lat": 5.8614463546417195,
      "lon": -55.13742710681495,
      "geoinfo": {
        "display_name": "Fluorstraat, Noord, Blauwgrond, Paramaribo, Suriname",
        "road": "Fluorstraat",
        "house_number": null,
        "neighbourhood": null,
        "suburb": null,
        "city_district": null,
        "city": "Noord",
        "state": "Paramaribo",
        "postcode": null,
        "country": "Suriname",
        "country_code": "sr"
      },
      "address": "607, Fluorstraat, Noord, Blauwgrond, 86141 Paramaribo, Suriname"
    },
    {
      "lat": 5.870669395296123,
      "lon": -55.122400551253016,
      "geoinfo": {
        "display_name": "Kasoedjieweg, Blauwgrond, Paramaribo, Suriname",
        "road": "Kasoedjieweg",
        "house_number": null,
        "neighbourhood": null,
        "suburb": null,
        "city_district": null,
        "city": null,
        "state": "Paramaribo",
        "postcode": null,
        "country": "Suriname",
        "country_code": "sr"
      },
      "address": "111, Kasoedjieweg, Blauwgrond, 78235 Paramaribo, Suriname"
    },
    {
      "lat": 5.909583992326283,
      "lon": -55.17169754082825,
      "geoinfo": {
        "display_name": "Paramaribo, Centrum, Paramaribo, Suriname",
        "road": null,
        "house_number": null,
        "neighbourhood": null,
        "suburb": null,
        "city_district": null,
        "city": "Paramaribo",
        "state": "Paramaribo",
        "postcode": null,
        "country": "Suriname",
        "country_code": "sr"
      },
      "address": "980, Paramaribo, Centrum, 35436 Paramaribo, Suriname"
    },
    {
      "lat": 5.8446608096940755,
      "lon": -55.20219882488754,
      "geoinfo": {
        "display_name": "Masoesastraat, Weg naar Zee, Paramaribo, Suriname",
        "road": "Masoesastraat",
        "house_number": null,
        "neighbourhood": null,
        "suburb": null,
        "city_district": null,
        "city": "Weg naar Zee",
        "state": "Paramaribo",
        "postcode": null,
        "country": "Suriname",
        "country_code": "sr"
      },
      "address": "452, Masoesastraat, Weg naar Zee, 38751 Paramaribo, Suriname"
    },
    {
      "lat": 5.84484092614799,
      "lon": -55.167464808927825,
      "geoinfo": {
        "display_name": "Putterweg, Charlesburg, Munder, Paramaribo, Suriname",
        "road": "Putterweg",
        "house_number": null,
        "neighbourhood": "Charlesburg",
        "suburb": null,
        "city_district": null,
        "city": "Munder",
        "state": "Paramaribo",
        "postcode": null,
        "country": "Suriname",
        "country_code": "sr"
      },
      "address": "401, Putterweg, Charlesburg, Munder, 60578 Paramaribo, Suriname"
    },
    {
      "lat": 5.8465594251582385,
      "lon": -55.18235000642764,
      "geoinfo": {
        "display_name": "Munder, Paramaribo, Suriname",
        "road": null,
        "house_number": null,
        "neighbourhood": null,
        "suburb": null,
        "city_district": null,
        "city": "Munder",
        "state": "Paramaribo",
        "postcode": null,
        "country": "Suriname",
        "country_code": "sr"
      },
      "address": "924, Munder, 09525 Paramaribo, Suriname"
    },
    {
      "lat": 5.860491387873917,
      "lon": -55.18288739060267,
      "geoinfo": {
        "display_name": "Curitibastraat, Weg naar Zee, Paramaribo, Suriname",
        "road": "Curitibastraat",
        "house_number": null,
        "neighbourhood": null,
        "suburb": null,
        "city_district": null,
        "city": null,
        "state": "Paramaribo",
        "postcode": null,
        "country": "Suriname",
        "country_code": "sr"
      },
      "address": "731, Curitibastraat, Weg naar Zee, 13654 Paramaribo, Suriname"
    },
    {
      "lat": 5.837503486203358,
      "lon": -55.14870981939299,
      "geoinfo": {
        "display_name": "Nieuwestraat, Maretraite 1+2, Rainville, Paramaribo, Suriname",
        "road": "Nieuwestraat",
        "house_number": null,
        "neighbourhood": "Maretraite 1+2",
        "suburb": null,
        "city_district": null,
        "city": "Rainville",
        "state": "Paramaribo",
        "postcode": null,
        "country": "Suriname",
        "country_code": "sr"
      },
      "address": "Nieuwestraat, Maretraite 1+2, Rainville, Paramaribo, Suriname"
    },
    {
      "lat": 5.863113416156687,
      "lon": -55.16789963368011,
      "geoinfo": {
        "display_name": "Dhirajweg, Munder, Paramaribo, Suriname",
        "road": "Dhirajweg",
        "house_number": null,
        "neighbourhood": null,
        "suburb": null,
        "city_district": null,
        "city": null,
        "state": "Paramaribo",
        "postcode": null,
        "country": "Suriname",
        "country_code": "sr"
      },
      "address": "898, Dhirajweg, Munder, 01195 Paramaribo, Suriname"
    },
    {
      "lat": 5.890596428771628,
      "lon": -55.18131279242425,
      "geoinfo": {
        "display_name": "Munder, Paramaribo, Suriname",
        "road": null,
        "house_number": null,
        "neighbourhood": null,
        "suburb": null,
        "city_district": null,
        "city": null,
        "state": "Paramaribo",
        "postcode": null,
        "country": "Suriname",
        "country_code": "sr"
      },
      "address": "347, Munder, 21177 Paramaribo, Suriname"
    }
  ],
  "updated_at": "2025-10-19T06:25:26.675963+00:00",
  "_kind": "geo_samples"
}