{
  "country_code": "CH",
  "country": "Switzerland",
  "city": "Allschwil",
  "geonameid": 2661810,
  "target_addresses": 6,
  "samples": [
    {
      "lat": 47.56064385013331,
      "lon": 7.553569806144455,
      "geoinfo": {
        "display_name": "Sportanlagen Bachgraben, Kreuzstrasse, Allschwil, Bezirk Arlesheim, Basel-Landschaft, 4123, Switzerland",
        "road": "Kreuzstrasse",
        "house_number": null,
        "neighbourhood": null,
        "suburb": null,
        "city_district": null,
        "city": "Allschwil",
        "state": "Basel-Landschaft",
        "postcode": "4123",
        "country": "Switzerland",
        "country_code": "ch"
      },
      "address": "Kreuzstrasse, Allschwil, Basel-Landschaft, Switzerland"
    },
    {
      "lat": 47.54910571872916,
      "lon": 7.538960088354551,
      "geoinfo": {
        "display_name": "12, Ochsengasse, Strängi, Allschwil, Bezirk Arlesheim, Basel-Landschaft, 4123, Switzerland",
        "road": "Ochsengasse",
        "house_number": "12",
        "neighbourhood": "Strängi",
        "suburb": null,
        "city_district": null,
        "city": "Allschwil",
        "state": "Basel-Landschaft",
        "postcode": "4123",
        "country": "Switzerland",
        "country_code": "ch"
      },
      "address": "12 Ochsengasse, Allschwil, Basel-Landschaft, Switzerland"
    },
    {
      "lat": 47.53031191763661,
      "lon": 7.584559859955723,
      "geoinfo": {
        "display_name": "17a, Elsternweg, Bottmingen, Bezirk Arlesheim, Basel-Landschaft, 4103, Switzerland",
        "road": "Elsternweg",
        "house_number": "17a",
        "neighbourhood": null,
        "suburb": null,
        "city_district": null,
        "city": "Bottmingen",
        "state": "Basel-Landschaft",
        "postcode": "4103",
        "country": "Switzerland",
        "country_code": "ch"
      },
      "address": "17a, Elsternweg, Allschwil, 4103 Basel-Landschaft, Switzerland"
    },
    {
      "lat": 47.5579493957355,
      "lon": 7.564106367081247,
      "geoinfo": {
        "display_name": "Verkehrsgarten, Iselin, Grossbasel, Basel, Basel-City, 4055, Switzerland",
        "road": "Verkehrsgarten",
        "house_number": null,
        "neighbourhood": null,
        "suburb": "Iselin",
        "city_district": null,
        "city": "Basel",
        "state": "Basel-City",
        "postcode": "4055",
        "country": "Switzerland",
        "country_code": "ch"
      },
      "address": "285, Verkehrsgarten, Iselin, Grossbasel, Basel, Basel-City, 4055, Switzerland"
    },
    {
      "lat": 47.540438813119465,
      "lon": 7.59851755411974,
      "geoinfo": {
        "display_name": "49, Laufenstrasse, Gundeldingen, Grossbasel, Basel, Basel-City, 4053, Switzerland",
        "road": "Laufenstrasse",
        "house_number": "49",
        "neighbourhood": null,
        "suburb": "Gundeldingen",
        "city_district": null,
        "city": "Basel",
        "state": "Basel-City",
        "postcode": "4053",
        "country": "Switzerland",
        "country_code": "ch"
      },
      "address": "49, Laufenstrasse, Gundeldingen, Grossbasel, Basel, Basel-City, 4053, Switzerland"
    },
    {
      "lat": 47.56448324142799,
      "lon": 7.571717941538735,
      "geoinfo": {
        "display_name": "14, Strassburgerallee, St. Johann, Grossbasel, Basel, Basel-City, 4055, Switzerland",
        "road": "Strassburgerallee",
        "house_number": "14",
        "neighbourhood": null,
        "suburb": "St. Johann",
        "city_district": null,
        "city": "Basel",
        "state": "Basel-City",
        "postcode": "4055",
        "country": "Switzerland",
        "country_code": "ch"
      },
      "address": "14, Strassburgerallee, St. Johann, Grossbasel, Basel, Basel-City, 4055, Switzerland"
    }
  ],
  "updated_at": "2025-10-19T03:44:21.616013+00:00",
  "_kind": "geo_samples"
}