{
  "country_code": "CH",
  "country": "Switzerland",
  "city": "Bellinzona",
  "geonameid": 2661567,
  "target_addresses": 2,
  "samples": [
    {
      "lat": 46.17676242344005,
      "lon": 9.008208107270429,
      "geoinfo": {
        "display_name": "Via della Rongia, Giubiasco, Bellinzona, Circolo di Bellinzona, Distretto di Bellinzona, Ticino, 6512, Switzerland",
        "road": "Via della Rongia",
        "house_number": null,
        "neighbourhood": null,
        "suburb": null,
        "city_district": null,
        "city": "Bellinzona",
        "state": "Ticino",
        "postcode": "6512",
        "country": "Switzerland",
        "country_code": "ch"
      },
      "address": "Via della Rongia, Bellinzona, Ticino, Switzerland"
    },
    {
      "lat": 46.19451042208319,
      "lon": 8.988496568281528,
      "geoinfo": {
        "display_name": "Chiesa di San Bernardo, El Lòri, Sementina, Bellinzona, Circolo di Bellinzona, Distretto di Bellinzona, Ticino, 6514, Switzerland",
        "road": "El Lòri",
        "house_number": null,
        "neighbourhood": null,
        "suburb": null,
        "city_district": null,
        "city": "Bellinzona",
        "state": "Ticino",
        "postcode": "6514",
        "country": "Switzerland",
        "country_code": "ch"
      },
      "address": "El Lòri, Bellinzona, Ticino, Switzerland"
    },
    {
      "lat": 46.228128842446445,
      "lon": 8.977229410837595,
      "geoinfo": {
        "display_name": "Alpe Arami-Gaggio, Bellinzona, Circolo di Bellinzona, Distretto di Bellinzona, Ticino, 6524, Switzerland",
        "road": "Alpe Arami-Gaggio",
        "house_number": null,
        "neighbourhood": null,
        "suburb": null,
        "city_district": null,
        "city": "Bellinzona",
        "state": "Ticino",
        "postcode": "6524",
        "country": "Switzerland",
        "country_code": "ch"
      },
      "address": "855, Alpe Arami-Gaggio, Bellinzona, Circolo di Bellinzona, Distretto di Bellinzona, Ticino, 6524, Switzerland"
    },
    {
      "lat": 46.19311270993493,
      "lon": 8.98563748902777,
      "geoinfo": {
        "display_name": "El Lòri, Sementina, Bellinzona, Circolo di Bellinzona, Distretto di Bellinzona, Ticino, 6513, Switzerland",
        "road": "El Lòri",
        "house_number": null,
        "neighbourhood": null,
        "suburb": null,
        "city_district": null,
        "city": "Bellinzona",
        "state": "Ticino",
        "postcode": "6513",
        "country": "Switzerland",
        "country_code": "ch"
      },
      "address": "651, El Lòri, Sementina, Bellinzona, Circolo di Bellinzona, Distretto di Bellinzona, Ticino, 6513, Switzerland"
    }
  ],
  "updated_at": "2025-10-19T03:30:36.584539+00:00",
  "_kind": "geo_samples"
}