{
  "country_code": "CH",
  "country": "Switzerland",
  "city": "Frauenfeld",
  "geonameid": 2660727,
  "target_addresses": 2,
  "samples": [
    {
      "lat": 47.53876361148616,
      "lon": 8.914492780691416,
      "geoinfo": {
        "display_name": "Försterhausstrasse, Vordere Bühl, Frauenfeld, Neunforn, Bezirk Frauenfeld, Thurgau, 8522, Switzerland",
        "road": "Försterhausstrasse",
        "house_number": null,
        "neighbourhood": null,
        "suburb": null,
        "city_district": null,
        "city": "Frauenfeld",
        "state": "Thurgau",
        "postcode": "8522",
        "country": "Switzerland",
        "country_code": "ch"
      },
      "address": "Försterhausstrasse, Frauenfeld, Thurgau, Switzerland"
    },
    {
      "lat": 47.560075813653654,
      "lon": 8.886976435447199,
      "geoinfo": {
        "display_name": "16a, Burgerholzstrasse, Kurzdorf, Frauenfeld, Neunforn, Bezirk Frauenfeld, Thurgau, 8500, Switzerland",
        "road": "Burgerholzstrasse",
        "house_number": "16a",
        "neighbourhood": "Kurzdorf",
        "suburb": null,
        "city_district": null,
        "city": "Frauenfeld",
        "state": "Thurgau",
        "postcode": "8500",
        "country": "Switzerland",
        "country_code": "ch"
      },
      "address": "16a Burgerholzstrasse, Frauenfeld, Thurgau, Switzerland"
    },
    {
      "lat": 47.58111030273771,
      "lon": 8.950566251757197,
      "geoinfo": {
        "display_name": "12, Gretenackerstrasse, Felben, Felben-Wellhausen, Bezirk Frauenfeld, Thurgau, 8552, Switzerland",
        "road": "Gretenackerstrasse",
        "house_number": "12",
        "neighbourhood": null,
        "suburb": null,
        "city_district": null,
        "city": "Felben-Wellhausen",
        "state": "Thurgau",
        "postcode": "8552",
        "country": "Switzerland",
        "country_code": "ch"
      },
      "address": "12, Gretenackerstrasse, Felben, Felben-Wellhausen, Bezirk Frauenfeld, Thurgau, 8552, Switzerland"
    },
    {
      "lat": 47.53098570156636,
      "lon": 8.948595193784854,
      "geoinfo": {
        "display_name": "Freudenbergstrasse, Chöll, Stettfurt, Bezirk Frauenfeld, Thurgau, 9507, Switzerland",
        "road": "Freudenbergstrasse",
        "house_number": null,
        "neighbourhood": null,
        "suburb": null,
        "city_district": null,
        "city": "Stettfurt",
        "state": "Thurgau",
        "postcode": "9507",
        "country": "Switzerland",
        "country_code": "ch"
      },
      "address": "089, Freudenbergstrasse, Chöll, Stettfurt, Bezirk Frauenfeld, Thurgau, 9507, Switzerland"
    }
  ],
  "updated_at": "2025-10-19T03:30:03.511178+00:00",
  "_kind": "geo_samples"
}