{
  "country_code": "CH",
  "country": "Switzerland",
  "city": "Köniz",
  "geonameid": 2660119,
  "target_addresses": 2,
  "samples": [
    {
      "lat": 46.92004102212487,
      "lon": 7.474040550199007,
      "geoinfo": {
        "display_name": "Nesslerenstrasse, Sandbühl, Wabern, Kehrsatz, Bern-Mittelland administrative district, Bernese Mittelland administrative region, Bern, 3122, Switzerland",
        "road": "Nesslerenstrasse",
        "house_number": null,
        "neighbourhood": "Sandbühl",
        "suburb": "Wabern",
        "city_district": null,
        "city": "Kehrsatz",
        "state": "Bern",
        "postcode": "3122",
        "country": "Switzerland",
        "country_code": "ch"
      },
      "address": "Nesslerenstrasse, Köniz, Bern, Switzerland"
    },
    {
      "lat": 46.92983244818096,
      "lon": 7.4418683688809235,
      "geoinfo": {
        "display_name": "96, Funkstrasse, Wabern, Köniz, Bern-Mittelland administrative district, Bernese Mittelland administrative region, Bern, 3084, Switzerland",
        "road": "Funkstrasse",
        "house_number": "96",
        "neighbourhood": null,
        "suburb": "Wabern",
        "city_district": null,
        "city": "Köniz",
        "state": "Bern",
        "postcode": "3084",
        "country": "Switzerland",
        "country_code": "ch"
      },
      "address": "96 Funkstrasse, Köniz, Bern, Switzerland"
    },
    {
      "lat": 46.91352156202628,
      "lon": 7.397660081463121,
      "geoinfo": {
        "display_name": "Bindenhausstrasse, Bindenhaus, Köniz, Bern-Mittelland administrative district, Bernese Mittelland administrative region, Bern, 3144, Switzerland",
        "road": "Bindenhausstrasse",
        "house_number": null,
        "neighbourhood": null,
        "suburb": "Köniz",
        "city_district": null,
        "city": "Köniz",
        "state": "Bern",
        "postcode": "3144",
        "country": "Switzerland",
        "country_code": "ch"
      },
      "address": "431, Bindenhausstrasse, Bindenhaus, Köniz, Bern-Mittelland administrative district, Bernese Mittelland administrative region, Bern, 3144, Switzerland"
    },
    {
      "lat": 46.89020263352807,
      "lon": 7.387591202557347,
      "geoinfo": {
        "display_name": "Breitengässli, Niederscherli, Köniz, Bern-Mittelland administrative district, Bernese Mittelland administrative region, Bern, 3145, Switzerland",
        "road": "Breitengässli",
        "house_number": null,
        "neighbourhood": null,
        "suburb": "Niederscherli",
        "city_district": null,
        "city": "Köniz",
        "state": "Bern",
        "postcode": "3145",
        "country": "Switzerland",
        "country_code": "ch"
      },
      "address": "306, Breitengässli, Niederscherli, Köniz, Bern-Mittelland administrative district, Bernese Mittelland administrative region, Bern, 3145, Switzerland"
    }
  ],
  "updated_at": "2025-10-19T03:24:55.024046+00:00",
  "_kind": "geo_samples"
}