{
  "country_code": "CH",
  "country": "Switzerland",
  "city": "Lancy",
  "geonameid": 6691640,
  "target_addresses": 6,
  "samples": [
    {
      "lat": 46.186930938023735,
      "lon": 6.119974289649106,
      "geoinfo": {
        "display_name": "Chemin du Banc-Bénit, Petit-Lancy, Lancy, Geneva, 1212, Switzerland",
        "road": "Chemin du Banc-Bénit",
        "house_number": null,
        "neighbourhood": null,
        "suburb": "Petit-Lancy",
        "city_district": null,
        "city": "Lancy",
        "state": "Geneva",
        "postcode": "1212",
        "country": "Switzerland",
        "country_code": "ch"
      },
      "address": "Chemin du Banc-Bénit, Lancy, Geneva, Switzerland"
    },
    {
      "lat": 46.159309464733276,
      "lon": 6.150486688586297,
      "geoinfo": {
        "display_name": "20, Route de Pierre-Grand, Troinex, Geneva, 1256, Switzerland",
        "road": "Route de Pierre-Grand",
        "house_number": "20",
        "neighbourhood": null,
        "suburb": null,
        "city_district": null,
        "city": "Troinex",
        "state": "Geneva",
        "postcode": "1256",
        "country": "Switzerland",
        "country_code": "ch"
      },
      "address": "20 Route de Pierre-Grand, Lancy, Geneva, Switzerland"
    },
    {
      "lat": 46.200152755775434,
      "lon": 6.087482552499173,
      "geoinfo": {
        "display_name": "176, Route de Loëx, Loëx, Bernex, Geneva, 1233, Switzerland",
        "road": "Route de Loëx",
        "house_number": "176",
        "neighbourhood": null,
        "suburb": null,
        "city_district": null,
        "city": "Bernex",
        "state": "Geneva",
        "postcode": "1233",
        "country": "Switzerland",
        "country_code": "ch"
      },
      "address": "176, Route de Loëx, Loëx, Bernex, Geneva, 1233, Switzerland"
    },
    {
      "lat": 46.19253663647042,
      "lon": 6.16231298435106,
      "geoinfo": {
        "display_name": "Route de Florissant, Florissant, Champel, Geneva, 1208, Switzerland",
        "road": "Route de Florissant",
        "house_number": null,
        "neighbourhood": null,
        "suburb": "Champel",
        "city_district": null,
        "city": "Geneva",
        "state": "Geneva",
        "postcode": "1208",
        "country": "Switzerland",
        "country_code": "ch"
      },
      "address": "791, Route de Florissant, Florissant, Champel, Geneva, 1208, Switzerland"
    },
    {
      "lat": 46.15260555947883,
      "lon": 6.125594818250389,
      "geoinfo": {
        "display_name": "Chemin de Badosse, Compesières, Plan-les-Ouates, Geneva, 1257, Switzerland",
        "road": "Chemin de Badosse",
        "house_number": null,
        "neighbourhood": null,
        "suburb": null,
        "city_district": null,
        "city": "Plan-les-Ouates",
        "state": "Geneva",
        "postcode": "1257",
        "country": "Switzerland",
        "country_code": "ch"
      },
      "address": "186, Chemin de Badosse, Compesières, Plan-les-Ouates, Geneva, 1257, Switzerland"
    },
    {
      "lat": 46.161820827062336,
      "lon": 6.129930539439815,
      "geoinfo": {
        "display_name": "Sentier de l'Étang du Paradis, Saconnex-d'Arve-Dessous, Plan-les-Ouates, Geneva, 1228, Switzerland",
        "road": "Sentier de l'Étang du Paradis",
        "house_number": null,
        "neighbourhood": null,
        "suburb": null,
        "city_district": null,
        "city": "Plan-les-Ouates",
        "state": "Geneva",
        "postcode": "1228",
        "country": "Switzerland",
        "country_code": "ch"
      },
      "address": "925, Sentier de l'Étang du Paradis, Saconnex-d'Arve-Dessous, Plan-les-Ouates, Geneva, 1228, Switzerland"
    }
  ],
  "updated_at": "2025-10-19T03:45:56.707296+00:00",
  "_kind": "geo_samples"
}