{
  "country_code": "CH",
  "country": "Switzerland",
  "city": "Neuchâtel",
  "geonameid": 2659496,
  "target_addresses": 2,
  "samples": [
    {
      "lat": 46.989683030550836,
      "lon": 6.928872610166749,
      "geoinfo": {
        "display_name": "4, Place Pury, Neuchâtel, 2001, Switzerland",
        "road": "Place Pury",
        "house_number": "4",
        "neighbourhood": null,
        "suburb": null,
        "city_district": null,
        "city": "Neuchâtel",
        "state": "Neuchâtel",
        "postcode": "2001",
        "country": "Switzerland",
        "country_code": "ch"
      },
      "address": "4 Place Pury, Neuchâtel, Neuchâtel, Switzerland"
    },
    {
      "lat": 47.01347805171046,
      "lon": 6.985289604862478,
      "geoinfo": {
        "display_name": "3, Rue des Lavannes, Saint-Blaise, Laténa, Neuchâtel, 2072, Switzerland",
        "road": "Rue des Lavannes",
        "house_number": "3",
        "neighbourhood": null,
        "suburb": null,
        "city_district": null,
        "city": "Laténa",
        "state": "Neuchâtel",
        "postcode": "2072",
        "country": "Switzerland",
        "country_code": "ch"
      },
      "address": "3 Rue des Lavannes, Neuchâtel, Neuchâtel, Switzerland"
    },
    {
      "lat": 47.02041829637929,
      "lon": 6.9158907119619295,
      "geoinfo": {
        "display_name": "Route de Fenin, Fenin-Vilars-Saules, Val-de-Ruz, Neuchâtel, 2042, Switzerland",
        "road": "Route de Fenin",
        "house_number": null,
        "neighbourhood": null,
        "suburb": null,
        "city_district": null,
        "city": "Val-de-Ruz",
        "state": "Neuchâtel",
        "postcode": "2042",
        "country": "Switzerland",
        "country_code": "ch"
      },
      "address": "342, Route de Fenin, Fenin-Vilars-Saules, Val-de-Ruz, Neuchâtel, 2042, Switzerland"
    },
    {
      "lat": 47.02483365974099,
      "lon": 6.922457791370303,
      "geoinfo": {
        "display_name": "2, Sous-l'Eglise, Fenin, Val-de-Ruz, Neuchâtel, 2063, Switzerland",
        "road": "Sous-l'Eglise",
        "house_number": "2",
        "neighbourhood": null,
        "suburb": null,
        "city_district": null,
        "city": "Val-de-Ruz",
        "state": "Neuchâtel",
        "postcode": "2063",
        "country": "Switzerland",
        "country_code": "ch"
      },
      "address": "2, Sous-l'Eglise, Fenin, Val-de-Ruz, Neuchâtel, 2063, Switzerland"
    }
  ],
  "updated_at": "2025-10-19T03:11:24.388629+00:00",
  "_kind": "geo_samples"
}