{
  "country_code": "CH",
  "country": "Switzerland",
  "city": "Oberwinterthur (Kreis 2)",
  "geonameid": 6295536,
  "target_addresses": 2,
  "samples": [
    {
      "lat": 47.52199250616777,
      "lon": 8.772774829018282,
      "geoinfo": {
        "display_name": "Serviceanlage Pünten, Frauenfelderstrasse, Steinegg, Wiesendangen, Bezirk Winterthur, Zurich, 8542, Switzerland",
        "road": "Frauenfelderstrasse",
        "house_number": null,
        "neighbourhood": "Steinegg",
        "suburb": null,
        "city_district": null,
        "city": "Wiesendangen",
        "state": "Zurich",
        "postcode": "8542",
        "country": "Switzerland",
        "country_code": "ch"
      },
      "address": "Frauenfelderstrasse, Oberwinterthur (Kreis 2), Zurich, Switzerland"
    },
    {
      "lat": 47.545294992753085,
      "lon": 8.765419528121454,
      "geoinfo": {
        "display_name": "Untere Eggstrasse, Mörsburg, Oberwinterthur, Stadel, Winterthur, Bezirk Winterthur, Zurich, 8404, Switzerland",
        "road": "Untere Eggstrasse",
        "house_number": null,
        "neighbourhood": null,
        "suburb": "Oberwinterthur",
        "city_district": null,
        "city": "Winterthur",
        "state": "Zurich",
        "postcode": "8404",
        "country": "Switzerland",
        "country_code": "ch"
      },
      "address": "Untere Eggstrasse, Oberwinterthur (Kreis 2), Zurich, Switzerland"
    },
    {
      "lat": 47.51113384981111,
      "lon": 8.76232078648508,
      "geoinfo": {
        "display_name": "19, Technoramastrasse, Hegmatten, Oberwinterthur, Winterthur, Bezirk Winterthur, Zurich, 8404, Switzerland",
        "road": "Technoramastrasse",
        "house_number": "19",
        "neighbourhood": null,
        "suburb": "Oberwinterthur",
        "city_district": null,
        "city": "Winterthur",
        "state": "Zurich",
        "postcode": "8404",
        "country": "Switzerland",
        "country_code": "ch"
      },
      "address": "19, Technoramastrasse, Hegmatten, Oberwinterthur, Winterthur, Bezirk Winterthur, Zurich, 8404, Switzerland"
    },
    {
      "lat": 47.498398312474706,
      "lon": 8.736118992441746,
      "geoinfo": {
        "display_name": "27, St. Gallerstrasse, Deutweg, Stadt, Winterthur, Bezirk Winterthur, Zurich, 8411, Switzerland",
        "road": "St. Gallerstrasse",
        "house_number": "27",
        "neighbourhood": "Deutweg",
        "suburb": "Stadt",
        "city_district": null,
        "city": "Winterthur",
        "state": "Zurich",
        "postcode": "8411",
        "country": "Switzerland",
        "country_code": "ch"
      },
      "address": "27, St. Gallerstrasse, Deutweg, Stadt, Winterthur, Bezirk Winterthur, Zurich, 8411, Switzerland"
    }
  ],
  "updated_at": "2025-10-19T03:12:28.582823+00:00",
  "_kind": "geo_samples"
}