{
  "country_code": "CH",
  "country": "Switzerland",
  "city": "Renens",
  "geonameid": 2659070,
  "target_addresses": 6,
  "samples": [
    {
      "lat": 46.55078563841944,
      "lon": 6.541059052082572,
      "geoinfo": {
        "display_name": "Route de Bussigny, Echandens, District de Morges, Vaud, 1026, Switzerland",
        "road": "Route de Bussigny",
        "house_number": null,
        "neighbourhood": null,
        "suburb": null,
        "city_district": null,
        "city": "Echandens",
        "state": "Vaud",
        "postcode": "1026",
        "country": "Switzerland",
        "country_code": "ch"
      },
      "address": "Route de Bussigny, Renens, Vaud, Switzerland"
    },
    {
      "lat": 46.49897421172487,
      "lon": 6.610881537891369,
      "geoinfo": {
        "display_name": "Lausanne, District de Lausanne, Vaud, Switzerland",
        "road": null,
        "house_number": null,
        "neighbourhood": null,
        "suburb": null,
        "city_district": null,
        "city": "Lausanne",
        "state": "Vaud",
        "postcode": null,
        "country": "Switzerland",
        "country_code": "ch"
      },
      "address": "Renens, Vaud, Switzerland"
    },
    {
      "lat": 46.54474498543831,
      "lon": 6.601619510423286,
      "geoinfo": {
        "display_name": "Chemin de la Fleur-de-Lys, Jouxtens-Mézery, District de Lausanne, Vaud, 1008, Switzerland",
        "road": "Chemin de la Fleur-de-Lys",
        "house_number": null,
        "neighbourhood": null,
        "suburb": null,
        "city_district": null,
        "city": "Jouxtens-Mézery",
        "state": "Vaud",
        "postcode": "1008",
        "country": "Switzerland",
        "country_code": "ch"
      },
      "address": "895, Chemin de la Fleur-de-Lys, Jouxtens-Mézery, District de Lausanne, Vaud, 1008, Switzerland"
    },
    {
      "lat": 46.55962142466173,
      "lon": 6.635028271761215,
      "geoinfo": {
        "display_name": "2, Route de la Blécherette, Grand-Mont, Le Mont-sur-Lausanne, District de Lausanne, Vaud, 1052, Switzerland",
        "road": "Route de la Blécherette",
        "house_number": "2",
        "neighbourhood": null,
        "suburb": null,
        "city_district": null,
        "city": "Grand-Mont",
        "state": "Vaud",
        "postcode": "1052",
        "country": "Switzerland",
        "country_code": "ch"
      },
      "address": "2, Route de la Blécherette, Grand-Mont, Le Mont-sur-Lausanne, District de Lausanne, Vaud, 1052, Switzerland"
    },
    {
      "lat": 46.5810429027273,
      "lon": 6.610553275076555,
      "geoinfo": {
        "display_name": "8, Chemin du Bouzenet, Cheseaux-sur-Lausanne, District de Lausanne, Vaud, 1033, Switzerland",
        "road": "Chemin du Bouzenet",
        "house_number": "8",
        "neighbourhood": null,
        "suburb": null,
        "city_district": null,
        "city": "Cheseaux-sur-Lausanne",
        "state": "Vaud",
        "postcode": "1033",
        "country": "Switzerland",
        "country_code": "ch"
      },
      "address": "8, Chemin du Bouzenet, Cheseaux-sur-Lausanne, District de Lausanne, Vaud, 1033, Switzerland"
    },
    {
      "lat": 46.505011590976224,
      "lon": 6.6289849035441275,
      "geoinfo": {
        "display_name": "Quai Jean-Pascal-Delamuraz, Lausanne, District de Lausanne, Vaud, 1006, Switzerland",
        "road": "Quai Jean-Pascal-Delamuraz",
        "house_number": null,
        "neighbourhood": null,
        "suburb": null,
        "city_district": null,
        "city": "Lausanne",
        "state": "Vaud",
        "postcode": "1006",
        "country": "Switzerland",
        "country_code": "ch"
      },
      "address": "533, Quai Jean-Pascal-Delamuraz, Lausanne, District de Lausanne, Vaud, 1006, Switzerland"
    }
  ],
  "updated_at": "2025-10-19T03:43:49.635250+00:00",
  "_kind": "geo_samples"
}