{
  "country_code": "CH",
  "country": "Switzerland",
  "city": "Riehen",
  "geonameid": 3206590,
  "target_addresses": 6,
  "samples": [
    {
      "lat": 47.591979314095525,
      "lon": 7.6543163076304905,
      "geoinfo": {
        "display_name": "38, Seidenmannweg, Riehen, Basel-City, 4125, Switzerland",
        "road": "Seidenmannweg",
        "house_number": "38",
        "neighbourhood": null,
        "suburb": null,
        "city_district": null,
        "city": "Riehen",
        "state": "Basel-City",
        "postcode": "4125",
        "country": "Switzerland",
        "country_code": "ch"
      },
      "address": "38 Seidenmannweg, Riehen, Basel-City, Switzerland"
    },
    {
      "lat": 47.59216177803218,
      "lon": 7.6592297386579755,
      "geoinfo": {
        "display_name": "Stettenweg, Riehen, Basel-City, 4125, Switzerland",
        "road": "Stettenweg",
        "house_number": null,
        "neighbourhood": null,
        "suburb": null,
        "city_district": null,
        "city": "Riehen",
        "state": "Basel-City",
        "postcode": "4125",
        "country": "Switzerland",
        "country_code": "ch"
      },
      "address": "Stettenweg, Riehen, Basel-City, Switzerland"
    },
    {
      "lat": 47.534256110434775,
      "lon": 7.654835719783402,
      "geoinfo": {
        "display_name": "A2;A3, Muttenz, Bezirk Arlesheim, Basel-Landschaft, 4132, Switzerland",
        "road": "A2;A3",
        "house_number": null,
        "neighbourhood": null,
        "suburb": null,
        "city_district": null,
        "city": "Muttenz",
        "state": "Basel-Landschaft",
        "postcode": "4132",
        "country": "Switzerland",
        "country_code": "ch"
      },
      "address": "A2;A3, Muttenz, Bezirk Arlesheim, Basel-Landschaft, 4132, Switzerland"
    },
    {
      "lat": 47.54994549077752,
      "lon": 7.599583585429844,
      "geoinfo": {
        "display_name": "30, Engelgasse, St. Alban, Grossbasel, Basel, Basel-City, 4052, Switzerland",
        "road": "Engelgasse",
        "house_number": "30",
        "neighbourhood": null,
        "suburb": "St. Alban",
        "city_district": null,
        "city": "Basel",
        "state": "Basel-City",
        "postcode": "4052",
        "country": "Switzerland",
        "country_code": "ch"
      },
      "address": "30, Engelgasse, St. Alban, Grossbasel, Basel, Basel-City, 4052, Switzerland"
    },
    {
      "lat": 47.54773548448116,
      "lon": 7.607055714062865,
      "geoinfo": {
        "display_name": "40, Wartenbergstrasse, St. Alban, Grossbasel, Basel, Basel-City, 4052, Switzerland",
        "road": "Wartenbergstrasse",
        "house_number": "40",
        "neighbourhood": null,
        "suburb": "St. Alban",
        "city_district": null,
        "city": "Basel",
        "state": "Basel-City",
        "postcode": "4052",
        "country": "Switzerland",
        "country_code": "ch"
      },
      "address": "40, Wartenbergstrasse, St. Alban, Grossbasel, Basel, Basel-City, 4052, Switzerland"
    },
    {
      "lat": 47.5608748504302,
      "lon": 7.60180607409111,
      "geoinfo": {
        "display_name": "59, Wettsteinallee, Wettstein, Kleinbasel, Basel, Basel-City, 4058, Switzerland",
        "road": "Wettsteinallee",
        "house_number": "59",
        "neighbourhood": null,
        "suburb": "Wettstein",
        "city_district": null,
        "city": "Basel",
        "state": "Basel-City",
        "postcode": "4058",
        "country": "Switzerland",
        "country_code": "ch"
      },
      "address": "59, Wettsteinallee, Wettstein, Kleinbasel, Basel, Basel-City, 4058, Switzerland"
    }
  ],
  "updated_at": "2025-10-19T03:44:38.059443+00:00",
  "_kind": "geo_samples"
}