{
  "country_code": "CH",
  "country": "Switzerland",
  "city": "Stadt Winterthur (Kreis 1)",
  "geonameid": 6295520,
  "target_addresses": 6,
  "samples": [
    {
      "lat": 47.503893525173176,
      "lon": 8.727245853428645,
      "geoinfo": {
        "display_name": "ZHAW Campus St- Georgen-Platz, Theaterstrasse, Lind, Stadt, Winterthur, Bezirk Winterthur, Zurich, 8400, Switzerland",
        "road": "Theaterstrasse",
        "house_number": null,
        "neighbourhood": null,
        "suburb": "Stadt",
        "city_district": null,
        "city": "Winterthur",
        "state": "Zurich",
        "postcode": "8400",
        "country": "Switzerland",
        "country_code": "ch"
      },
      "address": "Theaterstrasse, Stadt Winterthur (Kreis 1), Zurich, Switzerland"
    },
    {
      "lat": 47.513955638707586,
      "lon": 8.73148619672306,
      "geoinfo": {
        "display_name": "Schickstrasse, Äusseres Lind, Stadt, Reutlingen, Winterthur, Bezirk Winterthur, Zurich, 8404, Switzerland",
        "road": "Schickstrasse",
        "house_number": null,
        "neighbourhood": "Äusseres Lind",
        "suburb": "Stadt",
        "city_district": null,
        "city": "Winterthur",
        "state": "Zurich",
        "postcode": "8404",
        "country": "Switzerland",
        "country_code": "ch"
      },
      "address": "Schickstrasse, Stadt Winterthur (Kreis 1), Zurich, Switzerland"
    },
    {
      "lat": 47.48370282620798,
      "lon": 8.68972701706189,
      "geoinfo": {
        "display_name": "Untere Dättnauerbergstrasse, Dättnau, Töss, Winterthur, Bezirk Winterthur, Zurich, 8311, Switzerland",
        "road": "Untere Dättnauerbergstrasse",
        "house_number": null,
        "neighbourhood": null,
        "suburb": "Töss",
        "city_district": null,
        "city": "Winterthur",
        "state": "Zurich",
        "postcode": "8311",
        "country": "Switzerland",
        "country_code": "ch"
      },
      "address": "514, Untere Dättnauerbergstrasse, Dättnau, Töss, Winterthur, Bezirk Winterthur, Zurich, 8311, Switzerland"
    },
    {
      "lat": 47.52328963742553,
      "lon": 8.687918932840887,
      "geoinfo": {
        "display_name": "Oberradstrasse, Ober Radhof, Wülflingen, Winterthur, Bezirk Winterthur, Zurich, 8408, Switzerland",
        "road": "Oberradstrasse",
        "house_number": null,
        "neighbourhood": null,
        "suburb": "Wülflingen",
        "city_district": null,
        "city": "Winterthur",
        "state": "Zurich",
        "postcode": "8408",
        "country": "Switzerland",
        "country_code": "ch"
      },
      "address": "871, Oberradstrasse, Ober Radhof, Wülflingen, Winterthur, Bezirk Winterthur, Zurich, 8408, Switzerland"
    },
    {
      "lat": 47.47051866016935,
      "lon": 8.728036249304758,
      "geoinfo": {
        "display_name": "Obere Hangentobelstrasse, Stadt, Winterthur, Bezirk Winterthur, Zurich, 8314, Switzerland",
        "road": "Obere Hangentobelstrasse",
        "house_number": null,
        "neighbourhood": null,
        "suburb": "Stadt",
        "city_district": null,
        "city": "Winterthur",
        "state": "Zurich",
        "postcode": "8314",
        "country": "Switzerland",
        "country_code": "ch"
      },
      "address": "048, Obere Hangentobelstrasse, Stadt, Winterthur, Bezirk Winterthur, Zurich, 8314, Switzerland"
    },
    {
      "lat": 47.49604088806975,
      "lon": 8.668974365029902,
      "geoinfo": {
        "display_name": "Weiertalerholzstrasse, Weiertal, Wülflingen, Winterthur, Bezirk Winterthur, Zurich, 8408, Switzerland",
        "road": "Weiertalerholzstrasse",
        "house_number": null,
        "neighbourhood": null,
        "suburb": "Wülflingen",
        "city_district": null,
        "city": "Winterthur",
        "state": "Zurich",
        "postcode": "8408",
        "country": "Switzerland",
        "country_code": "ch"
      },
      "address": "649, Weiertalerholzstrasse, Weiertal, Wülflingen, Winterthur, Bezirk Winterthur, Zurich, 8408, Switzerland"
    }
  ],
  "updated_at": "2025-10-19T03:44:46.146798+00:00",
  "_kind": "geo_samples"
}