{
  "country_code": "CH",
  "country": "Switzerland",
  "city": "Thun",
  "geonameid": 2658377,
  "target_addresses": 2,
  "samples": [
    {
      "lat": 46.77029412863151,
      "lon": 7.659551582089204,
      "geoinfo": {
        "display_name": "5, Allmer체ti, Schwendibach, Steffisburg, Horrenbach-Buchen, Thun administrative district, Oberland administrative region, Bern, 3624, Switzerland",
        "road": null,
        "house_number": "5",
        "neighbourhood": null,
        "suburb": null,
        "city_district": null,
        "city": "Steffisburg",
        "state": "Bern",
        "postcode": "3624",
        "country": "Switzerland",
        "country_code": "ch"
      },
      "address": "Thun, Bern, Switzerland"
    },
    {
      "lat": 46.74238551206386,
      "lon": 7.662990032624699,
      "geoinfo": {
        "display_name": "Wiesenweg, H체nibach, Hilterfingen, Horrenbach-Buchen, Thun administrative district, Oberland administrative region, Bern, 3652, Switzerland",
        "road": "Wiesenweg",
        "house_number": null,
        "neighbourhood": null,
        "suburb": null,
        "city_district": null,
        "city": "H체nibach",
        "state": "Bern",
        "postcode": "3652",
        "country": "Switzerland",
        "country_code": "ch"
      },
      "address": "Wiesenweg, Thun, Bern, Switzerland"
    },
    {
      "lat": 46.73430429505493,
      "lon": 7.6405802513282035,
      "geoinfo": {
        "display_name": "Lake Thun, Oberland administrative region, Bern, Switzerland",
        "road": null,
        "house_number": null,
        "neighbourhood": null,
        "suburb": null,
        "city_district": null,
        "city": "Lake Thun",
        "state": "Bern",
        "postcode": null,
        "country": "Switzerland",
        "country_code": "ch"
      },
      "address": "535, Lake Thun, Oberland administrative region, 18447 Bern, Switzerland"
    },
    {
      "lat": 46.72188173250871,
      "lon": 7.669712620418217,
      "geoinfo": {
        "display_name": "Churchill Denkmal, Staatsstrasse, Schloss, L채ngenschachen, Oberhofen am Thunersee, Horrenbach-Buchen, Thun administrative district, Oberland administrative region, Bern, 3653, Switzerland",
        "road": "Staatsstrasse",
        "house_number": null,
        "neighbourhood": "Schloss",
        "suburb": null,
        "city_district": null,
        "city": "Oberhofen am Thunersee",
        "state": "Bern",
        "postcode": "3653",
        "country": "Switzerland",
        "country_code": "ch"
      },
      "address": "911, Staatsstrasse, Thun, 3653 Bern, Switzerland"
    }
  ],
  "updated_at": "2025-10-19T03:28:44.381198+00:00",
  "_kind": "geo_samples"
}