{
  "country_code": "CH",
  "country": "Switzerland",
  "city": "Uster",
  "geonameid": 2658216,
  "target_addresses": 2,
  "samples": [
    {
      "lat": 47.32229394053838,
      "lon": 8.679956941446274,
      "geoinfo": {
        "display_name": "Fuchslöcherweg, Uessikon, Maur, Bezirk Uster, Zurich, 8124, Switzerland",
        "road": "Fuchslöcherweg",
        "house_number": null,
        "neighbourhood": null,
        "suburb": null,
        "city_district": null,
        "city": "Maur",
        "state": "Zurich",
        "postcode": "8124",
        "country": "Switzerland",
        "country_code": "ch"
      },
      "address": "Fuchslöcherweg, Uster, Zurich, Switzerland"
    },
    {
      "lat": 47.32559737850811,
      "lon": 8.738514977115662,
      "geoinfo": {
        "display_name": "Vorderer Trimuelenweg, Sulzbach, Uster, Bezirk Uster, Zurich, 8614, Switzerland",
        "road": "Vorderer Trimuelenweg",
        "house_number": null,
        "neighbourhood": null,
        "suburb": null,
        "city_district": null,
        "city": "Uster",
        "state": "Zurich",
        "postcode": "8614",
        "country": "Switzerland",
        "country_code": "ch"
      },
      "address": "Vorderer Trimuelenweg, Uster, Zurich, Switzerland"
    },
    {
      "lat": 47.37276752935043,
      "lon": 8.735111192467354,
      "geoinfo": {
        "display_name": "Schoorenweg, Freudwil, Wermatswil, Uster, Bezirk Uster, Zurich, 8615, Switzerland",
        "road": "Schoorenweg",
        "house_number": null,
        "neighbourhood": null,
        "suburb": null,
        "city_district": null,
        "city": "Uster",
        "state": "Zurich",
        "postcode": "8615",
        "country": "Switzerland",
        "country_code": "ch"
      },
      "address": "762, Schoorenweg, Freudwil, Wermatswil, Uster, Bezirk Uster, Zurich, 8615, Switzerland"
    },
    {
      "lat": 47.31989267534241,
      "lon": 8.741636492960316,
      "geoinfo": {
        "display_name": "Wüeristrasse, Breiti, Langfuhr, Bertschikon (Gossau ZH), Mönchaltorf, Bezirk Uster, Zurich, 8614, Switzerland",
        "road": "Wüeristrasse",
        "house_number": null,
        "neighbourhood": "Breiti",
        "suburb": null,
        "city_district": null,
        "city": "Bertschikon (Gossau ZH)",
        "state": "Zurich",
        "postcode": "8614",
        "country": "Switzerland",
        "country_code": "ch"
      },
      "address": "391, Wüeristrasse, Breiti, Langfuhr, Bertschikon (Gossau ZH), Mönchaltorf, Bezirk Uster, Zurich, 8614, Switzerland"
    }
  ],
  "updated_at": "2025-10-19T03:10:46.600004+00:00",
  "_kind": "geo_samples"
}