{
  "country_code": "CH",
  "country": "Switzerland",
  "city": "Wetzikon",
  "geonameid": 2658010,
  "target_addresses": 6,
  "samples": [
    {
      "lat": 47.33250907861603,
      "lon": 8.838714053430676,
      "geoinfo": {
        "display_name": "Tösstalstrasse, Emmetschloo, Wetzikon (ZH), Bezirk Hinwil, Zurich, 8345, Switzerland",
        "road": "Tösstalstrasse",
        "house_number": null,
        "neighbourhood": null,
        "suburb": null,
        "city_district": null,
        "city": "Wetzikon (ZH)",
        "state": "Zurich",
        "postcode": "8345",
        "country": "Switzerland",
        "country_code": "ch"
      },
      "address": "Tösstalstrasse, Wetzikon, Zurich, Switzerland"
    },
    {
      "lat": 47.328958904964374,
      "lon": 8.817155968631543,
      "geoinfo": {
        "display_name": "143, Schwalbenstrasse, Eichholz, Kempten, Wetzikon (ZH), Bezirk Hinwil, Zurich, 8623, Switzerland",
        "road": "Schwalbenstrasse",
        "house_number": "143",
        "neighbourhood": null,
        "suburb": null,
        "city_district": null,
        "city": "Wetzikon (ZH)",
        "state": "Zurich",
        "postcode": "8623",
        "country": "Switzerland",
        "country_code": "ch"
      },
      "address": "143 Schwalbenstrasse, Wetzikon, Zurich, Switzerland"
    },
    {
      "lat": 47.288977971012,
      "lon": 8.781972167519225,
      "geoinfo": {
        "display_name": "Reitanlage Birch – Vera Weber, 10, Fuchsrütistrasse, Hanfgarten, Ottikon (Gossau ZH), Gossau (ZH), Bezirk Hinwil, Zurich, 8626, Switzerland",
        "road": "Fuchsrütistrasse",
        "house_number": "10",
        "neighbourhood": null,
        "suburb": null,
        "city_district": null,
        "city": "Gossau (ZH)",
        "state": "Zurich",
        "postcode": "8626",
        "country": "Switzerland",
        "country_code": "ch"
      },
      "address": "Reitanlage Birch – Vera Weber, 10, Fuchsrütistrasse, Hanfgarten, Ottikon (Gossau ZH), Gossau (ZH), Bezirk Hinwil, Zurich, 8626, Switzerland"
    },
    {
      "lat": 47.32695300894817,
      "lon": 8.863729464951714,
      "geoinfo": {
        "display_name": "Höhenstrasse, Oberdorf, Adetswil, Bäretswil, Bezirk Hinwil, Zurich, 8344, Switzerland",
        "road": "Höhenstrasse",
        "house_number": null,
        "neighbourhood": null,
        "suburb": null,
        "city_district": null,
        "city": "Adetswil",
        "state": "Zurich",
        "postcode": "8344",
        "country": "Switzerland",
        "country_code": "ch"
      },
      "address": "853, Höhenstrasse, Wetzikon, 8344 Zurich, Switzerland"
    },
    {
      "lat": 47.34402574186482,
      "lon": 8.794944162216701,
      "geoinfo": {
        "display_name": "Strandbadstrasse, Auslikon, Pfäffikon, Bezirk Pfäffikon, Zurich, 8621, Switzerland",
        "road": "Strandbadstrasse",
        "house_number": null,
        "neighbourhood": null,
        "suburb": null,
        "city_district": null,
        "city": "Auslikon",
        "state": "Zurich",
        "postcode": "8621",
        "country": "Switzerland",
        "country_code": "ch"
      },
      "address": "598, Strandbadstrasse, Wetzikon, 8621 Zurich, Switzerland"
    },
    {
      "lat": 47.30824201536021,
      "lon": 8.764842567488655,
      "geoinfo": {
        "display_name": "33, Saumstrasse, Bertschikon (Gossau ZH), Gossau (ZH), Bezirk Hinwil, Zurich, 8625, Switzerland",
        "road": "Saumstrasse",
        "house_number": "33",
        "neighbourhood": null,
        "suburb": null,
        "city_district": null,
        "city": "Gossau (ZH)",
        "state": "Zurich",
        "postcode": "8625",
        "country": "Switzerland",
        "country_code": "ch"
      },
      "address": "33, Saumstrasse, Bertschikon (Gossau ZH), Gossau (ZH), Bezirk Hinwil, Zurich, 8625, Switzerland"
    }
  ],
  "updated_at": "2025-10-19T03:43:41.490220+00:00",
  "_kind": "geo_samples"
}