{
  "country_code": "CH",
  "country": "Switzerland",
  "city": "Wil",
  "geonameid": 2657996,
  "target_addresses": 2,
  "samples": [
    {
      "lat": 47.46616924232814,
      "lon": 9.012287285075532,
      "geoinfo": {
        "display_name": "Gloten, Sirnach, Bezirk Münchwilen, Thurgau, 8371, Switzerland",
        "road": null,
        "house_number": null,
        "neighbourhood": null,
        "suburb": null,
        "city_district": null,
        "city": "Sirnach",
        "state": "Thurgau",
        "postcode": "8371",
        "country": "Switzerland",
        "country_code": "ch"
      },
      "address": "Wil, Thurgau, Switzerland"
    },
    {
      "lat": 47.45454305622039,
      "lon": 9.088182627565757,
      "geoinfo": {
        "display_name": "2023, Grabwes, Niederstetten, Uzwil, Wahlkreis Wil, St. Gallen, 9249, Switzerland",
        "road": null,
        "house_number": "2023",
        "neighbourhood": null,
        "suburb": null,
        "city_district": null,
        "city": "Uzwil",
        "state": "St. Gallen",
        "postcode": "9249",
        "country": "Switzerland",
        "country_code": "ch"
      },
      "address": "Wil, St. Gallen, Switzerland"
    },
    {
      "lat": 47.445049614001896,
      "lon": 9.035333425200061,
      "geoinfo": {
        "display_name": "Engistrasse, Wilen (TG), Bezirk Münchwilen, Thurgau, 9535, Switzerland",
        "road": "Engistrasse",
        "house_number": null,
        "neighbourhood": null,
        "suburb": null,
        "city_district": null,
        "city": "Wilen (TG)",
        "state": "Thurgau",
        "postcode": "9535",
        "country": "Switzerland",
        "country_code": "ch"
      },
      "address": "542, Engistrasse, Wil, 9535 Thurgau, Switzerland"
    },
    {
      "lat": 47.4641226556449,
      "lon": 9.016888267635569,
      "geoinfo": {
        "display_name": "86, Wilerstrasse, Gloten, Sirnach, Bezirk Münchwilen, Thurgau, 8370, Switzerland",
        "road": "Wilerstrasse",
        "house_number": "86",
        "neighbourhood": null,
        "suburb": null,
        "city_district": null,
        "city": "Sirnach",
        "state": "Thurgau",
        "postcode": "8370",
        "country": "Switzerland",
        "country_code": "ch"
      },
      "address": "86, Wilerstrasse, Wil, 8370 Thurgau, Switzerland"
    }
  ],
  "updated_at": "2025-10-19T03:10:37.201659+00:00",
  "_kind": "geo_samples"
}