{
  "country_code": "CH",
  "country": "Switzerland",
  "city": "Zürich (Kreis 2)",
  "geonameid": 6295540,
  "target_addresses": 6,
  "samples": [
    {
      "lat": 47.338415895407756,
      "lon": 8.521361339246825,
      "geoinfo": {
        "display_name": "Spinnerei Manegg, 72, Tuchmacherstrasse, Wollishofen, Kreis 2, Zurich, District Zurich, Zurich, 8041, Switzerland",
        "road": "Tuchmacherstrasse",
        "house_number": "72",
        "neighbourhood": null,
        "suburb": "Wollishofen",
        "city_district": null,
        "city": "Zurich",
        "state": "Zurich",
        "postcode": "8041",
        "country": "Switzerland",
        "country_code": "ch"
      },
      "address": "72 Tuchmacherstrasse, Zürich (Kreis 2), Zurich, Switzerland"
    },
    {
      "lat": 47.334094904344134,
      "lon": 8.514543827004712,
      "geoinfo": {
        "display_name": "74, Rebenstrasse, Leimbach, Kreis 2, Zurich, District Zurich, Zurich, 8041, Switzerland",
        "road": "Rebenstrasse",
        "house_number": "74",
        "neighbourhood": null,
        "suburb": "Leimbach",
        "city_district": null,
        "city": "Zurich",
        "state": "Zurich",
        "postcode": "8041",
        "country": "Switzerland",
        "country_code": "ch"
      },
      "address": "74 Rebenstrasse, Zürich (Kreis 2), Zurich, Switzerland"
    },
    {
      "lat": 47.33013274370703,
      "lon": 8.571362825716736,
      "geoinfo": {
        "display_name": "Seestrasse, Küsnacht (ZH), Bezirk Meilen, Zurich, 8702, Switzerland",
        "road": "Seestrasse",
        "house_number": null,
        "neighbourhood": null,
        "suburb": null,
        "city_district": null,
        "city": "Küsnacht (ZH)",
        "state": "Zurich",
        "postcode": "8702",
        "country": "Switzerland",
        "country_code": "ch"
      },
      "address": "839, Seestrasse, Zürich (Kreis 2), Zurich, Switzerland"
    },
    {
      "lat": 47.35670856904089,
      "lon": 8.541072012488165,
      "geoinfo": {
        "display_name": "Mythenquai, Enge, Kreis 2, Zurich, District Zurich, Zurich, 8002, Switzerland",
        "road": "Mythenquai",
        "house_number": null,
        "neighbourhood": null,
        "suburb": "Enge",
        "city_district": null,
        "city": "Zurich",
        "state": "Zurich",
        "postcode": "8002",
        "country": "Switzerland",
        "country_code": "ch"
      },
      "address": "212, Mythenquai, Zürich (Kreis 2), Zurich, Switzerland"
    },
    {
      "lat": 47.36151063932759,
      "lon": 8.467025781375769,
      "geoinfo": {
        "display_name": "47, Ringlikerstrasse, Ringlikon, Waldegg, Uitikon, Bezirk Dietikon, Zurich, 8142, Switzerland",
        "road": "Ringlikerstrasse",
        "house_number": "47",
        "neighbourhood": null,
        "suburb": null,
        "city_district": null,
        "city": "Waldegg",
        "state": "Zurich",
        "postcode": "8142",
        "country": "Switzerland",
        "country_code": "ch"
      },
      "address": "47, Ringlikerstrasse, Ringlikon, Waldegg, Uitikon, Bezirk Dietikon, Zurich, 8142, Switzerland"
    },
    {
      "lat": 47.34869924190106,
      "lon": 8.476817106792023,
      "geoinfo": {
        "display_name": "Luegisland, Sellenbüren, Stallikon, Bezirk Affoltern, Zurich, 8143, Switzerland",
        "road": "Luegisland",
        "house_number": null,
        "neighbourhood": null,
        "suburb": null,
        "city_district": null,
        "city": "Stallikon",
        "state": "Zurich",
        "postcode": "8143",
        "country": "Switzerland",
        "country_code": "ch"
      },
      "address": "848, Luegisland, Sellenbüren, Stallikon, Bezirk Affoltern, Zurich, 8143, Switzerland"
    }
  ],
  "updated_at": "2025-10-19T03:45:10.526243+00:00",
  "_kind": "geo_samples"
}