{
  "country_code": "CH",
  "country": "Switzerland",
  "city": "Zürich (Kreis 6)",
  "geonameid": 6295550,
  "target_addresses": 6,
  "samples": [
    {
      "lat": 47.39881678435201,
      "lon": 8.556972306467584,
      "geoinfo": {
        "display_name": "Hubeggstrasse, Schwamendingen Mitte, Kreis 12, Zurich, District Zurich, Zurich, 8050, Switzerland",
        "road": "Hubeggstrasse",
        "house_number": null,
        "neighbourhood": null,
        "suburb": "Kreis 12",
        "city_district": null,
        "city": "Zurich",
        "state": "Zurich",
        "postcode": "8050",
        "country": "Switzerland",
        "country_code": "ch"
      },
      "address": "Hubeggstrasse, Zürich (Kreis 6), Zurich, Switzerland"
    },
    {
      "lat": 47.40285457492141,
      "lon": 8.5563231582452,
      "geoinfo": {
        "display_name": "285, Frohburgstrasse, Oerlikon, Kreis 11, Zurich, District Zurich, Zurich, 8057, Switzerland",
        "road": "Frohburgstrasse",
        "house_number": "285",
        "neighbourhood": null,
        "suburb": "Oerlikon",
        "city_district": null,
        "city": "Zurich",
        "state": "Zurich",
        "postcode": "8057",
        "country": "Switzerland",
        "country_code": "ch"
      },
      "address": "285 Frohburgstrasse, Zürich (Kreis 6), Zurich, Switzerland"
    },
    {
      "lat": 47.396050124769815,
      "lon": 8.534101287721471,
      "geoinfo": {
        "display_name": "Wachterweg, Unterstrass, Kreis 6, Zurich, District Zurich, Zurich, 8042, Switzerland",
        "road": "Wachterweg",
        "house_number": null,
        "neighbourhood": null,
        "suburb": "Unterstrass",
        "city_district": null,
        "city": "Zurich",
        "state": "Zurich",
        "postcode": "8042",
        "country": "Switzerland",
        "country_code": "ch"
      },
      "address": "440, Wachterweg, Zürich (Kreis 6), Zurich, Switzerland"
    },
    {
      "lat": 47.41042971517647,
      "lon": 8.526003958363455,
      "geoinfo": {
        "display_name": "273, Wehntalerstrasse, Affoltern, Kreis 11, Zurich, District Zurich, Zurich, 8046, Switzerland",
        "road": "Wehntalerstrasse",
        "house_number": "273",
        "neighbourhood": null,
        "suburb": "Affoltern",
        "city_district": null,
        "city": "Zurich",
        "state": "Zurich",
        "postcode": "8046",
        "country": "Switzerland",
        "country_code": "ch"
      },
      "address": "273, Wehntalerstrasse, Zürich (Kreis 6), Zurich, Switzerland"
    },
    {
      "lat": 47.412746013193356,
      "lon": 8.598650176731871,
      "geoinfo": {
        "display_name": "14, Guggenbühlstrasse, Rieden, Wallisellen, Bezirk Bülach, Zurich, 8304, Switzerland",
        "road": "Guggenbühlstrasse",
        "house_number": "14",
        "neighbourhood": "Rieden",
        "suburb": null,
        "city_district": null,
        "city": "Wallisellen",
        "state": "Zurich",
        "postcode": "8304",
        "country": "Switzerland",
        "country_code": "ch"
      },
      "address": "14, Guggenbühlstrasse, Rieden, Wallisellen, Bezirk Bülach, Zurich, 8304, Switzerland"
    },
    {
      "lat": 47.37785707852198,
      "lon": 8.549275911451955,
      "geoinfo": {
        "display_name": "ETH Zürich, Zentrum, Spöndlistrasse, Oberstrass, Kreis 6, Zurich, District Zurich, Zurich, 8091, Switzerland",
        "road": "Spöndlistrasse",
        "house_number": null,
        "neighbourhood": null,
        "suburb": "Oberstrass",
        "city_district": null,
        "city": "Zurich",
        "state": "Zurich",
        "postcode": "8091",
        "country": "Switzerland",
        "country_code": "ch"
      },
      "address": "946, Spöndlistrasse, Zürich (Kreis 6), Zurich, Switzerland"
    }
  ],
  "updated_at": "2025-10-19T03:45:48.584425+00:00",
  "_kind": "geo_samples"
}