{
  "country_code": "SX",
  "country": "Sint Maarten",
  "city": "Philipsburg",
  "geonameid": 3513392,
  "target_addresses": 100,
  "samples": [
    {
      "lat": 18.049361511044143,
      "lon": -63.07515179128194,
      "geoinfo": {
        "display_name": "Mango Road, Saint Peters, Cul-de-Sac, Sint Maarten, Netherlands",
        "road": "Mango Road",
        "house_number": null,
        "neighbourhood": null,
        "suburb": "Saint Peters",
        "city_district": null,
        "city": "Cul-de-Sac",
        "state": null,
        "postcode": null,
        "country": "Sint Maarten",
        "country_code": "nl"
      },
      "address": "941, Mango Road, Saint Peters, Cul-de-Sac, 07030 Sint Maarten, Netherlands"
    },
    {
      "lat": 18.02493255776307,
      "lon": -63.014282653174874,
      "geoinfo": {
        "display_name": "Guana Bay, Philipsburg, Sint Maarten, Netherlands",
        "road": null,
        "house_number": null,
        "neighbourhood": null,
        "suburb": "Guana Bay",
        "city_district": null,
        "city": "Philipsburg",
        "state": null,
        "postcode": null,
        "country": "Sint Maarten",
        "country_code": "nl"
      },
      "address": "196, Guana Bay, Philipsburg, 95496 Sint Maarten, Netherlands"
    },
    {
      "lat": 18.007289638600156,
      "lon": -63.08733450254248,
      "geoinfo": {
        "display_name": "Cay Bay, Cul-de-Sac, Sint Maarten, Netherlands",
        "road": null,
        "house_number": null,
        "neighbourhood": null,
        "suburb": "Cay Bay",
        "city_district": null,
        "city": "Cul-de-Sac",
        "state": null,
        "postcode": null,
        "country": "Sint Maarten",
        "country_code": "nl"
      },
      "address": "590, Cay Bay, Cul-de-Sac, 62950 Sint Maarten, Netherlands"
    },
    {
      "lat": 18.038408326497223,
      "lon": -63.05104134861824,
      "geoinfo": {
        "display_name": "The Chatterbox, A.T. Illidge Road, Mary's Fancy, Cul-de-Sac, Sint Maarten, Netherlands",
        "road": "A.T. Illidge Road",
        "house_number": null,
        "neighbourhood": null,
        "suburb": "Mary's Fancy",
        "city_district": null,
        "city": "Cul-de-Sac",
        "state": null,
        "postcode": null,
        "country": "Sint Maarten",
        "country_code": "nl"
      },
      "address": "720, A.T. Illidge Road, 48075 Philipsburg, Sint Maarten"
    },
    {
      "lat": 17.982331871608068,
      "lon": -63.053165442282925,
      "geoinfo": {
        "display_name": "Fort Amsterdam, Philipsburg, Sint Maarten, Netherlands",
        "road": null,
        "house_number": null,
        "neighbourhood": null,
        "suburb": "Fort Amsterdam",
        "city_district": null,
        "city": "Philipsburg",
        "state": null,
        "postcode": null,
        "country": "Sint Maarten",
        "country_code": "nl"
      },
      "address": "215, Fort Amsterdam, Philipsburg, 17182 Sint Maarten, Netherlands"
    },
    {
      "lat": 18.02428832444868,
      "lon": -63.0524964578043,
      "geoinfo": {
        "display_name": "Smalle Steeg, Philipsburg, Sint Maarten, Netherlands",
        "road": "Smalle Steeg",
        "house_number": null,
        "neighbourhood": null,
        "suburb": null,
        "city_district": null,
        "city": "Philipsburg",
        "state": null,
        "postcode": null,
        "country": "Sint Maarten",
        "country_code": "nl"
      },
      "address": "759, Smalle Steeg, Philipsburg, 41477 Sint Maarten, Netherlands"
    },
    {
      "lat": 18.01030822764109,
      "lon": -63.00780483923347,
      "geoinfo": {
        "display_name": "Vineyard, Philipsburg, Sint Maarten, Netherlands",
        "road": null,
        "house_number": null,
        "neighbourhood": null,
        "suburb": "Vineyard",
        "city_district": null,
        "city": "Philipsburg",
        "state": null,
        "postcode": null,
        "country": "Sint Maarten",
        "country_code": "nl"
      },
      "address": "280, Vineyard, Philipsburg, 77296 Sint Maarten, Netherlands"
    },
    {
      "lat": 18.00957534837868,
      "lon": -63.040822136586485,
      "geoinfo": {
        "display_name": "Monte Vista Road, Pointe Blanche, Sint Maarten, Netherlands",
        "road": "Monte Vista Road",
        "house_number": null,
        "neighbourhood": null,
        "suburb": null,
        "city_district": null,
        "city": null,
        "state": null,
        "postcode": null,
        "country": "Sint Maarten",
        "country_code": "nl"
      },
      "address": "104, Monte Vista Road, Pointe Blanche, 68415 Sint Maarten, Netherlands"
    },
    {
      "lat": 18.035369299124913,
      "lon": -63.077256335881415,
      "geoinfo": {
        "display_name": "Rubber Tree Drive, Cole Bay, Cul-de-Sac, Sint Maarten, Netherlands",
        "road": "Rubber Tree Drive",
        "house_number": null,
        "neighbourhood": null,
        "suburb": "Cole Bay",
        "city_district": null,
        "city": "Cul-de-Sac",
        "state": null,
        "postcode": null,
        "country": "Sint Maarten",
        "country_code": "nl"
      },
      "address": "482, Rubber Tree Drive, Cole Bay, Cul-de-Sac, 26943 Sint Maarten, Netherlands"
    },
    {
      "lat": 18.021498101928508,
      "lon": -63.03443665293726,
      "geoinfo": {
        "display_name": "Tropical Road, Vineyard, Philipsburg, Sint Maarten, Netherlands",
        "road": "Tropical Road",
        "house_number": null,
        "neighbourhood": null,
        "suburb": "Vineyard",
        "city_district": null,
        "city": "Philipsburg",
        "state": null,
        "postcode": null,
        "country": "Sint Maarten",
        "country_code": "nl"
      },
      "address": "780, Tropical Road, Vineyard, Philipsburg, 98305 Sint Maarten, Netherlands"
    },
    {
      "lat": 18.02187090279118,
      "lon": -63.054249312743835,
      "geoinfo": {
        "display_name": "Armenhuis Steeg, Philipsburg, Sint Maarten, Netherlands",
        "road": "Armenhuis Steeg",
        "house_number": null,
        "neighbourhood": null,
        "suburb": null,
        "city_district": null,
        "city": "Philipsburg",
        "state": null,
        "postcode": null,
        "country": "Sint Maarten",
        "country_code": "nl"
      },
      "address": "766, Armenhuis Steeg, Philipsburg, 91471 Sint Maarten, Netherlands"
    },
    {
      "lat": 18.03145291789351,
      "lon": -63.02922067521934,
      "geoinfo": {
        "display_name": "Guana Bay Drive, Guana Bay, Philipsburg, Sint Maarten, Netherlands",
        "road": "Guana Bay Drive",
        "house_number": null,
        "neighbourhood": null,
        "suburb": "Guana Bay",
        "city_district": null,
        "city": "Philipsburg",
        "state": null,
        "postcode": null,
        "country": "Sint Maarten",
        "country_code": "nl"
      },
      "address": "839, Guana Bay Drive, Guana Bay, Philipsburg, 41602 Sint Maarten, Netherlands"
    },
    {
      "lat": 18.010031986269595,
      "lon": -63.070963825833836,
      "geoinfo": {
        "display_name": "Fort Amsterdam, Philipsburg, Sint Maarten, Netherlands",
        "road": null,
        "house_number": null,
        "neighbourhood": null,
        "suburb": "Fort Amsterdam",
        "city_district": null,
        "city": "Philipsburg",
        "state": null,
        "postcode": null,
        "country": "Sint Maarten",
        "country_code": "nl"
      },
      "address": "376, Fort Amsterdam, Philipsburg, 12641 Sint Maarten, Netherlands"
    },
    {
      "lat": 17.993416073753707,
      "lon": -63.067862131969804,
      "geoinfo": {
        "display_name": "Fort Amsterdam, Philipsburg, Sint Maarten, Netherlands",
        "road": null,
        "house_number": null,
        "neighbourhood": null,
        "suburb": "Fort Amsterdam",
        "city_district": null,
        "city": "Philipsburg",
        "state": null,
        "postcode": null,
        "country": "Sint Maarten",
        "country_code": "nl"
      },
      "address": "410, Fort Amsterdam, Philipsburg, 35343 Sint Maarten, Netherlands"
    },
    {
      "lat": 18.010890947188308,
      "lon": -63.021451819407154,
      "geoinfo": {
        "display_name": "Vineyard, Philipsburg, Sint Maarten, Netherlands",
        "road": null,
        "house_number": null,
        "neighbourhood": null,
        "suburb": "Vineyard",
        "city_district": null,
        "city": "Philipsburg",
        "state": null,
        "postcode": null,
        "country": "Sint Maarten",
        "country_code": "nl"
      },
      "address": "530, Vineyard, Philipsburg, 76473 Sint Maarten, Netherlands"
    },
    {
      "lat": 18.0327347299361,
      "lon": -63.0048371555358,
      "geoinfo": {
        "display_name": "Dawn Beach, Sint Maarten, Netherlands",
        "road": null,
        "house_number": null,
        "neighbourhood": null,
        "suburb": null,
        "city_district": null,
        "city": "Dawn Beach",
        "state": null,
        "postcode": null,
        "country": "Sint Maarten",
        "country_code": "nl"
      },
      "address": "921, Dawn Beach, 99410 Sint Maarten, Netherlands"
    },
    {
      "lat": 18.00812683090937,
      "lon": -63.06686597604029,
      "geoinfo": {
        "display_name": "Fort Amsterdam, Philipsburg, Sint Maarten, Netherlands",
        "road": null,
        "house_number": null,
        "neighbourhood": null,
        "suburb": "Fort Amsterdam",
        "city_district": null,
        "city": "Philipsburg",
        "state": null,
        "postcode": null,
        "country": "Sint Maarten",
        "country_code": "nl"
      },
      "address": "191, Fort Amsterdam, Philipsburg, 10374 Sint Maarten, Netherlands"
    },
    {
      "lat": 18.00266843542258,
      "lon": -63.0170131227972,
      "geoinfo": {
        "display_name": "Vineyard, Philipsburg, Sint Maarten, Netherlands",
        "road": null,
        "house_number": null,
        "neighbourhood": null,
        "suburb": "Vineyard",
        "city_district": null,
        "city": "Philipsburg",
        "state": null,
        "postcode": null,
        "country": "Sint Maarten",
        "country_code": "nl"
      },
      "address": "142, Vineyard, Philipsburg, 16413 Sint Maarten, Netherlands"
    },
    {
      "lat": 18.006777758501485,
      "lon": -63.06553682345288,
      "geoinfo": {
        "display_name": "Fort Amsterdam, Philipsburg, Sint Maarten, Netherlands",
        "road": null,
        "house_number": null,
        "neighbourhood": null,
        "suburb": "Fort Amsterdam",
        "city_district": null,
        "city": "Philipsburg",
        "state": null,
        "postcode": null,
        "country": "Sint Maarten",
        "country_code": "nl"
      },
      "address": "708, Fort Amsterdam, Philipsburg, 62646 Sint Maarten, Netherlands"
    },
    {
      "lat": 18.009022952156595,
      "lon": -63.013700470908894,
      "geoinfo": {
        "display_name": "Vineyard, Philipsburg, Sint Maarten, Netherlands",
        "road": null,
        "house_number": null,
        "neighbourhood": null,
        "suburb": "Vineyard",
        "city_district": null,
        "city": "Philipsburg",
        "state": null,
        "postcode": null,
        "country": "Sint Maarten",
        "country_code": "nl"
      },
      "address": "700, Vineyard, Philipsburg, 55422 Sint Maarten, Netherlands"
    },
    {
      "lat": 18.018171571884405,
      "lon": -63.044386836430206,
      "geoinfo": {
        "display_name": "Juancho Yrausquin Boulevard, Pointe Blanche, Sint Maarten, Netherlands",
        "road": "Juancho Yrausquin Boulevard",
        "house_number": null,
        "neighbourhood": null,
        "suburb": null,
        "city_district": null,
        "city": null,
        "state": null,
        "postcode": null,
        "country": "Sint Maarten",
        "country_code": "nl"
      },
      "address": "451, Juancho Yrausquin Boulevard, Pointe Blanche, 81162 Sint Maarten, Netherlands"
    },
    {
      "lat": 18.003374019546126,
      "lon": -63.008571928814746,
      "geoinfo": {
        "display_name": "Vineyard, Philipsburg, Sint Maarten, Netherlands",
        "road": null,
        "house_number": null,
        "neighbourhood": null,
        "suburb": "Vineyard",
        "city_district": null,
        "city": "Philipsburg",
        "state": null,
        "postcode": null,
        "country": "Sint Maarten",
        "country_code": "nl"
      },
      "address": "374, Vineyard, Philipsburg, 40574 Sint Maarten, Netherlands"
    },
    {
      "lat": 18.040795465469643,
      "lon": -63.01229434434215,
      "geoinfo": {
        "display_name": "Tusk Shell Road, Guana Bay, Dawn Beach, Sint Maarten, Netherlands",
        "road": "Tusk Shell Road",
        "house_number": null,
        "neighbourhood": null,
        "suburb": "Guana Bay",
        "city_district": null,
        "city": "Dawn Beach",
        "state": null,
        "postcode": null,
        "country": "Sint Maarten",
        "country_code": "nl"
      },
      "address": "643, Tusk Shell Road, Guana Bay, Dawn Beach, 41510 Sint Maarten, Netherlands"
    },
    {
      "lat": 18.01098166438593,
      "lon": -63.00968109947365,
      "geoinfo": {
        "display_name": "Vineyard, Philipsburg, Sint Maarten, Netherlands",
        "road": null,
        "house_number": null,
        "neighbourhood": null,
        "suburb": "Vineyard",
        "city_district": null,
        "city": "Philipsburg",
        "state": null,
        "postcode": null,
        "country": "Sint Maarten",
        "country_code": "nl"
      },
      "address": "815, Vineyard, Philipsburg, 11657 Sint Maarten, Netherlands"
    },
    {
      "lat": 18.010485718041213,
      "lon": -63.03190782210211,
      "geoinfo": {
        "display_name": "Goldfinch Road, Pointe Blanche, Sint Maarten, Netherlands",
        "road": "Goldfinch Road",
        "house_number": null,
        "neighbourhood": null,
        "suburb": null,
        "city_district": null,
        "city": null,
        "state": null,
        "postcode": null,
        "country": "Sint Maarten",
        "country_code": "nl"
      },
      "address": "746, Goldfinch Road, Pointe Blanche, 14275 Sint Maarten, Netherlands"
    },
    {
      "lat": 18.051510395406645,
      "lon": -63.05729846945862,
      "geoinfo": {
        "display_name": "Betty's Estate, Cul-de-Sac, Sint Maarten, Netherlands",
        "road": null,
        "house_number": null,
        "neighbourhood": null,
        "suburb": "Betty's Estate",
        "city_district": null,
        "city": "Cul-de-Sac",
        "state": null,
        "postcode": null,
        "country": "Sint Maarten",
        "country_code": "nl"
      },
      "address": "878, Betty's Estate, Cul-de-Sac, 82793 Sint Maarten, Netherlands"
    },
    {
      "lat": 18.03989089809747,
      "lon": -63.05218668735929,
      "geoinfo": {
        "display_name": "FX Bowling, A.T. Illidge Road, Mary's Fancy, Cul-de-Sac, Sint Maarten, Netherlands",
        "road": "A.T. Illidge Road",
        "house_number": null,
        "neighbourhood": null,
        "suburb": "Mary's Fancy",
        "city_district": null,
        "city": "Cul-de-Sac",
        "state": null,
        "postcode": null,
        "country": "Sint Maarten",
        "country_code": "nl"
      },
      "address": "478, A.T. Illidge Road, 16233 Philipsburg, Sint Maarten"
    },
    {
      "lat": 18.016729577442003,
      "lon": -63.01064288774133,
      "geoinfo": {
        "display_name": "Guana Bay, Philipsburg, Sint Maarten, Netherlands",
        "road": null,
        "house_number": null,
        "neighbourhood": null,
        "suburb": "Guana Bay",
        "city_district": null,
        "city": "Philipsburg",
        "state": null,
        "postcode": null,
        "country": "Sint Maarten",
        "country_code": "nl"
      },
      "address": "301, Guana Bay, Philipsburg, 69218 Sint Maarten, Netherlands"
    },
    {
      "lat": 18.023688224616347,
      "lon": -63.03371083104105,
      "geoinfo": {
        "display_name": "Tropical Road, Vineyard, Philipsburg, Sint Maarten, Netherlands",
        "road": "Tropical Road",
        "house_number": null,
        "neighbourhood": null,
        "suburb": "Vineyard",
        "city_district": null,
        "city": "Philipsburg",
        "state": null,
        "postcode": null,
        "country": "Sint Maarten",
        "country_code": "nl"
      },
      "address": "445, Tropical Road, Vineyard, Philipsburg, 28220 Sint Maarten, Netherlands"
    },
    {
      "lat": 18.03738934142004,
      "lon": -63.022254171739974,
      "geoinfo": {
        "display_name": "Pen Shell Road, Guana Bay, Dawn Beach, Sint Maarten, Netherlands",
        "road": "Pen Shell Road",
        "house_number": null,
        "neighbourhood": null,
        "suburb": "Guana Bay",
        "city_district": null,
        "city": "Dawn Beach",
        "state": null,
        "postcode": null,
        "country": "Sint Maarten",
        "country_code": "nl"
      },
      "address": "763, Pen Shell Road, Guana Bay, Dawn Beach, 93284 Sint Maarten, Netherlands"
    },
    {
      "lat": 18.024754231429174,
      "lon": -63.061468029630674,
      "geoinfo": {
        "display_name": "Camel Road, Little Bay, Cul-de-Sac, Sint Maarten, Netherlands",
        "road": "Camel Road",
        "house_number": null,
        "neighbourhood": null,
        "suburb": "Little Bay",
        "city_district": null,
        "city": "Cul-de-Sac",
        "state": null,
        "postcode": null,
        "country": "Sint Maarten",
        "country_code": "nl"
      },
      "address": "238, Camel Road, Little Bay, Cul-de-Sac, 05961 Sint Maarten, Netherlands"
    },
    {
      "lat": 18.052247731796186,
      "lon": -63.023916034771084,
      "geoinfo": {
        "display_name": "Gulf Scallop Drive, Defiance, Oyster Pond, Sint Maarten, Netherlands",
        "road": "Gulf Scallop Drive",
        "house_number": null,
        "neighbourhood": null,
        "suburb": "Defiance",
        "city_district": null,
        "city": "Oyster Pond",
        "state": null,
        "postcode": null,
        "country": "Sint Maarten",
        "country_code": "nl"
      },
      "address": "509, Gulf Scallop Drive, Defiance, Oyster Pond, 32129 Sint Maarten, Netherlands"
    },
    {
      "lat": 18.0262589495081,
      "lon": -63.058592446537354,
      "geoinfo": {
        "display_name": "Fort Hill Road, Little Bay, Philipsburg, Sint Maarten, Netherlands",
        "road": "Fort Hill Road",
        "house_number": null,
        "neighbourhood": null,
        "suburb": "Little Bay",
        "city_district": null,
        "city": "Philipsburg",
        "state": null,
        "postcode": null,
        "country": "Sint Maarten",
        "country_code": "nl"
      },
      "address": "211, Fort Hill Road, Little Bay, Philipsburg, 78472 Sint Maarten, Netherlands"
    },
    {
      "lat": 18.038703714132883,
      "lon": -63.04788791987315,
      "geoinfo": {
        "display_name": "Arch Road, Over the Pond, Philipsburg, Sint Maarten, Netherlands",
        "road": "Arch Road",
        "house_number": null,
        "neighbourhood": null,
        "suburb": "Over the Pond",
        "city_district": null,
        "city": "Philipsburg",
        "state": null,
        "postcode": null,
        "country": "Sint Maarten",
        "country_code": "nl"
      },
      "address": "507, Arch Road, Over the Pond, Philipsburg, 55155 Sint Maarten, Netherlands"
    },
    {
      "lat": 18.003645524212523,
      "lon": -63.07665064953885,
      "geoinfo": {
        "display_name": "Indigo Bay, Cul-de-Sac, Sint Maarten, Netherlands",
        "road": null,
        "house_number": null,
        "neighbourhood": null,
        "suburb": "Indigo Bay",
        "city_district": null,
        "city": "Cul-de-Sac",
        "state": null,
        "postcode": null,
        "country": "Sint Maarten",
        "country_code": "nl"
      },
      "address": "681, Indigo Bay, Cul-de-Sac, 40801 Sint Maarten, Netherlands"
    },
    {
      "lat": 18.05799068991692,
      "lon": -63.032827653166045,
      "geoinfo": {
        "display_name": "Delight Estate Road, Belvedere, Lower Prince's Quarter, Sint Maarten, Netherlands",
        "road": "Delight Estate Road",
        "house_number": null,
        "neighbourhood": null,
        "suburb": "Belvedere",
        "city_district": null,
        "city": "Lower Prince's Quarter",
        "state": null,
        "postcode": null,
        "country": "Sint Maarten",
        "country_code": "nl"
      },
      "address": "575, Delight Estate Road, Belvedere, Lower Prince's Quarter, 32623 Sint Maarten, Netherlands"
    },
    {
      "lat": 18.057673558491548,
      "lon": -63.027159754805886,
      "geoinfo": {
        "display_name": "Oyster Pond Road, Defiance, Oyster Pond, Sint Maarten, Netherlands",
        "road": "Oyster Pond Road",
        "house_number": null,
        "neighbourhood": null,
        "suburb": "Defiance",
        "city_district": null,
        "city": "Oyster Pond",
        "state": null,
        "postcode": null,
        "country": "Sint Maarten",
        "country_code": "nl"
      },
      "address": "851, Oyster Pond Road, Defiance, Oyster Pond, 25993 Sint Maarten, Netherlands"
    },
    {
      "lat": 17.99916808422724,
      "lon": -63.054570022854875,
      "geoinfo": {
        "display_name": "Fort Amsterdam, Philipsburg, Sint Maarten, Netherlands",
        "road": null,
        "house_number": null,
        "neighbourhood": null,
        "suburb": "Fort Amsterdam",
        "city_district": null,
        "city": "Philipsburg",
        "state": null,
        "postcode": null,
        "country": "Sint Maarten",
        "country_code": "nl"
      },
      "address": "677, Fort Amsterdam, Philipsburg, 10487 Sint Maarten, Netherlands"
    },
    {
      "lat": 18.011336693090072,
      "lon": -63.00864821372623,
      "geoinfo": {
        "display_name": "Vineyard, Philipsburg, Sint Maarten, Netherlands",
        "road": null,
        "house_number": null,
        "neighbourhood": null,
        "suburb": "Vineyard",
        "city_district": null,
        "city": "Philipsburg",
        "state": null,
        "postcode": null,
        "country": "Sint Maarten",
        "country_code": "nl"
      },
      "address": "323, Vineyard, Philipsburg, 85324 Sint Maarten, Netherlands"
    },
    {
      "lat": 17.995443458848158,
      "lon": -63.043340762747704,
      "geoinfo": {
        "display_name": "Fort Amsterdam, Philipsburg, Sint Maarten, Netherlands",
        "road": null,
        "house_number": null,
        "neighbourhood": null,
        "suburb": "Fort Amsterdam",
        "city_district": null,
        "city": "Philipsburg",
        "state": null,
        "postcode": null,
        "country": "Sint Maarten",
        "country_code": "nl"
      },
      "address": "697, Fort Amsterdam, Philipsburg, 62122 Sint Maarten, Netherlands"
    },
    {
      "lat": 18.009689484093276,
      "lon": -63.05997821172784,
      "geoinfo": {
        "display_name": "Little Bay Road, Fort Amsterdam, Philipsburg, Sint Maarten, Netherlands",
        "road": "Little Bay Road",
        "house_number": null,
        "neighbourhood": null,
        "suburb": "Fort Amsterdam",
        "city_district": null,
        "city": "Philipsburg",
        "state": null,
        "postcode": null,
        "country": "Sint Maarten",
        "country_code": "nl"
      },
      "address": "238, Little Bay Road, Fort Amsterdam, Philipsburg, 97799 Sint Maarten, Netherlands"
    },
    {
      "lat": 18.001953150809737,
      "lon": -63.07348012924632,
      "geoinfo": {
        "display_name": "Fort Amsterdam, Philipsburg, Sint Maarten, Netherlands",
        "road": null,
        "house_number": null,
        "neighbourhood": null,
        "suburb": "Fort Amsterdam",
        "city_district": null,
        "city": "Philipsburg",
        "state": null,
        "postcode": null,
        "country": "Sint Maarten",
        "country_code": "nl"
      },
      "address": "593, Fort Amsterdam, Philipsburg, 83475 Sint Maarten, Netherlands"
    },
    {
      "lat": 18.026588835568035,
      "lon": -63.02112475240757,
      "geoinfo": {
        "display_name": "Back Bay - Guana Bay Hiking Trail, Guana Bay, Philipsburg, Sint Maarten, Netherlands",
        "road": "Back Bay - Guana Bay Hiking Trail",
        "house_number": null,
        "neighbourhood": null,
        "suburb": "Guana Bay",
        "city_district": null,
        "city": "Philipsburg",
        "state": null,
        "postcode": null,
        "country": "Sint Maarten",
        "country_code": "nl"
      },
      "address": "713, Back Bay - Guana Bay Hiking Trail, Guana Bay, Philipsburg, 54146 Sint Maarten, Netherlands"
    },
    {
      "lat": 18.007483591078042,
      "lon": -63.016833951752204,
      "geoinfo": {
        "display_name": "Vineyard, Philipsburg, Sint Maarten, Netherlands",
        "road": null,
        "house_number": null,
        "neighbourhood": null,
        "suburb": "Vineyard",
        "city_district": null,
        "city": "Philipsburg",
        "state": null,
        "postcode": null,
        "country": "Sint Maarten",
        "country_code": "nl"
      },
      "address": "264, Vineyard, Philipsburg, 88994 Sint Maarten, Netherlands"
    },
    {
      "lat": 18.048743512253125,
      "lon": -63.04069375221457,
      "geoinfo": {
        "display_name": "Middle Region, Lower Prince's Quarter, Sint Maarten, Netherlands",
        "road": null,
        "house_number": null,
        "neighbourhood": null,
        "suburb": "Middle Region",
        "city_district": null,
        "city": "Lower Prince's Quarter",
        "state": null,
        "postcode": null,
        "country": "Sint Maarten",
        "country_code": "nl"
      },
      "address": "515, Middle Region, Lower Prince's Quarter, 81729 Sint Maarten, Netherlands"
    },
    {
      "lat": 18.00997994182145,
      "lon": -63.03586808649204,
      "geoinfo": {
        "display_name": "Black Tern Road, Pointe Blanche, Sint Maarten, Netherlands",
        "road": "Black Tern Road",
        "house_number": null,
        "neighbourhood": null,
        "suburb": null,
        "city_district": null,
        "city": null,
        "state": null,
        "postcode": null,
        "country": "Sint Maarten",
        "country_code": "nl"
      },
      "address": "120, Black Tern Road, Pointe Blanche, 52977 Sint Maarten, Netherlands"
    },
    {
      "lat": 18.062052503097163,
      "lon": -63.06076408937666,
      "geoinfo": {
        "display_name": "Reward Road, South Reward, Sint Maarten, Netherlands",
        "road": "Reward Road",
        "house_number": null,
        "neighbourhood": null,
        "suburb": "South Reward",
        "city_district": null,
        "city": null,
        "state": null,
        "postcode": null,
        "country": "Sint Maarten",
        "country_code": "nl"
      },
      "address": "041, Reward Road, South Reward, 59187 Sint Maarten, Netherlands"
    },
    {
      "lat": 17.992627967556484,
      "lon": -63.03474219021512,
      "geoinfo": {
        "display_name": "Vineyard, Philipsburg, Sint Maarten, Netherlands",
        "road": null,
        "house_number": null,
        "neighbourhood": null,
        "suburb": "Vineyard",
        "city_district": null,
        "city": "Philipsburg",
        "state": null,
        "postcode": null,
        "country": "Sint Maarten",
        "country_code": "nl"
      },
      "address": "945, Vineyard, Philipsburg, 26468 Sint Maarten, Netherlands"
    },
    {
      "lat": 18.026936517440557,
      "lon": -63.01420720206209,
      "geoinfo": {
        "display_name": "Guana Bay, Philipsburg, Sint Maarten, Netherlands",
        "road": null,
        "house_number": null,
        "neighbourhood": null,
        "suburb": "Guana Bay",
        "city_district": null,
        "city": "Philipsburg",
        "state": null,
        "postcode": null,
        "country": "Sint Maarten",
        "country_code": "nl"
      },
      "address": "083, Guana Bay, Philipsburg, 32254 Sint Maarten, Netherlands"
    },
    {
      "lat": 17.99816745152126,
      "lon": -63.01947944815783,
      "geoinfo": {
        "display_name": "Vineyard, Philipsburg, Sint Maarten, Netherlands",
        "road": null,
        "house_number": null,
        "neighbourhood": null,
        "suburb": "Vineyard",
        "city_district": null,
        "city": "Philipsburg",
        "state": null,
        "postcode": null,
        "country": "Sint Maarten",
        "country_code": "nl"
      },
      "address": "172, Vineyard, Philipsburg, 57541 Sint Maarten, Netherlands"
    },
    {
      "lat": 18.03381193065215,
      "lon": -63.012087595900006,
      "geoinfo": {
        "display_name": "Dawn Beach, Sint Maarten, Netherlands",
        "road": null,
        "house_number": null,
        "neighbourhood": null,
        "suburb": null,
        "city_district": null,
        "city": "Dawn Beach",
        "state": null,
        "postcode": null,
        "country": "Sint Maarten",
        "country_code": "nl"
      },
      "address": "849, Dawn Beach, 15727 Sint Maarten, Netherlands"
    },
    {
      "lat": 18.03993880651788,
      "lon": -63.02561581224131,
      "geoinfo": {
        "display_name": "Wavy Clam Road, Guana Bay, Dawn Beach, Sint Maarten, Netherlands",
        "road": "Wavy Clam Road",
        "house_number": null,
        "neighbourhood": null,
        "suburb": "Guana Bay",
        "city_district": null,
        "city": "Dawn Beach",
        "state": null,
        "postcode": null,
        "country": "Sint Maarten",
        "country_code": "nl"
      },
      "address": "231, Wavy Clam Road, Guana Bay, Dawn Beach, 45752 Sint Maarten, Netherlands"
    },
    {
      "lat": 18.029940085726267,
      "lon": -63.08900032823668,
      "geoinfo": {
        "display_name": "Pearl Drive, Cay Bay, Cul-de-Sac, Sint Maarten, Netherlands",
        "road": "Pearl Drive",
        "house_number": null,
        "neighbourhood": null,
        "suburb": "Cay Bay",
        "city_district": null,
        "city": "Cul-de-Sac",
        "state": null,
        "postcode": null,
        "country": "Sint Maarten",
        "country_code": "nl"
      },
      "address": "464, Pearl Drive, Cay Bay, Cul-de-Sac, 85747 Sint Maarten, Netherlands"
    },
    {
      "lat": 18.027558640075064,
      "lon": -63.04059059312403,
      "geoinfo": {
        "display_name": "Suckergarden Road, Philipsburg, Sint Maarten, Netherlands",
        "road": "Suckergarden Road",
        "house_number": null,
        "neighbourhood": null,
        "suburb": null,
        "city_district": null,
        "city": "Philipsburg",
        "state": null,
        "postcode": null,
        "country": "Sint Maarten",
        "country_code": "nl"
      },
      "address": "648, Suckergarden Road, Philipsburg, 40453 Sint Maarten, Netherlands"
    },
    {
      "lat": 17.98169561449668,
      "lon": -63.049069459181666,
      "geoinfo": {
        "display_name": "Fort Amsterdam, Philipsburg, Sint Maarten, Netherlands",
        "road": null,
        "house_number": null,
        "neighbourhood": null,
        "suburb": "Fort Amsterdam",
        "city_district": null,
        "city": "Philipsburg",
        "state": null,
        "postcode": null,
        "country": "Sint Maarten",
        "country_code": "nl"
      },
      "address": "800, Fort Amsterdam, Philipsburg, 81156 Sint Maarten, Netherlands"
    },
    {
      "lat": 18.000926825174805,
      "lon": -63.03626752456223,
      "geoinfo": {
        "display_name": "Vineyard, Philipsburg, Sint Maarten, Netherlands",
        "road": null,
        "house_number": null,
        "neighbourhood": null,
        "suburb": "Vineyard",
        "city_district": null,
        "city": "Philipsburg",
        "state": null,
        "postcode": null,
        "country": "Sint Maarten",
        "country_code": "nl"
      },
      "address": "973, Vineyard, Philipsburg, 54672 Sint Maarten, Netherlands"
    },
    {
      "lat": 18.005414487457507,
      "lon": -63.0476139899918,
      "geoinfo": {
        "display_name": "A.C. Wathney Pier South, Pointe Blanche, Sint Maarten, Netherlands",
        "road": "A.C. Wathney Pier South",
        "house_number": null,
        "neighbourhood": null,
        "suburb": null,
        "city_district": null,
        "city": null,
        "state": null,
        "postcode": null,
        "country": "Sint Maarten",
        "country_code": "nl"
      },
      "address": "693, A.C. Wathney Pier South, Pointe Blanche, 47168 Sint Maarten, Netherlands"
    },
    {
      "lat": 18.01036397878689,
      "lon": -63.017866365391015,
      "geoinfo": {
        "display_name": "Vineyard, Philipsburg, Sint Maarten, Netherlands",
        "road": null,
        "house_number": null,
        "neighbourhood": null,
        "suburb": "Vineyard",
        "city_district": null,
        "city": "Philipsburg",
        "state": null,
        "postcode": null,
        "country": "Sint Maarten",
        "country_code": "nl"
      },
      "address": "527, Vineyard, Philipsburg, 24019 Sint Maarten, Netherlands"
    },
    {
      "lat": 18.033470447725485,
      "lon": -63.047054268127276,
      "geoinfo": {
        "display_name": "Brine Drive, Philipsburg, Sint Maarten, Netherlands",
        "road": "Brine Drive",
        "house_number": null,
        "neighbourhood": null,
        "suburb": null,
        "city_district": null,
        "city": "Philipsburg",
        "state": null,
        "postcode": null,
        "country": "Sint Maarten",
        "country_code": "nl"
      },
      "address": "635, Brine Drive, Philipsburg, 23054 Sint Maarten, Netherlands"
    },
    {
      "lat": 18.010441122831022,
      "lon": -63.02938830086398,
      "geoinfo": {
        "display_name": "Goldfinch Road, Pointe Blanche, Sint Maarten, Netherlands",
        "road": "Goldfinch Road",
        "house_number": null,
        "neighbourhood": null,
        "suburb": null,
        "city_district": null,
        "city": null,
        "state": null,
        "postcode": null,
        "country": "Sint Maarten",
        "country_code": "nl"
      },
      "address": "651, Goldfinch Road, Pointe Blanche, 43154 Sint Maarten, Netherlands"
    },
    {
      "lat": 18.00468001570645,
      "lon": -63.04916806540849,
      "geoinfo": {
        "display_name": "A.C. Wathney Pier South, Pointe Blanche, Sint Maarten, Netherlands",
        "road": "A.C. Wathney Pier South",
        "house_number": null,
        "neighbourhood": null,
        "suburb": null,
        "city_district": null,
        "city": null,
        "state": null,
        "postcode": null,
        "country": "Sint Maarten",
        "country_code": "nl"
      },
      "address": "799, A.C. Wathney Pier South, Pointe Blanche, 76807 Sint Maarten, Netherlands"
    },
    {
      "lat": 18.02031746583223,
      "lon": -63.08109325473516,
      "geoinfo": {
        "display_name": "Indigo Bay, Cul-de-Sac, Sint Maarten, Netherlands",
        "road": null,
        "house_number": null,
        "neighbourhood": null,
        "suburb": "Indigo Bay",
        "city_district": null,
        "city": "Cul-de-Sac",
        "state": null,
        "postcode": null,
        "country": "Sint Maarten",
        "country_code": "nl"
      },
      "address": "808, Indigo Bay, Cul-de-Sac, 27029 Sint Maarten, Netherlands"
    },
    {
      "lat": 18.010043744504863,
      "lon": -63.0188732130286,
      "geoinfo": {
        "display_name": "Vineyard, Philipsburg, Sint Maarten, Netherlands",
        "road": null,
        "house_number": null,
        "neighbourhood": null,
        "suburb": "Vineyard",
        "city_district": null,
        "city": "Philipsburg",
        "state": null,
        "postcode": null,
        "country": "Sint Maarten",
        "country_code": "nl"
      },
      "address": "939, Vineyard, Philipsburg, 29794 Sint Maarten, Netherlands"
    },
    {
      "lat": 18.00972640817115,
      "lon": -63.04697353952281,
      "geoinfo": {
        "display_name": "A.C. Wathney Pier South, Pointe Blanche, Sint Maarten, Netherlands",
        "road": "A.C. Wathney Pier South",
        "house_number": null,
        "neighbourhood": null,
        "suburb": null,
        "city_district": null,
        "city": null,
        "state": null,
        "postcode": null,
        "country": "Sint Maarten",
        "country_code": "nl"
      },
      "address": "901, A.C. Wathney Pier South, Pointe Blanche, 52402 Sint Maarten, Netherlands"
    },
    {
      "lat": 18.016845511829697,
      "lon": -63.0216177714702,
      "geoinfo": {
        "display_name": "Natural pool, Back Bay - Guana Bay Hiking Trail, Guana Bay, Philipsburg, Sint Maarten, Netherlands",
        "road": "Back Bay - Guana Bay Hiking Trail",
        "house_number": null,
        "neighbourhood": null,
        "suburb": "Guana Bay",
        "city_district": null,
        "city": "Philipsburg",
        "state": null,
        "postcode": null,
        "country": "Sint Maarten",
        "country_code": "nl"
      },
      "address": "636, Back Bay - Guana Bay Hiking Trail, 07768 Philipsburg, Sint Maarten"
    },
    {
      "lat": 17.998806765890976,
      "lon": -63.06876832784444,
      "geoinfo": {
        "display_name": "Fort Amsterdam, Philipsburg, Sint Maarten, Netherlands",
        "road": null,
        "house_number": null,
        "neighbourhood": null,
        "suburb": "Fort Amsterdam",
        "city_district": null,
        "city": "Philipsburg",
        "state": null,
        "postcode": null,
        "country": "Sint Maarten",
        "country_code": "nl"
      },
      "address": "817, Fort Amsterdam, Philipsburg, 18093 Sint Maarten, Netherlands"
    },
    {
      "lat": 18.033936253418307,
      "lon": -63.06500076064036,
      "geoinfo": {
        "display_name": "Shop 4 Less, A.J.C. Brouwers Road, Mary's Fancy, Cul-de-Sac, Sint Maarten, Netherlands",
        "road": "A.J.C. Brouwers Road",
        "house_number": null,
        "neighbourhood": null,
        "suburb": "Mary's Fancy",
        "city_district": null,
        "city": "Cul-de-Sac",
        "state": null,
        "postcode": null,
        "country": "Sint Maarten",
        "country_code": "nl"
      },
      "address": "Shop 4 Less, A.J.C. Brouwers Road, Mary's Fancy, Cul-de-Sac, 67895 Sint Maarten, Netherlands"
    },
    {
      "lat": 18.04766584446078,
      "lon": -63.035270368638194,
      "geoinfo": {
        "display_name": "Sr. Marie Laurence, Ellis Road, Defiance, Lower Prince's Quarter, Sint Maarten, Netherlands",
        "road": "Ellis Road",
        "house_number": null,
        "neighbourhood": null,
        "suburb": "Defiance",
        "city_district": null,
        "city": "Lower Prince's Quarter",
        "state": null,
        "postcode": null,
        "country": "Sint Maarten",
        "country_code": "nl"
      },
      "address": "847, Ellis Road, 68554 Philipsburg, Sint Maarten"
    },
    {
      "lat": 18.021893807487366,
      "lon": -63.01487256034638,
      "geoinfo": {
        "display_name": "Guana Bay, Philipsburg, Sint Maarten, Netherlands",
        "road": null,
        "house_number": null,
        "neighbourhood": null,
        "suburb": "Guana Bay",
        "city_district": null,
        "city": "Philipsburg",
        "state": null,
        "postcode": null,
        "country": "Sint Maarten",
        "country_code": "nl"
      },
      "address": "037, Guana Bay, Philipsburg, 27013 Sint Maarten, Netherlands"
    },
    {
      "lat": 18.02924876370321,
      "lon": -63.042859659818106,
      "geoinfo": {
        "display_name": "Saint Maarten Little league Stadium, Soualiga Road, Philipsburg, Sint Maarten, Netherlands",
        "road": "Soualiga Road",
        "house_number": null,
        "neighbourhood": null,
        "suburb": null,
        "city_district": null,
        "city": "Philipsburg",
        "state": null,
        "postcode": null,
        "country": "Sint Maarten",
        "country_code": "nl"
      },
      "address": "068, Soualiga Road, 95578 Philipsburg, Sint Maarten"
    },
    {
      "lat": 18.027443196070365,
      "lon": -63.061487981856054,
      "geoinfo": {
        "display_name": "Hamster Drive, Little Bay, Cul-de-Sac, Sint Maarten, Netherlands",
        "road": "Hamster Drive",
        "house_number": null,
        "neighbourhood": null,
        "suburb": "Little Bay",
        "city_district": null,
        "city": "Cul-de-Sac",
        "state": null,
        "postcode": null,
        "country": "Sint Maarten",
        "country_code": "nl"
      },
      "address": "669, Hamster Drive, Little Bay, Cul-de-Sac, 00648 Sint Maarten, Netherlands"
    },
    {
      "lat": 18.04827581911955,
      "lon": -63.076143692138075,
      "geoinfo": {
        "display_name": "Mountain Ebony Road, Cole Bay, Cul-de-Sac, Sint Maarten, Netherlands",
        "road": "Mountain Ebony Road",
        "house_number": null,
        "neighbourhood": null,
        "suburb": "Cole Bay",
        "city_district": null,
        "city": "Cul-de-Sac",
        "state": null,
        "postcode": null,
        "country": "Sint Maarten",
        "country_code": "nl"
      },
      "address": "495, Mountain Ebony Road, Cole Bay, Cul-de-Sac, 65575 Sint Maarten, Netherlands"
    },
    {
      "lat": 18.010307123229754,
      "lon": -63.06844002474454,
      "geoinfo": {
        "display_name": "Fort Amsterdam, Philipsburg, Sint Maarten, Netherlands",
        "road": null,
        "house_number": null,
        "neighbourhood": null,
        "suburb": "Fort Amsterdam",
        "city_district": null,
        "city": "Philipsburg",
        "state": null,
        "postcode": null,
        "country": "Sint Maarten",
        "country_code": "nl"
      },
      "address": "207, Fort Amsterdam, Philipsburg, 53662 Sint Maarten, Netherlands"
    },
    {
      "lat": 18.041662049907472,
      "lon": -63.04608405636362,
      "geoinfo": {
        "display_name": "28, Madame Estate Road, Middle Region, Philipsburg, Sint Maarten, Netherlands",
        "road": "Madame Estate Road",
        "house_number": "28",
        "neighbourhood": null,
        "suburb": "Middle Region",
        "city_district": null,
        "city": "Philipsburg",
        "state": null,
        "postcode": null,
        "country": "Sint Maarten",
        "country_code": "nl"
      },
      "address": "28, Madame Estate Road, Middle Region, Philipsburg, 31645 Sint Maarten, Netherlands"
    },
    {
      "lat": 18.01874179428832,
      "lon": -63.01343596718439,
      "geoinfo": {
        "display_name": "Guana Bay, Philipsburg, Sint Maarten, Netherlands",
        "road": null,
        "house_number": null,
        "neighbourhood": null,
        "suburb": "Guana Bay",
        "city_district": null,
        "city": "Philipsburg",
        "state": null,
        "postcode": null,
        "country": "Sint Maarten",
        "country_code": "nl"
      },
      "address": "805, Guana Bay, Philipsburg, 25610 Sint Maarten, Netherlands"
    },
    {
      "lat": 18.020633782358093,
      "lon": -63.08203991891492,
      "geoinfo": {
        "display_name": "Cay Bay Road, Cay Bay, Cul-de-Sac, Sint Maarten, Netherlands",
        "road": "Cay Bay Road",
        "house_number": null,
        "neighbourhood": null,
        "suburb": "Cay Bay",
        "city_district": null,
        "city": "Cul-de-Sac",
        "state": null,
        "postcode": null,
        "country": "Sint Maarten",
        "country_code": "nl"
      },
      "address": "042, Cay Bay Road, Cay Bay, Cul-de-Sac, 17181 Sint Maarten, Netherlands"
    },
    {
      "lat": 18.02799144801771,
      "lon": -63.03851169333374,
      "geoinfo": {
        "display_name": "Suckergarden Road, Philipsburg, Sint Maarten, Netherlands",
        "road": "Suckergarden Road",
        "house_number": null,
        "neighbourhood": null,
        "suburb": null,
        "city_district": null,
        "city": "Philipsburg",
        "state": null,
        "postcode": null,
        "country": "Sint Maarten",
        "country_code": "nl"
      },
      "address": "825, Suckergarden Road, Philipsburg, 08490 Sint Maarten, Netherlands"
    },
    {
      "lat": 18.042171493705705,
      "lon": -63.04650204282644,
      "geoinfo": {
        "display_name": "28, Madame Estate Road, Middle Region, Philipsburg, Sint Maarten, Netherlands",
        "road": "Madame Estate Road",
        "house_number": "28",
        "neighbourhood": null,
        "suburb": "Middle Region",
        "city_district": null,
        "city": "Philipsburg",
        "state": null,
        "postcode": null,
        "country": "Sint Maarten",
        "country_code": "nl"
      },
      "address": "28, Madame Estate Road, Middle Region, Philipsburg, 14746 Sint Maarten, Netherlands"
    },
    {
      "lat": 18.026905728778043,
      "lon": -63.04302166488136,
      "geoinfo": {
        "display_name": "Philipsburg, Sint Maarten, Netherlands",
        "road": null,
        "house_number": null,
        "neighbourhood": null,
        "suburb": null,
        "city_district": null,
        "city": "Philipsburg",
        "state": null,
        "postcode": null,
        "country": "Sint Maarten",
        "country_code": "nl"
      },
      "address": "400, Philipsburg, 80440 Sint Maarten, Netherlands"
    },
    {
      "lat": 18.054520944210868,
      "lon": -63.04888681694073,
      "geoinfo": {
        "display_name": "George C. de Weever Road, Belvedere, Lower Prince's Quarter, Sint Maarten, Netherlands",
        "road": "George C. de Weever Road",
        "house_number": null,
        "neighbourhood": null,
        "suburb": "Belvedere",
        "city_district": null,
        "city": "Lower Prince's Quarter",
        "state": null,
        "postcode": null,
        "country": "Sint Maarten",
        "country_code": "nl"
      },
      "address": "535, George C. de Weever Road, Belvedere, Lower Prince's Quarter, 34560 Sint Maarten, Netherlands"
    },
    {
      "lat": 18.01517250098293,
      "lon": -63.08158771419038,
      "geoinfo": {
        "display_name": "Indigo Bay, Cul-de-Sac, Sint Maarten, Netherlands",
        "road": null,
        "house_number": null,
        "neighbourhood": null,
        "suburb": "Indigo Bay",
        "city_district": null,
        "city": "Cul-de-Sac",
        "state": null,
        "postcode": null,
        "country": "Sint Maarten",
        "country_code": "nl"
      },
      "address": "269, Indigo Bay, Cul-de-Sac, 99722 Sint Maarten, Netherlands"
    },
    {
      "lat": 18.017142851620516,
      "lon": -63.08120105642269,
      "geoinfo": {
        "display_name": "Indigo Bay, Cul-de-Sac, Sint Maarten, Netherlands",
        "road": null,
        "house_number": null,
        "neighbourhood": null,
        "suburb": "Indigo Bay",
        "city_district": null,
        "city": "Cul-de-Sac",
        "state": null,
        "postcode": null,
        "country": "Sint Maarten",
        "country_code": "nl"
      },
      "address": "423, Indigo Bay, Cul-de-Sac, 26595 Sint Maarten, Netherlands"
    },
    {
      "lat": 18.03639544133789,
      "lon": -63.08567393098695,
      "geoinfo": {
        "display_name": "Cole Bay, Cul-de-Sac, Sint Maarten, Netherlands",
        "road": null,
        "house_number": null,
        "neighbourhood": null,
        "suburb": "Cole Bay",
        "city_district": null,
        "city": "Cul-de-Sac",
        "state": null,
        "postcode": null,
        "country": "Sint Maarten",
        "country_code": "nl"
      },
      "address": "667, Cole Bay, Cul-de-Sac, 67047 Sint Maarten, Netherlands"
    },
    {
      "lat": 18.045106825901033,
      "lon": -63.02490608180625,
      "geoinfo": {
        "display_name": "Escargot Drive, Defiance, Dawn Beach, Sint Maarten, Netherlands",
        "road": "Escargot Drive",
        "house_number": null,
        "neighbourhood": null,
        "suburb": "Defiance",
        "city_district": null,
        "city": "Dawn Beach",
        "state": null,
        "postcode": null,
        "country": "Sint Maarten",
        "country_code": "nl"
      },
      "address": "120, Escargot Drive, Defiance, Dawn Beach, 88145 Sint Maarten, Netherlands"
    },
    {
      "lat": 18.042976554725925,
      "lon": -63.061699226377534,
      "geoinfo": {
        "display_name": "Dahlia Road, Saunders, Cul-de-Sac, Sint Maarten, Netherlands",
        "road": "Dahlia Road",
        "house_number": null,
        "neighbourhood": null,
        "suburb": "Saunders",
        "city_district": null,
        "city": "Cul-de-Sac",
        "state": null,
        "postcode": null,
        "country": "Sint Maarten",
        "country_code": "nl"
      },
      "address": "959, Dahlia Road, Saunders, Cul-de-Sac, 49226 Sint Maarten, Netherlands"
    },
    {
      "lat": 18.03174268460467,
      "lon": -63.08542132731198,
      "geoinfo": {
        "display_name": "Waterfront Road, Cay Bay, Cul-de-Sac, Sint Maarten, Netherlands",
        "road": "Waterfront Road",
        "house_number": null,
        "neighbourhood": null,
        "suburb": "Cay Bay",
        "city_district": null,
        "city": "Cul-de-Sac",
        "state": null,
        "postcode": null,
        "country": "Sint Maarten",
        "country_code": "nl"
      },
      "address": "655, Waterfront Road, Cay Bay, Cul-de-Sac, 82528 Sint Maarten, Netherlands"
    },
    {
      "lat": 17.990768330899893,
      "lon": -63.045201426197266,
      "geoinfo": {
        "display_name": "Fort Amsterdam, Philipsburg, Sint Maarten, Netherlands",
        "road": null,
        "house_number": null,
        "neighbourhood": null,
        "suburb": "Fort Amsterdam",
        "city_district": null,
        "city": "Philipsburg",
        "state": null,
        "postcode": null,
        "country": "Sint Maarten",
        "country_code": "nl"
      },
      "address": "103, Fort Amsterdam, Philipsburg, 78187 Sint Maarten, Netherlands"
    },
    {
      "lat": 18.028638932437715,
      "lon": -63.024425732099466,
      "geoinfo": {
        "display_name": "Back Bay - Guana Bay Hiking Trail, Guana Bay, Philipsburg, Sint Maarten, Netherlands",
        "road": "Back Bay - Guana Bay Hiking Trail",
        "house_number": null,
        "neighbourhood": null,
        "suburb": "Guana Bay",
        "city_district": null,
        "city": "Philipsburg",
        "state": null,
        "postcode": null,
        "country": "Sint Maarten",
        "country_code": "nl"
      },
      "address": "009, Back Bay - Guana Bay Hiking Trail, Guana Bay, Philipsburg, 09772 Sint Maarten, Netherlands"
    },
    {
      "lat": 18.03434235733335,
      "lon": -63.03254893599901,
      "geoinfo": {
        "display_name": "Prickle Pear Road, Guana Bay, Upper Prince's Quarter, Sint Maarten, Netherlands",
        "road": "Prickle Pear Road",
        "house_number": null,
        "neighbourhood": null,
        "suburb": "Guana Bay",
        "city_district": null,
        "city": "Upper Prince's Quarter",
        "state": null,
        "postcode": null,
        "country": "Sint Maarten",
        "country_code": "nl"
      },
      "address": "369, Prickle Pear Road, Guana Bay, Upper Prince's Quarter, 59737 Sint Maarten, Netherlands"
    },
    {
      "lat": 18.024305103277385,
      "lon": -63.011072847628206,
      "geoinfo": {
        "display_name": "Guana Bay, Philipsburg, Sint Maarten, Netherlands",
        "road": null,
        "house_number": null,
        "neighbourhood": null,
        "suburb": "Guana Bay",
        "city_district": null,
        "city": "Philipsburg",
        "state": null,
        "postcode": null,
        "country": "Sint Maarten",
        "country_code": "nl"
      },
      "address": "763, Guana Bay, Philipsburg, 42065 Sint Maarten, Netherlands"
    },
    {
      "lat": 17.995263715156227,
      "lon": -63.069838447177524,
      "geoinfo": {
        "display_name": "Fort Amsterdam, Philipsburg, Sint Maarten, Netherlands",
        "road": null,
        "house_number": null,
        "neighbourhood": null,
        "suburb": "Fort Amsterdam",
        "city_district": null,
        "city": "Philipsburg",
        "state": null,
        "postcode": null,
        "country": "Sint Maarten",
        "country_code": "nl"
      },
      "address": "625, Fort Amsterdam, Philipsburg, 87549 Sint Maarten, Netherlands"
    }
  ],
  "updated_at": "2025-10-19T06:03:50.859293+00:00",
  "_kind": "geo_samples"
}