{
  "country_code": "MV",
  "country": "Maldives",
  "city": "Male",
  "geonameid": 1282027,
  "target_addresses": 100,
  "samples": [
    {
      "lat": 4.14382230799566,
      "lon": 73.49236761647197,
      "geoinfo": {
        "display_name": "Malé Atoll, Maldives",
        "road": null,
        "house_number": null,
        "neighbourhood": null,
        "suburb": null,
        "city_district": null,
        "city": null,
        "state": "Malé Atoll",
        "postcode": null,
        "country": "Maldives",
        "country_code": "mv"
      },
      "address": "Male, Malé Atoll, Maldives"
    },
    {
      "lat": 4.17446050263831,
      "lon": 73.50551695393678,
      "geoinfo": {
        "display_name": "Miriyaas Magu, Maafannu, Malé, 20257, Maldives",
        "road": "Miriyaas Magu",
        "house_number": null,
        "neighbourhood": null,
        "suburb": null,
        "city_district": "Maafannu",
        "city": "Malé",
        "state": null,
        "postcode": "20257",
        "country": "Maldives",
        "country_code": "mv"
      },
      "address": "Miriyaas Magu, Male, Malé Atoll, Maldives"
    },
    {
      "lat": 4.16811213811644,
      "lon": 73.52810288449817,
      "geoinfo": {
        "display_name": "Sinamalé Bridge, Hulhumalé, Hulhulé, Malé Atoll, 20005, Maldives",
        "road": "Sinamalé Bridge",
        "house_number": null,
        "neighbourhood": null,
        "suburb": null,
        "city_district": "Hulhumalé",
        "city": "Hulhulé",
        "state": "Malé Atoll",
        "postcode": "20005",
        "country": "Maldives",
        "country_code": "mv"
      },
      "address": "Sinamalé Bridge, Male, Malé Atoll, Maldives"
    },
    {
      "lat": 4.166717763386759,
      "lon": 73.51747704781994,
      "geoinfo": {
        "display_name": "Henveiru, Malé, 20053, Maldives",
        "road": null,
        "house_number": null,
        "neighbourhood": null,
        "suburb": null,
        "city_district": "Henveiru",
        "city": "Malé",
        "state": null,
        "postcode": "20053",
        "country": "Maldives",
        "country_code": "mv"
      },
      "address": "Henveiru, Male, Malé Atoll, Maldives"
    },
    {
      "lat": 4.169794207917144,
      "lon": 73.51770640975393,
      "geoinfo": {
        "display_name": "Sinamalé Bridge, Henveiru, Malé, Malé Atoll, 20005, Maldives",
        "road": "Sinamalé Bridge",
        "house_number": null,
        "neighbourhood": null,
        "suburb": null,
        "city_district": "Henveiru",
        "city": "Malé",
        "state": "Malé Atoll",
        "postcode": "20005",
        "country": "Maldives",
        "country_code": "mv"
      },
      "address": "726, Sinamalé Bridge, Male, 20005 Malé Atoll, Maldives"
    },
    {
      "lat": 4.177102336568163,
      "lon": 73.52583001824712,
      "geoinfo": {
        "display_name": "Airport Main Road, Hulhumalé, Malé, 20005, Maldives",
        "road": "Airport Main Road",
        "house_number": null,
        "neighbourhood": null,
        "suburb": null,
        "city_district": "Hulhumalé",
        "city": "Malé",
        "state": null,
        "postcode": "20005",
        "country": "Maldives",
        "country_code": "mv"
      },
      "address": "625, Airport Main Road, 20005 Male, Maldives"
    },
    {
      "lat": 4.209272869456977,
      "lon": 73.50606056564692,
      "geoinfo": {
        "display_name": "Malé Atoll, Maldives",
        "road": null,
        "house_number": null,
        "neighbourhood": null,
        "suburb": null,
        "city_district": null,
        "city": null,
        "state": "Malé Atoll",
        "postcode": null,
        "country": "Maldives",
        "country_code": "mv"
      },
      "address": "264, Male, 43008 Malé Atoll, Maldives"
    },
    {
      "lat": 4.172156319497761,
      "lon": 73.54722335003262,
      "geoinfo": {
        "display_name": "Malé Atoll, Maldives",
        "road": null,
        "house_number": null,
        "neighbourhood": null,
        "suburb": null,
        "city_district": null,
        "city": null,
        "state": "Malé Atoll",
        "postcode": null,
        "country": "Maldives",
        "country_code": "mv"
      },
      "address": "445, Male, 67101 Malé Atoll, Maldives"
    },
    {
      "lat": 4.1953516994974,
      "lon": 73.5390394387299,
      "geoinfo": {
        "display_name": "Waterdrome, Midhili Magu, Hulhumalé, Hulhulé, 23000, Maldives",
        "road": "Midhili Magu",
        "house_number": null,
        "neighbourhood": null,
        "suburb": null,
        "city_district": "Hulhumalé",
        "city": "Hulhulé",
        "state": null,
        "postcode": "23000",
        "country": "Maldives",
        "country_code": "mv"
      },
      "address": "465, Midhili Magu, 23000 Male, Maldives"
    },
    {
      "lat": 4.206867074356193,
      "lon": 73.52313269438923,
      "geoinfo": {
        "display_name": "Midhili Magu, Hulhumalé, Malé, 23000, Maldives",
        "road": "Midhili Magu",
        "house_number": null,
        "neighbourhood": null,
        "suburb": null,
        "city_district": "Hulhumalé",
        "city": "Malé",
        "state": null,
        "postcode": "23000",
        "country": "Maldives",
        "country_code": "mv"
      },
      "address": "709, Midhili Magu, 23000 Male, Maldives"
    },
    {
      "lat": 4.181452923216908,
      "lon": 73.50999869737063,
      "geoinfo": {
        "display_name": "Male North Harbour, Faamdheyri Magu, Maafannu, Malé, 20216, Maldives",
        "road": "Faamdheyri Magu",
        "house_number": null,
        "neighbourhood": null,
        "suburb": null,
        "city_district": "Maafannu",
        "city": "Malé",
        "state": null,
        "postcode": "20216",
        "country": "Maldives",
        "country_code": "mv"
      },
      "address": "203, Faamdheyri Magu, 20216 Male, Maldives"
    },
    {
      "lat": 4.145622452435896,
      "lon": 73.48465236203499,
      "geoinfo": {
        "display_name": "Malé Atoll, Maldives",
        "road": null,
        "house_number": null,
        "neighbourhood": null,
        "suburb": null,
        "city_district": null,
        "city": null,
        "state": "Malé Atoll",
        "postcode": null,
        "country": "Maldives",
        "country_code": "mv"
      },
      "address": "604, Male, 87191 Malé Atoll, Maldives"
    },
    {
      "lat": 4.203850787856569,
      "lon": 73.52220777959495,
      "geoinfo": {
        "display_name": "Airport Main Road, Hulhumalé, Hulhulé, 20014, Maldives",
        "road": "Airport Main Road",
        "house_number": null,
        "neighbourhood": null,
        "suburb": null,
        "city_district": "Hulhumalé",
        "city": "Hulhulé",
        "state": null,
        "postcode": "20014",
        "country": "Maldives",
        "country_code": "mv"
      },
      "address": "797, Airport Main Road, 20014 Male, Maldives"
    },
    {
      "lat": 4.174168798945447,
      "lon": 73.48420321627556,
      "geoinfo": {
        "display_name": "Vilimalé, Malé, 20330, Maldives",
        "road": null,
        "house_number": null,
        "neighbourhood": null,
        "suburb": null,
        "city_district": "Vilimalé",
        "city": "Malé",
        "state": null,
        "postcode": "20330",
        "country": "Maldives",
        "country_code": "mv"
      },
      "address": "125, Vilimalé, 20330 Male, Maldives"
    },
    {
      "lat": 4.185066379402759,
      "lon": 73.50274621793444,
      "geoinfo": {
        "display_name": "Malé Atoll, Maldives",
        "road": null,
        "house_number": null,
        "neighbourhood": null,
        "suburb": null,
        "city_district": null,
        "city": null,
        "state": "Malé Atoll",
        "postcode": null,
        "country": "Maldives",
        "country_code": "mv"
      },
      "address": "904, Male, 83347 Malé Atoll, Maldives"
    },
    {
      "lat": 4.173649164750797,
      "lon": 73.5003803020187,
      "geoinfo": {
        "display_name": "Boduthakurufaanu Magu, Maafannu, Malé, 20330, Maldives",
        "road": "Boduthakurufaanu Magu",
        "house_number": null,
        "neighbourhood": null,
        "suburb": null,
        "city_district": "Maafannu",
        "city": "Malé",
        "state": null,
        "postcode": "20330",
        "country": "Maldives",
        "country_code": "mv"
      },
      "address": "090, Boduthakurufaanu Magu, 20330 Male, Maldives"
    },
    {
      "lat": 4.183675071196257,
      "lon": 73.53420931229473,
      "geoinfo": {
        "display_name": "Airport Main Road, Hulhumalé, Malé, 20014, Maldives",
        "road": "Airport Main Road",
        "house_number": null,
        "neighbourhood": null,
        "suburb": null,
        "city_district": "Hulhumalé",
        "city": "Malé",
        "state": null,
        "postcode": "20014",
        "country": "Maldives",
        "country_code": "mv"
      },
      "address": "825, Airport Main Road, 20014 Male, Maldives"
    },
    {
      "lat": 4.139770305853926,
      "lon": 73.49032283624909,
      "geoinfo": {
        "display_name": "Malé Atoll, Maldives",
        "road": null,
        "house_number": null,
        "neighbourhood": null,
        "suburb": null,
        "city_district": null,
        "city": null,
        "state": "Malé Atoll",
        "postcode": null,
        "country": "Maldives",
        "country_code": "mv"
      },
      "address": "504, Male, 26840 Malé Atoll, Maldives"
    },
    {
      "lat": 4.215720088275961,
      "lon": 73.52711226984505,
      "geoinfo": {
        "display_name": "Fithuroanu Magu, Hulhumalé, Malé, 23000, Maldives",
        "road": "Fithuroanu Magu",
        "house_number": null,
        "neighbourhood": null,
        "suburb": null,
        "city_district": "Hulhumalé",
        "city": "Malé",
        "state": null,
        "postcode": "23000",
        "country": "Maldives",
        "country_code": "mv"
      },
      "address": "667, Fithuroanu Magu, 23000 Male, Maldives"
    },
    {
      "lat": 4.182243586722098,
      "lon": 73.54776461728498,
      "geoinfo": {
        "display_name": "Malé Atoll, Maldives",
        "road": null,
        "house_number": null,
        "neighbourhood": null,
        "suburb": null,
        "city_district": null,
        "city": null,
        "state": "Malé Atoll",
        "postcode": null,
        "country": "Maldives",
        "country_code": "mv"
      },
      "address": "119, Male, 22116 Malé Atoll, Maldives"
    },
    {
      "lat": 4.181131379352222,
      "lon": 73.4833761373999,
      "geoinfo": {
        "display_name": "Boduthakurufaanu Magu, Maafannu, Malé, 20318, Maldives",
        "road": "Boduthakurufaanu Magu",
        "house_number": null,
        "neighbourhood": null,
        "suburb": null,
        "city_district": "Maafannu",
        "city": "Malé",
        "state": null,
        "postcode": "20318",
        "country": "Maldives",
        "country_code": "mv"
      },
      "address": "178, Boduthakurufaanu Magu, 20318 Male, Maldives"
    },
    {
      "lat": 4.175380090574328,
      "lon": 73.4857602029491,
      "geoinfo": {
        "display_name": "Vilimalé, Malé, 20336, Maldives",
        "road": null,
        "house_number": null,
        "neighbourhood": null,
        "suburb": null,
        "city_district": "Vilimalé",
        "city": "Malé",
        "state": null,
        "postcode": "20336",
        "country": "Maldives",
        "country_code": "mv"
      },
      "address": "015, Vilimalé, 20336 Male, Maldives"
    },
    {
      "lat": 4.162702059697053,
      "lon": 73.47557964050944,
      "geoinfo": {
        "display_name": "Malé Atoll, Maldives",
        "road": null,
        "house_number": null,
        "neighbourhood": null,
        "suburb": null,
        "city_district": null,
        "city": null,
        "state": "Malé Atoll",
        "postcode": null,
        "country": "Maldives",
        "country_code": "mv"
      },
      "address": "331, Male, 31072 Malé Atoll, Maldives"
    },
    {
      "lat": 4.2075862458337605,
      "lon": 73.52640430611315,
      "geoinfo": {
        "display_name": "Midhili Magu, Hulhumalé, Malé, 23000, Maldives",
        "road": "Midhili Magu",
        "house_number": null,
        "neighbourhood": null,
        "suburb": null,
        "city_district": "Hulhumalé",
        "city": "Malé",
        "state": null,
        "postcode": "23000",
        "country": "Maldives",
        "country_code": "mv"
      },
      "address": "959, Midhili Magu, 23000 Male, Maldives"
    },
    {
      "lat": 4.179769245305415,
      "lon": 73.5150715738912,
      "geoinfo": {
        "display_name": "Jetty #7, Boduthakurufaanu Magu, Henveiru, Malé, 20094, Maldives",
        "road": "Boduthakurufaanu Magu",
        "house_number": null,
        "neighbourhood": null,
        "suburb": null,
        "city_district": "Henveiru",
        "city": "Malé",
        "state": null,
        "postcode": "20094",
        "country": "Maldives",
        "country_code": "mv"
      },
      "address": "257, Boduthakurufaanu Magu, 20094 Male, Maldives"
    },
    {
      "lat": 4.166828061570993,
      "lon": 73.5244560633536,
      "geoinfo": {
        "display_name": "Sinamalé Bridge, Hulhumalé, Hulhulé, Malé Atoll, 20005, Maldives",
        "road": "Sinamalé Bridge",
        "house_number": null,
        "neighbourhood": null,
        "suburb": null,
        "city_district": "Hulhumalé",
        "city": "Hulhulé",
        "state": "Malé Atoll",
        "postcode": "20005",
        "country": "Maldives",
        "country_code": "mv"
      },
      "address": "710, Sinamalé Bridge, Male, 20005 Malé Atoll, Maldives"
    },
    {
      "lat": 4.172100245439422,
      "lon": 73.5504214059524,
      "geoinfo": {
        "display_name": "Malé Atoll, Maldives",
        "road": null,
        "house_number": null,
        "neighbourhood": null,
        "suburb": null,
        "city_district": null,
        "city": null,
        "state": "Malé Atoll",
        "postcode": null,
        "country": "Maldives",
        "country_code": "mv"
      },
      "address": "817, Male, 67901 Malé Atoll, Maldives"
    },
    {
      "lat": 4.193945554856189,
      "lon": 73.53179137613094,
      "geoinfo": {
        "display_name": "Velana International Airport, Midhili Magu, Hulhumalé, Malé, 20017, Maldives",
        "road": "Midhili Magu",
        "house_number": null,
        "neighbourhood": null,
        "suburb": null,
        "city_district": "Hulhumalé",
        "city": "Malé",
        "state": null,
        "postcode": "20017",
        "country": "Maldives",
        "country_code": "mv"
      },
      "address": "440, Midhili Magu, 20017 Male, Maldives"
    },
    {
      "lat": 4.164577546968601,
      "lon": 73.50257125347436,
      "geoinfo": {
        "display_name": "Banyan Tree, Boduthakurufaanu Magu, Maafannu, Malé, 20330, Maldives",
        "road": "Boduthakurufaanu Magu",
        "house_number": null,
        "neighbourhood": null,
        "suburb": null,
        "city_district": "Maafannu",
        "city": "Malé",
        "state": null,
        "postcode": "20330",
        "country": "Maldives",
        "country_code": "mv"
      },
      "address": "134, Boduthakurufaanu Magu, 20330 Male, Maldives"
    },
    {
      "lat": 4.176256204762631,
      "lon": 73.51060219117188,
      "geoinfo": {
        "display_name": "Rah Dhebai Magu, Galolhu, Malé, 20131, Maldives",
        "road": "Rah Dhebai Magu",
        "house_number": null,
        "neighbourhood": null,
        "suburb": null,
        "city_district": "Galolhu",
        "city": "Malé",
        "state": null,
        "postcode": "20131",
        "country": "Maldives",
        "country_code": "mv"
      },
      "address": "524, Rah Dhebai Magu, 20131 Male, Maldives"
    },
    {
      "lat": 4.193179399868872,
      "lon": 73.49263186429494,
      "geoinfo": {
        "display_name": "Malé Atoll, Maldives",
        "road": null,
        "house_number": null,
        "neighbourhood": null,
        "suburb": null,
        "city_district": null,
        "city": null,
        "state": "Malé Atoll",
        "postcode": null,
        "country": "Maldives",
        "country_code": "mv"
      },
      "address": "120, Male, 41114 Malé Atoll, Maldives"
    },
    {
      "lat": 4.146359380255407,
      "lon": 73.52112236978192,
      "geoinfo": {
        "display_name": "Malé Atoll, Maldives",
        "road": null,
        "house_number": null,
        "neighbourhood": null,
        "suburb": null,
        "city_district": null,
        "city": null,
        "state": "Malé Atoll",
        "postcode": null,
        "country": "Maldives",
        "country_code": "mv"
      },
      "address": "127, Male, 54678 Malé Atoll, Maldives"
    },
    {
      "lat": 4.137009117739875,
      "lon": 73.52833841793633,
      "geoinfo": {
        "display_name": "Malé Atoll, Maldives",
        "road": null,
        "house_number": null,
        "neighbourhood": null,
        "suburb": null,
        "city_district": null,
        "city": null,
        "state": "Malé Atoll",
        "postcode": null,
        "country": "Maldives",
        "country_code": "mv"
      },
      "address": "129, Male, 57151 Malé Atoll, Maldives"
    },
    {
      "lat": 4.149819519584957,
      "lon": 73.48632383030309,
      "geoinfo": {
        "display_name": "Malé Atoll, Maldives",
        "road": null,
        "house_number": null,
        "neighbourhood": null,
        "suburb": null,
        "city_district": null,
        "city": null,
        "state": "Malé Atoll",
        "postcode": null,
        "country": "Maldives",
        "country_code": "mv"
      },
      "address": "210, Male, 97655 Malé Atoll, Maldives"
    },
    {
      "lat": 4.202170349295513,
      "lon": 73.5171183696053,
      "geoinfo": {
        "display_name": "Dhoonidhoo, Airport Main Road, Hulhumalé, Hulhulé, 20014, Maldives",
        "road": "Airport Main Road",
        "house_number": null,
        "neighbourhood": null,
        "suburb": null,
        "city_district": "Hulhumalé",
        "city": "Hulhulé",
        "state": null,
        "postcode": "20014",
        "country": "Maldives",
        "country_code": "mv"
      },
      "address": "138, Airport Main Road, 20014 Male, Maldives"
    },
    {
      "lat": 4.183180476441351,
      "lon": 73.5214965853958,
      "geoinfo": {
        "display_name": "Airport Main Road, Hulhumalé, Hulhulé, 20014, Maldives",
        "road": "Airport Main Road",
        "house_number": null,
        "neighbourhood": null,
        "suburb": null,
        "city_district": "Hulhumalé",
        "city": "Hulhulé",
        "state": null,
        "postcode": "20014",
        "country": "Maldives",
        "country_code": "mv"
      },
      "address": "945, Airport Main Road, 20014 Male, Maldives"
    },
    {
      "lat": 4.190417914438309,
      "lon": 73.49917796415865,
      "geoinfo": {
        "display_name": "Malé Atoll, Maldives",
        "road": null,
        "house_number": null,
        "neighbourhood": null,
        "suburb": null,
        "city_district": null,
        "city": null,
        "state": "Malé Atoll",
        "postcode": null,
        "country": "Maldives",
        "country_code": "mv"
      },
      "address": "332, Male, 18052 Malé Atoll, Maldives"
    },
    {
      "lat": 4.17931499230961,
      "lon": 73.53421428346707,
      "geoinfo": {
        "display_name": "Midhili Magu, Hulhumalé, Malé, 20017, Maldives",
        "road": "Midhili Magu",
        "house_number": null,
        "neighbourhood": null,
        "suburb": null,
        "city_district": "Hulhumalé",
        "city": "Malé",
        "state": null,
        "postcode": "20017",
        "country": "Maldives",
        "country_code": "mv"
      },
      "address": "136, Midhili Magu, 20017 Male, Maldives"
    },
    {
      "lat": 4.177198398165092,
      "lon": 73.49718488669808,
      "geoinfo": {
        "display_name": "Pomelo by Lemongrass, Boduthakurufaanu Magu, Maafannu, Malé, 20336, Maldives",
        "road": "Boduthakurufaanu Magu",
        "house_number": null,
        "neighbourhood": null,
        "suburb": null,
        "city_district": "Maafannu",
        "city": "Malé",
        "state": null,
        "postcode": "20336",
        "country": "Maldives",
        "country_code": "mv"
      },
      "address": "019, Boduthakurufaanu Magu, 20336 Male, Maldives"
    },
    {
      "lat": 4.175764260685826,
      "lon": 73.52255404279613,
      "geoinfo": {
        "display_name": "Sinamalé Bridge, Midhili Magu, Hulhumalé, Hulhulé, 20005, Maldives",
        "road": "Midhili Magu",
        "house_number": null,
        "neighbourhood": null,
        "suburb": null,
        "city_district": "Hulhumalé",
        "city": "Hulhulé",
        "state": null,
        "postcode": "20005",
        "country": "Maldives",
        "country_code": "mv"
      },
      "address": "926, Midhili Magu, 20005 Male, Maldives"
    },
    {
      "lat": 4.161462857589403,
      "lon": 73.50236361437588,
      "geoinfo": {
        "display_name": "Banyan Tree, Boduthakurufaanu Magu, Maafannu, Malé, 20330, Maldives",
        "road": "Boduthakurufaanu Magu",
        "house_number": null,
        "neighbourhood": null,
        "suburb": null,
        "city_district": "Maafannu",
        "city": "Malé",
        "state": null,
        "postcode": "20330",
        "country": "Maldives",
        "country_code": "mv"
      },
      "address": "169, Boduthakurufaanu Magu, 20330 Male, Maldives"
    },
    {
      "lat": 4.170346185606221,
      "lon": 73.48693098601046,
      "geoinfo": {
        "display_name": "Vilimalé, Malé, 20330, Maldives",
        "road": null,
        "house_number": null,
        "neighbourhood": null,
        "suburb": null,
        "city_district": "Vilimalé",
        "city": "Malé",
        "state": null,
        "postcode": "20330",
        "country": "Maldives",
        "country_code": "mv"
      },
      "address": "572, Vilimalé, 20330 Male, Maldives"
    },
    {
      "lat": 4.165005325475523,
      "lon": 73.53675017781526,
      "geoinfo": {
        "display_name": "Malé Atoll, Maldives",
        "road": null,
        "house_number": null,
        "neighbourhood": null,
        "suburb": null,
        "city_district": null,
        "city": null,
        "state": "Malé Atoll",
        "postcode": null,
        "country": "Maldives",
        "country_code": "mv"
      },
      "address": "336, Male, 25964 Malé Atoll, Maldives"
    },
    {
      "lat": 4.185979822461308,
      "lon": 73.47828336525998,
      "geoinfo": {
        "display_name": "Malé Atoll, Maldives",
        "road": null,
        "house_number": null,
        "neighbourhood": null,
        "suburb": null,
        "city_district": null,
        "city": null,
        "state": "Malé Atoll",
        "postcode": null,
        "country": "Maldives",
        "country_code": "mv"
      },
      "address": "113, Male, 83698 Malé Atoll, Maldives"
    },
    {
      "lat": 4.21092291492065,
      "lon": 73.52323101059302,
      "geoinfo": {
        "display_name": "Malé Atoll, Maldives",
        "road": null,
        "house_number": null,
        "neighbourhood": null,
        "suburb": null,
        "city_district": null,
        "city": null,
        "state": "Malé Atoll",
        "postcode": null,
        "country": "Maldives",
        "country_code": "mv"
      },
      "address": "834, Male, 97741 Malé Atoll, Maldives"
    },
    {
      "lat": 4.176273215464755,
      "lon": 73.51594007464676,
      "geoinfo": {
        "display_name": "Dhunburi Magu, Henveiru, Malé, 20069, Maldives",
        "road": "Dhunburi Magu",
        "house_number": null,
        "neighbourhood": null,
        "suburb": null,
        "city_district": "Henveiru",
        "city": "Malé",
        "state": null,
        "postcode": "20069",
        "country": "Maldives",
        "country_code": "mv"
      },
      "address": "200, Dhunburi Magu, 20069 Male, Maldives"
    },
    {
      "lat": 4.195212127549803,
      "lon": 73.5304710222191,
      "geoinfo": {
        "display_name": "Velana International Airport, Midhili Magu, Hulhumalé, Malé, 20017, Maldives",
        "road": "Midhili Magu",
        "house_number": null,
        "neighbourhood": null,
        "suburb": null,
        "city_district": "Hulhumalé",
        "city": "Malé",
        "state": null,
        "postcode": "20017",
        "country": "Maldives",
        "country_code": "mv"
      },
      "address": "528, Midhili Magu, 20017 Male, Maldives"
    },
    {
      "lat": 4.205109205407808,
      "lon": 73.53942248773957,
      "geoinfo": {
        "display_name": "Kashimaa Higun, Hulhumalé, Malé, 23000, Maldives",
        "road": "Kashimaa Higun",
        "house_number": null,
        "neighbourhood": null,
        "suburb": null,
        "city_district": "Hulhumalé",
        "city": "Malé",
        "state": null,
        "postcode": "23000",
        "country": "Maldives",
        "country_code": "mv"
      },
      "address": "034, Kashimaa Higun, 23000 Male, Maldives"
    },
    {
      "lat": 4.16608403966602,
      "lon": 73.50320135628883,
      "geoinfo": {
        "display_name": "Banyan Tree, Boduthakurufaanu Magu, Maafannu, Malé, 20330, Maldives",
        "road": "Boduthakurufaanu Magu",
        "house_number": null,
        "neighbourhood": null,
        "suburb": null,
        "city_district": "Maafannu",
        "city": "Malé",
        "state": null,
        "postcode": "20330",
        "country": "Maldives",
        "country_code": "mv"
      },
      "address": "227, Boduthakurufaanu Magu, 20330 Male, Maldives"
    }
  ],
  "updated_at": "2025-10-19T08:25:54.511756+00:00",
  "_kind": "geo_samples"
}