{
  "country_code": "FM",
  "country": "Micronesia",
  "city": "Palikir",
  "geonameid": 2081986,
  "target_addresses": 100,
  "samples": [
    {
      "lat": 6.898453482712891,
      "lon": 158.1244342474727,
      "geoinfo": {
        "display_name": "Lehpwelen Tomwara, Sokehs, Soledi Kousapw, Pohnpei, Federated States of Micronesia",
        "road": null,
        "house_number": null,
        "neighbourhood": null,
        "suburb": null,
        "city_district": null,
        "city": "Sokehs",
        "state": "Pohnpei",
        "postcode": null,
        "country": "Federated States of Micronesia",
        "country_code": "fm"
      },
      "address": "Palikir, Pohnpei, Micronesia"
    },
    {
      "lat": 6.937567383267352,
      "lon": 158.17896513090747,
      "geoinfo": {
        "display_name": "Likie Road, Palikir, Sokehs, Soledi Kousapw, Pohnpei, 96941, Federated States of Micronesia",
        "road": "Likie Road",
        "house_number": null,
        "neighbourhood": null,
        "suburb": null,
        "city_district": null,
        "city": "Sokehs",
        "state": "Pohnpei",
        "postcode": "96941",
        "country": "Federated States of Micronesia",
        "country_code": "fm"
      },
      "address": "Likie Road, Palikir, Pohnpei, Micronesia"
    },
    {
      "lat": 6.928025297724482,
      "lon": 158.1293795544498,
      "geoinfo": {
        "display_name": "Lewetik Road, Sokehs, Roie Kousapw, Pohnpei, Federated States of Micronesia",
        "road": "Lewetik Road",
        "house_number": null,
        "neighbourhood": null,
        "suburb": null,
        "city_district": null,
        "city": "Sokehs",
        "state": "Pohnpei",
        "postcode": null,
        "country": "Federated States of Micronesia",
        "country_code": "fm"
      },
      "address": "Lewetik Road, Palikir, Pohnpei, Micronesia"
    },
    {
      "lat": 6.945584677624714,
      "lon": 158.15133127628516,
      "geoinfo": {
        "display_name": "Kepira Road, Palikir, Sokehs, Roie Kousapw, Pohnpei, Federated States of Micronesia",
        "road": "Kepira Road",
        "house_number": null,
        "neighbourhood": null,
        "suburb": null,
        "city_district": null,
        "city": "Sokehs",
        "state": "Pohnpei",
        "postcode": null,
        "country": "Federated States of Micronesia",
        "country_code": "fm"
      },
      "address": "Kepira Road, Palikir, Pohnpei, Micronesia"
    },
    {
      "lat": 6.899032061485461,
      "lon": 158.15542901263487,
      "geoinfo": {
        "display_name": "Kitti Circle Island Road, Sakartik, Pwel Weita, Kitti, Soledi Kousapw, Pohnpei, Federated States of Micronesia",
        "road": "Kitti Circle Island Road",
        "house_number": null,
        "neighbourhood": null,
        "suburb": null,
        "city_district": null,
        "city": "Kitti",
        "state": "Pohnpei",
        "postcode": null,
        "country": "Federated States of Micronesia",
        "country_code": "fm"
      },
      "address": "Kitti Circle Island Road, Palikir, Pohnpei, Micronesia"
    },
    {
      "lat": 6.918466788956139,
      "lon": 158.15483870921958,
      "geoinfo": {
        "display_name": "Soundau Road, Palikir, Sokehs, Soledi Kousapw, Pohnpei, Federated States of Micronesia",
        "road": "Soundau Road",
        "house_number": null,
        "neighbourhood": null,
        "suburb": null,
        "city_district": null,
        "city": "Sokehs",
        "state": "Pohnpei",
        "postcode": null,
        "country": "Federated States of Micronesia",
        "country_code": "fm"
      },
      "address": "Soundau Road, Palikir, Pohnpei, Micronesia"
    },
    {
      "lat": 6.947716446945243,
      "lon": 158.18590207453533,
      "geoinfo": {
        "display_name": "Sokehs Circle Island Road, Ipat, Sokehs, Peidie Kousapw, Pohnpei, 96941, Federated States of Micronesia",
        "road": "Sokehs Circle Island Road",
        "house_number": null,
        "neighbourhood": null,
        "suburb": null,
        "city_district": null,
        "city": "Sokehs",
        "state": "Pohnpei",
        "postcode": "96941",
        "country": "Federated States of Micronesia",
        "country_code": "fm"
      },
      "address": "Sokehs Circle Island Road, Palikir, Pohnpei, Micronesia"
    },
    {
      "lat": 6.917993508900507,
      "lon": 158.1439126641158,
      "geoinfo": {
        "display_name": "Pohnahu Road, Palikir, Sokehs, Soledi Kousapw, Pohnpei, Federated States of Micronesia",
        "road": "Pohnahu Road",
        "house_number": null,
        "neighbourhood": null,
        "suburb": null,
        "city_district": null,
        "city": "Sokehs",
        "state": "Pohnpei",
        "postcode": null,
        "country": "Federated States of Micronesia",
        "country_code": "fm"
      },
      "address": "Pohnahu Road, Palikir, Pohnpei, Micronesia"
    },
    {
      "lat": 6.934698253364008,
      "lon": 158.18607670852296,
      "geoinfo": {
        "display_name": "Nan Mal Road, Palikir, Sokehs, Peidie Kousapw, Pohnpei, 96941, Federated States of Micronesia",
        "road": "Nan Mal Road",
        "house_number": null,
        "neighbourhood": null,
        "suburb": null,
        "city_district": null,
        "city": "Sokehs",
        "state": "Pohnpei",
        "postcode": "96941",
        "country": "Federated States of Micronesia",
        "country_code": "fm"
      },
      "address": "Nan Mal Road, Palikir, Pohnpei, Micronesia"
    },
    {
      "lat": 6.9195679198979265,
      "lon": 158.15664889882657,
      "geoinfo": {
        "display_name": "Palikir Road, Palikir, Sokehs, Soledi Kousapw, Pohnpei, Federated States of Micronesia",
        "road": "Palikir Road",
        "house_number": null,
        "neighbourhood": null,
        "suburb": null,
        "city_district": null,
        "city": "Sokehs",
        "state": "Pohnpei",
        "postcode": null,
        "country": "Federated States of Micronesia",
        "country_code": "fm"
      },
      "address": "Palikir Road, Palikir, Pohnpei, Micronesia"
    },
    {
      "lat": 6.930051861209106,
      "lon": 158.1733906925301,
      "geoinfo": {
        "display_name": "Japanese Military Road, Palikir, Sokehs, Soledi Kousapw, Pohnpei, 96941, Federated States of Micronesia",
        "road": "Japanese Military Road",
        "house_number": null,
        "neighbourhood": null,
        "suburb": null,
        "city_district": null,
        "city": "Sokehs",
        "state": "Pohnpei",
        "postcode": "96941",
        "country": "Federated States of Micronesia",
        "country_code": "fm"
      },
      "address": "Japanese Military Road, Palikir, Pohnpei, Micronesia"
    },
    {
      "lat": 6.92088229654671,
      "lon": 158.15705042303327,
      "geoinfo": {
        "display_name": "National Government Road, Palikir, Sokehs, Soledi Kousapw, Pohnpei, Federated States of Micronesia",
        "road": "National Government Road",
        "house_number": null,
        "neighbourhood": null,
        "suburb": null,
        "city_district": null,
        "city": "Sokehs",
        "state": "Pohnpei",
        "postcode": null,
        "country": "Federated States of Micronesia",
        "country_code": "fm"
      },
      "address": "National Government Road, Palikir, Pohnpei, Micronesia"
    },
    {
      "lat": 6.910498539991362,
      "lon": 158.1582160711335,
      "geoinfo": {
        "display_name": "College of Micronesia National Campus, College Road, Palikir, Sokehs, Soledi Kousapw, Pohnpei, Federated States of Micronesia",
        "road": "College Road",
        "house_number": null,
        "neighbourhood": null,
        "suburb": null,
        "city_district": null,
        "city": "Sokehs",
        "state": "Pohnpei",
        "postcode": null,
        "country": "Federated States of Micronesia",
        "country_code": "fm"
      },
      "address": "College Road, Palikir, Pohnpei, Micronesia"
    },
    {
      "lat": 6.9209541465315185,
      "lon": 158.1734473350308,
      "geoinfo": {
        "display_name": "Kitti Circle Island Road, Palikir, Sokehs, Peidie Kousapw, Pohnpei, Federated States of Micronesia",
        "road": "Kitti Circle Island Road",
        "house_number": null,
        "neighbourhood": null,
        "suburb": null,
        "city_district": null,
        "city": "Sokehs",
        "state": "Pohnpei",
        "postcode": null,
        "country": "Federated States of Micronesia",
        "country_code": "fm"
      },
      "address": "383, Kitti Circle Island Road, Palikir, 59044 Pohnpei, Micronesia"
    },
    {
      "lat": 6.903777315037615,
      "lon": 158.16572344953084,
      "geoinfo": {
        "display_name": "Kitti, Peidie Kousapw, Pohnpei, Federated States of Micronesia",
        "road": null,
        "house_number": null,
        "neighbourhood": null,
        "suburb": null,
        "city_district": null,
        "city": "Kitti",
        "state": "Pohnpei",
        "postcode": null,
        "country": "Federated States of Micronesia",
        "country_code": "fm"
      },
      "address": "499, Palikir, 07079 Pohnpei, Micronesia"
    },
    {
      "lat": 6.907768785532275,
      "lon": 158.16529765255456,
      "geoinfo": {
        "display_name": "Kitti, Soledi Kousapw, Pohnpei, Federated States of Micronesia",
        "road": null,
        "house_number": null,
        "neighbourhood": null,
        "suburb": null,
        "city_district": null,
        "city": "Kitti",
        "state": "Pohnpei",
        "postcode": null,
        "country": "Federated States of Micronesia",
        "country_code": "fm"
      },
      "address": "106, Palikir, 91963 Pohnpei, Micronesia"
    },
    {
      "lat": 6.91947022125287,
      "lon": 158.14593485267713,
      "geoinfo": {
        "display_name": "Pohnahu Road, Palikir, Sokehs, Soledi Kousapw, Pohnpei, Federated States of Micronesia",
        "road": "Pohnahu Road",
        "house_number": null,
        "neighbourhood": null,
        "suburb": null,
        "city_district": null,
        "city": "Sokehs",
        "state": "Pohnpei",
        "postcode": null,
        "country": "Federated States of Micronesia",
        "country_code": "fm"
      },
      "address": "658, Pohnahu Road, Palikir, 12229 Pohnpei, Micronesia"
    },
    {
      "lat": 6.939671145769832,
      "lon": 158.14438216174358,
      "geoinfo": {
        "display_name": "Kepira Road, Palikir, Sokehs, Roie Kousapw, Pohnpei, Federated States of Micronesia",
        "road": "Kepira Road",
        "house_number": null,
        "neighbourhood": null,
        "suburb": null,
        "city_district": null,
        "city": "Sokehs",
        "state": "Pohnpei",
        "postcode": null,
        "country": "Federated States of Micronesia",
        "country_code": "fm"
      },
      "address": "023, Kepira Road, Palikir, 45955 Pohnpei, Micronesia"
    },
    {
      "lat": 6.907722469015209,
      "lon": 158.1451853412075,
      "geoinfo": {
        "display_name": "Palikir, Sokehs, Soledi Kousapw, Pohnpei, Federated States of Micronesia",
        "road": null,
        "house_number": null,
        "neighbourhood": null,
        "suburb": null,
        "city_district": null,
        "city": "Sokehs",
        "state": "Pohnpei",
        "postcode": null,
        "country": "Federated States of Micronesia",
        "country_code": "fm"
      },
      "address": "136, Palikir, 76944 Pohnpei, Micronesia"
    },
    {
      "lat": 6.9053499829312095,
      "lon": 158.12046044389524,
      "geoinfo": {
        "display_name": "Imwin Iaken Pwetik, Sokehs, Roie Kousapw, Pohnpei, Federated States of Micronesia",
        "road": null,
        "house_number": null,
        "neighbourhood": null,
        "suburb": null,
        "city_district": null,
        "city": "Sokehs",
        "state": "Pohnpei",
        "postcode": null,
        "country": "Federated States of Micronesia",
        "country_code": "fm"
      },
      "address": "998, Palikir, 80483 Pohnpei, Micronesia"
    },
    {
      "lat": 6.913129308495324,
      "lon": 158.13958690393082,
      "geoinfo": {
        "display_name": "Soundau Road, Palikir, Sokehs, Soledi Kousapw, Pohnpei, Federated States of Micronesia",
        "road": "Soundau Road",
        "house_number": null,
        "neighbourhood": null,
        "suburb": null,
        "city_district": null,
        "city": "Sokehs",
        "state": "Pohnpei",
        "postcode": null,
        "country": "Federated States of Micronesia",
        "country_code": "fm"
      },
      "address": "977, Soundau Road, Palikir, 71784 Pohnpei, Micronesia"
    },
    {
      "lat": 6.897556976557343,
      "lon": 158.16214521797366,
      "geoinfo": {
        "display_name": "Kitti Circle Island Road, Sakartik, Pwel Weita, Kitti, Soledi Kousapw, Pohnpei, Federated States of Micronesia",
        "road": "Kitti Circle Island Road",
        "house_number": null,
        "neighbourhood": null,
        "suburb": null,
        "city_district": null,
        "city": "Kitti",
        "state": "Pohnpei",
        "postcode": null,
        "country": "Federated States of Micronesia",
        "country_code": "fm"
      },
      "address": "941, Kitti Circle Island Road, Palikir, 11785 Pohnpei, Micronesia"
    },
    {
      "lat": 6.9306953926601444,
      "lon": 158.1804267741678,
      "geoinfo": {
        "display_name": "Palikir, Sokehs, Peidie Kousapw, Pohnpei, 96941, Federated States of Micronesia",
        "road": null,
        "house_number": null,
        "neighbourhood": null,
        "suburb": null,
        "city_district": null,
        "city": "Sokehs",
        "state": "Pohnpei",
        "postcode": "96941",
        "country": "Federated States of Micronesia",
        "country_code": "fm"
      },
      "address": "774, Palikir, 96941 Pohnpei, Micronesia"
    },
    {
      "lat": 6.933273726940727,
      "lon": 158.14275237586847,
      "geoinfo": {
        "display_name": "Malen Dapengen Penlew, Palikir, Sokehs, Soledi Kousapw, Pohnpei, Federated States of Micronesia",
        "road": null,
        "house_number": null,
        "neighbourhood": null,
        "suburb": null,
        "city_district": null,
        "city": "Sokehs",
        "state": "Pohnpei",
        "postcode": null,
        "country": "Federated States of Micronesia",
        "country_code": "fm"
      },
      "address": "369, Palikir, 84432 Pohnpei, Micronesia"
    },
    {
      "lat": 6.934193426761031,
      "lon": 158.18290386153797,
      "geoinfo": {
        "display_name": "Nan Mal Road, Palikir, Sokehs, Peidie Kousapw, Pohnpei, 96941, Federated States of Micronesia",
        "road": "Nan Mal Road",
        "house_number": null,
        "neighbourhood": null,
        "suburb": null,
        "city_district": null,
        "city": "Sokehs",
        "state": "Pohnpei",
        "postcode": "96941",
        "country": "Federated States of Micronesia",
        "country_code": "fm"
      },
      "address": "721, Nan Mal Road, Palikir, 96941 Pohnpei, Micronesia"
    },
    {
      "lat": 6.955297582678197,
      "lon": 158.14815911296444,
      "geoinfo": {
        "display_name": "Likie Road, Palikir, Sokehs, Soledi Kousapw, Pohnpei, 96941, Federated States of Micronesia",
        "road": "Likie Road",
        "house_number": null,
        "neighbourhood": null,
        "suburb": null,
        "city_district": null,
        "city": "Sokehs",
        "state": "Pohnpei",
        "postcode": "96941",
        "country": "Federated States of Micronesia",
        "country_code": "fm"
      },
      "address": "472, Likie Road, Palikir, 96941 Pohnpei, Micronesia"
    },
    {
      "lat": 6.914583901557394,
      "lon": 158.1996017181938,
      "geoinfo": {
        "display_name": "Mallepwou, Nett, Peidie Kousapw, Pohnpei, 96941, Federated States of Micronesia",
        "road": null,
        "house_number": null,
        "neighbourhood": null,
        "suburb": null,
        "city_district": null,
        "city": "Nett",
        "state": "Pohnpei",
        "postcode": "96941",
        "country": "Federated States of Micronesia",
        "country_code": "fm"
      },
      "address": "841, Palikir, 96941 Pohnpei, Micronesia"
    },
    {
      "lat": 6.909864278924637,
      "lon": 158.16736702038844,
      "geoinfo": {
        "display_name": "Kitti, Soledi Kousapw, Pohnpei, Federated States of Micronesia",
        "road": null,
        "house_number": null,
        "neighbourhood": null,
        "suburb": null,
        "city_district": null,
        "city": "Kitti",
        "state": "Pohnpei",
        "postcode": null,
        "country": "Federated States of Micronesia",
        "country_code": "fm"
      },
      "address": "278, Palikir, 27409 Pohnpei, Micronesia"
    },
    {
      "lat": 6.934658019232787,
      "lon": 158.18419942885947,
      "geoinfo": {
        "display_name": "Nan Mal Road, Palikir, Sokehs, Peidie Kousapw, Pohnpei, 96941, Federated States of Micronesia",
        "road": "Nan Mal Road",
        "house_number": null,
        "neighbourhood": null,
        "suburb": null,
        "city_district": null,
        "city": "Sokehs",
        "state": "Pohnpei",
        "postcode": "96941",
        "country": "Federated States of Micronesia",
        "country_code": "fm"
      },
      "address": "198, Nan Mal Road, Palikir, 96941 Pohnpei, Micronesia"
    },
    {
      "lat": 6.947827972227151,
      "lon": 158.14577574284573,
      "geoinfo": {
        "display_name": "Kepira Road, Palikir, Sokehs, Roie Kousapw, Pohnpei, Federated States of Micronesia",
        "road": "Kepira Road",
        "house_number": null,
        "neighbourhood": null,
        "suburb": null,
        "city_district": null,
        "city": "Sokehs",
        "state": "Pohnpei",
        "postcode": null,
        "country": "Federated States of Micronesia",
        "country_code": "fm"
      },
      "address": "222, Kepira Road, Palikir, 94754 Pohnpei, Micronesia"
    },
    {
      "lat": 6.952555571236322,
      "lon": 158.1543596197278,
      "geoinfo": {
        "display_name": "Likie Road, Palikir, Sokehs, Soledi Kousapw, Pohnpei, 96941, Federated States of Micronesia",
        "road": "Likie Road",
        "house_number": null,
        "neighbourhood": null,
        "suburb": null,
        "city_district": null,
        "city": "Sokehs",
        "state": "Pohnpei",
        "postcode": "96941",
        "country": "Federated States of Micronesia",
        "country_code": "fm"
      },
      "address": "291, Likie Road, Palikir, 96941 Pohnpei, Micronesia"
    },
    {
      "lat": 6.90573411328111,
      "lon": 158.14652361867894,
      "geoinfo": {
        "display_name": "Palikir, Sokehs, Soledi Kousapw, Pohnpei, Federated States of Micronesia",
        "road": null,
        "house_number": null,
        "neighbourhood": null,
        "suburb": null,
        "city_district": null,
        "city": "Sokehs",
        "state": "Pohnpei",
        "postcode": null,
        "country": "Federated States of Micronesia",
        "country_code": "fm"
      },
      "address": "738, Palikir, 19868 Pohnpei, Micronesia"
    },
    {
      "lat": 6.9443559906660575,
      "lon": 158.18800188792864,
      "geoinfo": {
        "display_name": "Palikir, Sokehs, Peidie Kousapw, Pohnpei, 96941, Federated States of Micronesia",
        "road": null,
        "house_number": null,
        "neighbourhood": null,
        "suburb": null,
        "city_district": null,
        "city": "Sokehs",
        "state": "Pohnpei",
        "postcode": "96941",
        "country": "Federated States of Micronesia",
        "country_code": "fm"
      },
      "address": "614, Palikir, 96941 Pohnpei, Micronesia"
    },
    {
      "lat": 6.8952006856007335,
      "lon": 158.14354008509298,
      "geoinfo": {
        "display_name": "Palikir, Kitti, Soledi Kousapw, Pohnpei, Federated States of Micronesia",
        "road": null,
        "house_number": null,
        "neighbourhood": null,
        "suburb": null,
        "city_district": null,
        "city": "Kitti",
        "state": "Pohnpei",
        "postcode": null,
        "country": "Federated States of Micronesia",
        "country_code": "fm"
      },
      "address": "787, Palikir, 37958 Pohnpei, Micronesia"
    },
    {
      "lat": 6.956913091822941,
      "lon": 158.13624687045677,
      "geoinfo": {
        "display_name": "Palikir, Sokehs, Soledi Kousapw, Pohnpei, Federated States of Micronesia",
        "road": null,
        "house_number": null,
        "neighbourhood": null,
        "suburb": null,
        "city_district": null,
        "city": "Sokehs",
        "state": "Pohnpei",
        "postcode": null,
        "country": "Federated States of Micronesia",
        "country_code": "fm"
      },
      "address": "342, Palikir, 38218 Pohnpei, Micronesia"
    },
    {
      "lat": 6.932278053199512,
      "lon": 158.19078213217787,
      "geoinfo": {
        "display_name": "Nan Mal Road, Palikir, Sokehs, Peidie Kousapw, Pohnpei, 96941, Federated States of Micronesia",
        "road": "Nan Mal Road",
        "house_number": null,
        "neighbourhood": null,
        "suburb": null,
        "city_district": null,
        "city": "Sokehs",
        "state": "Pohnpei",
        "postcode": "96941",
        "country": "Federated States of Micronesia",
        "country_code": "fm"
      },
      "address": "452, Nan Mal Road, Palikir, 96941 Pohnpei, Micronesia"
    },
    {
      "lat": 6.965646891696394,
      "lon": 158.16104976481307,
      "geoinfo": {
        "display_name": "Danipei, Sokehs, Eir kousapw, Pohnpei, 96941, Federated States of Micronesia",
        "road": null,
        "house_number": null,
        "neighbourhood": null,
        "suburb": null,
        "city_district": null,
        "city": "Sokehs",
        "state": "Pohnpei",
        "postcode": "96941",
        "country": "Federated States of Micronesia",
        "country_code": "fm"
      },
      "address": "424, Palikir, 96941 Pohnpei, Micronesia"
    },
    {
      "lat": 6.926815130575004,
      "lon": 158.1670786925442,
      "geoinfo": {
        "display_name": "FSM Government Housing Complex, Palikir, Sokehs, Soledi Kousapw, Pohnpei, Federated States of Micronesia",
        "road": null,
        "house_number": null,
        "neighbourhood": null,
        "suburb": null,
        "city_district": null,
        "city": "Sokehs",
        "state": "Pohnpei",
        "postcode": null,
        "country": "Federated States of Micronesia",
        "country_code": "fm"
      },
      "address": "862, Palikir, 84457 Pohnpei, Micronesia"
    },
    {
      "lat": 6.899031815575297,
      "lon": 158.1373231698957,
      "geoinfo": {
        "display_name": "Palikir, Sokehs, Soledi Kousapw, Pohnpei, Federated States of Micronesia",
        "road": null,
        "house_number": null,
        "neighbourhood": null,
        "suburb": null,
        "city_district": null,
        "city": "Sokehs",
        "state": "Pohnpei",
        "postcode": null,
        "country": "Federated States of Micronesia",
        "country_code": "fm"
      },
      "address": "374, Palikir, 09191 Pohnpei, Micronesia"
    },
    {
      "lat": 6.91595487698248,
      "lon": 158.1527273772966,
      "geoinfo": {
        "display_name": "Palikir, Sokehs, Soledi Kousapw, Pohnpei, Federated States of Micronesia",
        "road": null,
        "house_number": null,
        "neighbourhood": null,
        "suburb": null,
        "city_district": null,
        "city": "Sokehs",
        "state": "Pohnpei",
        "postcode": null,
        "country": "Federated States of Micronesia",
        "country_code": "fm"
      },
      "address": "431, Palikir, 01587 Pohnpei, Micronesia"
    },
    {
      "lat": 6.962682129731791,
      "lon": 158.14540110954306,
      "geoinfo": {
        "display_name": "Palikir, Sokehs, Soledi Kousapw, Pohnpei, Federated States of Micronesia",
        "road": null,
        "house_number": null,
        "neighbourhood": null,
        "suburb": null,
        "city_district": null,
        "city": "Sokehs",
        "state": "Pohnpei",
        "postcode": null,
        "country": "Federated States of Micronesia",
        "country_code": "fm"
      },
      "address": "758, Palikir, 54199 Pohnpei, Micronesia"
    },
    {
      "lat": 6.911394625605618,
      "lon": 158.18380930148686,
      "geoinfo": {
        "display_name": "Palikir, Sokehs, Soledi Kousapw, Pohnpei, Federated States of Micronesia",
        "road": null,
        "house_number": null,
        "neighbourhood": null,
        "suburb": null,
        "city_district": null,
        "city": "Sokehs",
        "state": "Pohnpei",
        "postcode": null,
        "country": "Federated States of Micronesia",
        "country_code": "fm"
      },
      "address": "409, Palikir, 53302 Pohnpei, Micronesia"
    },
    {
      "lat": 6.890732634564804,
      "lon": 158.16860561042398,
      "geoinfo": {
        "display_name": "Sakartik, Pwel Weita, Kitti, Soledi Kousapw, Pohnpei, Federated States of Micronesia",
        "road": null,
        "house_number": null,
        "neighbourhood": null,
        "suburb": null,
        "city_district": null,
        "city": "Kitti",
        "state": "Pohnpei",
        "postcode": null,
        "country": "Federated States of Micronesia",
        "country_code": "fm"
      },
      "address": "573, Palikir, 93044 Pohnpei, Micronesia"
    },
    {
      "lat": 6.894883580386905,
      "lon": 158.19165531423775,
      "geoinfo": {
        "display_name": "Palikir, Sokehs, Soledi Kousapw, Pohnpei, Federated States of Micronesia",
        "road": null,
        "house_number": null,
        "neighbourhood": null,
        "suburb": null,
        "city_district": null,
        "city": "Sokehs",
        "state": "Pohnpei",
        "postcode": null,
        "country": "Federated States of Micronesia",
        "country_code": "fm"
      },
      "address": "616, Palikir, 18256 Pohnpei, Micronesia"
    },
    {
      "lat": 6.912850029302272,
      "lon": 158.19442087503023,
      "geoinfo": {
        "display_name": "Palikir, Sokehs, Soledi Kousapw, Pohnpei, Federated States of Micronesia",
        "road": null,
        "house_number": null,
        "neighbourhood": null,
        "suburb": null,
        "city_district": null,
        "city": "Sokehs",
        "state": "Pohnpei",
        "postcode": null,
        "country": "Federated States of Micronesia",
        "country_code": "fm"
      },
      "address": "806, Palikir, 10998 Pohnpei, Micronesia"
    },
    {
      "lat": 6.952255620345265,
      "lon": 158.1913323380415,
      "geoinfo": {
        "display_name": "Sokehs Circle Island Road, Ipat, Nett, Peidie Kousapw, Pohnpei, 96941, Federated States of Micronesia",
        "road": "Sokehs Circle Island Road",
        "house_number": null,
        "neighbourhood": null,
        "suburb": null,
        "city_district": null,
        "city": "Nett",
        "state": "Pohnpei",
        "postcode": "96941",
        "country": "Federated States of Micronesia",
        "country_code": "fm"
      },
      "address": "556, Sokehs Circle Island Road, Palikir, 96941 Pohnpei, Micronesia"
    },
    {
      "lat": 6.944382041085789,
      "lon": 158.17791976388435,
      "geoinfo": {
        "display_name": "Likie Road, Palikir, Sokehs, Soledi Kousapw, Pohnpei, 96941, Federated States of Micronesia",
        "road": "Likie Road",
        "house_number": null,
        "neighbourhood": null,
        "suburb": null,
        "city_district": null,
        "city": "Sokehs",
        "state": "Pohnpei",
        "postcode": "96941",
        "country": "Federated States of Micronesia",
        "country_code": "fm"
      },
      "address": "744, Likie Road, Palikir, 96941 Pohnpei, Micronesia"
    },
    {
      "lat": 6.916101513276032,
      "lon": 158.1423485758104,
      "geoinfo": {
        "display_name": "Soundau Road, Palikir, Sokehs, Soledi Kousapw, Pohnpei, Federated States of Micronesia",
        "road": "Soundau Road",
        "house_number": null,
        "neighbourhood": null,
        "suburb": null,
        "city_district": null,
        "city": "Sokehs",
        "state": "Pohnpei",
        "postcode": null,
        "country": "Federated States of Micronesia",
        "country_code": "fm"
      },
      "address": "533, Soundau Road, Palikir, 18708 Pohnpei, Micronesia"
    },
    {
      "lat": 6.938132216307014,
      "lon": 158.1792657172466,
      "geoinfo": {
        "display_name": "Likie Road, Palikir, Sokehs, Soledi Kousapw, Pohnpei, 96941, Federated States of Micronesia",
        "road": "Likie Road",
        "house_number": null,
        "neighbourhood": null,
        "suburb": null,
        "city_district": null,
        "city": "Sokehs",
        "state": "Pohnpei",
        "postcode": "96941",
        "country": "Federated States of Micronesia",
        "country_code": "fm"
      },
      "address": "712, Likie Road, Palikir, 96941 Pohnpei, Micronesia"
    },
    {
      "lat": 6.909391969356121,
      "lon": 158.1480583249169,
      "geoinfo": {
        "display_name": "Palikir, Sokehs, Soledi Kousapw, Pohnpei, Federated States of Micronesia",
        "road": null,
        "house_number": null,
        "neighbourhood": null,
        "suburb": null,
        "city_district": null,
        "city": "Sokehs",
        "state": "Pohnpei",
        "postcode": null,
        "country": "Federated States of Micronesia",
        "country_code": "fm"
      },
      "address": "719, Palikir, 94993 Pohnpei, Micronesia"
    },
    {
      "lat": 6.90882063057679,
      "lon": 158.15279214907875,
      "geoinfo": {
        "display_name": "Palikir, Sokehs, Soledi Kousapw, Pohnpei, Federated States of Micronesia",
        "road": null,
        "house_number": null,
        "neighbourhood": null,
        "suburb": null,
        "city_district": null,
        "city": "Sokehs",
        "state": "Pohnpei",
        "postcode": null,
        "country": "Federated States of Micronesia",
        "country_code": "fm"
      },
      "address": "178, Palikir, 68967 Pohnpei, Micronesia"
    },
    {
      "lat": 6.908117945163376,
      "lon": 158.15171457083747,
      "geoinfo": {
        "display_name": "Palikir, Sokehs, Soledi Kousapw, Pohnpei, Federated States of Micronesia",
        "road": null,
        "house_number": null,
        "neighbourhood": null,
        "suburb": null,
        "city_district": null,
        "city": "Sokehs",
        "state": "Pohnpei",
        "postcode": null,
        "country": "Federated States of Micronesia",
        "country_code": "fm"
      },
      "address": "922, Palikir, 14992 Pohnpei, Micronesia"
    },
    {
      "lat": 6.915550690502835,
      "lon": 158.14486537052713,
      "geoinfo": {
        "display_name": "Soundau Road, Palikir, Sokehs, Soledi Kousapw, Pohnpei, Federated States of Micronesia",
        "road": "Soundau Road",
        "house_number": null,
        "neighbourhood": null,
        "suburb": null,
        "city_district": null,
        "city": "Sokehs",
        "state": "Pohnpei",
        "postcode": null,
        "country": "Federated States of Micronesia",
        "country_code": "fm"
      },
      "address": "572, Soundau Road, Palikir, 08984 Pohnpei, Micronesia"
    },
    {
      "lat": 6.9054302784846255,
      "lon": 158.17881027334323,
      "geoinfo": {
        "display_name": "Pwel Weita, Kitti, Peidie Kousapw, Pohnpei, Federated States of Micronesia",
        "road": null,
        "house_number": null,
        "neighbourhood": null,
        "suburb": null,
        "city_district": null,
        "city": "Kitti",
        "state": "Pohnpei",
        "postcode": null,
        "country": "Federated States of Micronesia",
        "country_code": "fm"
      },
      "address": "053, Palikir, 26315 Pohnpei, Micronesia"
    },
    {
      "lat": 6.9217747467100565,
      "lon": 158.13844649366254,
      "geoinfo": {
        "display_name": "Lewetik Road, Palikir, Sokehs, Roie Kousapw, Pohnpei, Federated States of Micronesia",
        "road": "Lewetik Road",
        "house_number": null,
        "neighbourhood": null,
        "suburb": null,
        "city_district": null,
        "city": "Sokehs",
        "state": "Pohnpei",
        "postcode": null,
        "country": "Federated States of Micronesia",
        "country_code": "fm"
      },
      "address": "815, Lewetik Road, Palikir, 49923 Pohnpei, Micronesia"
    },
    {
      "lat": 6.929789723172466,
      "lon": 158.1983492232055,
      "geoinfo": {
        "display_name": "Nett, Peidie Kousapw, Pohnpei, 96941, Federated States of Micronesia",
        "road": null,
        "house_number": null,
        "neighbourhood": null,
        "suburb": null,
        "city_district": null,
        "city": "Nett",
        "state": "Pohnpei",
        "postcode": "96941",
        "country": "Federated States of Micronesia",
        "country_code": "fm"
      },
      "address": "890, Palikir, 96941 Pohnpei, Micronesia"
    },
    {
      "lat": 6.908997974536428,
      "lon": 158.14196786371983,
      "geoinfo": {
        "display_name": "Palikir, Sokehs, Soledi Kousapw, Pohnpei, Federated States of Micronesia",
        "road": null,
        "house_number": null,
        "neighbourhood": null,
        "suburb": null,
        "city_district": null,
        "city": "Sokehs",
        "state": "Pohnpei",
        "postcode": null,
        "country": "Federated States of Micronesia",
        "country_code": "fm"
      },
      "address": "144, Palikir, 36826 Pohnpei, Micronesia"
    },
    {
      "lat": 6.91208003849744,
      "lon": 158.11769406398824,
      "geoinfo": {
        "display_name": "Imwin Iaken Pwetik, Sokehs, Roie Kousapw, Pohnpei, Federated States of Micronesia",
        "road": null,
        "house_number": null,
        "neighbourhood": null,
        "suburb": null,
        "city_district": null,
        "city": "Sokehs",
        "state": "Pohnpei",
        "postcode": null,
        "country": "Federated States of Micronesia",
        "country_code": "fm"
      },
      "address": "119, Palikir, 80286 Pohnpei, Micronesia"
    },
    {
      "lat": 6.917075100194096,
      "lon": 158.18219076287437,
      "geoinfo": {
        "display_name": "Malen Dolen Pahniep, Palikir, Sokehs, Soledi Kousapw, Pohnpei, 96941, Federated States of Micronesia",
        "road": null,
        "house_number": null,
        "neighbourhood": null,
        "suburb": null,
        "city_district": null,
        "city": "Sokehs",
        "state": "Pohnpei",
        "postcode": "96941",
        "country": "Federated States of Micronesia",
        "country_code": "fm"
      },
      "address": "977, Palikir, 96941 Pohnpei, Micronesia"
    },
    {
      "lat": 6.927721215957378,
      "lon": 158.18300331227638,
      "geoinfo": {
        "display_name": "Palikir, Sokehs, Peidie Kousapw, Pohnpei, 96941, Federated States of Micronesia",
        "road": null,
        "house_number": null,
        "neighbourhood": null,
        "suburb": null,
        "city_district": null,
        "city": "Sokehs",
        "state": "Pohnpei",
        "postcode": "96941",
        "country": "Federated States of Micronesia",
        "country_code": "fm"
      },
      "address": "719, Palikir, 96941 Pohnpei, Micronesia"
    },
    {
      "lat": 6.933168912301715,
      "lon": 158.14574333006817,
      "geoinfo": {
        "display_name": "Malen Dapengen Penlew, Palikir, Sokehs, Soledi Kousapw, Pohnpei, Federated States of Micronesia",
        "road": null,
        "house_number": null,
        "neighbourhood": null,
        "suburb": null,
        "city_district": null,
        "city": "Sokehs",
        "state": "Pohnpei",
        "postcode": null,
        "country": "Federated States of Micronesia",
        "country_code": "fm"
      },
      "address": "902, Palikir, 39682 Pohnpei, Micronesia"
    },
    {
      "lat": 6.900695260040511,
      "lon": 158.1312210533886,
      "geoinfo": {
        "display_name": "Palikir, Sokehs, Soledi Kousapw, Pohnpei, Federated States of Micronesia",
        "road": null,
        "house_number": null,
        "neighbourhood": null,
        "suburb": null,
        "city_district": null,
        "city": "Sokehs",
        "state": "Pohnpei",
        "postcode": null,
        "country": "Federated States of Micronesia",
        "country_code": "fm"
      },
      "address": "449, Palikir, 99900 Pohnpei, Micronesia"
    },
    {
      "lat": 6.895313248708114,
      "lon": 158.18522786542385,
      "geoinfo": {
        "display_name": "Palikir, Sokehs, Soledi Kousapw, Pohnpei, Federated States of Micronesia",
        "road": null,
        "house_number": null,
        "neighbourhood": null,
        "suburb": null,
        "city_district": null,
        "city": "Sokehs",
        "state": "Pohnpei",
        "postcode": null,
        "country": "Federated States of Micronesia",
        "country_code": "fm"
      },
      "address": "752, Palikir, 69741 Pohnpei, Micronesia"
    },
    {
      "lat": 6.889333557370272,
      "lon": 158.14315540191737,
      "geoinfo": {
        "display_name": "Nihkelekel, Kitti, Soledi Kousapw, Pohnpei, Federated States of Micronesia",
        "road": null,
        "house_number": null,
        "neighbourhood": null,
        "suburb": null,
        "city_district": null,
        "city": "Kitti",
        "state": "Pohnpei",
        "postcode": null,
        "country": "Federated States of Micronesia",
        "country_code": "fm"
      },
      "address": "511, Palikir, 00333 Pohnpei, Micronesia"
    },
    {
      "lat": 6.943627731436719,
      "lon": 158.1809207050648,
      "geoinfo": {
        "display_name": "Sokehs Circle Island Road, Palikir, Sokehs, Soledi Kousapw, Pohnpei, 96941, Federated States of Micronesia",
        "road": "Sokehs Circle Island Road",
        "house_number": null,
        "neighbourhood": null,
        "suburb": null,
        "city_district": null,
        "city": "Sokehs",
        "state": "Pohnpei",
        "postcode": "96941",
        "country": "Federated States of Micronesia",
        "country_code": "fm"
      },
      "address": "671, Sokehs Circle Island Road, Palikir, 96941 Pohnpei, Micronesia"
    },
    {
      "lat": 6.895905883842888,
      "lon": 158.192854296698,
      "geoinfo": {
        "display_name": "Palikir, Sokehs, Soledi Kousapw, Pohnpei, Federated States of Micronesia",
        "road": null,
        "house_number": null,
        "neighbourhood": null,
        "suburb": null,
        "city_district": null,
        "city": "Sokehs",
        "state": "Pohnpei",
        "postcode": null,
        "country": "Federated States of Micronesia",
        "country_code": "fm"
      },
      "address": "569, Palikir, 96042 Pohnpei, Micronesia"
    },
    {
      "lat": 6.933306477521622,
      "lon": 158.15610820848062,
      "geoinfo": {
        "display_name": "Kepira Road, Palikir, Sokehs, Roie Kousapw, Pohnpei, Federated States of Micronesia",
        "road": "Kepira Road",
        "house_number": null,
        "neighbourhood": null,
        "suburb": null,
        "city_district": null,
        "city": "Sokehs",
        "state": "Pohnpei",
        "postcode": null,
        "country": "Federated States of Micronesia",
        "country_code": "fm"
      },
      "address": "217, Kepira Road, Palikir, 28830 Pohnpei, Micronesia"
    },
    {
      "lat": 6.923691159343008,
      "lon": 158.19436655199186,
      "geoinfo": {
        "display_name": "Kamwele, Sokehs, Peidie Kousapw, Pohnpei, 96941, Federated States of Micronesia",
        "road": null,
        "house_number": null,
        "neighbourhood": null,
        "suburb": null,
        "city_district": null,
        "city": "Sokehs",
        "state": "Pohnpei",
        "postcode": "96941",
        "country": "Federated States of Micronesia",
        "country_code": "fm"
      },
      "address": "917, Palikir, 96941 Pohnpei, Micronesia"
    },
    {
      "lat": 6.966474851342439,
      "lon": 158.16615829207413,
      "geoinfo": {
        "display_name": "Danipei, Sokehs, Eir kousapw, Pohnpei, 96941, Federated States of Micronesia",
        "road": null,
        "house_number": null,
        "neighbourhood": null,
        "suburb": null,
        "city_district": null,
        "city": "Sokehs",
        "state": "Pohnpei",
        "postcode": "96941",
        "country": "Federated States of Micronesia",
        "country_code": "fm"
      },
      "address": "687, Palikir, 96941 Pohnpei, Micronesia"
    },
    {
      "lat": 6.965944882290409,
      "lon": 158.15452642493884,
      "geoinfo": {
        "display_name": "Palikir, Sokehs, Soledi Kousapw, Pohnpei, Federated States of Micronesia",
        "road": null,
        "house_number": null,
        "neighbourhood": null,
        "suburb": null,
        "city_district": null,
        "city": "Sokehs",
        "state": "Pohnpei",
        "postcode": null,
        "country": "Federated States of Micronesia",
        "country_code": "fm"
      },
      "address": "670, Palikir, 18204 Pohnpei, Micronesia"
    },
    {
      "lat": 6.929096662503856,
      "lon": 158.1527393232041,
      "geoinfo": {
        "display_name": "Palikir, Sokehs, Soledi Kousapw, Pohnpei, Federated States of Micronesia",
        "road": null,
        "house_number": null,
        "neighbourhood": null,
        "suburb": null,
        "city_district": null,
        "city": "Sokehs",
        "state": "Pohnpei",
        "postcode": null,
        "country": "Federated States of Micronesia",
        "country_code": "fm"
      },
      "address": "623, Palikir, 19844 Pohnpei, Micronesia"
    },
    {
      "lat": 6.893053897953841,
      "lon": 158.15794682139162,
      "geoinfo": {
        "display_name": "Kitti Circle Island Road, Sakartik, Pwel Weita, Kitti, Soledi Kousapw, Pohnpei, Federated States of Micronesia",
        "road": "Kitti Circle Island Road",
        "house_number": null,
        "neighbourhood": null,
        "suburb": null,
        "city_district": null,
        "city": "Kitti",
        "state": "Pohnpei",
        "postcode": null,
        "country": "Federated States of Micronesia",
        "country_code": "fm"
      },
      "address": "864, Kitti Circle Island Road, Palikir, 08790 Pohnpei, Micronesia"
    },
    {
      "lat": 6.93819785436121,
      "lon": 158.18352076150947,
      "geoinfo": {
        "display_name": "Sokehs Circle Island Road, Palikir, Sokehs, Soledi Kousapw, Pohnpei, 96941, Federated States of Micronesia",
        "road": "Sokehs Circle Island Road",
        "house_number": null,
        "neighbourhood": null,
        "suburb": null,
        "city_district": null,
        "city": "Sokehs",
        "state": "Pohnpei",
        "postcode": "96941",
        "country": "Federated States of Micronesia",
        "country_code": "fm"
      },
      "address": "068, Sokehs Circle Island Road, Palikir, 96941 Pohnpei, Micronesia"
    },
    {
      "lat": 6.933894108290349,
      "lon": 158.13814768105308,
      "geoinfo": {
        "display_name": "Lewetik Road, Sokehs, Roie Kousapw, Pohnpei, Federated States of Micronesia",
        "road": "Lewetik Road",
        "house_number": null,
        "neighbourhood": null,
        "suburb": null,
        "city_district": null,
        "city": "Sokehs",
        "state": "Pohnpei",
        "postcode": null,
        "country": "Federated States of Micronesia",
        "country_code": "fm"
      },
      "address": "493, Lewetik Road, Palikir, 34028 Pohnpei, Micronesia"
    },
    {
      "lat": 6.903462482067513,
      "lon": 158.17782128556456,
      "geoinfo": {
        "display_name": "Pwel Weita, Kitti, Peidie Kousapw, Pohnpei, Federated States of Micronesia",
        "road": null,
        "house_number": null,
        "neighbourhood": null,
        "suburb": null,
        "city_district": null,
        "city": "Kitti",
        "state": "Pohnpei",
        "postcode": null,
        "country": "Federated States of Micronesia",
        "country_code": "fm"
      },
      "address": "859, Palikir, 63920 Pohnpei, Micronesia"
    },
    {
      "lat": 6.915075306168603,
      "lon": 158.14927117496237,
      "geoinfo": {
        "display_name": "Soundau Road, Palikir, Sokehs, Soledi Kousapw, Pohnpei, Federated States of Micronesia",
        "road": "Soundau Road",
        "house_number": null,
        "neighbourhood": null,
        "suburb": null,
        "city_district": null,
        "city": "Sokehs",
        "state": "Pohnpei",
        "postcode": null,
        "country": "Federated States of Micronesia",
        "country_code": "fm"
      },
      "address": "621, Soundau Road, Palikir, 36233 Pohnpei, Micronesia"
    },
    {
      "lat": 6.948530133129513,
      "lon": 158.1950228492041,
      "geoinfo": {
        "display_name": "Nan Mal Road, Nett, Peidie Kousapw, Pohnpei, 96941, Federated States of Micronesia",
        "road": "Nan Mal Road",
        "house_number": null,
        "neighbourhood": null,
        "suburb": null,
        "city_district": null,
        "city": "Nett",
        "state": "Pohnpei",
        "postcode": "96941",
        "country": "Federated States of Micronesia",
        "country_code": "fm"
      },
      "address": "375, Nan Mal Road, Palikir, 96941 Pohnpei, Micronesia"
    },
    {
      "lat": 6.931511534441788,
      "lon": 158.14542435044405,
      "geoinfo": {
        "display_name": "Malen Dapengen Penlew, Palikir, Sokehs, Soledi Kousapw, Pohnpei, Federated States of Micronesia",
        "road": null,
        "house_number": null,
        "neighbourhood": null,
        "suburb": null,
        "city_district": null,
        "city": "Sokehs",
        "state": "Pohnpei",
        "postcode": null,
        "country": "Federated States of Micronesia",
        "country_code": "fm"
      },
      "address": "667, Palikir, 12878 Pohnpei, Micronesia"
    },
    {
      "lat": 6.920739006894323,
      "lon": 158.11919111351705,
      "geoinfo": {
        "display_name": "Timwensong, Sokehs, Roie Kousapw, Pohnpei, Federated States of Micronesia",
        "road": null,
        "house_number": null,
        "neighbourhood": null,
        "suburb": null,
        "city_district": null,
        "city": "Sokehs",
        "state": "Pohnpei",
        "postcode": null,
        "country": "Federated States of Micronesia",
        "country_code": "fm"
      },
      "address": "981, Palikir, 55770 Pohnpei, Micronesia"
    },
    {
      "lat": 6.897923838849609,
      "lon": 158.1409301628715,
      "geoinfo": {
        "display_name": "Palikir, Kitti, Soledi Kousapw, Pohnpei, Federated States of Micronesia",
        "road": null,
        "house_number": null,
        "neighbourhood": null,
        "suburb": null,
        "city_district": null,
        "city": "Kitti",
        "state": "Pohnpei",
        "postcode": null,
        "country": "Federated States of Micronesia",
        "country_code": "fm"
      },
      "address": "772, Palikir, 28118 Pohnpei, Micronesia"
    },
    {
      "lat": 6.886830697278679,
      "lon": 158.17821636010547,
      "geoinfo": {
        "display_name": "Pwel Weita, Kitti, Peidie Kousapw, Pohnpei, Federated States of Micronesia",
        "road": null,
        "house_number": null,
        "neighbourhood": null,
        "suburb": null,
        "city_district": null,
        "city": "Kitti",
        "state": "Pohnpei",
        "postcode": null,
        "country": "Federated States of Micronesia",
        "country_code": "fm"
      },
      "address": "914, Palikir, 99382 Pohnpei, Micronesia"
    },
    {
      "lat": 6.907237560764687,
      "lon": 158.16020087835452,
      "geoinfo": {
        "display_name": "Kitti Circle Island Road, Palikir, Sokehs, Soledi Kousapw, Pohnpei, Federated States of Micronesia",
        "road": "Kitti Circle Island Road",
        "house_number": null,
        "neighbourhood": null,
        "suburb": null,
        "city_district": null,
        "city": "Sokehs",
        "state": "Pohnpei",
        "postcode": null,
        "country": "Federated States of Micronesia",
        "country_code": "fm"
      },
      "address": "387, Kitti Circle Island Road, Palikir, 58666 Pohnpei, Micronesia"
    },
    {
      "lat": 6.944140523798946,
      "lon": 158.16961018368397,
      "geoinfo": {
        "display_name": "NICHO Marine Park, Likie Road, Palikir, Sokehs, Soledi Kousapw, Pohnpei, 96941, Federated States of Micronesia",
        "road": "Likie Road",
        "house_number": null,
        "neighbourhood": null,
        "suburb": null,
        "city_district": null,
        "city": "Sokehs",
        "state": "Pohnpei",
        "postcode": "96941",
        "country": "Federated States of Micronesia",
        "country_code": "fm"
      },
      "address": "281, Likie Road, Palikir, 96941 Pohnpei, Micronesia"
    },
    {
      "lat": 6.967655794048099,
      "lon": 158.16587365204046,
      "geoinfo": {
        "display_name": "Danipei, Sokehs, Eir kousapw, Pohnpei, 96941, Federated States of Micronesia",
        "road": null,
        "house_number": null,
        "neighbourhood": null,
        "suburb": null,
        "city_district": null,
        "city": "Sokehs",
        "state": "Pohnpei",
        "postcode": "96941",
        "country": "Federated States of Micronesia",
        "country_code": "fm"
      },
      "address": "752, Palikir, 96941 Pohnpei, Micronesia"
    },
    {
      "lat": 6.948839182693801,
      "lon": 158.1807156743048,
      "geoinfo": {
        "display_name": "Palikir, Sokehs, Soledi Kousapw, Pohnpei, 96941, Federated States of Micronesia",
        "road": null,
        "house_number": null,
        "neighbourhood": null,
        "suburb": null,
        "city_district": null,
        "city": "Sokehs",
        "state": "Pohnpei",
        "postcode": "96941",
        "country": "Federated States of Micronesia",
        "country_code": "fm"
      },
      "address": "026, Palikir, 96941 Pohnpei, Micronesia"
    },
    {
      "lat": 6.934985932711405,
      "lon": 158.1618269919638,
      "geoinfo": {
        "display_name": "Kepira Road, Palikir, Sokehs, Roie Kousapw, Pohnpei, Federated States of Micronesia",
        "road": "Kepira Road",
        "house_number": null,
        "neighbourhood": null,
        "suburb": null,
        "city_district": null,
        "city": "Sokehs",
        "state": "Pohnpei",
        "postcode": null,
        "country": "Federated States of Micronesia",
        "country_code": "fm"
      },
      "address": "375, Kepira Road, Palikir, 40862 Pohnpei, Micronesia"
    },
    {
      "lat": 6.889220639408156,
      "lon": 158.16314283359947,
      "geoinfo": {
        "display_name": "Sakartik, Kitti, Soledi Kousapw, Pohnpei, Federated States of Micronesia",
        "road": null,
        "house_number": null,
        "neighbourhood": null,
        "suburb": null,
        "city_district": null,
        "city": "Kitti",
        "state": "Pohnpei",
        "postcode": null,
        "country": "Federated States of Micronesia",
        "country_code": "fm"
      },
      "address": "448, Palikir, 93367 Pohnpei, Micronesia"
    },
    {
      "lat": 6.92020409628421,
      "lon": 158.13507927835914,
      "geoinfo": {
        "display_name": "Lewetik Road, Palikir, Sokehs, Roie Kousapw, Pohnpei, Federated States of Micronesia",
        "road": "Lewetik Road",
        "house_number": null,
        "neighbourhood": null,
        "suburb": null,
        "city_district": null,
        "city": "Sokehs",
        "state": "Pohnpei",
        "postcode": null,
        "country": "Federated States of Micronesia",
        "country_code": "fm"
      },
      "address": "428, Lewetik Road, Palikir, 74466 Pohnpei, Micronesia"
    },
    {
      "lat": 6.9424154394984345,
      "lon": 158.14344836073874,
      "geoinfo": {
        "display_name": "Kepira Road, Palikir, Sokehs, Roie Kousapw, Pohnpei, Federated States of Micronesia",
        "road": "Kepira Road",
        "house_number": null,
        "neighbourhood": null,
        "suburb": null,
        "city_district": null,
        "city": "Sokehs",
        "state": "Pohnpei",
        "postcode": null,
        "country": "Federated States of Micronesia",
        "country_code": "fm"
      },
      "address": "103, Kepira Road, Palikir, 83717 Pohnpei, Micronesia"
    },
    {
      "lat": 6.953793390476742,
      "lon": 158.14118208500452,
      "geoinfo": {
        "display_name": "Palikir, Sokehs, Soledi Kousapw, Pohnpei, Federated States of Micronesia",
        "road": null,
        "house_number": null,
        "neighbourhood": null,
        "suburb": null,
        "city_district": null,
        "city": "Sokehs",
        "state": "Pohnpei",
        "postcode": null,
        "country": "Federated States of Micronesia",
        "country_code": "fm"
      },
      "address": "119, Palikir, 45401 Pohnpei, Micronesia"
    },
    {
      "lat": 6.941422267069613,
      "lon": 158.1971300526681,
      "geoinfo": {
        "display_name": "Nan Mal Road, Nett, Peidie Kousapw, Pohnpei, 96941, Federated States of Micronesia",
        "road": "Nan Mal Road",
        "house_number": null,
        "neighbourhood": null,
        "suburb": null,
        "city_district": null,
        "city": "Nett",
        "state": "Pohnpei",
        "postcode": "96941",
        "country": "Federated States of Micronesia",
        "country_code": "fm"
      },
      "address": "902, Nan Mal Road, Palikir, 96941 Pohnpei, Micronesia"
    },
    {
      "lat": 6.911566509123438,
      "lon": 158.2031262364019,
      "geoinfo": {
        "display_name": "Mallepwou, Nett, Peidie Kousapw, Pohnpei, 96941, Federated States of Micronesia",
        "road": null,
        "house_number": null,
        "neighbourhood": null,
        "suburb": null,
        "city_district": null,
        "city": "Nett",
        "state": "Pohnpei",
        "postcode": "96941",
        "country": "Federated States of Micronesia",
        "country_code": "fm"
      },
      "address": "918, Palikir, 96941 Pohnpei, Micronesia"
    },
    {
      "lat": 6.93955692245346,
      "lon": 158.18107945209127,
      "geoinfo": {
        "display_name": "Likie Road, Palikir, Sokehs, Soledi Kousapw, Pohnpei, 96941, Federated States of Micronesia",
        "road": "Likie Road",
        "house_number": null,
        "neighbourhood": null,
        "suburb": null,
        "city_district": null,
        "city": "Sokehs",
        "state": "Pohnpei",
        "postcode": "96941",
        "country": "Federated States of Micronesia",
        "country_code": "fm"
      },
      "address": "435, Likie Road, Palikir, 96941 Pohnpei, Micronesia"
    },
    {
      "lat": 6.906035658624263,
      "lon": 158.12713062270896,
      "geoinfo": {
        "display_name": "Lehpwelen Tomwara, Sokehs, Soledi Kousapw, Pohnpei, Federated States of Micronesia",
        "road": null,
        "house_number": null,
        "neighbourhood": null,
        "suburb": null,
        "city_district": null,
        "city": "Sokehs",
        "state": "Pohnpei",
        "postcode": null,
        "country": "Federated States of Micronesia",
        "country_code": "fm"
      },
      "address": "090, Palikir, 33033 Pohnpei, Micronesia"
    },
    {
      "lat": 6.960804112622405,
      "lon": 158.16871550346983,
      "geoinfo": {
        "display_name": "Ahseia, Kamwele, Sokehs, Soledi Kousapw, Pohnpei, 96941, Federated States of Micronesia",
        "road": null,
        "house_number": null,
        "neighbourhood": null,
        "suburb": null,
        "city_district": null,
        "city": "Sokehs",
        "state": "Pohnpei",
        "postcode": "96941",
        "country": "Federated States of Micronesia",
        "country_code": "fm"
      },
      "address": "049, Palikir, 96941 Pohnpei, Micronesia"
    },
    {
      "lat": 6.882810382378157,
      "lon": 158.1532305228693,
      "geoinfo": {
        "display_name": "Kitti Circle Island Road, Sakartik, Pwel Weita, Kitti, Soledi Kousapw, Pohnpei, Federated States of Micronesia",
        "road": "Kitti Circle Island Road",
        "house_number": null,
        "neighbourhood": null,
        "suburb": null,
        "city_district": null,
        "city": "Kitti",
        "state": "Pohnpei",
        "postcode": null,
        "country": "Federated States of Micronesia",
        "country_code": "fm"
      },
      "address": "299, Kitti Circle Island Road, Palikir, 08764 Pohnpei, Micronesia"
    },
    {
      "lat": 6.908447565937967,
      "lon": 158.14617900490902,
      "geoinfo": {
        "display_name": "Palikir, Sokehs, Soledi Kousapw, Pohnpei, Federated States of Micronesia",
        "road": null,
        "house_number": null,
        "neighbourhood": null,
        "suburb": null,
        "city_district": null,
        "city": "Sokehs",
        "state": "Pohnpei",
        "postcode": null,
        "country": "Federated States of Micronesia",
        "country_code": "fm"
      },
      "address": "119, Palikir, 67298 Pohnpei, Micronesia"
    },
    {
      "lat": 6.9351238139767455,
      "lon": 158.19078266002774,
      "geoinfo": {
        "display_name": "Nan Mal Road, Palikir, Sokehs, Peidie Kousapw, Pohnpei, 96941, Federated States of Micronesia",
        "road": "Nan Mal Road",
        "house_number": null,
        "neighbourhood": null,
        "suburb": null,
        "city_district": null,
        "city": "Sokehs",
        "state": "Pohnpei",
        "postcode": "96941",
        "country": "Federated States of Micronesia",
        "country_code": "fm"
      },
      "address": "456, Nan Mal Road, Palikir, 96941 Pohnpei, Micronesia"
    },
    {
      "lat": 6.917490228955409,
      "lon": 158.1335543210444,
      "geoinfo": {
        "display_name": "Palikir, Sokehs, Soledi Kousapw, Pohnpei, Federated States of Micronesia",
        "road": null,
        "house_number": null,
        "neighbourhood": null,
        "suburb": null,
        "city_district": null,
        "city": "Sokehs",
        "state": "Pohnpei",
        "postcode": null,
        "country": "Federated States of Micronesia",
        "country_code": "fm"
      },
      "address": "268, Palikir, 93860 Pohnpei, Micronesia"
    },
    {
      "lat": 6.898936961378864,
      "lon": 158.1970540764635,
      "geoinfo": {
        "display_name": "Palikir, Sokehs, Soledi Kousapw, Pohnpei, Federated States of Micronesia",
        "road": null,
        "house_number": null,
        "neighbourhood": null,
        "suburb": null,
        "city_district": null,
        "city": "Sokehs",
        "state": "Pohnpei",
        "postcode": null,
        "country": "Federated States of Micronesia",
        "country_code": "fm"
      },
      "address": "147, Palikir, 87616 Pohnpei, Micronesia"
    },
    {
      "lat": 6.956016059702127,
      "lon": 158.16092525585225,
      "geoinfo": {
        "display_name": "Likie Road, Palikir, Sokehs, Soledi Kousapw, Pohnpei, 96941, Federated States of Micronesia",
        "road": "Likie Road",
        "house_number": null,
        "neighbourhood": null,
        "suburb": null,
        "city_district": null,
        "city": "Sokehs",
        "state": "Pohnpei",
        "postcode": "96941",
        "country": "Federated States of Micronesia",
        "country_code": "fm"
      },
      "address": "005, Likie Road, Palikir, 96941 Pohnpei, Micronesia"
    },
    {
      "lat": 6.949312771847433,
      "lon": 158.15421154155274,
      "geoinfo": {
        "display_name": "Likie Road, Palikir, Sokehs, Soledi Kousapw, Pohnpei, 96941, Federated States of Micronesia",
        "road": "Likie Road",
        "house_number": null,
        "neighbourhood": null,
        "suburb": null,
        "city_district": null,
        "city": "Sokehs",
        "state": "Pohnpei",
        "postcode": "96941",
        "country": "Federated States of Micronesia",
        "country_code": "fm"
      },
      "address": "489, Likie Road, Palikir, 96941 Pohnpei, Micronesia"
    },
    {
      "lat": 6.9249740214473645,
      "lon": 158.1586787646483,
      "geoinfo": {
        "display_name": "Kepira Road, Palikir, Sokehs, Roie Kousapw, Pohnpei, Federated States of Micronesia",
        "road": "Kepira Road",
        "house_number": null,
        "neighbourhood": null,
        "suburb": null,
        "city_district": null,
        "city": "Sokehs",
        "state": "Pohnpei",
        "postcode": null,
        "country": "Federated States of Micronesia",
        "country_code": "fm"
      },
      "address": "814, Kepira Road, Palikir, 91679 Pohnpei, Micronesia"
    },
    {
      "lat": 6.946127333952782,
      "lon": 158.19328025818848,
      "geoinfo": {
        "display_name": "Nett, Peidie Kousapw, Pohnpei, 96941, Federated States of Micronesia",
        "road": null,
        "house_number": null,
        "neighbourhood": null,
        "suburb": null,
        "city_district": null,
        "city": "Nett",
        "state": "Pohnpei",
        "postcode": "96941",
        "country": "Federated States of Micronesia",
        "country_code": "fm"
      },
      "address": "211, Palikir, 96941 Pohnpei, Micronesia"
    },
    {
      "lat": 6.902814627698538,
      "lon": 158.18931333557148,
      "geoinfo": {
        "display_name": "Palikir, Sokehs, Soledi Kousapw, Pohnpei, Federated States of Micronesia",
        "road": null,
        "house_number": null,
        "neighbourhood": null,
        "suburb": null,
        "city_district": null,
        "city": "Sokehs",
        "state": "Pohnpei",
        "postcode": null,
        "country": "Federated States of Micronesia",
        "country_code": "fm"
      },
      "address": "870, Palikir, 39226 Pohnpei, Micronesia"
    }
  ],
  "updated_at": "2025-10-19T04:07:38.812009+00:00",
  "_kind": "geo_samples"
}