{
  "country_code": "ZM",
  "country": "Zambia",
  "city": "Kabwe",
  "geonameid": 916095,
  "target_addresses": 2,
  "samples": [
    {
      "lat": -14.437191979304897,
      "lon": 28.441929248578774,
      "geoinfo": {
        "display_name": "Ghana Avenue, Kabwe, Kabwe District, Central Province, Zambia",
        "road": "Ghana Avenue",
        "house_number": null,
        "neighbourhood": null,
        "suburb": null,
        "city_district": null,
        "city": "Kabwe",
        "state": "Central Province",
        "postcode": null,
        "country": "Zambia",
        "country_code": "zm"
      },
      "address": "Ghana Avenue, Kabwe, Central Province, Zambia"
    },
    {
      "lat": -14.424715421120744,
      "lon": 28.478995645913116,
      "geoinfo": {
        "display_name": "Kabwe, Kabwe District, Central Province, Zambia",
        "road": null,
        "house_number": null,
        "neighbourhood": null,
        "suburb": null,
        "city_district": null,
        "city": "Kabwe",
        "state": "Central Province",
        "postcode": null,
        "country": "Zambia",
        "country_code": "zm"
      },
      "address": "Kabwe, Central Province, Zambia"
    },
    {
      "lat": -14.407474466432777,
      "lon": 28.45323682800551,
      "geoinfo": {
        "display_name": "Kabwe, Kabwe District, Central Province, Zambia",
        "road": null,
        "house_number": null,
        "neighbourhood": null,
        "suburb": null,
        "city_district": null,
        "city": "Kabwe",
        "state": "Central Province",
        "postcode": null,
        "country": "Zambia",
        "country_code": "zm"
      },
      "address": "044, Kabwe, Kabwe District, 74960 Central Province, Zambia"
    },
    {
      "lat": -14.469381363380275,
      "lon": 28.41221743787692,
      "geoinfo": {
        "display_name": "Kabwe, Kabwe District, Central Province, Zambia",
        "road": null,
        "house_number": null,
        "neighbourhood": null,
        "suburb": null,
        "city_district": null,
        "city": "Kabwe",
        "state": "Central Province",
        "postcode": null,
        "country": "Zambia",
        "country_code": "zm"
      },
      "address": "272, Kabwe, Kabwe District, 25609 Central Province, Zambia"
    }
  ],
  "updated_at": "2025-10-19T07:58:22.586070+00:00",
  "_kind": "geo_samples"
}