{
  "country_code": "ZM",
  "country": "Zambia",
  "city": "Kitwe",
  "geonameid": 911148,
  "target_addresses": 2,
  "samples": [
    {
      "lat": -12.823147517984282,
      "lon": 28.23667236412692,
      "geoinfo": {
        "display_name": "Chile Street, CEC Village, Kitwe, Kitwe District, Copperbelt Province, 1001, Zambia",
        "road": "Chile Street",
        "house_number": null,
        "neighbourhood": null,
        "suburb": "CEC Village",
        "city_district": null,
        "city": "Kitwe",
        "state": "Copperbelt Province",
        "postcode": "1001",
        "country": "Zambia",
        "country_code": "zm"
      },
      "address": "Chile Street, Kitwe, Copperbelt Province, Zambia"
    },
    {
      "lat": -12.84468515310311,
      "lon": 28.21179746501766,
      "geoinfo": {
        "display_name": "Wusakile, Kitwe, Kitwe District, Copperbelt Province, 1001, Zambia",
        "road": null,
        "house_number": null,
        "neighbourhood": null,
        "suburb": "Wusakile",
        "city_district": null,
        "city": "Kitwe",
        "state": "Copperbelt Province",
        "postcode": "1001",
        "country": "Zambia",
        "country_code": "zm"
      },
      "address": "Wusakile, Kitwe, Copperbelt Province, Zambia"
    },
    {
      "lat": -12.804446218987566,
      "lon": 28.24927737302701,
      "geoinfo": {
        "display_name": "Copperbelt University, Jambo Drive, Parklands, Kitwe, Kitwe District, Copperbelt Province, 1001, Zambia",
        "road": "Jambo Drive",
        "house_number": null,
        "neighbourhood": null,
        "suburb": "Parklands",
        "city_district": null,
        "city": "Kitwe",
        "state": "Copperbelt Province",
        "postcode": "1001",
        "country": "Zambia",
        "country_code": "zm"
      },
      "address": "546, Jambo Drive, Kitwe, 1001 Copperbelt Province, Zambia"
    },
    {
      "lat": -12.807753206090174,
      "lon": 28.229725771598027,
      "geoinfo": {
        "display_name": "Parklands, Kitwe, Kitwe District, Copperbelt Province, 1001, Zambia",
        "road": null,
        "house_number": null,
        "neighbourhood": null,
        "suburb": "Parklands",
        "city_district": null,
        "city": "Kitwe",
        "state": "Copperbelt Province",
        "postcode": "1001",
        "country": "Zambia",
        "country_code": "zm"
      },
      "address": "909, Parklands, Kitwe, Kitwe District, Copperbelt Province, 1001, Zambia"
    }
  ],
  "updated_at": "2025-10-19T07:36:08.290905+00:00",
  "_kind": "geo_samples"
}