{
  "country_code": "ZM",
  "country": "Zambia",
  "city": "Sinda",
  "geonameid": 897454,
  "target_addresses": 2,
  "samples": [
    {
      "lat": -14.226304395665856,
      "lon": 31.730762663923116,
      "geoinfo": {
        "display_name": "Sinda, Sinda District, Eastern Province, Zambia",
        "road": null,
        "house_number": null,
        "neighbourhood": null,
        "suburb": null,
        "city_district": null,
        "city": "Sinda",
        "state": "Eastern Province",
        "postcode": null,
        "country": "Zambia",
        "country_code": "zm"
      },
      "address": "Sinda, Eastern Province, Zambia"
    },
    {
      "lat": -14.21081134403559,
      "lon": 31.803431003166036,
      "geoinfo": {
        "display_name": "Great East Road, Mpoto, Sinda, Sinda District, Eastern Province, Zambia",
        "road": "Great East Road",
        "house_number": null,
        "neighbourhood": null,
        "suburb": null,
        "city_district": null,
        "city": "Sinda",
        "state": "Eastern Province",
        "postcode": null,
        "country": "Zambia",
        "country_code": "zm"
      },
      "address": "Great East Road, Sinda, Eastern Province, Zambia"
    },
    {
      "lat": -14.166560301134654,
      "lon": 31.766639857684083,
      "geoinfo": {
        "display_name": "Sinda, Sinda District, Eastern Province, Zambia",
        "road": null,
        "house_number": null,
        "neighbourhood": null,
        "suburb": null,
        "city_district": null,
        "city": "Sinda",
        "state": "Eastern Province",
        "postcode": null,
        "country": "Zambia",
        "country_code": "zm"
      },
      "address": "718, Sinda, Sinda District, 20896 Eastern Province, Zambia"
    },
    {
      "lat": -14.186894085303916,
      "lon": 31.74114033550281,
      "geoinfo": {
        "display_name": "Sinda, Sinda District, Eastern Province, Zambia",
        "road": null,
        "house_number": null,
        "neighbourhood": null,
        "suburb": null,
        "city_district": null,
        "city": "Sinda",
        "state": "Eastern Province",
        "postcode": null,
        "country": "Zambia",
        "country_code": "zm"
      },
      "address": "984, Sinda, Sinda District, 71007 Eastern Province, Zambia"
    }
  ],
  "updated_at": "2025-10-19T06:32:00.176852+00:00",
  "_kind": "geo_samples"
}