{
  "country_code": "UG",
  "country": "Uganda",
  "city": "Kasozi",
  "geonameid": 231990,
  "target_addresses": 3,
  "samples": [
    {
      "lat": 0.004081716506129863,
      "lon": 30.516370404367194,
      "geoinfo": {
        "display_name": "Rushaka I, Ibanda, Western Region, Uganda",
        "road": null,
        "house_number": null,
        "neighbourhood": null,
        "suburb": null,
        "city_district": null,
        "city": "Rushaka I",
        "state": "Ibanda",
        "postcode": null,
        "country": "Uganda",
        "country_code": "ug"
      },
      "address": "Kasozi, Ibanda, Uganda"
    },
    {
      "lat": 0.017118408314630087,
      "lon": 30.46406698353517,
      "geoinfo": {
        "display_name": "Kyembogo Ii, Ibanda, Western Region, Uganda",
        "road": null,
        "house_number": null,
        "neighbourhood": null,
        "suburb": null,
        "city_district": null,
        "city": "Kyembogo Ii",
        "state": "Ibanda",
        "postcode": null,
        "country": "Uganda",
        "country_code": "ug"
      },
      "address": "831, Kyembogo Ii, Ibanda, 01252 Western Region, Uganda"
    },
    {
      "lat": -0.001689346067927873,
      "lon": 30.519395323761174,
      "geoinfo": {
        "display_name": "Rushaka I, Ibanda, Western Region, Uganda",
        "road": null,
        "house_number": null,
        "neighbourhood": null,
        "suburb": null,
        "city_district": null,
        "city": "Rushaka I",
        "state": "Ibanda",
        "postcode": null,
        "country": "Uganda",
        "country_code": "ug"
      },
      "address": "364, Rushaka I, Ibanda, 05022 Western Region, Uganda"
    }
  ],
  "updated_at": "2025-10-19T06:31:34.987724+00:00",
  "_kind": "geo_samples"
}