{
  "country_code": "UG",
  "country": "Uganda",
  "city": "Kiboga",
  "geonameid": 231550,
  "target_addresses": 3,
  "samples": [
    {
      "lat": 0.905498899588956,
      "lon": 31.739226043759313,
      "geoinfo": {
        "display_name": "Kalagala, Kyankwanzi, Central Region, Uganda",
        "road": null,
        "house_number": null,
        "neighbourhood": null,
        "suburb": null,
        "city_district": null,
        "city": "Kalagala",
        "state": "Kyankwanzi",
        "postcode": null,
        "country": "Uganda",
        "country_code": "ug"
      },
      "address": "Kiboga, Kyankwanzi, Uganda"
    },
    {
      "lat": 0.8954233168886717,
      "lon": 31.755218639760155,
      "geoinfo": {
        "display_name": "Busakya, Kiboga, Central Region, Uganda",
        "road": null,
        "house_number": null,
        "neighbourhood": null,
        "suburb": null,
        "city_district": null,
        "city": "Busakya",
        "state": "Kiboga",
        "postcode": null,
        "country": "Uganda",
        "country_code": "ug"
      },
      "address": "339, Busakya, Kiboga, 40940 Central Region, Uganda"
    },
    {
      "lat": 0.9375741473208888,
      "lon": 31.761345202058692,
      "geoinfo": {
        "display_name": "Buzzibwera .b., Kiboga, Central Region, Uganda",
        "road": null,
        "house_number": null,
        "neighbourhood": null,
        "suburb": null,
        "city_district": null,
        "city": "Buzzibwera .b.",
        "state": "Kiboga",
        "postcode": null,
        "country": "Uganda",
        "country_code": "ug"
      },
      "address": "532, Buzzibwera .b., Kiboga, 45161 Central Region, Uganda"
    },
    {
      "lat": 0.9106077229204123,
      "lon": 31.816409124939305,
      "geoinfo": {
        "display_name": "Kyetume B, Kiboga, Central Region, Uganda",
        "road": null,
        "house_number": null,
        "neighbourhood": null,
        "suburb": null,
        "city_district": null,
        "city": "Kyetume B",
        "state": "Kiboga",
        "postcode": null,
        "country": "Uganda",
        "country_code": "ug"
      },
      "address": "105, Kyetume B, Kiboga, 75373 Central Region, Uganda"
    }
  ],
  "updated_at": "2025-10-19T06:31:29.728613+00:00",
  "_kind": "geo_samples"
}