{
  "country_code": "UG",
  "country": "Uganda",
  "city": "Lwengo",
  "geonameid": 229630,
  "target_addresses": 3,
  "samples": [
    {
      "lat": -0.4031853828782233,
      "lon": 31.425386744903747,
      "geoinfo": {
        "display_name": "Kyawagonya, Lwengo, Central Region, Uganda",
        "road": null,
        "house_number": null,
        "neighbourhood": null,
        "suburb": null,
        "city_district": null,
        "city": "Kyawagonya",
        "state": "Lwengo",
        "postcode": null,
        "country": "Uganda",
        "country_code": "ug"
      },
      "address": "Lwengo, Lwengo, Uganda"
    },
    {
      "lat": -0.3963226149512189,
      "lon": 31.412634410008486,
      "geoinfo": {
        "display_name": "Mbarara - Masaka Road, Lwengo Ward, Lwengo Town Council, Lwengo, Central Region, Uganda",
        "road": "Mbarara - Masaka Road",
        "house_number": null,
        "neighbourhood": null,
        "suburb": null,
        "city_district": null,
        "city": "Lwengo Town Council",
        "state": "Lwengo",
        "postcode": null,
        "country": "Uganda",
        "country_code": "ug"
      },
      "address": "420, Mbarara - Masaka Road, Lwengo Ward, Lwengo Town Council, Lwengo, 75246 Central Region, Uganda"
    },
    {
      "lat": -0.4235482645214916,
      "lon": 31.38491643093342,
      "geoinfo": {
        "display_name": "Pida, Lwengo, Central Region, Uganda",
        "road": null,
        "house_number": null,
        "neighbourhood": null,
        "suburb": null,
        "city_district": null,
        "city": "Pida",
        "state": "Lwengo",
        "postcode": null,
        "country": "Uganda",
        "country_code": "ug"
      },
      "address": "908, Pida, Lwengo, 55030 Central Region, Uganda"
    }
  ],
  "updated_at": "2025-10-19T06:31:17.932789+00:00",
  "_kind": "geo_samples"
}