{
  "country_code": "UG",
  "country": "Uganda",
  "city": "Tororo",
  "geonameid": 226110,
  "target_addresses": 3,
  "samples": [
    {
      "lat": 0.7127942233828449,
      "lon": 34.19941414848824,
      "geoinfo": {
        "display_name": "Nyangole 'a', Tororo, Uganda",
        "road": null,
        "house_number": null,
        "neighbourhood": null,
        "suburb": null,
        "city_district": null,
        "city": "Nyangole 'a'",
        "state": "Tororo",
        "postcode": null,
        "country": "Uganda",
        "country_code": "ug"
      },
      "address": "Tororo, Tororo, Uganda"
    },
    {
      "lat": 0.6653072919042189,
      "lon": 34.16500883244216,
      "geoinfo": {
        "display_name": "Agururu B Iii, Tororo, Uganda",
        "road": null,
        "house_number": null,
        "neighbourhood": null,
        "suburb": null,
        "city_district": null,
        "city": "Agururu B Iii",
        "state": "Tororo",
        "postcode": null,
        "country": "Uganda",
        "country_code": "ug"
      },
      "address": "852, Agururu B Iii, 99935 Tororo, Uganda"
    },
    {
      "lat": 0.7093316762392943,
      "lon": 34.21637837692312,
      "geoinfo": {
        "display_name": "Aputir West, Tororo, Uganda",
        "road": null,
        "house_number": null,
        "neighbourhood": null,
        "suburb": null,
        "city_district": null,
        "city": "Aputir West",
        "state": "Tororo",
        "postcode": null,
        "country": "Uganda",
        "country_code": "ug"
      },
      "address": "925, Aputir West, 11595 Tororo, Uganda"
    }
  ],
  "updated_at": "2025-10-19T06:31:00.226148+00:00",
  "_kind": "geo_samples"
}