{
  "country_code": "SO",
  "country": "Somalia",
  "city": "Baki",
  "geonameid": 8045596,
  "target_addresses": 3,
  "samples": [
    {
      "lat": 9.896254665608025,
      "lon": 43.400478372473756,
      "geoinfo": {
        "display_name": "Dharaar Waxar, Baki District, Awdal, Somaliland, Somalia",
        "road": null,
        "house_number": null,
        "neighbourhood": null,
        "suburb": null,
        "city_district": null,
        "city": "Dharaar Waxar",
        "state": "Awdal",
        "postcode": null,
        "country": "Somaliland",
        "country_code": "so"
      },
      "address": "Baki, Awdal, Somalia"
    },
    {
      "lat": 9.871105540033792,
      "lon": 43.41703305984497,
      "geoinfo": {
        "display_name": "Baki District, Awdal, Somaliland, Somalia",
        "road": null,
        "house_number": null,
        "neighbourhood": null,
        "suburb": null,
        "city_district": null,
        "city": null,
        "state": "Awdal",
        "postcode": null,
        "country": "Somaliland",
        "country_code": "so"
      },
      "address": "222, Baki District, Awdal, 10455 Somaliland, Somalia"
    },
    {
      "lat": 9.875441213194597,
      "lon": 43.41714358178007,
      "geoinfo": {
        "display_name": "Baki District, Awdal, Somaliland, Somalia",
        "road": null,
        "house_number": null,
        "neighbourhood": null,
        "suburb": null,
        "city_district": null,
        "city": null,
        "state": "Awdal",
        "postcode": null,
        "country": "Somaliland",
        "country_code": "so"
      },
      "address": "840, Baki District, Awdal, 02396 Somaliland, Somalia"
    },
    {
      "lat": 9.868199610953122,
      "lon": 43.41031020598494,
      "geoinfo": {
        "display_name": "Baki District, Awdal, Somaliland, Somalia",
        "road": null,
        "house_number": null,
        "neighbourhood": null,
        "suburb": null,
        "city_district": null,
        "city": null,
        "state": "Awdal",
        "postcode": null,
        "country": "Somaliland",
        "country_code": "so"
      },
      "address": "216, Baki District, Awdal, 54113 Somaliland, Somalia"
    }
  ],
  "updated_at": "2025-10-19T07:02:20.175207+00:00",
  "_kind": "geo_samples"
}