{
  "country_code": "SO",
  "country": "Somalia",
  "city": "Borama",
  "geonameid": 64021,
  "target_addresses": 3,
  "samples": [
    {
      "lat": 9.947412664515893,
      "lon": 43.16855503884558,
      "geoinfo": {
        "display_name": "Borama, Borama District, Awdal, Somaliland, Somalia",
        "road": null,
        "house_number": null,
        "neighbourhood": null,
        "suburb": null,
        "city_district": null,
        "city": "Borama",
        "state": "Awdal",
        "postcode": null,
        "country": "Somaliland",
        "country_code": "so"
      },
      "address": "Borama, Awdal, Somalia"
    },
    {
      "lat": 9.932190746107251,
      "lon": 43.182074083346926,
      "geoinfo": {
        "display_name": "Jidka Jimcaale, Borama, Borama District, Awdal, Somaliland, Somalia",
        "road": "Jidka Jimcaale",
        "house_number": null,
        "neighbourhood": null,
        "suburb": null,
        "city_district": null,
        "city": "Borama",
        "state": "Awdal",
        "postcode": null,
        "country": "Somaliland",
        "country_code": "so"
      },
      "address": "Jidka Jimcaale, Borama, Awdal, Somalia"
    },
    {
      "lat": 9.945937196132865,
      "lon": 43.18235564159591,
      "geoinfo": {
        "display_name": "Amoud University (Health Science Campus), Zeila-Borama Highway, Borama, Borama District, Awdal, Somaliland, Somalia",
        "road": "Zeila-Borama Highway",
        "house_number": null,
        "neighbourhood": null,
        "suburb": null,
        "city_district": null,
        "city": "Borama",
        "state": "Awdal",
        "postcode": null,
        "country": "Somaliland",
        "country_code": "so"
      },
      "address": "Zeila-Borama Highway, Borama, Awdal, Somalia"
    }
  ],
  "updated_at": "2025-10-16T23:04:20.528753+00:00",
  "_kind": "geo_samples"
}