{
  "country_code": "SO",
  "country": "Somalia",
  "city": "Bosaso",
  "geonameid": 64013,
  "target_addresses": 3,
  "samples": [
    {
      "lat": 11.314226866165965,
      "lon": 49.16520514204372,
      "geoinfo": {
        "display_name": "Raxiis, Bosaso, Bosaso District, Bari, Puntland, Somalia",
        "road": null,
        "house_number": null,
        "neighbourhood": null,
        "suburb": "Raxiis",
        "city_district": null,
        "city": "Bosaso",
        "state": "Bari",
        "postcode": null,
        "country": "Somalia",
        "country_code": "so"
      },
      "address": "Raxiis, Bosaso, Bari, Somalia"
    },
    {
      "lat": 11.264515823462881,
      "lon": 49.16474052330992,
      "geoinfo": {
        "display_name": "Dan-Wadag, Bosaso, Bosaso District, Bari, Puntland, Somalia",
        "road": null,
        "house_number": null,
        "neighbourhood": null,
        "suburb": "Dan-Wadag",
        "city_district": null,
        "city": "Bosaso",
        "state": "Bari",
        "postcode": null,
        "country": "Somalia",
        "country_code": "so"
      },
      "address": "Dan-Wadag, Bosaso, Bari, Somalia"
    },
    {
      "lat": 11.251159085936298,
      "lon": 49.19855576598813,
      "geoinfo": {
        "display_name": "Bosaso, Bosaso District, Bari, Puntland, Somalia",
        "road": null,
        "house_number": null,
        "neighbourhood": null,
        "suburb": null,
        "city_district": null,
        "city": "Bosaso",
        "state": "Bari",
        "postcode": null,
        "country": "Somalia",
        "country_code": "so"
      },
      "address": "Bosaso, Bari, Somalia"
    },
    {
      "lat": 11.269929398218515,
      "lon": 49.16780812049493,
      "geoinfo": {
        "display_name": "Dan-Wadag, Bosaso, Bosaso District, Bari, Puntland, Somalia",
        "road": null,
        "house_number": null,
        "neighbourhood": null,
        "suburb": "Dan-Wadag",
        "city_district": null,
        "city": "Bosaso",
        "state": "Bari",
        "postcode": null,
        "country": "Somalia",
        "country_code": "so"
      },
      "address": "816, Dan-Wadag, Bosaso, Bosaso District, Bari, 17339 Puntland, Somalia"
    },
    {
      "lat": 11.277995082026978,
      "lon": 49.208595151079734,
      "geoinfo": {
        "display_name": "Girible, Bosaso, Bosaso District, Bari, Puntland, Somalia",
        "road": null,
        "house_number": null,
        "neighbourhood": null,
        "suburb": "Girible",
        "city_district": null,
        "city": "Bosaso",
        "state": "Bari",
        "postcode": null,
        "country": "Somalia",
        "country_code": "so"
      },
      "address": "856, Girible, Bosaso, Bosaso District, Bari, 66871 Puntland, Somalia"
    },
    {
      "lat": 11.28227476172176,
      "lon": 49.15508169732645,
      "geoinfo": {
        "display_name": "Dan-Wadag, Bosaso, Bosaso District, Bari, Puntland, Somalia",
        "road": null,
        "house_number": null,
        "neighbourhood": null,
        "suburb": "Dan-Wadag",
        "city_district": null,
        "city": "Bosaso",
        "state": "Bari",
        "postcode": null,
        "country": "Somalia",
        "country_code": "so"
      },
      "address": "619, Dan-Wadag, Bosaso, Bosaso District, Bari, 90275 Puntland, Somalia"
    }
  ],
  "updated_at": "2025-10-19T04:51:01.991565+00:00",
  "_kind": "geo_samples"
}