{
  "country_code": "SO",
  "country": "Somalia",
  "city": "Burao",
  "geonameid": 63795,
  "target_addresses": 3,
  "samples": [
    {
      "lat": 9.506539607152124,
      "lon": 45.49225220888426,
      "geoinfo": {
        "display_name": "Qasabka, Burao, Burao District, Togdheer, Somaliland, Somalia",
        "road": null,
        "house_number": null,
        "neighbourhood": null,
        "suburb": "Qasabka",
        "city_district": null,
        "city": "Burao",
        "state": "Togdheer",
        "postcode": null,
        "country": "Somaliland",
        "country_code": "so"
      },
      "address": "Qasabka, Burao, Togdheer, Somalia"
    },
    {
      "lat": 9.504239009243758,
      "lon": 45.56440725805889,
      "geoinfo": {
        "display_name": "Burao برعو, City Plaza سيتي بلازا, Burao, Burao District, Togdheer, Somaliland, Somalia",
        "road": null,
        "house_number": null,
        "neighbourhood": null,
        "suburb": "City Plaza سيتي بلازا",
        "city_district": null,
        "city": "Burao",
        "state": "Togdheer",
        "postcode": null,
        "country": "Somaliland",
        "country_code": "so"
      },
      "address": "City Plaza سيتي بلازا, Burao, Togdheer, Somalia"
    },
    {
      "lat": 9.531514087163753,
      "lon": 45.49060242576389,
      "geoinfo": {
        "display_name": "Burao برعو, Saleebaan Kulul سليمان كلل, Wisil, Burao District, Togdheer, Somaliland, Somalia",
        "road": null,
        "house_number": null,
        "neighbourhood": null,
        "suburb": "Saleebaan Kulul سليمان كلل",
        "city_district": null,
        "city": "Wisil",
        "state": "Togdheer",
        "postcode": null,
        "country": "Somaliland",
        "country_code": "so"
      },
      "address": "Saleebaan Kulul سليمان كلل, Burao, Togdheer, Somalia"
    },
    {
      "lat": 9.484415480614128,
      "lon": 45.54852342399624,
      "geoinfo": {
        "display_name": "Godorka, Burao District, Togdheer, Somaliland, Somalia",
        "road": null,
        "house_number": null,
        "neighbourhood": null,
        "suburb": null,
        "city_district": null,
        "city": "Godorka",
        "state": "Togdheer",
        "postcode": null,
        "country": "Somaliland",
        "country_code": "so"
      },
      "address": "903, Godorka, Burao District, Togdheer, 43978 Somaliland, Somalia"
    },
    {
      "lat": 9.548963579355664,
      "lon": 45.49956527317334,
      "geoinfo": {
        "display_name": "Raamale, Burao District, Togdheer, Somaliland, Somalia",
        "road": null,
        "house_number": null,
        "neighbourhood": null,
        "suburb": null,
        "city_district": null,
        "city": "Raamale",
        "state": "Togdheer",
        "postcode": null,
        "country": "Somaliland",
        "country_code": "so"
      },
      "address": "864, Raamale, Burao District, Togdheer, 29244 Somaliland, Somalia"
    },
    {
      "lat": 9.545995994833621,
      "lon": 45.55012116545794,
      "geoinfo": {
        "display_name": "Burao برعو, Aqibo, Burao, Burao District, Togdheer, Somaliland, Somalia",
        "road": null,
        "house_number": null,
        "neighbourhood": null,
        "suburb": "Aqibo",
        "city_district": null,
        "city": "Burao",
        "state": "Togdheer",
        "postcode": null,
        "country": "Somaliland",
        "country_code": "so"
      },
      "address": "037, Burao برعو, Aqibo, Burao, Burao District, Togdheer, 22168 Somaliland, Somalia"
    }
  ],
  "updated_at": "2025-10-19T07:04:20.547867+00:00",
  "_kind": "geo_samples"
}