{
  "country_code": "SO",
  "country": "Somalia",
  "city": "Cabudwaaq",
  "geonameid": 63400,
  "target_addresses": 9,
  "samples": [
    {
      "lat": 6.219260832861936,
      "lon": 46.23862894694222,
      "geoinfo": {
        "display_name": "Jaqafaabir, Bire, Hurshe, Abudwak District, Galgaduud, Galmudug, Somalia",
        "road": null,
        "house_number": null,
        "neighbourhood": "Jaqafaabir",
        "suburb": null,
        "city_district": null,
        "city": "Hurshe",
        "state": "Galgaduud",
        "postcode": null,
        "country": "Somalia",
        "country_code": "so"
      },
      "address": "Jaqafaabir, Cabudwaaq, Galgaduud, Somalia"
    },
    {
      "lat": 6.227768527932583,
      "lon": 46.24912470180192,
      "geoinfo": {
        "display_name": "Alamin, Abudwak, Abudwak District, Galgaduud, Galmudug, Somalia",
        "road": null,
        "house_number": null,
        "neighbourhood": null,
        "suburb": null,
        "city_district": null,
        "city": "Abudwak",
        "state": "Galgaduud",
        "postcode": null,
        "country": "Somalia",
        "country_code": "so"
      },
      "address": "Cabudwaaq, Galgaduud, Somalia"
    },
    {
      "lat": 6.239781278233561,
      "lon": 46.21476902005702,
      "geoinfo": {
        "display_name": "Dayacan, Abudwak, Abudwak District, Galgaduud, Galmudug, Somalia",
        "road": null,
        "house_number": null,
        "neighbourhood": "Dayacan",
        "suburb": null,
        "city_district": null,
        "city": "Abudwak",
        "state": "Galgaduud",
        "postcode": null,
        "country": "Somalia",
        "country_code": "so"
      },
      "address": "Dayacan, Cabudwaaq, Galgaduud, Somalia"
    },
    {
      "lat": 6.205258825235141,
      "lon": 46.21354201865176,
      "geoinfo": {
        "display_name": "Abutwaq - Dhuusamareeb Highway, Kulmiye, Olol, Mareere, Abudwak District, Galgaduud, Galmudug, Somalia",
        "road": "Abutwaq - Dhuusamareeb Highway",
        "house_number": null,
        "neighbourhood": "Kulmiye",
        "suburb": null,
        "city_district": null,
        "city": "Mareere",
        "state": "Galgaduud",
        "postcode": null,
        "country": "Somalia",
        "country_code": "so"
      },
      "address": "078, Abutwaq - Dhuusamareeb Highway, Cabudwaaq, 39563 Galgaduud, Somalia"
    },
    {
      "lat": 6.226787493303554,
      "lon": 46.245699082861215,
      "geoinfo": {
        "display_name": "Jaqafaabir, Bire, Hurshe, Abudwak District, Galgaduud, Galmudug, Somalia",
        "road": null,
        "house_number": null,
        "neighbourhood": "Jaqafaabir",
        "suburb": null,
        "city_district": null,
        "city": "Hurshe",
        "state": "Galgaduud",
        "postcode": null,
        "country": "Somalia",
        "country_code": "so"
      },
      "address": "349, Jaqafaabir, Cabudwaaq, 15786 Galgaduud, Somalia"
    },
    {
      "lat": 6.231994886140832,
      "lon": 46.18400678424952,
      "geoinfo": {
        "display_name": "Bali Kibir, Abudwak District, Galgaduud, Galmudug, Somalia",
        "road": null,
        "house_number": null,
        "neighbourhood": null,
        "suburb": null,
        "city_district": null,
        "city": "Bali Kibir",
        "state": "Galgaduud",
        "postcode": null,
        "country": "Somalia",
        "country_code": "so"
      },
      "address": "555, Cabudwaaq, 75374 Galgaduud, Somalia"
    },
    {
      "lat": 6.219263673439855,
      "lon": 46.224392080946444,
      "geoinfo": {
        "display_name": "Nasiye, Abudwak, Abudwak District, Galgaduud, Galmudug, Somalia",
        "road": null,
        "house_number": null,
        "neighbourhood": null,
        "suburb": null,
        "city_district": null,
        "city": "Abudwak",
        "state": "Galgaduud",
        "postcode": null,
        "country": "Somalia",
        "country_code": "so"
      },
      "address": "494, Cabudwaaq, 67801 Galgaduud, Somalia"
    },
    {
      "lat": 6.2503234903262115,
      "lon": 46.22367638816436,
      "geoinfo": {
        "display_name": "Abudwak, Abudwak District, Galgaduud, Galmudug, Somalia",
        "road": null,
        "house_number": null,
        "neighbourhood": null,
        "suburb": null,
        "city_district": null,
        "city": "Abudwak",
        "state": "Galgaduud",
        "postcode": null,
        "country": "Somalia",
        "country_code": "so"
      },
      "address": "785, Cabudwaaq, 43562 Galgaduud, Somalia"
    },
    {
      "lat": 6.220529413186385,
      "lon": 46.197458164833556,
      "geoinfo": {
        "display_name": "Kulmiye, Abudwak, Abudwak District, Galgaduud, Galmudug, Somalia",
        "road": null,
        "house_number": null,
        "neighbourhood": "Kulmiye",
        "suburb": null,
        "city_district": null,
        "city": "Abudwak",
        "state": "Galgaduud",
        "postcode": null,
        "country": "Somalia",
        "country_code": "so"
      },
      "address": "832, Kulmiye, Cabudwaaq, 68429 Galgaduud, Somalia"
    }
  ],
  "updated_at": "2025-10-19T06:23:24.247836+00:00",
  "_kind": "geo_samples"
}