{
  "country_code": "SO",
  "country": "Somalia",
  "city": "Jawhar",
  "geonameid": 56335,
  "target_addresses": 3,
  "samples": [
    {
      "lat": 2.7842275530315894,
      "lon": 45.48280065248546,
      "geoinfo": {
        "display_name": "Jameco Sheikh Bashir, Jowhar, Jowhar District, Middle Shebelle, Hirshabelle, Somalia",
        "road": null,
        "house_number": null,
        "neighbourhood": null,
        "suburb": "Jameco Sheikh Bashir",
        "city_district": null,
        "city": "Jowhar",
        "state": "Middle Shebelle",
        "postcode": null,
        "country": "Somalia",
        "country_code": "so"
      },
      "address": "Jameco Sheikh Bashir, Jawhar, Middle Shebelle, Somalia"
    },
    {
      "lat": 2.8035586397481733,
      "lon": 45.485845881771695,
      "geoinfo": {
        "display_name": "Jowhar-Bulo Burto Highway, Buullo Makiino, Lebiga, Jowhar District, Middle Shebelle, Hirshabelle, Somalia",
        "road": "Jowhar-Bulo Burto Highway",
        "house_number": null,
        "neighbourhood": null,
        "suburb": "Buullo Makiino",
        "city_district": null,
        "city": "Lebiga",
        "state": "Middle Shebelle",
        "postcode": null,
        "country": "Somalia",
        "country_code": "so"
      },
      "address": "Jowhar-Bulo Burto Highway, Jawhar, Middle Shebelle, Somalia"
    },
    {
      "lat": 2.757089539113219,
      "lon": 45.46862358534446,
      "geoinfo": {
        "display_name": "Jowhar District, Middle Shebelle, Hirshabelle, Somalia",
        "road": null,
        "house_number": null,
        "neighbourhood": null,
        "suburb": null,
        "city_district": null,
        "city": null,
        "state": "Middle Shebelle",
        "postcode": null,
        "country": "Somalia",
        "country_code": "so"
      },
      "address": "Jawhar, Middle Shebelle, Somalia"
    },
    {
      "lat": 2.779542299413716,
      "lon": 45.53811699338158,
      "geoinfo": {
        "display_name": "Mayoongaale, Jowhar, Jowhar District, Middle Shebelle, Hirshabelle, Somalia",
        "road": null,
        "house_number": null,
        "neighbourhood": null,
        "suburb": "Mayoongaale",
        "city_district": null,
        "city": "Jowhar",
        "state": "Middle Shebelle",
        "postcode": null,
        "country": "Somalia",
        "country_code": "so"
      },
      "address": "329, Mayoongaale, Jawhar, 03315 Middle Shebelle, Somalia"
    },
    {
      "lat": 2.7875071703247563,
      "lon": 45.49171873593201,
      "geoinfo": {
        "display_name": "Buullo Makiino, Jowhar, Jowhar District, Middle Shebelle, Hirshabelle, Somalia",
        "road": null,
        "house_number": null,
        "neighbourhood": null,
        "suburb": "Buullo Makiino",
        "city_district": null,
        "city": "Jowhar",
        "state": "Middle Shebelle",
        "postcode": null,
        "country": "Somalia",
        "country_code": "so"
      },
      "address": "885, Buullo Makiino, Jawhar, 95820 Middle Shebelle, Somalia"
    },
    {
      "lat": 2.8130015645119975,
      "lon": 45.49165709303572,
      "geoinfo": {
        "display_name": "Damasha, Jowhar, Jowhar District, Middle Shebelle, Hirshabelle, Somalia",
        "road": null,
        "house_number": null,
        "neighbourhood": null,
        "suburb": null,
        "city_district": null,
        "city": "Jowhar",
        "state": "Middle Shebelle",
        "postcode": null,
        "country": "Somalia",
        "country_code": "so"
      },
      "address": "571, Jawhar, 63954 Middle Shebelle, Somalia"
    }
  ],
  "updated_at": "2025-10-19T07:04:08.617997+00:00",
  "_kind": "geo_samples"
}