{
  "country_code": "AX",
  "country": "Aland Islands",
  "city": "Mariehamn",
  "geonameid": 3041732,
  "target_addresses": 100,
  "samples": [
    {
      "lat": 60.09970640992885,
      "lon": 19.884419374314767,
      "geoinfo": {
        "display_name": "Möckelö strand, Jomala, Ålands Countryside, Åland Islands, 22120, Finland",
        "road": null,
        "house_number": null,
        "neighbourhood": null,
        "suburb": null,
        "city_district": null,
        "city": "Jomala",
        "state": "Åland Islands",
        "postcode": "22120",
        "country": "Finland",
        "country_code": "fi"
      },
      "address": "563, Mariehamn, 22120 Åland Islands, Aland Islands"
    },
    {
      "lat": 60.11585664647089,
      "lon": 19.89254004849436,
      "geoinfo": {
        "display_name": "Möckelö strand, Jomala, Ålands Countryside, Åland Islands, 22120, Finland",
        "road": null,
        "house_number": null,
        "neighbourhood": null,
        "suburb": null,
        "city_district": null,
        "city": "Jomala",
        "state": "Åland Islands",
        "postcode": "22120",
        "country": "Finland",
        "country_code": "fi"
      },
      "address": "980, Mariehamn, 22120 Åland Islands, Aland Islands"
    },
    {
      "lat": 60.10950197423835,
      "lon": 19.95910939264821,
      "geoinfo": {
        "display_name": "Kalmstavägen, Nabben, Vesterkalmare, Mariehamn, Mariehamn sub-region, Åland Islands, 22101, Finland",
        "road": "Kalmstavägen",
        "house_number": null,
        "neighbourhood": null,
        "suburb": "Nabben",
        "city_district": null,
        "city": "Mariehamn",
        "state": "Åland Islands",
        "postcode": "22101",
        "country": "Finland",
        "country_code": "fi"
      },
      "address": "356, Kalmstavägen, Mariehamn, 22101 Åland Islands, Aland Islands"
    },
    {
      "lat": 60.08073182529873,
      "lon": 19.864063794978005,
      "geoinfo": {
        "display_name": "Möckelö strand, Jomala, Ålands Countryside, Åland Islands, 22120, Finland",
        "road": null,
        "house_number": null,
        "neighbourhood": null,
        "suburb": null,
        "city_district": null,
        "city": "Jomala",
        "state": "Åland Islands",
        "postcode": "22120",
        "country": "Finland",
        "country_code": "fi"
      },
      "address": "549, Mariehamn, 22120 Åland Islands, Aland Islands"
    },
    {
      "lat": 60.101319985064954,
      "lon": 19.957518905118093,
      "geoinfo": {
        "display_name": "Sjökvarteret, Nyängen, Mariehamn, Mariehamn sub-region, Åland Islands, 22101, Finland",
        "road": null,
        "house_number": null,
        "neighbourhood": null,
        "suburb": "Nyängen",
        "city_district": "Nyängen",
        "city": "Mariehamn",
        "state": "Åland Islands",
        "postcode": "22101",
        "country": "Finland",
        "country_code": "fi"
      },
      "address": "729, Nyängen, Mariehamn, 22101 Åland Islands, Aland Islands"
    },
    {
      "lat": 60.08385509801101,
      "lon": 19.887732632536338,
      "geoinfo": {
        "display_name": "Möckelö strand, Jomala, Ålands Countryside, Åland Islands, 22120, Finland",
        "road": null,
        "house_number": null,
        "neighbourhood": null,
        "suburb": null,
        "city_district": null,
        "city": "Jomala",
        "state": "Åland Islands",
        "postcode": "22120",
        "country": "Finland",
        "country_code": "fi"
      },
      "address": "308, Mariehamn, 22120 Åland Islands, Aland Islands"
    },
    {
      "lat": 60.1256445396827,
      "lon": 19.92294593885638,
      "geoinfo": {
        "display_name": "Kasbergsvägen, Sviby, Torp, Jomala, Ålands Countryside, Åland Islands, 22110, Finland",
        "road": "Kasbergsvägen",
        "house_number": null,
        "neighbourhood": null,
        "suburb": "Sviby",
        "city_district": null,
        "city": "Jomala",
        "state": "Åland Islands",
        "postcode": "22110",
        "country": "Finland",
        "country_code": "fi"
      },
      "address": "456, Kasbergsvägen, Mariehamn, 22110 Åland Islands, Aland Islands"
    },
    {
      "lat": 60.092879693536794,
      "lon": 19.955185355258404,
      "geoinfo": {
        "display_name": "Gröna uddens badstrand, Östernäsvägen, Storgärdan, Mariehamn, Mariehamn sub-region, Åland Islands, 22100, Finland",
        "road": "Östernäsvägen",
        "house_number": null,
        "neighbourhood": null,
        "suburb": "Storgärdan",
        "city_district": "Storgärdan",
        "city": "Mariehamn",
        "state": "Åland Islands",
        "postcode": "22100",
        "country": "Finland",
        "country_code": "fi"
      },
      "address": "865, Östernäsvägen, Mariehamn, 22100 Åland Islands, Aland Islands"
    },
    {
      "lat": 60.11697300986016,
      "lon": 19.993064317967498,
      "geoinfo": {
        "display_name": "Lemlandsvägen, Solberget, Österkalmare, Jomala, Ålands Countryside, Åland Islands, Finland",
        "road": "Lemlandsvägen",
        "house_number": null,
        "neighbourhood": null,
        "suburb": "Solberget",
        "city_district": null,
        "city": "Jomala",
        "state": "Åland Islands",
        "postcode": null,
        "country": "Finland",
        "country_code": "fi"
      },
      "address": "118, Lemlandsvägen, Mariehamn, 98542 Åland Islands, Aland Islands"
    },
    {
      "lat": 60.07831235311853,
      "lon": 19.96212928252036,
      "geoinfo": {
        "display_name": "Apelgränd, Östernäs, Mariehamn, Mariehamn sub-region, Åland Islands, 22100, Finland",
        "road": "Apelgränd",
        "house_number": null,
        "neighbourhood": null,
        "suburb": "Östernäs",
        "city_district": "Östernäs",
        "city": "Mariehamn",
        "state": "Åland Islands",
        "postcode": "22100",
        "country": "Finland",
        "country_code": "fi"
      },
      "address": "642, Apelgränd, Mariehamn, 22100 Åland Islands, Aland Islands"
    },
    {
      "lat": 60.08301378674338,
      "lon": 19.936434338485792,
      "geoinfo": {
        "display_name": "8, Segelmakargatan, Horelli, Västra Ytternäs, Mariehamn, Mariehamn sub-region, Åland Islands, 22100, Finland",
        "road": "Segelmakargatan",
        "house_number": "8",
        "neighbourhood": "Horelli",
        "suburb": "Västra Ytternäs",
        "city_district": "Västra Ytternäs",
        "city": "Mariehamn",
        "state": "Åland Islands",
        "postcode": "22100",
        "country": "Finland",
        "country_code": "fi"
      },
      "address": "8, Segelmakargatan, Mariehamn, 22100 Åland Islands, Aland Islands"
    },
    {
      "lat": 60.0560580949341,
      "lon": 19.947012986386913,
      "geoinfo": {
        "display_name": "Styrsö, Mariehamn, Mariehamn sub-region, Åland Islands, 22100, Finland",
        "road": null,
        "house_number": null,
        "neighbourhood": null,
        "suburb": null,
        "city_district": "Styrsö",
        "city": "Mariehamn",
        "state": "Åland Islands",
        "postcode": "22100",
        "country": "Finland",
        "country_code": "fi"
      },
      "address": "291, Styrsö, Mariehamn, 22100 Åland Islands, Aland Islands"
    },
    {
      "lat": 60.12024035695577,
      "lon": 19.893006647361982,
      "geoinfo": {
        "display_name": "Mariehamn Airport, 67, Flygfältsvägen, Sviby, Torp, Mariehamn, Ålands Countryside, Åland Islands, 22120, Finland",
        "road": "Flygfältsvägen",
        "house_number": "67",
        "neighbourhood": null,
        "suburb": "Sviby",
        "city_district": null,
        "city": "Mariehamn",
        "state": "Åland Islands",
        "postcode": "22120",
        "country": "Finland",
        "country_code": "fi"
      },
      "address": "67, Flygfältsvägen, Mariehamn, 22120 Åland Islands, Aland Islands"
    },
    {
      "lat": 60.077649330701725,
      "lon": 19.96250699814533,
      "geoinfo": {
        "display_name": "Apelgränd, Östernäs, Mariehamn, Mariehamn sub-region, Åland Islands, 22100, Finland",
        "road": "Apelgränd",
        "house_number": null,
        "neighbourhood": null,
        "suburb": "Östernäs",
        "city_district": "Östernäs",
        "city": "Mariehamn",
        "state": "Åland Islands",
        "postcode": "22100",
        "country": "Finland",
        "country_code": "fi"
      },
      "address": "726, Apelgränd, Mariehamn, 22100 Åland Islands, Aland Islands"
    },
    {
      "lat": 60.091915701311315,
      "lon": 19.884811709100166,
      "geoinfo": {
        "display_name": "Möckelö strand, Jomala, Ålands Countryside, Åland Islands, 22120, Finland",
        "road": null,
        "house_number": null,
        "neighbourhood": null,
        "suburb": null,
        "city_district": null,
        "city": "Jomala",
        "state": "Åland Islands",
        "postcode": "22120",
        "country": "Finland",
        "country_code": "fi"
      },
      "address": "278, Mariehamn, 22120 Åland Islands, Aland Islands"
    },
    {
      "lat": 60.122069372432996,
      "lon": 19.951892961645274,
      "geoinfo": {
        "display_name": "Myrstigen, Hindersböle, Mariehamn, Mariehamn sub-region, Åland Islands, 22101, Finland",
        "road": "Myrstigen",
        "house_number": null,
        "neighbourhood": null,
        "suburb": "Hindersböle",
        "city_district": "Hindersböle",
        "city": "Mariehamn",
        "state": "Åland Islands",
        "postcode": "22101",
        "country": "Finland",
        "country_code": "fi"
      },
      "address": "138, Myrstigen, Mariehamn, 22101 Åland Islands, Aland Islands"
    },
    {
      "lat": 60.06489725463319,
      "lon": 19.979579573300636,
      "geoinfo": {
        "display_name": "Lemland, Ålands Countryside, Åland Islands, 22100, Finland",
        "road": null,
        "house_number": null,
        "neighbourhood": null,
        "suburb": null,
        "city_district": null,
        "city": null,
        "state": "Åland Islands",
        "postcode": "22100",
        "country": "Finland",
        "country_code": "fi"
      },
      "address": "683, Mariehamn, 22100 Åland Islands, Aland Islands"
    },
    {
      "lat": 60.1058119805072,
      "lon": 19.959478474095487,
      "geoinfo": {
        "display_name": "Sjökvarteret, Nyängen, Mariehamn, Mariehamn sub-region, Åland Islands, 22101, Finland",
        "road": null,
        "house_number": null,
        "neighbourhood": null,
        "suburb": "Nyängen",
        "city_district": "Nyängen",
        "city": "Mariehamn",
        "state": "Åland Islands",
        "postcode": "22101",
        "country": "Finland",
        "country_code": "fi"
      },
      "address": "933, Nyängen, Mariehamn, 22101 Åland Islands, Aland Islands"
    },
    {
      "lat": 60.11412287058333,
      "lon": 19.99359412618926,
      "geoinfo": {
        "display_name": "Lemlandsvägen, Solberget, Österkalmare, Jomala, Ålands Countryside, Åland Islands, Finland",
        "road": "Lemlandsvägen",
        "house_number": null,
        "neighbourhood": null,
        "suburb": "Solberget",
        "city_district": null,
        "city": "Jomala",
        "state": "Åland Islands",
        "postcode": null,
        "country": "Finland",
        "country_code": "fi"
      },
      "address": "392, Lemlandsvägen, Mariehamn, 01900 Åland Islands, Aland Islands"
    },
    {
      "lat": 60.072820939921854,
      "lon": 19.875491485786608,
      "geoinfo": {
        "display_name": "Möckelö strand, Jomala, Ålands Countryside, Åland Islands, 22120, Finland",
        "road": null,
        "house_number": null,
        "neighbourhood": null,
        "suburb": null,
        "city_district": null,
        "city": "Jomala",
        "state": "Åland Islands",
        "postcode": "22120",
        "country": "Finland",
        "country_code": "fi"
      },
      "address": "937, Mariehamn, 22120 Åland Islands, Aland Islands"
    },
    {
      "lat": 60.074031600896014,
      "lon": 19.95725944357112,
      "geoinfo": {
        "display_name": "Villansvägen, Södra Lillängen, Ytternäs, Mariehamn, Mariehamn sub-region, Åland Islands, 22100, Finland",
        "road": "Villansvägen",
        "house_number": null,
        "neighbourhood": "Södra Lillängen",
        "suburb": "Ytternäs",
        "city_district": "Ytternäs",
        "city": "Mariehamn",
        "state": "Åland Islands",
        "postcode": "22100",
        "country": "Finland",
        "country_code": "fi"
      },
      "address": "205, Villansvägen, Mariehamn, 22100 Åland Islands, Aland Islands"
    },
    {
      "lat": 60.08222135596956,
      "lon": 19.858034746231016,
      "geoinfo": {
        "display_name": "Kungsö, Jomala, Ålands Countryside, Åland Islands, 22130, Finland",
        "road": null,
        "house_number": null,
        "neighbourhood": null,
        "suburb": null,
        "city_district": null,
        "city": "Jomala",
        "state": "Åland Islands",
        "postcode": "22130",
        "country": "Finland",
        "country_code": "fi"
      },
      "address": "309, Mariehamn, 22130 Åland Islands, Aland Islands"
    },
    {
      "lat": 60.08661499993785,
      "lon": 19.95616174352111,
      "geoinfo": {
        "display_name": "5, Östernäsvägen, Östernäs, Mariehamn, Mariehamn sub-region, Åland Islands, 22100, Finland",
        "road": "Östernäsvägen",
        "house_number": "5",
        "neighbourhood": null,
        "suburb": "Östernäs",
        "city_district": "Östernäs",
        "city": "Mariehamn",
        "state": "Åland Islands",
        "postcode": "22100",
        "country": "Finland",
        "country_code": "fi"
      },
      "address": "5, Östernäsvägen, Mariehamn, 22100 Åland Islands, Aland Islands"
    },
    {
      "lat": 60.117381529301326,
      "lon": 19.93915656285804,
      "geoinfo": {
        "display_name": "Grantorpsvägen, Johannebo, Mariehamn, Mariehamn sub-region, Åland Islands, 22101, Finland",
        "road": "Grantorpsvägen",
        "house_number": null,
        "neighbourhood": null,
        "suburb": "Johannebo",
        "city_district": "Johannebo",
        "city": "Mariehamn",
        "state": "Åland Islands",
        "postcode": "22101",
        "country": "Finland",
        "country_code": "fi"
      },
      "address": "615, Grantorpsvägen, Mariehamn, 22101 Åland Islands, Aland Islands"
    },
    {
      "lat": 60.12558859048628,
      "lon": 19.919760038649315,
      "geoinfo": {
        "display_name": "Kasbergsvägen, Sviby, Torp, Jomala, Ålands Countryside, Åland Islands, 22110, Finland",
        "road": "Kasbergsvägen",
        "house_number": null,
        "neighbourhood": null,
        "suburb": "Sviby",
        "city_district": null,
        "city": "Jomala",
        "state": "Åland Islands",
        "postcode": "22110",
        "country": "Finland",
        "country_code": "fi"
      },
      "address": "262, Kasbergsvägen, Mariehamn, 22110 Åland Islands, Aland Islands"
    },
    {
      "lat": 60.053139274734065,
      "lon": 19.93701063750809,
      "geoinfo": {
        "display_name": "Styrsö, Mariehamn, Mariehamn sub-region, Åland Islands, 22100, Finland",
        "road": null,
        "house_number": null,
        "neighbourhood": null,
        "suburb": null,
        "city_district": "Styrsö",
        "city": "Mariehamn",
        "state": "Åland Islands",
        "postcode": "22100",
        "country": "Finland",
        "country_code": "fi"
      },
      "address": "205, Styrsö, Mariehamn, 22100 Åland Islands, Aland Islands"
    },
    {
      "lat": 60.080350628499595,
      "lon": 19.964262585919155,
      "geoinfo": {
        "display_name": "Källstigen, Östernäs, Mariehamn, Mariehamn sub-region, Åland Islands, 22100, Finland",
        "road": "Källstigen",
        "house_number": null,
        "neighbourhood": null,
        "suburb": "Östernäs",
        "city_district": "Östernäs",
        "city": "Mariehamn",
        "state": "Åland Islands",
        "postcode": "22100",
        "country": "Finland",
        "country_code": "fi"
      },
      "address": "922, Källstigen, Mariehamn, 22100 Åland Islands, Aland Islands"
    },
    {
      "lat": 60.059933492086046,
      "lon": 19.90884301401133,
      "geoinfo": {
        "display_name": "Jomala, Ålands Countryside, Åland Islands, Finland",
        "road": null,
        "house_number": null,
        "neighbourhood": null,
        "suburb": null,
        "city_district": null,
        "city": "Jomala",
        "state": "Åland Islands",
        "postcode": null,
        "country": "Finland",
        "country_code": "fi"
      },
      "address": "815, Mariehamn, 18761 Åland Islands, Aland Islands"
    },
    {
      "lat": 60.125630915498434,
      "lon": 19.949982882755158,
      "geoinfo": {
        "display_name": "5, Karlbergsvägen, Norrböle, Mariehamn, Mariehamn sub-region, Åland Islands, 22100, Finland",
        "road": "Karlbergsvägen",
        "house_number": "5",
        "neighbourhood": null,
        "suburb": "Norrböle",
        "city_district": "Norrböle",
        "city": "Mariehamn",
        "state": "Åland Islands",
        "postcode": "22100",
        "country": "Finland",
        "country_code": "fi"
      },
      "address": "5, Karlbergsvägen, Mariehamn, 22100 Åland Islands, Aland Islands"
    },
    {
      "lat": 60.12437717600794,
      "lon": 19.963807418147454,
      "geoinfo": {
        "display_name": "Årsringen, Österbacka, Mariehamn, Mariehamn sub-region, Åland Islands, 22150, Finland",
        "road": "Årsringen",
        "house_number": null,
        "neighbourhood": null,
        "suburb": "Österbacka",
        "city_district": "Österbacka",
        "city": "Mariehamn",
        "state": "Åland Islands",
        "postcode": "22150",
        "country": "Finland",
        "country_code": "fi"
      },
      "address": "669, Årsringen, Mariehamn, 22150 Åland Islands, Aland Islands"
    },
    {
      "lat": 60.137460300317855,
      "lon": 19.93555981723264,
      "geoinfo": {
        "display_name": "Nya Godbyvägen, Sviby, Dalkarby, Jomala, Ålands Countryside, Åland Islands, 22150, Finland",
        "road": "Nya Godbyvägen",
        "house_number": null,
        "neighbourhood": null,
        "suburb": "Sviby",
        "city_district": null,
        "city": "Jomala",
        "state": "Åland Islands",
        "postcode": "22150",
        "country": "Finland",
        "country_code": "fi"
      },
      "address": "122, Nya Godbyvägen, Mariehamn, 22150 Åland Islands, Aland Islands"
    },
    {
      "lat": 60.10404766429133,
      "lon": 19.945414903619415,
      "geoinfo": {
        "display_name": "Rönnbergs Björk, Österleden, Nyängen, Mariehamn, Mariehamn sub-region, Åland Islands, 22101, Finland",
        "road": "Österleden",
        "house_number": null,
        "neighbourhood": null,
        "suburb": "Nyängen",
        "city_district": "Nyängen",
        "city": "Mariehamn",
        "state": "Åland Islands",
        "postcode": "22101",
        "country": "Finland",
        "country_code": "fi"
      },
      "address": "464, Österleden, Mariehamn, 22101 Åland Islands, Aland Islands"
    },
    {
      "lat": 60.12975588479694,
      "lon": 19.91753285745769,
      "geoinfo": {
        "display_name": "Kasbergsvägen, Sviby, Torp, Jomala, Ålands Countryside, Åland Islands, 22110, Finland",
        "road": "Kasbergsvägen",
        "house_number": null,
        "neighbourhood": null,
        "suburb": "Sviby",
        "city_district": null,
        "city": "Jomala",
        "state": "Åland Islands",
        "postcode": "22110",
        "country": "Finland",
        "country_code": "fi"
      },
      "address": "363, Kasbergsvägen, Mariehamn, 22110 Åland Islands, Aland Islands"
    },
    {
      "lat": 60.11413471822977,
      "lon": 19.943359664216313,
      "geoinfo": {
        "display_name": "Lemlandsvägen, Nabben, Strandnäs, Mariehamn, Mariehamn sub-region, Åland Islands, 22101, Finland",
        "road": "Lemlandsvägen",
        "house_number": null,
        "neighbourhood": null,
        "suburb": "Nabben",
        "city_district": "Strandnäs",
        "city": "Mariehamn",
        "state": "Åland Islands",
        "postcode": "22101",
        "country": "Finland",
        "country_code": "fi"
      },
      "address": "904, Lemlandsvägen, Mariehamn, 22101 Åland Islands, Aland Islands"
    },
    {
      "lat": 60.063584562098924,
      "lon": 19.95073365967595,
      "geoinfo": {
        "display_name": "Espholmsvägen, Espholm, Mariehamn, Mariehamn sub-region, Åland Islands, 22100, Finland",
        "road": "Espholmsvägen",
        "house_number": null,
        "neighbourhood": null,
        "suburb": "Espholm",
        "city_district": "Espholm",
        "city": "Mariehamn",
        "state": "Åland Islands",
        "postcode": "22100",
        "country": "Finland",
        "country_code": "fi"
      },
      "address": "162, Espholmsvägen, Mariehamn, 22100 Åland Islands, Aland Islands"
    },
    {
      "lat": 60.12804501959583,
      "lon": 19.92268617730935,
      "geoinfo": {
        "display_name": "Kasbergsvägen, Sviby, Torp, Jomala, Ålands Countryside, Åland Islands, 22110, Finland",
        "road": "Kasbergsvägen",
        "house_number": null,
        "neighbourhood": null,
        "suburb": "Sviby",
        "city_district": null,
        "city": "Jomala",
        "state": "Åland Islands",
        "postcode": "22110",
        "country": "Finland",
        "country_code": "fi"
      },
      "address": "215, Kasbergsvägen, Mariehamn, 22110 Åland Islands, Aland Islands"
    },
    {
      "lat": 60.092874893065904,
      "lon": 19.867937998390996,
      "geoinfo": {
        "display_name": "Möckelö strand, Jomala, Ålands Countryside, Åland Islands, 22120, Finland",
        "road": null,
        "house_number": null,
        "neighbourhood": null,
        "suburb": null,
        "city_district": null,
        "city": "Jomala",
        "state": "Åland Islands",
        "postcode": "22120",
        "country": "Finland",
        "country_code": "fi"
      },
      "address": "690, Mariehamn, 22120 Åland Islands, Aland Islands"
    },
    {
      "lat": 60.088755117244865,
      "lon": 19.93450940265336,
      "geoinfo": {
        "display_name": "Gnistvägen, Lotsberget, Mariehamn, Mariehamn sub-region, Åland Islands, 22100, Finland",
        "road": "Gnistvägen",
        "house_number": null,
        "neighbourhood": null,
        "suburb": "Lotsberget",
        "city_district": "Lotsberget",
        "city": "Mariehamn",
        "state": "Åland Islands",
        "postcode": "22100",
        "country": "Finland",
        "country_code": "fi"
      },
      "address": "010, Gnistvägen, Mariehamn, 22100 Åland Islands, Aland Islands"
    },
    {
      "lat": 60.099614931952594,
      "lon": 19.944900328831928,
      "geoinfo": {
        "display_name": "Österleden, Storängen, Mariehamn, Mariehamn sub-region, Åland Islands, 22101, Finland",
        "road": "Österleden",
        "house_number": null,
        "neighbourhood": null,
        "suburb": "Storängen",
        "city_district": "Storängen",
        "city": "Mariehamn",
        "state": "Åland Islands",
        "postcode": "22101",
        "country": "Finland",
        "country_code": "fi"
      },
      "address": "558, Österleden, Mariehamn, 22101 Åland Islands, Aland Islands"
    },
    {
      "lat": 60.11252105002108,
      "lon": 19.961609662018027,
      "geoinfo": {
        "display_name": "Kalmstavägen, Nabben, Vesterkalmare, Mariehamn, Mariehamn sub-region, Åland Islands, 22101, Finland",
        "road": "Kalmstavägen",
        "house_number": null,
        "neighbourhood": null,
        "suburb": "Nabben",
        "city_district": null,
        "city": "Mariehamn",
        "state": "Åland Islands",
        "postcode": "22101",
        "country": "Finland",
        "country_code": "fi"
      },
      "address": "741, Kalmstavägen, Mariehamn, 22101 Åland Islands, Aland Islands"
    },
    {
      "lat": 60.06262463286499,
      "lon": 19.97323590442385,
      "geoinfo": {
        "display_name": "Lemland, Ålands Countryside, Åland Islands, 22100, Finland",
        "road": null,
        "house_number": null,
        "neighbourhood": null,
        "suburb": null,
        "city_district": null,
        "city": null,
        "state": "Åland Islands",
        "postcode": "22100",
        "country": "Finland",
        "country_code": "fi"
      },
      "address": "808, Mariehamn, 22100 Åland Islands, Aland Islands"
    },
    {
      "lat": 60.08211366400416,
      "lon": 19.889446808588932,
      "geoinfo": {
        "display_name": "Möckelö strand, Jomala, Ålands Countryside, Åland Islands, 22120, Finland",
        "road": null,
        "house_number": null,
        "neighbourhood": null,
        "suburb": null,
        "city_district": null,
        "city": "Jomala",
        "state": "Åland Islands",
        "postcode": "22120",
        "country": "Finland",
        "country_code": "fi"
      },
      "address": "179, Mariehamn, 22120 Åland Islands, Aland Islands"
    },
    {
      "lat": 60.1135144659716,
      "lon": 19.90188860950942,
      "geoinfo": {
        "display_name": "Möckelö Företagsby AC, Hammarlandsvägen, Möckelö, Jomala, Ålands Countryside, Åland Islands, 22120, Finland",
        "road": "Hammarlandsvägen",
        "house_number": null,
        "neighbourhood": null,
        "suburb": null,
        "city_district": null,
        "city": "Jomala",
        "state": "Åland Islands",
        "postcode": "22120",
        "country": "Finland",
        "country_code": "fi"
      },
      "address": "795, Hammarlandsvägen, Mariehamn, 22120 Åland Islands, Aland Islands"
    },
    {
      "lat": 60.076813036427815,
      "lon": 19.962549821561264,
      "geoinfo": {
        "display_name": "Lillängsvägen, Södra Lillängen, Ytternäs, Mariehamn, Mariehamn sub-region, Åland Islands, 22100, Finland",
        "road": "Lillängsvägen",
        "house_number": null,
        "neighbourhood": "Södra Lillängen",
        "suburb": "Ytternäs",
        "city_district": "Ytternäs",
        "city": "Mariehamn",
        "state": "Åland Islands",
        "postcode": "22100",
        "country": "Finland",
        "country_code": "fi"
      },
      "address": "034, Lillängsvägen, Mariehamn, 22100 Åland Islands, Aland Islands"
    },
    {
      "lat": 60.12526330726982,
      "lon": 19.93367781446003,
      "geoinfo": {
        "display_name": "Nya Godbyvägen, Sviby, Dalbo, Jomala, Ålands Countryside, Åland Islands, 22110, Finland",
        "road": "Nya Godbyvägen",
        "house_number": null,
        "neighbourhood": null,
        "suburb": "Sviby",
        "city_district": "Dalbo",
        "city": "Jomala",
        "state": "Åland Islands",
        "postcode": "22110",
        "country": "Finland",
        "country_code": "fi"
      },
      "address": "740, Nya Godbyvägen, Mariehamn, 22110 Åland Islands, Aland Islands"
    },
    {
      "lat": 60.114540431797,
      "lon": 19.94685690959396,
      "geoinfo": {
        "display_name": "Lemlandsvägen, Nabben, Mariehamn, Mariehamn sub-region, Åland Islands, 22101, Finland",
        "road": "Lemlandsvägen",
        "house_number": null,
        "neighbourhood": null,
        "suburb": "Nabben",
        "city_district": null,
        "city": "Mariehamn",
        "state": "Åland Islands",
        "postcode": "22101",
        "country": "Finland",
        "country_code": "fi"
      },
      "address": "451, Lemlandsvägen, Mariehamn, 22101 Åland Islands, Aland Islands"
    },
    {
      "lat": 60.0931328494463,
      "lon": 19.902849993274682,
      "geoinfo": {
        "display_name": "Möckelö strand, Jomala, Ålands Countryside, Åland Islands, 22120, Finland",
        "road": null,
        "house_number": null,
        "neighbourhood": null,
        "suburb": null,
        "city_district": null,
        "city": "Jomala",
        "state": "Åland Islands",
        "postcode": "22120",
        "country": "Finland",
        "country_code": "fi"
      },
      "address": "601, Mariehamn, 22120 Åland Islands, Aland Islands"
    },
    {
      "lat": 60.10250758263932,
      "lon": 19.929469897923447,
      "geoinfo": {
        "display_name": "Högskolan på Åland, Neptunigatan, Dalberg, Mariehamn, Mariehamn sub-region, Åland Islands, 22100, Finland",
        "road": "Neptunigatan",
        "house_number": null,
        "neighbourhood": null,
        "suburb": "Dalberg",
        "city_district": "Dalberg",
        "city": "Mariehamn",
        "state": "Åland Islands",
        "postcode": "22100",
        "country": "Finland",
        "country_code": "fi"
      },
      "address": "203, Neptunigatan, Mariehamn, 22100 Åland Islands, Aland Islands"
    },
    {
      "lat": 60.0972828630143,
      "lon": 19.926254492835287,
      "geoinfo": {
        "display_name": "Hamngatan, Dalberg, Mariehamn, Mariehamn sub-region, Åland Islands, 22100, Finland",
        "road": "Hamngatan",
        "house_number": null,
        "neighbourhood": null,
        "suburb": "Dalberg",
        "city_district": "Dalberg",
        "city": "Mariehamn",
        "state": "Åland Islands",
        "postcode": "22100",
        "country": "Finland",
        "country_code": "fi"
      },
      "address": "825, Hamngatan, Mariehamn, 22100 Åland Islands, Aland Islands"
    },
    {
      "lat": 60.10923514087106,
      "lon": 19.962285649256014,
      "geoinfo": {
        "display_name": "Lemlandsvägen, Kalmsta, Vesterkalmare, Jomala, Ålands Countryside, Åland Islands, 22101, Finland",
        "road": "Lemlandsvägen",
        "house_number": null,
        "neighbourhood": null,
        "suburb": "Kalmsta",
        "city_district": null,
        "city": "Jomala",
        "state": "Åland Islands",
        "postcode": "22101",
        "country": "Finland",
        "country_code": "fi"
      },
      "address": "716, Lemlandsvägen, Mariehamn, 22101 Åland Islands, Aland Islands"
    },
    {
      "lat": 60.117378749686324,
      "lon": 19.86025901456543,
      "geoinfo": {
        "display_name": "Jomala, Ålands Countryside, Åland Islands, 22130, Finland",
        "road": null,
        "house_number": null,
        "neighbourhood": null,
        "suburb": null,
        "city_district": null,
        "city": "Jomala",
        "state": "Åland Islands",
        "postcode": "22130",
        "country": "Finland",
        "country_code": "fi"
      },
      "address": "582, Mariehamn, 22130 Åland Islands, Aland Islands"
    },
    {
      "lat": 60.057017087833216,
      "lon": 19.942521199056607,
      "geoinfo": {
        "display_name": "Styrsö, Mariehamn, Mariehamn sub-region, Åland Islands, 22100, Finland",
        "road": null,
        "house_number": null,
        "neighbourhood": null,
        "suburb": null,
        "city_district": "Styrsö",
        "city": "Mariehamn",
        "state": "Åland Islands",
        "postcode": "22100",
        "country": "Finland",
        "country_code": "fi"
      },
      "address": "004, Styrsö, Mariehamn, 22100 Åland Islands, Aland Islands"
    },
    {
      "lat": 60.091968898432505,
      "lon": 19.870701833439583,
      "geoinfo": {
        "display_name": "Möckelö strand, Jomala, Ålands Countryside, Åland Islands, 22120, Finland",
        "road": null,
        "house_number": null,
        "neighbourhood": null,
        "suburb": null,
        "city_district": null,
        "city": "Jomala",
        "state": "Åland Islands",
        "postcode": "22120",
        "country": "Finland",
        "country_code": "fi"
      },
      "address": "265, Mariehamn, 22120 Åland Islands, Aland Islands"
    },
    {
      "lat": 60.06124565727372,
      "lon": 19.974659625953137,
      "geoinfo": {
        "display_name": "Lemland, Ålands Countryside, Åland Islands, 22100, Finland",
        "road": null,
        "house_number": null,
        "neighbourhood": null,
        "suburb": null,
        "city_district": null,
        "city": null,
        "state": "Åland Islands",
        "postcode": "22100",
        "country": "Finland",
        "country_code": "fi"
      },
      "address": "930, Mariehamn, 22100 Åland Islands, Aland Islands"
    },
    {
      "lat": 60.11144546987088,
      "lon": 19.935489096318886,
      "geoinfo": {
        "display_name": "Mjölnargränd, Klinten, Mariehamn, Mariehamn sub-region, Åland Islands, 22101, Finland",
        "road": "Mjölnargränd",
        "house_number": null,
        "neighbourhood": null,
        "suburb": "Klinten",
        "city_district": "Klinten",
        "city": "Mariehamn",
        "state": "Åland Islands",
        "postcode": "22101",
        "country": "Finland",
        "country_code": "fi"
      },
      "address": "501, Mjölnargränd, Mariehamn, 22101 Åland Islands, Aland Islands"
    },
    {
      "lat": 60.06006587233665,
      "lon": 19.981108478245773,
      "geoinfo": {
        "display_name": "Lemland, Ålands Countryside, Åland Islands, 22100, Finland",
        "road": null,
        "house_number": null,
        "neighbourhood": null,
        "suburb": null,
        "city_district": null,
        "city": null,
        "state": "Åland Islands",
        "postcode": "22100",
        "country": "Finland",
        "country_code": "fi"
      },
      "address": "316, Mariehamn, 22100 Åland Islands, Aland Islands"
    },
    {
      "lat": 60.0679349336947,
      "lon": 19.912337171749325,
      "geoinfo": {
        "display_name": "Jomala, Ålands Countryside, Åland Islands, Finland",
        "road": null,
        "house_number": null,
        "neighbourhood": null,
        "suburb": null,
        "city_district": null,
        "city": "Jomala",
        "state": "Åland Islands",
        "postcode": null,
        "country": "Finland",
        "country_code": "fi"
      },
      "address": "359, Mariehamn, 11253 Åland Islands, Aland Islands"
    },
    {
      "lat": 60.08755649378721,
      "lon": 19.921392581326792,
      "geoinfo": {
        "display_name": "Jomala, Ålands Countryside, Åland Islands, 22120, Finland",
        "road": null,
        "house_number": null,
        "neighbourhood": null,
        "suburb": null,
        "city_district": null,
        "city": "Jomala",
        "state": "Åland Islands",
        "postcode": "22120",
        "country": "Finland",
        "country_code": "fi"
      },
      "address": "811, Mariehamn, 22120 Åland Islands, Aland Islands"
    }
  ],
  "updated_at": "2025-10-19T02:54:50.083743+00:00",
  "_kind": "geo_samples"
}