{
  "country_code": "LR",
  "country": "Liberia",
  "city": "Ganta",
  "geonameid": 2277241,
  "target_addresses": 7,
  "samples": [
    {
      "lat": 7.247110850562102,
      "lon": -9.016095277755541,
      "geoinfo": {
        "display_name": "George Village, Garr-Bain, Nimba County, Liberia",
        "road": null,
        "house_number": null,
        "neighbourhood": null,
        "suburb": null,
        "city_district": null,
        "city": null,
        "state": "Nimba County",
        "postcode": null,
        "country": "Liberia",
        "country_code": "lr"
      },
      "address": "Ganta, Nimba County, Liberia"
    },
    {
      "lat": 7.2153241414948095,
      "lon": -8.967393520476502,
      "geoinfo": {
        "display_name": "Saclepea Road, LOIC Compound, LPRC, Zone 6, Garr-Bain, Nimba County, Liberia",
        "road": "Saclepea Road",
        "house_number": null,
        "neighbourhood": null,
        "suburb": null,
        "city_district": null,
        "city": null,
        "state": "Nimba County",
        "postcode": null,
        "country": "Liberia",
        "country_code": "lr"
      },
      "address": "Saclepea Road, Ganta, Nimba County, Liberia"
    },
    {
      "lat": 7.228466827378936,
      "lon": -8.940944585925507,
      "geoinfo": {
        "display_name": "Sanniquellie Road, Gbasselah Town (Old), GWR, Wuo's, Zone 5, Garr-Bain, Nimba County, Liberia",
        "road": "Sanniquellie Road",
        "house_number": null,
        "neighbourhood": null,
        "suburb": null,
        "city_district": null,
        "city": "Wuo's",
        "state": "Nimba County",
        "postcode": null,
        "country": "Liberia",
        "country_code": "lr"
      },
      "address": "Sanniquellie Road, Ganta, Nimba County, Liberia"
    },
    {
      "lat": 7.2063457932063635,
      "lon": -8.998496589391905,
      "geoinfo": {
        "display_name": "LPMC Bypass, LPMC, Zone 6, Garr-Bain, Nimba County, Liberia",
        "road": "LPMC Bypass",
        "house_number": null,
        "neighbourhood": null,
        "suburb": null,
        "city_district": null,
        "city": null,
        "state": "Nimba County",
        "postcode": null,
        "country": "Liberia",
        "country_code": "lr"
      },
      "address": "LPMC Bypass, Ganta, Nimba County, Liberia"
    },
    {
      "lat": 7.254250854753039,
      "lon": -9.000898718030685,
      "geoinfo": {
        "display_name": "Bureau Of Immigration And Naturalization Zuamill Sub Port, Benedick Flomo Street, Glenyiluu, Ganta, Zone 4, Garr-Bain, Nimba County, Liberia",
        "road": "Benedick Flomo Street",
        "house_number": null,
        "neighbourhood": null,
        "suburb": null,
        "city_district": null,
        "city": "Ganta",
        "state": "Nimba County",
        "postcode": null,
        "country": "Liberia",
        "country_code": "lr"
      },
      "address": "Benedick Flomo Street, Ganta, Nimba County, Liberia"
    },
    {
      "lat": 7.244370698566582,
      "lon": -8.985175133093419,
      "geoinfo": {
        "display_name": "Guinea Road, Zone 3, Garr-Bain, Nimba County, Liberia",
        "road": "Guinea Road",
        "house_number": null,
        "neighbourhood": null,
        "suburb": null,
        "city_district": null,
        "city": null,
        "state": "Nimba County",
        "postcode": null,
        "country": "Liberia",
        "country_code": "lr"
      },
      "address": "Guinea Road, Ganta, Nimba County, Liberia"
    },
    {
      "lat": 7.21637792731926,
      "lon": -8.966451117628601,
      "geoinfo": {
        "display_name": "George Way Harley Street, Boe, Zone 7, Garr-Bain, Nimba County, Liberia",
        "road": "George Way Harley Street",
        "house_number": null,
        "neighbourhood": null,
        "suburb": null,
        "city_district": null,
        "city": null,
        "state": "Nimba County",
        "postcode": null,
        "country": "Liberia",
        "country_code": "lr"
      },
      "address": "George Way Harley Street, Ganta, Nimba County, Liberia"
    }
  ],
  "updated_at": "2025-10-16T18:31:37.169425+00:00",
  "_kind": "geo_samples"
}