{
  "country_code": "LR",
  "country": "Liberia",
  "city": "Harbel",
  "geonameid": 2276506,
  "target_addresses": 7,
  "samples": [
    {
      "lat": 6.231837634707121,
      "lon": -10.3431619820523,
      "geoinfo": {
        "display_name": "George Okai Village, Zangar, Owensgrove, Grand Bassa County, Liberia",
        "road": null,
        "house_number": null,
        "neighbourhood": null,
        "suburb": null,
        "city_district": null,
        "city": null,
        "state": "Grand Bassa County",
        "postcode": null,
        "country": "Liberia",
        "country_code": "lr"
      },
      "address": "Harbel, Grand Bassa County, Liberia"
    },
    {
      "lat": 6.268728349227863,
      "lon": -10.394274304720883,
      "geoinfo": {
        "display_name": "Sokoe, Mambah Kaba, Margibi County, Liberia",
        "road": null,
        "house_number": null,
        "neighbourhood": null,
        "suburb": null,
        "city_district": null,
        "city": null,
        "state": "Margibi County",
        "postcode": null,
        "country": "Liberia",
        "country_code": "lr"
      },
      "address": "Harbel, Margibi County, Liberia"
    },
    {
      "lat": 6.25198856965589,
      "lon": -10.34828454633953,
      "geoinfo": {
        "display_name": "Harbel Garden, Division 45 Dennisvil, Harbel City, Firestone, Margibi County, Liberia",
        "road": null,
        "house_number": null,
        "neighbourhood": "Harbel Garden",
        "suburb": null,
        "city_district": null,
        "city": "Harbel City",
        "state": "Margibi County",
        "postcode": null,
        "country": "Liberia",
        "country_code": "lr"
      },
      "address": "Harbel Garden, Harbel, Margibi County, Liberia"
    },
    {
      "lat": 6.274621116011083,
      "lon": -10.378919283372921,
      "geoinfo": {
        "display_name": "Zoeklin Town, Mambah Kaba, Margibi County, Liberia",
        "road": null,
        "house_number": null,
        "neighbourhood": null,
        "suburb": null,
        "city_district": null,
        "city": null,
        "state": "Margibi County",
        "postcode": null,
        "country": "Liberia",
        "country_code": "lr"
      },
      "address": "006, Harbel, 97162 Margibi County, Liberia"
    },
    {
      "lat": 6.28707618831536,
      "lon": -10.344874346440063,
      "geoinfo": {
        "display_name": "Harbel City, Firestone, Margibi County, Liberia",
        "road": null,
        "house_number": null,
        "neighbourhood": null,
        "suburb": null,
        "city_district": null,
        "city": "Harbel City",
        "state": "Margibi County",
        "postcode": null,
        "country": "Liberia",
        "country_code": "lr"
      },
      "address": "589, Harbel City, Firestone, 64100 Margibi County, Liberia"
    },
    {
      "lat": 6.245522558448715,
      "lon": -10.389236494382825,
      "geoinfo": {
        "display_name": "Needowein, Mambah Kaba, Margibi County, Liberia",
        "road": null,
        "house_number": null,
        "neighbourhood": null,
        "suburb": null,
        "city_district": null,
        "city": null,
        "state": "Margibi County",
        "postcode": null,
        "country": "Liberia",
        "country_code": "lr"
      },
      "address": "355, Harbel, 95844 Margibi County, Liberia"
    },
    {
      "lat": 6.239906760731467,
      "lon": -10.356479803403307,
      "geoinfo": {
        "display_name": "Mambah Kaba, Margibi County, Liberia",
        "road": null,
        "house_number": null,
        "neighbourhood": null,
        "suburb": null,
        "city_district": null,
        "city": null,
        "state": "Margibi County",
        "postcode": null,
        "country": "Liberia",
        "country_code": "lr"
      },
      "address": "573, Harbel, 59237 Margibi County, Liberia"
    },
    {
      "lat": 6.2865988396756896,
      "lon": -10.360142566803901,
      "geoinfo": {
        "display_name": "Peter Town, Mambah Kaba, Margibi County, Liberia",
        "road": null,
        "house_number": null,
        "neighbourhood": null,
        "suburb": null,
        "city_district": null,
        "city": null,
        "state": "Margibi County",
        "postcode": null,
        "country": "Liberia",
        "country_code": "lr"
      },
      "address": "850, Harbel, 43137 Margibi County, Liberia"
    },
    {
      "lat": 6.239065635708655,
      "lon": -10.365407162301674,
      "geoinfo": {
        "display_name": "Jebel Town, Joe Blow Town, Mambah Kaba, Margibi County, Liberia",
        "road": null,
        "house_number": null,
        "neighbourhood": null,
        "suburb": null,
        "city_district": null,
        "city": "Joe Blow Town",
        "state": "Margibi County",
        "postcode": null,
        "country": "Liberia",
        "country_code": "lr"
      },
      "address": "264, Harbel, 25655 Margibi County, Liberia"
    },
    {
      "lat": 6.241629971725758,
      "lon": -10.357418470813473,
      "geoinfo": {
        "display_name": "Mambah Kaba, Margibi County, Liberia",
        "road": null,
        "house_number": null,
        "neighbourhood": null,
        "suburb": null,
        "city_district": null,
        "city": null,
        "state": "Margibi County",
        "postcode": null,
        "country": "Liberia",
        "country_code": "lr"
      },
      "address": "020, Harbel, 98196 Margibi County, Liberia"
    }
  ],
  "updated_at": "2025-10-19T05:44:51.125598+00:00",
  "_kind": "geo_samples"
}