{
  "country_code": "LR",
  "country": "Liberia",
  "city": "Kakata",
  "geonameid": 2276086,
  "target_addresses": 7,
  "samples": [
    {
      "lat": 6.514531948418184,
      "lon": -10.336382662564775,
      "geoinfo": {
        "display_name": "Holder Farm, Camenga, Kakata, Margibi County, Liberia",
        "road": null,
        "house_number": null,
        "neighbourhood": null,
        "suburb": null,
        "city_district": null,
        "city": "Kakata",
        "state": "Margibi County",
        "postcode": null,
        "country": "Liberia",
        "country_code": "lr"
      },
      "address": "Kakata, Margibi County, Liberia"
    },
    {
      "lat": 6.541186683551166,
      "lon": -10.334572296376793,
      "geoinfo": {
        "display_name": "Mardina Community, Kakata, Margibi County, Liberia",
        "road": null,
        "house_number": null,
        "neighbourhood": null,
        "suburb": "Mardina Community",
        "city_district": null,
        "city": "Kakata",
        "state": "Margibi County",
        "postcode": null,
        "country": "Liberia",
        "country_code": "lr"
      },
      "address": "Mardina Community, Kakata, Margibi County, Liberia"
    },
    {
      "lat": 6.503773829592097,
      "lon": -10.336995224561226,
      "geoinfo": {
        "display_name": "Kakata-Harbel Road (Firestone Gate 26), Division 27 Camp 1, Kakata, Firestone, Margibi County, Liberia",
        "road": "Kakata-Harbel Road (Firestone Gate 26)",
        "house_number": null,
        "neighbourhood": null,
        "suburb": null,
        "city_district": null,
        "city": "Kakata",
        "state": "Margibi County",
        "postcode": null,
        "country": "Liberia",
        "country_code": "lr"
      },
      "address": "Kakata-Harbel Road (Firestone Gate 26), Kakata, Margibi County, Liberia"
    },
    {
      "lat": 6.532168617622513,
      "lon": -10.369707924893913,
      "geoinfo": {
        "display_name": "Monrovia - Kakata Highway, End of Jambo Village, Kakata, Margibi County, Liberia",
        "road": "Monrovia - Kakata Highway",
        "house_number": null,
        "neighbourhood": null,
        "suburb": null,
        "city_district": null,
        "city": "Kakata",
        "state": "Margibi County",
        "postcode": null,
        "country": "Liberia",
        "country_code": "lr"
      },
      "address": "Monrovia - Kakata Highway, Kakata, Margibi County, Liberia"
    },
    {
      "lat": 6.536078709040902,
      "lon": -10.39620464711643,
      "geoinfo": {
        "display_name": "Morris Johnson Farm, Gbalakai, Morris Farm, Todee, Montserrado County, Liberia",
        "road": null,
        "house_number": null,
        "neighbourhood": null,
        "suburb": null,
        "city_district": null,
        "city": "Morris Farm",
        "state": "Montserrado County",
        "postcode": null,
        "country": "Liberia",
        "country_code": "lr"
      },
      "address": "Kakata, Montserrado County, Liberia"
    },
    {
      "lat": 6.54946205698242,
      "lon": -10.347543907079903,
      "geoinfo": {
        "display_name": "Benla Community, Kakata, Margibi County, Liberia",
        "road": null,
        "house_number": null,
        "neighbourhood": null,
        "suburb": "Benla Community",
        "city_district": null,
        "city": "Kakata",
        "state": "Margibi County",
        "postcode": null,
        "country": "Liberia",
        "country_code": "lr"
      },
      "address": "Benla Community, Kakata, Margibi County, Liberia"
    },
    {
      "lat": 6.5352688536098915,
      "lon": -10.335206924245933,
      "geoinfo": {
        "display_name": "Peter Paye Village, Benda, Kakata, Margibi County, Liberia",
        "road": null,
        "house_number": null,
        "neighbourhood": null,
        "suburb": "Benda",
        "city_district": null,
        "city": "Kakata",
        "state": "Margibi County",
        "postcode": null,
        "country": "Liberia",
        "country_code": "lr"
      },
      "address": "Benda, Kakata, Margibi County, Liberia"
    },
    {
      "lat": 6.5284035174905926,
      "lon": -10.352498290637872,
      "geoinfo": {
        "display_name": "End of Jambo Village, Kakata, Margibi County, Liberia",
        "road": null,
        "house_number": null,
        "neighbourhood": null,
        "suburb": null,
        "city_district": null,
        "city": "Kakata",
        "state": "Margibi County",
        "postcode": null,
        "country": "Liberia",
        "country_code": "lr"
      },
      "address": "053, End of Jambo Village, Kakata, 35532 Margibi County, Liberia"
    },
    {
      "lat": 6.535113153183895,
      "lon": -10.341530086662406,
      "geoinfo": {
        "display_name": "Benda, Kakata, Margibi County, Liberia",
        "road": null,
        "house_number": null,
        "neighbourhood": null,
        "suburb": "Benda",
        "city_district": null,
        "city": "Kakata",
        "state": "Margibi County",
        "postcode": null,
        "country": "Liberia",
        "country_code": "lr"
      },
      "address": "797, Benda, Kakata, 46064 Margibi County, Liberia"
    },
    {
      "lat": 6.5436903480377,
      "lon": -10.330019303030305,
      "geoinfo": {
        "display_name": "Dukuly, Fanta Lees Farm, Kakata, Margibi County, Liberia",
        "road": null,
        "house_number": null,
        "neighbourhood": null,
        "suburb": null,
        "city_district": null,
        "city": "Kakata",
        "state": "Margibi County",
        "postcode": null,
        "country": "Liberia",
        "country_code": "lr"
      },
      "address": "184, Dukuly, Fanta Lees Farm, Kakata, 34469 Margibi County, Liberia"
    },
    {
      "lat": 6.524637356151006,
      "lon": -10.3696547505753,
      "geoinfo": {
        "display_name": "Morris Farm, Todee, Montserrado County, Liberia",
        "road": null,
        "house_number": null,
        "neighbourhood": null,
        "suburb": null,
        "city_district": null,
        "city": "Morris Farm",
        "state": "Montserrado County",
        "postcode": null,
        "country": "Liberia",
        "country_code": "lr"
      },
      "address": "491, Kakata, 32272 Montserrado County, Liberia"
    },
    {
      "lat": 6.558769698940481,
      "lon": -10.341068198529339,
      "geoinfo": {
        "display_name": "Sagabumata, Kakata, Margibi County, Liberia",
        "road": null,
        "house_number": null,
        "neighbourhood": null,
        "suburb": null,
        "city_district": null,
        "city": "Kakata",
        "state": "Margibi County",
        "postcode": null,
        "country": "Liberia",
        "country_code": "lr"
      },
      "address": "518, Sagabumata, Kakata, 28670 Margibi County, Liberia"
    },
    {
      "lat": 6.503717874951641,
      "lon": -10.366792750926598,
      "geoinfo": {
        "display_name": "Fahn Town, R.S.S. Bright Farm (One), Kakata, Margibi County, Liberia",
        "road": null,
        "house_number": null,
        "neighbourhood": null,
        "suburb": null,
        "city_district": null,
        "city": "Kakata",
        "state": "Margibi County",
        "postcode": null,
        "country": "Liberia",
        "country_code": "lr"
      },
      "address": "388, Kakata, 14066 Margibi County, Liberia"
    },
    {
      "lat": 6.5226818763999095,
      "lon": -10.37597690712798,
      "geoinfo": {
        "display_name": "Monrovia - Kakata Highway, Fallah, Morris Farm, Todee, Montserrado County, Liberia",
        "road": "Monrovia - Kakata Highway",
        "house_number": null,
        "neighbourhood": null,
        "suburb": null,
        "city_district": null,
        "city": "Morris Farm",
        "state": "Montserrado County",
        "postcode": null,
        "country": "Liberia",
        "country_code": "lr"
      },
      "address": "449, Monrovia - Kakata Highway, Fallah, Morris Farm, Todee, 73594 Montserrado County, Liberia"
    }
  ],
  "updated_at": "2025-10-19T05:44:17.470850+00:00",
  "_kind": "geo_samples"
}