{
  "country_code": "LR",
  "country": "Liberia",
  "city": "Monrovia",
  "geonameid": 2274895,
  "target_addresses": 7,
  "samples": [
    {
      "lat": 6.320116615832508,
      "lon": -10.815092175476941,
      "geoinfo": {
        "display_name": "United Nations Drive, Vai Town, Buah Yard, Monrovia, Greater Monrovia, Montserrado County, Liberia",
        "road": "United Nations Drive",
        "house_number": null,
        "neighbourhood": "Vai Town",
        "suburb": "Buah Yard",
        "city_district": null,
        "city": "Monrovia",
        "state": "Montserrado County",
        "postcode": null,
        "country": "Liberia",
        "country_code": "lr"
      },
      "address": "United Nations Drive, Monrovia, Montserrado County, Liberia"
    },
    {
      "lat": 6.311825593967251,
      "lon": -10.759693587596,
      "geoinfo": {
        "display_name": "Matadi, Monrovia, Greater Monrovia, Montserrado County, Liberia",
        "road": null,
        "house_number": null,
        "neighbourhood": null,
        "suburb": null,
        "city_district": null,
        "city": "Monrovia",
        "state": "Montserrado County",
        "postcode": null,
        "country": "Liberia",
        "country_code": "lr"
      },
      "address": "Monrovia, Montserrado County, Liberia"
    },
    {
      "lat": 6.272568193962355,
      "lon": -10.795975088237663,
      "geoinfo": {
        "display_name": "Bassa Community, Monrovia, Greater Monrovia, Montserrado County, Liberia",
        "road": null,
        "house_number": null,
        "neighbourhood": null,
        "suburb": "Bassa Community",
        "city_district": null,
        "city": "Monrovia",
        "state": "Montserrado County",
        "postcode": null,
        "country": "Liberia",
        "country_code": "lr"
      },
      "address": "Bassa Community, Monrovia, Montserrado County, Liberia"
    },
    {
      "lat": 6.265435657761422,
      "lon": -10.782422089595453,
      "geoinfo": {
        "display_name": "Vamoma, Monrovia, Greater Monrovia, Montserrado County, Liberia",
        "road": null,
        "house_number": null,
        "neighbourhood": null,
        "suburb": "Vamoma",
        "city_district": null,
        "city": "Monrovia",
        "state": "Montserrado County",
        "postcode": null,
        "country": "Liberia",
        "country_code": "lr"
      },
      "address": "Vamoma, Monrovia, Montserrado County, Liberia"
    },
    {
      "lat": 6.325705872402517,
      "lon": -10.80399862935445,
      "geoinfo": {
        "display_name": "Vai Town, Buah Yard, Monrovia, Greater Monrovia, Montserrado County, Liberia",
        "road": null,
        "house_number": null,
        "neighbourhood": "Vai Town",
        "suburb": "Buah Yard",
        "city_district": null,
        "city": "Monrovia",
        "state": "Montserrado County",
        "postcode": null,
        "country": "Liberia",
        "country_code": "lr"
      },
      "address": "Vai Town, Monrovia, Montserrado County, Liberia"
    },
    {
      "lat": 6.291859458043432,
      "lon": -10.778554478755312,
      "geoinfo": {
        "display_name": "Royal Hotel, 15th Street, Tubman Boulevard, Vamoma, Monrovia, Greater Monrovia, Montserrado County, Liberia",
        "road": "Tubman Boulevard",
        "house_number": "15th Street",
        "neighbourhood": null,
        "suburb": "Vamoma",
        "city_district": null,
        "city": "Monrovia",
        "state": "Montserrado County",
        "postcode": null,
        "country": "Liberia",
        "country_code": "lr"
      },
      "address": "15th Street Tubman Boulevard, Monrovia, Montserrado County, Liberia"
    },
    {
      "lat": 6.342066804432394,
      "lon": -10.785611219437708,
      "geoinfo": {
        "display_name": "Bilimah, Sayon Town, Monrovia, Greater Monrovia, Montserrado County, Liberia",
        "road": null,
        "house_number": null,
        "neighbourhood": "Bilimah",
        "suburb": null,
        "city_district": null,
        "city": "Monrovia",
        "state": "Montserrado County",
        "postcode": null,
        "country": "Liberia",
        "country_code": "lr"
      },
      "address": "Bilimah, Monrovia, Montserrado County, Liberia"
    },
    {
      "lat": 6.305725036720725,
      "lon": -10.824111951244051,
      "geoinfo": {
        "display_name": "Monrovia, Greater Monrovia, Montserrado County, Liberia",
        "road": null,
        "house_number": null,
        "neighbourhood": null,
        "suburb": null,
        "city_district": null,
        "city": "Monrovia",
        "state": "Montserrado County",
        "postcode": null,
        "country": "Liberia",
        "country_code": "lr"
      },
      "address": "536, Monrovia, Greater Monrovia, 15504 Montserrado County, Liberia"
    },
    {
      "lat": 6.299975842099146,
      "lon": -10.782128226837221,
      "geoinfo": {
        "display_name": "SDA Cooper Memorial Hosptial, 12th Street, Plonkor, Monrovia, Greater Monrovia, Montserrado County, Liberia",
        "road": "12th Street",
        "house_number": null,
        "neighbourhood": null,
        "suburb": "Plonkor",
        "city_district": null,
        "city": "Monrovia",
        "state": "Montserrado County",
        "postcode": null,
        "country": "Liberia",
        "country_code": "lr"
      },
      "address": "12th Street, Monrovia, 26426 Montserrado County, Liberia"
    },
    {
      "lat": 6.258319262209651,
      "lon": -10.787579892644104,
      "geoinfo": {
        "display_name": "Vamoma, Monrovia, Greater Monrovia, Montserrado County, Liberia",
        "road": null,
        "house_number": null,
        "neighbourhood": null,
        "suburb": "Vamoma",
        "city_district": null,
        "city": "Monrovia",
        "state": "Montserrado County",
        "postcode": null,
        "country": "Liberia",
        "country_code": "lr"
      },
      "address": "511, Vamoma, Monrovia, Greater Monrovia, 75883 Montserrado County, Liberia"
    },
    {
      "lat": 6.295262490882341,
      "lon": -10.80793901402343,
      "geoinfo": {
        "display_name": "Monrovia, Greater Monrovia, Montserrado County, Liberia",
        "road": null,
        "house_number": null,
        "neighbourhood": null,
        "suburb": null,
        "city_district": null,
        "city": "Monrovia",
        "state": "Montserrado County",
        "postcode": null,
        "country": "Liberia",
        "country_code": "lr"
      },
      "address": "499, Monrovia, Greater Monrovia, 17978 Montserrado County, Liberia"
    },
    {
      "lat": 6.330590618373467,
      "lon": -10.81773488047711,
      "geoinfo": {
        "display_name": "Vai Town, Buah Yard, Monrovia, Greater Monrovia, Montserrado County, Liberia",
        "road": null,
        "house_number": null,
        "neighbourhood": "Vai Town",
        "suburb": "Buah Yard",
        "city_district": null,
        "city": "Monrovia",
        "state": "Montserrado County",
        "postcode": null,
        "country": "Liberia",
        "country_code": "lr"
      },
      "address": "227, Vai Town, Buah Yard, Monrovia, Greater Monrovia, 88686 Montserrado County, Liberia"
    },
    {
      "lat": 6.27574643189784,
      "lon": -10.772158497665082,
      "geoinfo": {
        "display_name": "Vamoma, Monrovia, Greater Monrovia, Montserrado County, Liberia",
        "road": null,
        "house_number": null,
        "neighbourhood": null,
        "suburb": "Vamoma",
        "city_district": null,
        "city": "Monrovia",
        "state": "Montserrado County",
        "postcode": null,
        "country": "Liberia",
        "country_code": "lr"
      },
      "address": "700, Vamoma, Monrovia, Greater Monrovia, 44901 Montserrado County, Liberia"
    },
    {
      "lat": 6.28659097209643,
      "lon": -10.821094649692432,
      "geoinfo": {
        "display_name": "Bassa Community, Monrovia, Greater Monrovia, Montserrado County, Liberia",
        "road": null,
        "house_number": null,
        "neighbourhood": null,
        "suburb": "Bassa Community",
        "city_district": null,
        "city": "Monrovia",
        "state": "Montserrado County",
        "postcode": null,
        "country": "Liberia",
        "country_code": "lr"
      },
      "address": "605, Bassa Community, Monrovia, Greater Monrovia, 98788 Montserrado County, Liberia"
    }
  ],
  "updated_at": "2025-10-19T05:47:55.967696+00:00",
  "_kind": "geo_samples"
}