{
  "country_code": "LR",
  "country": "Liberia",
  "city": "Sanniquellie",
  "geonameid": 2274129,
  "target_addresses": 7,
  "samples": [
    {
      "lat": 7.334741151564641,
      "lon": -8.685267088596989,
      "geoinfo": {
        "display_name": "Sanokwelle, Sanniquellie, Sanniquellie Mahn, Nimba County, Liberia",
        "road": null,
        "house_number": null,
        "neighbourhood": null,
        "suburb": null,
        "city_district": null,
        "city": "Sanniquellie",
        "state": "Nimba County",
        "postcode": null,
        "country": "Liberia",
        "country_code": "lr"
      },
      "address": "Sanniquellie, Nimba County, Liberia"
    },
    {
      "lat": 7.381038244103096,
      "lon": -8.707045706286783,
      "geoinfo": {
        "display_name": "Red Cross Village, Vehyipa, Sanniquellie, Sanniquellie Mahn, Nimba County, Liberia",
        "road": null,
        "house_number": null,
        "neighbourhood": "Red Cross Village",
        "suburb": null,
        "city_district": null,
        "city": "Sanniquellie",
        "state": "Nimba County",
        "postcode": null,
        "country": "Liberia",
        "country_code": "lr"
      },
      "address": "Red Cross Village, Sanniquellie, Nimba County, Liberia"
    },
    {
      "lat": 7.341263378053332,
      "lon": -8.73789439413351,
      "geoinfo": {
        "display_name": "Ganta - Sanniquellie, Taylorpa Village, Sanniquellie, Sanniquellie Mahn, Nimba County, Liberia",
        "road": "Ganta - Sanniquellie",
        "house_number": null,
        "neighbourhood": null,
        "suburb": null,
        "city_district": null,
        "city": "Sanniquellie",
        "state": "Nimba County",
        "postcode": null,
        "country": "Liberia",
        "country_code": "lr"
      },
      "address": "Ganta - Sanniquellie, Sanniquellie, Nimba County, Liberia"
    },
    {
      "lat": 7.374465319340082,
      "lon": -8.71846319140697,
      "geoinfo": {
        "display_name": "Farngalo Street, Badio Town, Sanniquellie, Sanniquellie Mahn, Nimba County, Liberia",
        "road": "Farngalo Street",
        "house_number": null,
        "neighbourhood": null,
        "suburb": null,
        "city_district": null,
        "city": "Sanniquellie",
        "state": "Nimba County",
        "postcode": null,
        "country": "Liberia",
        "country_code": "lr"
      },
      "address": "Farngalo Street, Sanniquellie, Nimba County, Liberia"
    },
    {
      "lat": 7.355965545771059,
      "lon": -8.697496456475811,
      "geoinfo": {
        "display_name": "Beesonnoh #1 Village, Sanniquellie, Sanniquellie Mahn, Nimba County, Liberia",
        "road": null,
        "house_number": null,
        "neighbourhood": null,
        "suburb": null,
        "city_district": null,
        "city": "Sanniquellie",
        "state": "Nimba County",
        "postcode": null,
        "country": "Liberia",
        "country_code": "lr"
      },
      "address": "Beesonnoh #1 Village, Sanniquellie, Sanniquellie Mahn, 46800 Nimba County, Liberia"
    },
    {
      "lat": 7.341921446500203,
      "lon": -8.682470713976963,
      "geoinfo": {
        "display_name": "Dolo Farm, Sanniquellie, Sanniquellie Mahn, Nimba County, Liberia",
        "road": null,
        "house_number": null,
        "neighbourhood": null,
        "suburb": null,
        "city_district": null,
        "city": "Sanniquellie",
        "state": "Nimba County",
        "postcode": null,
        "country": "Liberia",
        "country_code": "lr"
      },
      "address": "166, Dolo Farm, Sanniquellie, Sanniquellie Mahn, 23400 Nimba County, Liberia"
    },
    {
      "lat": 7.379449000575509,
      "lon": -8.714172675611264,
      "geoinfo": {
        "display_name": "Sanniquellie, Sanniquellie Mahn, Nimba County, Liberia",
        "road": null,
        "house_number": null,
        "neighbourhood": null,
        "suburb": null,
        "city_district": null,
        "city": "Sanniquellie",
        "state": "Nimba County",
        "postcode": null,
        "country": "Liberia",
        "country_code": "lr"
      },
      "address": "037, Sanniquellie, Sanniquellie Mahn, 08313 Nimba County, Liberia"
    },
    {
      "lat": 7.345632004441594,
      "lon": -8.676317498355605,
      "geoinfo": {
        "display_name": "Nyan Village, Sanniquellie Mahn, Nimba County, Liberia",
        "road": null,
        "house_number": null,
        "neighbourhood": null,
        "suburb": null,
        "city_district": null,
        "city": null,
        "state": "Nimba County",
        "postcode": null,
        "country": "Liberia",
        "country_code": "lr"
      },
      "address": "931, Nyan Village, Sanniquellie Mahn, 81664 Nimba County, Liberia"
    },
    {
      "lat": 7.373616275936505,
      "lon": -8.706514204537616,
      "geoinfo": {
        "display_name": "Red Cross Village, Vehyipa, Sanniquellie, Sanniquellie Mahn, Nimba County, Liberia",
        "road": null,
        "house_number": null,
        "neighbourhood": "Red Cross Village",
        "suburb": null,
        "city_district": null,
        "city": "Sanniquellie",
        "state": "Nimba County",
        "postcode": null,
        "country": "Liberia",
        "country_code": "lr"
      },
      "address": "565, Red Cross Village, Vehyipa, Sanniquellie, Sanniquellie Mahn, 76566 Nimba County, Liberia"
    },
    {
      "lat": 7.321999373796051,
      "lon": -8.716291572832445,
      "geoinfo": {
        "display_name": "Sehyi Flomo Village, Sanniquellie Mahn, Nimba County, Liberia",
        "road": null,
        "house_number": null,
        "neighbourhood": null,
        "suburb": null,
        "city_district": null,
        "city": null,
        "state": "Nimba County",
        "postcode": null,
        "country": "Liberia",
        "country_code": "lr"
      },
      "address": "088, Sehyi Flomo Village, Sanniquellie Mahn, 65876 Nimba County, Liberia"
    },
    {
      "lat": 7.329329319400785,
      "lon": -8.740875779148492,
      "geoinfo": {
        "display_name": "Ganta - Sanniquellie, Taylorpa Village, Sanniquellie, Sanniquellie Mahn, Nimba County, Liberia",
        "road": "Ganta - Sanniquellie",
        "house_number": null,
        "neighbourhood": null,
        "suburb": null,
        "city_district": null,
        "city": "Sanniquellie",
        "state": "Nimba County",
        "postcode": null,
        "country": "Liberia",
        "country_code": "lr"
      },
      "address": "257, Ganta - Sanniquellie, Taylorpa Village, Sanniquellie, Sanniquellie Mahn, 89951 Nimba County, Liberia"
    }
  ],
  "updated_at": "2025-10-19T05:50:17.366423+00:00",
  "_kind": "geo_samples"
}