{
  "country_code": "WS",
  "country": "Samoa",
  "city": "Apia",
  "geonameid": 4035413,
  "target_addresses": 100,
  "samples": [
    {
      "lat": -13.821588009333883,
      "lon": -171.72527942898748,
      "geoinfo": {
        "display_name": "Vaiala, Tuamasaga, Samoa",
        "road": null,
        "house_number": null,
        "neighbourhood": null,
        "suburb": null,
        "city_district": null,
        "city": "Vaiala",
        "state": "Tuamasaga",
        "postcode": null,
        "country": "Samoa",
        "country_code": "ws"
      },
      "address": "Apia, Tuamasaga, Samoa"
    },
    {
      "lat": -13.841605791911912,
      "lon": -171.7633445707643,
      "geoinfo": {
        "display_name": "Ifiifi Street, Malifa, Tuamasaga, Samoa",
        "road": "Ifiifi Street",
        "house_number": null,
        "neighbourhood": null,
        "suburb": null,
        "city_district": null,
        "city": "Malifa",
        "state": "Tuamasaga",
        "postcode": null,
        "country": "Samoa",
        "country_code": "ws"
      },
      "address": "Ifiifi Street, Apia, Tuamasaga, Samoa"
    },
    {
      "lat": -13.834615847322281,
      "lon": -171.75800890533472,
      "geoinfo": {
        "display_name": "Leone Assembly of God Church, Fa'ato'ia Road, Leone, Tuamasaga, Samoa",
        "road": "Fa'ato'ia Road",
        "house_number": null,
        "neighbourhood": null,
        "suburb": null,
        "city_district": null,
        "city": "Leone",
        "state": "Tuamasaga",
        "postcode": null,
        "country": "Samoa",
        "country_code": "ws"
      },
      "address": "Fa'ato'ia Road, Apia, Tuamasaga, Samoa"
    },
    {
      "lat": -13.831946726370617,
      "lon": -171.76840342521243,
      "geoinfo": {
        "display_name": "Samoa Housing Corporation, Convent Street, Savalolo, Tuamasaga, Samoa",
        "road": "Convent Street",
        "house_number": null,
        "neighbourhood": null,
        "suburb": null,
        "city_district": null,
        "city": "Savalolo",
        "state": "Tuamasaga",
        "postcode": null,
        "country": "Samoa",
        "country_code": "ws"
      },
      "address": "Convent Street, Apia, Tuamasaga, Samoa"
    },
    {
      "lat": -13.825833479249646,
      "lon": -171.76131637506782,
      "geoinfo": {
        "display_name": "Harbour Control Tower, Main Beach Road, Matautu Tai, Tuamasaga, Samoa",
        "road": "Main Beach Road",
        "house_number": null,
        "neighbourhood": null,
        "suburb": null,
        "city_district": null,
        "city": "Matautu Tai",
        "state": "Tuamasaga",
        "postcode": null,
        "country": "Samoa",
        "country_code": "ws"
      },
      "address": "Main Beach Road, Apia, Tuamasaga, Samoa"
    },
    {
      "lat": -13.8337947495074,
      "lon": -171.75682125081045,
      "geoinfo": {
        "display_name": "Kapisi Store, Matautu Street, Matautu Uta, Tuamasaga, Samoa",
        "road": "Matautu Street",
        "house_number": null,
        "neighbourhood": null,
        "suburb": null,
        "city_district": null,
        "city": "Matautu Uta",
        "state": "Tuamasaga",
        "postcode": null,
        "country": "Samoa",
        "country_code": "ws"
      },
      "address": "Matautu Street, Apia, Tuamasaga, Samoa"
    },
    {
      "lat": -13.828121937861496,
      "lon": -171.75734694009748,
      "geoinfo": {
        "display_name": "Tokelau Apia Liaison Office, Main Beach Road, Matautu Tai, Tuamasaga, Samoa",
        "road": "Main Beach Road",
        "house_number": null,
        "neighbourhood": null,
        "suburb": null,
        "city_district": null,
        "city": "Matautu Tai",
        "state": "Tuamasaga",
        "postcode": null,
        "country": "Samoa",
        "country_code": "ws"
      },
      "address": "532, Main Beach Road, Apia, 21179 Tuamasaga, Samoa"
    },
    {
      "lat": -13.830580590058114,
      "lon": -171.76732303642717,
      "geoinfo": {
        "display_name": "Main Beach Road, Matafele, Tuamasaga, Samoa",
        "road": "Main Beach Road",
        "house_number": null,
        "neighbourhood": null,
        "suburb": null,
        "city_district": null,
        "city": "Matafele",
        "state": "Tuamasaga",
        "postcode": null,
        "country": "Samoa",
        "country_code": "ws"
      },
      "address": "564, Main Beach Road, Apia, 74948 Tuamasaga, Samoa"
    },
    {
      "lat": -13.826556633634999,
      "lon": -171.75517770264617,
      "geoinfo": {
        "display_name": "Main Beach Road, Matautu Tai, Tuamasaga, Samoa",
        "road": "Main Beach Road",
        "house_number": null,
        "neighbourhood": null,
        "suburb": null,
        "city_district": null,
        "city": "Matautu Tai",
        "state": "Tuamasaga",
        "postcode": null,
        "country": "Samoa",
        "country_code": "ws"
      },
      "address": "654, Main Beach Road, Apia, 06089 Tuamasaga, Samoa"
    },
    {
      "lat": -13.846261852532846,
      "lon": -171.76400096722992,
      "geoinfo": {
        "display_name": "Tupua Tamasese Meaole Hospital, Ifiifi Street, Motootua, Tuamasaga, Samoa",
        "road": "Ifiifi Street",
        "house_number": null,
        "neighbourhood": null,
        "suburb": null,
        "city_district": null,
        "city": "Motootua",
        "state": "Tuamasaga",
        "postcode": null,
        "country": "Samoa",
        "country_code": "ws"
      },
      "address": "221, Ifiifi Street, Apia, 50700 Tuamasaga, Samoa"
    }
  ],
  "updated_at": "2025-10-19T05:43:29.138882+00:00",
  "_kind": "geo_samples"
}