{
  "country_code": "SN",
  "country": "Senegal",
  "city": "Bargny Guèdj",
  "geonameid": 2254153,
  "target_addresses": 2,
  "samples": [
    {
      "lat": 14.676249312989992,
      "lon": -17.18534262174734,
      "geoinfo": {
        "display_name": "Commune de Sendou, Arrondissement de Sangalkam, Rufisque Department, Dakar Region, 20100, Senegal",
        "road": null,
        "house_number": null,
        "neighbourhood": null,
        "suburb": null,
        "city_district": null,
        "city": "Commune de Sendou",
        "state": "Dakar Region",
        "postcode": "20100",
        "country": "Senegal",
        "country_code": "sn"
      },
      "address": "Bargny Guèdj, Dakar Region, Senegal"
    },
    {
      "lat": 14.66423213768072,
      "lon": -17.226588783229072,
      "geoinfo": {
        "display_name": "Miname, Commune de Bargny, Arrondissement de Sangalkam, Rufisque Department, Dakar Region, 20000, Senegal",
        "road": null,
        "house_number": null,
        "neighbourhood": "Miname",
        "suburb": null,
        "city_district": null,
        "city": "Commune de Bargny",
        "state": "Dakar Region",
        "postcode": "20000",
        "country": "Senegal",
        "country_code": "sn"
      },
      "address": "Miname, Bargny Guèdj, Dakar Region, Senegal"
    },
    {
      "lat": 14.651739114617321,
      "lon": -17.2124543537718,
      "geoinfo": {
        "display_name": "Tode, Communauté rurale de Yenne, Arrondissement de Diamniadio, Rufisque Department, Dakar Region, 20100, Senegal",
        "road": null,
        "house_number": null,
        "neighbourhood": null,
        "suburb": null,
        "city_district": null,
        "city": "Communauté rurale de Yenne",
        "state": "Dakar Region",
        "postcode": "20100",
        "country": "Senegal",
        "country_code": "sn"
      },
      "address": "059, Tode, Communauté rurale de Yenne, Arrondissement de Diamniadio, Rufisque Department, Dakar Region, 20100, Senegal"
    },
    {
      "lat": 14.699581580816773,
      "lon": -17.207769509437014,
      "geoinfo": {
        "display_name": "Commune de Diamniadio, Arrondissement de Diamniadio, Rufisque Department, Dakar Region, 20000, Senegal",
        "road": null,
        "house_number": null,
        "neighbourhood": null,
        "suburb": null,
        "city_district": null,
        "city": "Commune de Diamniadio",
        "state": "Dakar Region",
        "postcode": "20000",
        "country": "Senegal",
        "country_code": "sn"
      },
      "address": "653, Commune de Diamniadio, Arrondissement de Diamniadio, Rufisque Department, Dakar Region, 20000, Senegal"
    }
  ],
  "updated_at": "2025-10-19T04:50:40.227042+00:00",
  "_kind": "geo_samples"
}