{
  "country_code": "SN",
  "country": "Senegal",
  "city": "Gossas Village",
  "geonameid": 2251490,
  "target_addresses": 2,
  "samples": [
    {
      "lat": 14.441628385289652,
      "lon": -16.105452673793444,
      "geoinfo": {
        "display_name": "Tiénaba, Communauté rurale de Ouadiour, Arrondissement de Ouadiour, Département de Gossas, Fatick Region, Senegal",
        "road": null,
        "house_number": null,
        "neighbourhood": null,
        "suburb": null,
        "city_district": null,
        "city": "Communauté rurale de Ouadiour",
        "state": "Fatick Region",
        "postcode": null,
        "country": "Senegal",
        "country_code": "sn"
      },
      "address": "Gossas Village, Fatick Region, Senegal"
    },
    {
      "lat": 14.504230975690605,
      "lon": -16.091950966923022,
      "geoinfo": {
        "display_name": "N 4, Tilom Ténéfoul, Keur Amadou Diop, Communauté rurale de Ouadiour, Arrondissement de Ouadiour, Département de Gossas, Fatick Region, Senegal",
        "road": "N 4",
        "house_number": null,
        "neighbourhood": null,
        "suburb": null,
        "city_district": null,
        "city": "Communauté rurale de Ouadiour",
        "state": "Fatick Region",
        "postcode": null,
        "country": "Senegal",
        "country_code": "sn"
      },
      "address": "N 4, Gossas Village, Fatick Region, Senegal"
    },
    {
      "lat": 14.499482835001022,
      "lon": -16.12331467563845,
      "geoinfo": {
        "display_name": "Keur Demba Khokh, Communauté rurale de Patar Lia, Arrondissement de Ouadiour, Département de Gossas, Fatick Region, Senegal",
        "road": null,
        "house_number": null,
        "neighbourhood": null,
        "suburb": null,
        "city_district": null,
        "city": "Communauté rurale de Patar Lia",
        "state": "Fatick Region",
        "postcode": null,
        "country": "Senegal",
        "country_code": "sn"
      },
      "address": "038, Keur Demba Khokh, Communauté rurale de Patar Lia, Arrondissement de Ouadiour, Département de Gossas, 92837 Fatick Region, Senegal"
    },
    {
      "lat": 14.452587044320206,
      "lon": -16.118423532434914,
      "geoinfo": {
        "display_name": "R030, Diabi Koundél, Communauté rurale de Patar Lia, Arrondissement de Ouadiour, Département de Gossas, Fatick Region, Senegal",
        "road": "R030",
        "house_number": null,
        "neighbourhood": null,
        "suburb": null,
        "city_district": null,
        "city": "Communauté rurale de Patar Lia",
        "state": "Fatick Region",
        "postcode": null,
        "country": "Senegal",
        "country_code": "sn"
      },
      "address": "R030, Diabi Koundél, Communauté rurale de Patar Lia, Arrondissement de Ouadiour, Département de Gossas, 93408 Fatick Region, Senegal"
    },
    {
      "lat": 14.476498570046267,
      "lon": -16.113771160494107,
      "geoinfo": {
        "display_name": "Gossas Village, Communauté rurale de Patar Lia, Arrondissement de Ouadiour, Département de Gossas, Fatick Region, Senegal",
        "road": null,
        "house_number": null,
        "neighbourhood": null,
        "suburb": null,
        "city_district": null,
        "city": "Communauté rurale de Patar Lia",
        "state": "Fatick Region",
        "postcode": null,
        "country": "Senegal",
        "country_code": "sn"
      },
      "address": "651, Gossas Village, Communauté rurale de Patar Lia, Arrondissement de Ouadiour, Département de Gossas, 72857 Fatick Region, Senegal"
    }
  ],
  "updated_at": "2025-10-19T03:37:14.764321+00:00",
  "_kind": "geo_samples"
}