{
  "country_code": "SN",
  "country": "Senegal",
  "city": "Guédiawaye",
  "geonameid": 2595778,
  "target_addresses": 2,
  "samples": [
    {
      "lat": 14.809445661432907,
      "lon": -17.41187910016717,
      "geoinfo": {
        "display_name": "Senegal",
        "road": null,
        "house_number": null,
        "neighbourhood": null,
        "suburb": null,
        "city_district": null,
        "city": null,
        "state": null,
        "postcode": null,
        "country": "Senegal",
        "country_code": "sn"
      },
      "address": "Guédiawaye, Dakar Region, Senegal"
    },
    {
      "lat": 14.804520793015653,
      "lon": -17.369213058179856,
      "geoinfo": {
        "display_name": "Cité SOFRACO, Wakhinane Nimzatt Commune, Arrondissement de Wakhinane Nimzatt, Guédiawaye Department, Dakar Region, 15000, Senegal",
        "road": null,
        "house_number": null,
        "neighbourhood": "Cité SOFRACO",
        "suburb": null,
        "city_district": "Arrondissement de Wakhinane Nimzatt",
        "city": "Guédiawaye Department",
        "state": "Dakar Region",
        "postcode": "15000",
        "country": "Senegal",
        "country_code": "sn"
      },
      "address": "Cité SOFRACO, Guédiawaye, Dakar Region, Senegal"
    },
    {
      "lat": 14.779369336276549,
      "lon": -17.389609026057,
      "geoinfo": {
        "display_name": "Commune de Sam Notaire, Sam Notaire Arrondissement, Guédiawaye Department, Dakar Region, 15000, Senegal",
        "road": null,
        "house_number": null,
        "neighbourhood": null,
        "suburb": null,
        "city_district": null,
        "city": "Guédiawaye Department",
        "state": "Dakar Region",
        "postcode": "15000",
        "country": "Senegal",
        "country_code": "sn"
      },
      "address": "665, Commune de Sam Notaire, Sam Notaire Arrondissement, Guédiawaye Department, Dakar Region, 15000, Senegal"
    },
    {
      "lat": 14.771971384218054,
      "lon": -17.427533220807792,
      "geoinfo": {
        "display_name": "Pont de Cambérène, Commune de Cambérène, Arrondissement des Parcelles Assainies, Dakar, Dakar Region, 14000, Senegal",
        "road": "Pont de Cambérène",
        "house_number": null,
        "neighbourhood": "Commune de Cambérène",
        "suburb": null,
        "city_district": "Arrondissement des Parcelles Assainies",
        "city": "Dakar",
        "state": "Dakar Region",
        "postcode": "14000",
        "country": "Senegal",
        "country_code": "sn"
      },
      "address": "149, Pont de Cambérène, Commune de Cambérène, Arrondissement des Parcelles Assainies, Dakar, Dakar Region, 14000, Senegal"
    }
  ],
  "updated_at": "2025-10-19T06:37:57.141251+00:00",
  "_kind": "geo_samples"
}