{
  "country_code": "SN",
  "country": "Senegal",
  "city": "Thiadiaye",
  "geonameid": 2244786,
  "target_addresses": 2,
  "samples": [
    {
      "lat": 14.412077047948307,
      "lon": -16.687352608123952,
      "geoinfo": {
        "display_name": "Communauté rurale de Tattaguine, Arrondissement de Tattaguine, Département de Fatick, Fatick Region, 23200, Senegal",
        "road": null,
        "house_number": null,
        "neighbourhood": null,
        "suburb": null,
        "city_district": null,
        "city": "Communauté rurale de Tattaguine",
        "state": "Fatick Region",
        "postcode": "23200",
        "country": "Senegal",
        "country_code": "sn"
      },
      "address": "Thiadiaye, Fatick Region, Senegal"
    },
    {
      "lat": 14.413843500480825,
      "lon": -16.67704215562935,
      "geoinfo": {
        "display_name": "N 1, Podom Tiamène, Garage Bambara, Communauté rurale de Tattaguine, Arrondissement de Tattaguine, Département de Fatick, Fatick Region, 23200, Senegal",
        "road": "N 1",
        "house_number": null,
        "neighbourhood": null,
        "suburb": null,
        "city_district": null,
        "city": "Communauté rurale de Tattaguine",
        "state": "Fatick Region",
        "postcode": "23200",
        "country": "Senegal",
        "country_code": "sn"
      },
      "address": "N 1, Thiadiaye, Fatick Region, Senegal"
    },
    {
      "lat": 14.445842815431718,
      "lon": -16.666386997997357,
      "geoinfo": {
        "display_name": "Saokhom, Communauté rurale de Séssène, Arrondissement de Séssène, Département de M'bour, Thiès Region, 23200, Senegal",
        "road": null,
        "house_number": null,
        "neighbourhood": null,
        "suburb": null,
        "city_district": null,
        "city": "Communauté rurale de Séssène",
        "state": null,
        "postcode": "23200",
        "country": "Senegal",
        "country_code": "sn"
      },
      "address": "845, Saokhom, Communauté rurale de Séssène, Arrondissement de Séssène, Département de M'bour, Thiès Region, 23200, Senegal"
    },
    {
      "lat": 14.391345886709765,
      "lon": -16.69046234037216,
      "geoinfo": {
        "display_name": "Khaoul, Communauté rurale de Tattaguine, Arrondissement de Tattaguine, Département de Fatick, Fatick Region, 23200, Senegal",
        "road": null,
        "house_number": null,
        "neighbourhood": null,
        "suburb": null,
        "city_district": null,
        "city": "Communauté rurale de Tattaguine",
        "state": "Fatick Region",
        "postcode": "23200",
        "country": "Senegal",
        "country_code": "sn"
      },
      "address": "810, Khaoul, Communauté rurale de Tattaguine, Arrondissement de Tattaguine, Département de Fatick, Fatick Region, 23200, Senegal"
    }
  ],
  "updated_at": "2025-10-19T07:01:20.117890+00:00",
  "_kind": "geo_samples"
}