{
  "country_code": "CD",
  "country": "Democratic Republic of the Congo",
  "city": "Kirumba",
  "geonameid": 212760,
  "target_addresses": 4,
  "samples": [
    {
      "lat": -1.0605138234035585,
      "lon": 29.29810585062118,
      "geoinfo": {
        "display_name": "Rukarara, Rutshuru, North Kivu, Democratic Republic of the Congo",
        "road": null,
        "house_number": null,
        "neighbourhood": null,
        "suburb": null,
        "city_district": null,
        "city": "Rutshuru",
        "state": "North Kivu",
        "postcode": null,
        "country": "Democratic Republic of the Congo",
        "country_code": "cd"
      },
      "address": "Kirumba, North Kivu, Democratic Republic of the Congo"
    },
    {
      "lat": -1.050906544418711,
      "lon": 29.28349578623628,
      "geoinfo": {
        "display_name": "Kirumba, Rutshuru, North Kivu, Democratic Republic of the Congo",
        "road": null,
        "house_number": null,
        "neighbourhood": null,
        "suburb": null,
        "city_district": null,
        "city": "Rutshuru",
        "state": "North Kivu",
        "postcode": null,
        "country": "Democratic Republic of the Congo",
        "country_code": "cd"
      },
      "address": "049, Kirumba, Rutshuru, 32930 North Kivu, Democratic Republic of the Congo"
    },
    {
      "lat": -1.0699149763444638,
      "lon": 29.330271294574615,
      "geoinfo": {
        "display_name": "Kazaroho - Kasali, Rutshuru, North Kivu, Democratic Republic of the Congo",
        "road": null,
        "house_number": null,
        "neighbourhood": null,
        "suburb": null,
        "city_district": null,
        "city": "Rutshuru",
        "state": "North Kivu",
        "postcode": null,
        "country": "Democratic Republic of the Congo",
        "country_code": "cd"
      },
      "address": "110, Kazaroho - Kasali, Rutshuru, 88744 North Kivu, Democratic Republic of the Congo"
    },
    {
      "lat": -1.1155957545785684,
      "lon": 29.281346497796793,
      "geoinfo": {
        "display_name": "Kagando, Rutshuru, North Kivu, Democratic Republic of the Congo",
        "road": null,
        "house_number": null,
        "neighbourhood": null,
        "suburb": null,
        "city_district": null,
        "city": "Rutshuru",
        "state": "North Kivu",
        "postcode": null,
        "country": "Democratic Republic of the Congo",
        "country_code": "cd"
      },
      "address": "188, Kagando, Rutshuru, 28199 North Kivu, Democratic Republic of the Congo"
    }
  ],
  "updated_at": "2025-10-19T03:38:26.959583+00:00",
  "_kind": "geo_samples"
}