{
  "country_code": "CD",
  "country": "Democratic Republic of the Congo",
  "city": "Sake",
  "geonameid": 205970,
  "target_addresses": 4,
  "samples": [
    {
      "lat": -1.5645747818435825,
      "lon": 29.07927436274697,
      "geoinfo": {
        "display_name": "Mubambiro, Masisi, North Kivu, Democratic Republic of the Congo",
        "road": null,
        "house_number": null,
        "neighbourhood": null,
        "suburb": null,
        "city_district": null,
        "city": "Masisi",
        "state": "North Kivu",
        "postcode": null,
        "country": "Democratic Republic of the Congo",
        "country_code": "cd"
      },
      "address": "Sake, North Kivu, Democratic Republic of the Congo"
    },
    {
      "lat": -1.5422086341521708,
      "lon": 29.017423438506665,
      "geoinfo": {
        "display_name": "Murambi, Masisi, North Kivu, Democratic Republic of the Congo",
        "road": null,
        "house_number": null,
        "neighbourhood": null,
        "suburb": null,
        "city_district": null,
        "city": "Masisi",
        "state": "North Kivu",
        "postcode": null,
        "country": "Democratic Republic of the Congo",
        "country_code": "cd"
      },
      "address": "949, Sake, 04194 North Kivu, Democratic Republic of the Congo"
    },
    {
      "lat": -1.5736826937542876,
      "lon": 29.06810131491122,
      "geoinfo": {
        "display_name": "RN2, Bahunde, Masisi, North Kivu, Democratic Republic of the Congo",
        "road": "RN2",
        "house_number": null,
        "neighbourhood": null,
        "suburb": null,
        "city_district": "Bahunde",
        "city": "Masisi",
        "state": "North Kivu",
        "postcode": null,
        "country": "Democratic Republic of the Congo",
        "country_code": "cd"
      },
      "address": "RN2, Sake, 78350 North Kivu, Democratic Republic of the Congo"
    },
    {
      "lat": -1.5847777559070904,
      "lon": 29.04644222199259,
      "geoinfo": {
        "display_name": "RN2, Bahunde, Masisi, North Kivu, Democratic Republic of the Congo",
        "road": "RN2",
        "house_number": null,
        "neighbourhood": null,
        "suburb": null,
        "city_district": "Bahunde",
        "city": "Masisi",
        "state": "North Kivu",
        "postcode": null,
        "country": "Democratic Republic of the Congo",
        "country_code": "cd"
      },
      "address": "RN2, Sake, 25057 North Kivu, Democratic Republic of the Congo"
    }
  ],
  "updated_at": "2025-10-19T03:36:36.719398+00:00",
  "_kind": "geo_samples"
}