{
  "country_code": "CL",
  "country": "Chile",
  "city": "Antofagasta",
  "geonameid": 3899539,
  "target_addresses": 2,
  "samples": [
    {
      "lat": -23.667962825352273,
      "lon": -70.393520448207,
      "geoinfo": {
        "display_name": "Los Vientos, Campamento Fuerza Esmeralda, Antofagasta, Provincia de Antofagasta, Antofagasta Region, 1270199, Chile",
        "road": "Los Vientos",
        "house_number": null,
        "neighbourhood": "Campamento Fuerza Esmeralda",
        "suburb": null,
        "city_district": null,
        "city": "Antofagasta",
        "state": "Antofagasta Region",
        "postcode": "1270199",
        "country": "Chile",
        "country_code": "cl"
      },
      "address": "Los Vientos, Antofagasta, Antofagasta Region, Chile"
    },
    {
      "lat": -23.64447808535455,
      "lon": -70.36104465150383,
      "geoinfo": {
        "display_name": "Antofagasta, Provincia de Antofagasta, Antofagasta Region, 1271572, Chile",
        "road": null,
        "house_number": null,
        "neighbourhood": null,
        "suburb": null,
        "city_district": null,
        "city": "Antofagasta",
        "state": "Antofagasta Region",
        "postcode": "1271572",
        "country": "Chile",
        "country_code": "cl"
      },
      "address": "Antofagasta, Antofagasta Region, Chile"
    },
    {
      "lat": -23.63353039841925,
      "lon": -70.36249673937161,
      "geoinfo": {
        "display_name": "Ruta 26, Villa El Salto, Antofagasta, Provincia de Antofagasta, Antofagasta Region, 1241241, Chile",
        "road": "Ruta 26",
        "house_number": null,
        "neighbourhood": "Villa El Salto",
        "suburb": null,
        "city_district": null,
        "city": "Antofagasta",
        "state": "Antofagasta Region",
        "postcode": "1241241",
        "country": "Chile",
        "country_code": "cl"
      },
      "address": "Ruta 26, Villa El Salto, Antofagasta, Provincia de Antofagasta, Antofagasta Region, 1241241, Chile"
    },
    {
      "lat": -23.627189228963374,
      "lon": -70.4021096382071,
      "geoinfo": {
        "display_name": "Parque de los Eventos, Ciclovía Avenida Edmundo Pérez Zujovic, Condominio Bordemar, Antofagasta, Provincia de Antofagasta, Antofagasta Region, 1200000, Chile",
        "road": "Ciclovía Avenida Edmundo Pérez Zujovic",
        "house_number": null,
        "neighbourhood": "Condominio Bordemar",
        "suburb": null,
        "city_district": null,
        "city": "Antofagasta",
        "state": "Antofagasta Region",
        "postcode": "1200000",
        "country": "Chile",
        "country_code": "cl"
      },
      "address": "045, Ciclovía Avenida Edmundo Pérez Zujovic, Antofagasta, 1200000 Antofagasta Region, Chile"
    }
  ],
  "updated_at": "2025-10-19T03:28:14.642650+00:00",
  "_kind": "geo_samples"
}