{
  "country_code": "CL",
  "country": "Chile",
  "city": "Coquimbo",
  "geonameid": 3893629,
  "target_addresses": 2,
  "samples": [
    {
      "lat": -29.91666896728749,
      "lon": -71.35624654914733,
      "geoinfo": {
        "display_name": "Parte Alta, Coquimbo, Provincia de Elqui, Coquimbo Region, 1790437, Chile",
        "road": null,
        "house_number": null,
        "neighbourhood": null,
        "suburb": "Parte Alta",
        "city_district": null,
        "city": "Coquimbo",
        "state": "Coquimbo Region",
        "postcode": "1790437",
        "country": "Chile",
        "country_code": "cl"
      },
      "address": "Parte Alta, Coquimbo, Coquimbo Region, Chile"
    },
    {
      "lat": -29.965729384154542,
      "lon": -71.32329716064582,
      "geoinfo": {
        "display_name": "5 de Abril, Las Encinas, San Juan, Coquimbo, Provincia de Elqui, Coquimbo Region, 1790437, Chile",
        "road": "5 de Abril",
        "house_number": null,
        "neighbourhood": "Las Encinas",
        "suburb": "San Juan",
        "city_district": null,
        "city": "Coquimbo",
        "state": "Coquimbo Region",
        "postcode": "1790437",
        "country": "Chile",
        "country_code": "cl"
      },
      "address": "5 de Abril, Coquimbo, Coquimbo Region, Chile"
    },
    {
      "lat": -29.92608189044848,
      "lon": -71.3054191375798,
      "geoinfo": {
        "display_name": "Peñuelas Bajo, Coquimbo, Provincia de Elqui, Coquimbo Region, 1800016, Chile",
        "road": null,
        "house_number": null,
        "neighbourhood": null,
        "suburb": "Peñuelas Bajo",
        "city_district": null,
        "city": "Coquimbo",
        "state": "Coquimbo Region",
        "postcode": "1800016",
        "country": "Chile",
        "country_code": "cl"
      },
      "address": "881, Peñuelas Bajo, Coquimbo, Provincia de Elqui, Coquimbo Region, 1800016, Chile"
    },
    {
      "lat": -29.952364176867974,
      "lon": -71.31756316922691,
      "geoinfo": {
        "display_name": "Humedal El Culebrón, San Juan, Coquimbo, Provincia de Elqui, Coquimbo Region, 1790437, Chile",
        "road": null,
        "house_number": null,
        "neighbourhood": null,
        "suburb": "San Juan",
        "city_district": null,
        "city": "Coquimbo",
        "state": "Coquimbo Region",
        "postcode": "1790437",
        "country": "Chile",
        "country_code": "cl"
      },
      "address": "560, Humedal El Culebrón, San Juan, Coquimbo, Provincia de Elqui, Coquimbo Region, 1790437, Chile"
    }
  ],
  "updated_at": "2025-10-19T03:28:03.898227+00:00",
  "_kind": "geo_samples"
}