{
  "country_code": "CL",
  "country": "Chile",
  "city": "Coyhaique",
  "geonameid": 3894426,
  "target_addresses": 2,
  "samples": [
    {
      "lat": -45.59300680685337,
      "lon": -72.07523292765745,
      "geoinfo": {
        "display_name": "Pasaje Inter 4, Recta Foitzick, Villa Estancia Austral, Coyhaique, Provincia de Coyhaique, Aysen del General Carlos Ibanez del Campo Region, 5952014, Chile",
        "road": "Pasaje Inter 4",
        "house_number": null,
        "neighbourhood": "Recta Foitzick",
        "suburb": null,
        "city_district": null,
        "city": "Coyhaique",
        "state": "Aysen del General Carlos Ibanez del Campo Region",
        "postcode": "5952014",
        "country": "Chile",
        "country_code": "cl"
      },
      "address": "Pasaje Inter 4, Coyhaique, Aysen del General Carlos Ibanez del Campo Region, Chile"
    },
    {
      "lat": -45.57605330623009,
      "lon": -72.05520019581739,
      "geoinfo": {
        "display_name": "1371, Almirante Barroso, Coyhaique, Provincia de Coyhaique, Aysen del General Carlos Ibanez del Campo Region, 5952014, Chile",
        "road": "Almirante Barroso",
        "house_number": "1371",
        "neighbourhood": null,
        "suburb": null,
        "city_district": null,
        "city": "Coyhaique",
        "state": "Aysen del General Carlos Ibanez del Campo Region",
        "postcode": "5952014",
        "country": "Chile",
        "country_code": "cl"
      },
      "address": "1371 Almirante Barroso, Coyhaique, Aysen del General Carlos Ibanez del Campo Region, Chile"
    },
    {
      "lat": -45.5830955315922,
      "lon": -72.0301641422018,
      "geoinfo": {
        "display_name": "497, Fachinal, Población Almirante Simpson, Coyhaique, Provincia de Coyhaique, Aysen del General Carlos Ibanez del Campo Region, 5952014, Chile",
        "road": "Fachinal",
        "house_number": "497",
        "neighbourhood": "Población Almirante Simpson",
        "suburb": null,
        "city_district": null,
        "city": "Coyhaique",
        "state": "Aysen del General Carlos Ibanez del Campo Region",
        "postcode": "5952014",
        "country": "Chile",
        "country_code": "cl"
      },
      "address": "497, Fachinal, Población Almirante Simpson, Coyhaique, Provincia de Coyhaique, Aysen del General Carlos Ibanez del Campo Region, 5952014, Chile"
    },
    {
      "lat": -45.53684042575328,
      "lon": -72.09051982455867,
      "geoinfo": {
        "display_name": "El Arenal, Coyhaique, Provincia de Coyhaique, Aysen del General Carlos Ibanez del Campo Region, 5952006, Chile",
        "road": null,
        "house_number": null,
        "neighbourhood": null,
        "suburb": null,
        "city_district": null,
        "city": "Coyhaique",
        "state": "Aysen del General Carlos Ibanez del Campo Region",
        "postcode": "5952006",
        "country": "Chile",
        "country_code": "cl"
      },
      "address": "036, El Arenal, Coyhaique, Provincia de Coyhaique, Aysen del General Carlos Ibanez del Campo Region, 5952006, Chile"
    }
  ],
  "updated_at": "2025-10-19T03:16:14.641218+00:00",
  "_kind": "geo_samples"
}