{
  "country_code": "CL",
  "country": "Chile",
  "city": "Mulchén",
  "geonameid": 3879200,
  "target_addresses": 6,
  "samples": [
    {
      "lat": -37.70736341034717,
      "lon": -72.22394742568112,
      "geoinfo": {
        "display_name": "Ruta Q-705, Coronado, Mulchén, Provincia de Bío-Bío, Biobio Region, 0000444, Chile",
        "road": "Ruta Q-705",
        "house_number": null,
        "neighbourhood": null,
        "suburb": null,
        "city_district": null,
        "city": "Mulchén",
        "state": "Biobio Region",
        "postcode": "0000444",
        "country": "Chile",
        "country_code": "cl"
      },
      "address": "Ruta Q-705, Mulchén, Biobio Region, Chile"
    },
    {
      "lat": -37.716508110306364,
      "lon": -72.2862661410642,
      "geoinfo": {
        "display_name": "Ruta Q-80, El Araucano, Mulchén, Provincia de Bío-Bío, Biobio Region, Chile",
        "road": "Ruta Q-80",
        "house_number": null,
        "neighbourhood": null,
        "suburb": null,
        "city_district": null,
        "city": "Mulchén",
        "state": "Biobio Region",
        "postcode": null,
        "country": "Chile",
        "country_code": "cl"
      },
      "address": "Ruta Q-80, Mulchén, Biobio Region, Chile"
    },
    {
      "lat": -37.6959100634965,
      "lon": -72.26447608963068,
      "geoinfo": {
        "display_name": "P-177-178, Mulchén, Provincia de Bío-Bío, Biobio Region, 0000444, Chile",
        "road": "P-177-178",
        "house_number": null,
        "neighbourhood": null,
        "suburb": null,
        "city_district": null,
        "city": "Mulchén",
        "state": "Biobio Region",
        "postcode": "0000444",
        "country": "Chile",
        "country_code": "cl"
      },
      "address": "P-177-178, Mulchén, Provincia de Bío-Bío, Biobio Region, 0000444, Chile"
    },
    {
      "lat": -37.727689505076555,
      "lon": -72.24651077287673,
      "geoinfo": {
        "display_name": "José Joaquín Pérez, Mulchén, Provincia de Bío-Bío, Biobio Region, 0000444, Chile",
        "road": "José Joaquín Pérez",
        "house_number": null,
        "neighbourhood": null,
        "suburb": null,
        "city_district": null,
        "city": "Mulchén",
        "state": "Biobio Region",
        "postcode": "0000444",
        "country": "Chile",
        "country_code": "cl"
      },
      "address": "091, José Joaquín Pérez, Mulchén, Provincia de Bío-Bío, Biobio Region, 0000444, Chile"
    },
    {
      "lat": -37.733297138117074,
      "lon": -72.20124588970387,
      "geoinfo": {
        "display_name": "Mulchén, Provincia de Bío-Bío, Biobio Region, 0000444, Chile",
        "road": null,
        "house_number": null,
        "neighbourhood": null,
        "suburb": null,
        "city_district": null,
        "city": "Mulchén",
        "state": "Biobio Region",
        "postcode": "0000444",
        "country": "Chile",
        "country_code": "cl"
      },
      "address": "674, Mulchén, Provincia de Bío-Bío, Biobio Region, 0000444, Chile"
    },
    {
      "lat": -37.73280175857967,
      "lon": -72.25768793662161,
      "geoinfo": {
        "display_name": "Bypass Mulchén, Villa El Sol, La Granja, Mulchén, Provincia de Bío-Bío, Biobio Region, 0000444, Chile",
        "road": "Bypass Mulchén",
        "house_number": null,
        "neighbourhood": "Villa El Sol",
        "suburb": null,
        "city_district": null,
        "city": "Mulchén",
        "state": "Biobio Region",
        "postcode": "0000444",
        "country": "Chile",
        "country_code": "cl"
      },
      "address": "493, Bypass Mulchén, Villa El Sol, La Granja, Mulchén, Provincia de Bío-Bío, Biobio Region, 0000444, Chile"
    }
  ],
  "updated_at": "2025-10-19T03:48:26.945777+00:00",
  "_kind": "geo_samples"
}