{
  "country_code": "CL",
  "country": "Chile",
  "city": "Paine",
  "geonameid": 3877739,
  "target_addresses": 2,
  "samples": [
    {
      "lat": -33.775677106738534,
      "lon": -70.7281539948555,
      "geoinfo": {
        "display_name": "Fundo El Cuadro, Buin, Provincia de Maipo, Santiago Metropolitan Region, Chile",
        "road": null,
        "house_number": null,
        "neighbourhood": null,
        "suburb": null,
        "city_district": null,
        "city": "Buin",
        "state": "Santiago Metropolitan Region",
        "postcode": null,
        "country": "Chile",
        "country_code": "cl"
      },
      "address": "Paine, Santiago Metropolitan Region, Chile"
    },
    {
      "lat": -33.832437641970884,
      "lon": -70.72047264971658,
      "geoinfo": {
        "display_name": "Camino Principal Nuevo Horizonte Los Copihues, Villa Los Fundadores, Nuevo Horizonte, Paine, Provincia de Maipo, Santiago Metropolitan Region, Chile",
        "road": "Camino Principal Nuevo Horizonte Los Copihues",
        "house_number": null,
        "neighbourhood": "Villa Los Fundadores",
        "suburb": null,
        "city_district": null,
        "city": "Paine",
        "state": "Santiago Metropolitan Region",
        "postcode": null,
        "country": "Chile",
        "country_code": "cl"
      },
      "address": "Camino Principal Nuevo Horizonte Los Copihues, Paine, Santiago Metropolitan Region, Chile"
    },
    {
      "lat": -33.830641841940164,
      "lon": -70.78083982744303,
      "geoinfo": {
        "display_name": "Juan Antonio Ríos, Collipeumo Alto, Paine, Provincia de Maipo, Santiago Metropolitan Region, Chile",
        "road": "Juan Antonio Ríos",
        "house_number": null,
        "neighbourhood": null,
        "suburb": null,
        "city_district": null,
        "city": "Paine",
        "state": "Santiago Metropolitan Region",
        "postcode": null,
        "country": "Chile",
        "country_code": "cl"
      },
      "address": "242, Juan Antonio Ríos, Collipeumo Alto, Paine, Provincia de Maipo, 19383 Santiago Metropolitan Region, Chile"
    },
    {
      "lat": -33.83597539581703,
      "lon": -70.71091925934499,
      "geoinfo": {
        "display_name": "Autopista Acceso Sur, Paula Jaraquemada, Paine, Provincia de Maipo, Santiago Metropolitan Region, Chile",
        "road": "Autopista Acceso Sur",
        "house_number": null,
        "neighbourhood": null,
        "suburb": null,
        "city_district": null,
        "city": "Paine",
        "state": "Santiago Metropolitan Region",
        "postcode": null,
        "country": "Chile",
        "country_code": "cl"
      },
      "address": "640, Autopista Acceso Sur, Paula Jaraquemada, Paine, Provincia de Maipo, 28097 Santiago Metropolitan Region, Chile"
    }
  ],
  "updated_at": "2025-10-19T03:27:17.072391+00:00",
  "_kind": "geo_samples"
}