{
  "country_code": "CL",
  "country": "Chile",
  "city": "Puente Alto",
  "geonameid": 3875024,
  "target_addresses": 2,
  "samples": [
    {
      "lat": -33.63096268746099,
      "lon": -70.56235537869269,
      "geoinfo": {
        "display_name": "Ramón Subercaseaux, Condominio Brisas del Raco, Pirque, Provincia de Cordillera, Santiago Metropolitan Region, 9480018, Chile",
        "road": "Ramón Subercaseaux",
        "house_number": null,
        "neighbourhood": "Condominio Brisas del Raco",
        "suburb": "Pirque",
        "city_district": null,
        "city": null,
        "state": "Santiago Metropolitan Region",
        "postcode": "9480018",
        "country": "Chile",
        "country_code": "cl"
      },
      "address": "Ramón Subercaseaux, Puente Alto, Santiago Metropolitan Region, Chile"
    },
    {
      "lat": -33.598598710945986,
      "lon": -70.53133785320557,
      "geoinfo": {
        "display_name": "Complejo Deportivo Ministerio de Obras Públicas, Avenida Eyzaguirre, Casas Viejas, Puente Alto, Provincia de Cordillera, Santiago Metropolitan Region, 8207897, Chile",
        "road": "Avenida Eyzaguirre",
        "house_number": null,
        "neighbourhood": "Casas Viejas",
        "suburb": "Puente Alto",
        "city_district": null,
        "city": null,
        "state": "Santiago Metropolitan Region",
        "postcode": "8207897",
        "country": "Chile",
        "country_code": "cl"
      },
      "address": "Avenida Eyzaguirre, Puente Alto, Santiago Metropolitan Region, Chile"
    },
    {
      "lat": -33.62708260822234,
      "lon": -70.6204311917522,
      "geoinfo": {
        "display_name": "3548, Quilán, Villa El Caleuche, Puente Alto, Provincia de Cordillera, Santiago Metropolitan Region, 8181117, Chile",
        "road": "Quilán",
        "house_number": "3548",
        "neighbourhood": "Villa El Caleuche",
        "suburb": "Puente Alto",
        "city_district": null,
        "city": null,
        "state": "Santiago Metropolitan Region",
        "postcode": "8181117",
        "country": "Chile",
        "country_code": "cl"
      },
      "address": "3548, Quilán, Villa El Caleuche, Puente Alto, Provincia de Cordillera, Santiago Metropolitan Region, 8181117, Chile"
    },
    {
      "lat": -33.59639296351843,
      "lon": -70.54234340725623,
      "geoinfo": {
        "display_name": "Pasaje Amatista, Barrio Terrandina, Puente Alto, Provincia de Cordillera, Santiago Metropolitan Region, 8207897, Chile",
        "road": "Pasaje Amatista",
        "house_number": null,
        "neighbourhood": "Barrio Terrandina",
        "suburb": "Puente Alto",
        "city_district": null,
        "city": null,
        "state": "Santiago Metropolitan Region",
        "postcode": "8207897",
        "country": "Chile",
        "country_code": "cl"
      },
      "address": "665, Pasaje Amatista, Barrio Terrandina, Puente Alto, Provincia de Cordillera, Santiago Metropolitan Region, 8207897, Chile"
    }
  ],
  "updated_at": "2025-10-19T01:47:34.377771+00:00",
  "_kind": "geo_samples"
}