{
  "country_code": "CL",
  "country": "Chile",
  "city": "Puerto Montt",
  "geonameid": 3874960,
  "target_addresses": 6,
  "samples": [
    {
      "lat": -41.46468138551024,
      "lon": -72.93731142552309,
      "geoinfo": {
        "display_name": "100, Padre Harter, Población Chiloé, Puerto Montt, Provincia de Llanquihue, Los Lagos Region, 5507138, Chile",
        "road": "Padre Harter",
        "house_number": "100",
        "neighbourhood": "Población Chiloé",
        "suburb": null,
        "city_district": null,
        "city": "Puerto Montt",
        "state": "Los Lagos Region",
        "postcode": "5507138",
        "country": "Chile",
        "country_code": "cl"
      },
      "address": "100 Padre Harter, Puerto Montt, Los Lagos Region, Chile"
    },
    {
      "lat": -41.47742175623208,
      "lon": -72.90574258954,
      "geoinfo": {
        "display_name": "1001, Antares, Lomas de Reloncaví, Pelluco, Puerto Montt, Provincia de Llanquihue, Los Lagos Region, 5480001, Chile",
        "road": "Antares",
        "house_number": "1001",
        "neighbourhood": "Lomas de Reloncaví",
        "suburb": "Pelluco",
        "city_district": null,
        "city": "Puerto Montt",
        "state": "Los Lagos Region",
        "postcode": "5480001",
        "country": "Chile",
        "country_code": "cl"
      },
      "address": "1001 Antares, Puerto Montt, Los Lagos Region, Chile"
    },
    {
      "lat": -41.46421735221355,
      "lon": -72.92913087878445,
      "geoinfo": {
        "display_name": "Alcalde Ramón Yuraszeck, Población Manuel Montt, Puerto Montt, Provincia de Llanquihue, Los Lagos Region, 5507138, Chile",
        "road": "Alcalde Ramón Yuraszeck",
        "house_number": null,
        "neighbourhood": "Población Manuel Montt",
        "suburb": null,
        "city_district": null,
        "city": "Puerto Montt",
        "state": "Los Lagos Region",
        "postcode": "5507138",
        "country": "Chile",
        "country_code": "cl"
      },
      "address": "546, Alcalde Ramón Yuraszeck, Población Manuel Montt, Puerto Montt, Provincia de Llanquihue, Los Lagos Region, 5507138, Chile"
    },
    {
      "lat": -41.444424801428504,
      "lon": -72.99100971826336,
      "geoinfo": {
        "display_name": "Arauco, Valle Cardonal, Puerto Montt, Provincia de Llanquihue, Los Lagos Region, 5480000, Chile",
        "road": "Arauco",
        "house_number": null,
        "neighbourhood": "Valle Cardonal",
        "suburb": null,
        "city_district": null,
        "city": "Puerto Montt",
        "state": "Los Lagos Region",
        "postcode": "5480000",
        "country": "Chile",
        "country_code": "cl"
      },
      "address": "066, Arauco, Valle Cardonal, Puerto Montt, Provincia de Llanquihue, Los Lagos Region, 5480000, Chile"
    },
    {
      "lat": -41.45343255508333,
      "lon": -72.96017111408113,
      "geoinfo": {
        "display_name": "Ganadera Aysén, Población Fernández, Padre José Fernández Pérez, Puerto Montt, Provincia de Llanquihue, Los Lagos Region, 5507138, Chile",
        "road": "Ganadera Aysén",
        "house_number": null,
        "neighbourhood": "Población Fernández",
        "suburb": "Padre José Fernández Pérez",
        "city_district": null,
        "city": "Puerto Montt",
        "state": "Los Lagos Region",
        "postcode": "5507138",
        "country": "Chile",
        "country_code": "cl"
      },
      "address": "173, Ganadera Aysén, Población Fernández, Padre José Fernández Pérez, Puerto Montt, Provincia de Llanquihue, Los Lagos Region, 5507138, Chile"
    },
    {
      "lat": -41.438366673932364,
      "lon": -72.96679796564804,
      "geoinfo": {
        "display_name": "Los Lillium, Población Cayenel, Villa El Bosque - Chinchín Grande, Puerto Montt, Provincia de Llanquihue, Los Lagos Region, 5507138, Chile",
        "road": "Los Lillium",
        "house_number": null,
        "neighbourhood": "Población Cayenel",
        "suburb": null,
        "city_district": null,
        "city": "Puerto Montt",
        "state": "Los Lagos Region",
        "postcode": "5507138",
        "country": "Chile",
        "country_code": "cl"
      },
      "address": "750, Los Lillium, Población Cayenel, Villa El Bosque - Chinchín Grande, Puerto Montt, Provincia de Llanquihue, Los Lagos Region, 5507138, Chile"
    }
  ],
  "updated_at": "2025-10-19T03:48:10.967012+00:00",
  "_kind": "geo_samples"
}