{
  "country_code": "CL",
  "country": "Chile",
  "city": "San Bernardo",
  "geonameid": 3872348,
  "target_addresses": 2,
  "samples": [
    {
      "lat": -33.60571766092051,
      "lon": -70.70850046623768,
      "geoinfo": {
        "display_name": "522, Ramón Liborio Carvallo, Población Obrero Ferroviaria, San Bernardo, Provincia de Maipo, Santiago Metropolitan Region, 8059001, Chile",
        "road": "Ramón Liborio Carvallo",
        "house_number": "522",
        "neighbourhood": "Población Obrero Ferroviaria",
        "suburb": "San Bernardo",
        "city_district": null,
        "city": null,
        "state": "Santiago Metropolitan Region",
        "postcode": "8059001",
        "country": "Chile",
        "country_code": "cl"
      },
      "address": "522 Ramón Liborio Carvallo, San Bernardo, Santiago Metropolitan Region, Chile"
    },
    {
      "lat": -33.597392497800236,
      "lon": -70.71470102164139,
      "geoinfo": {
        "display_name": "Consultorio Raúl Cuevas, 1201, San Alfonso, San Bernardo, Provincia de Maipo, Santiago Metropolitan Region, 8059001, Chile",
        "road": "San Alfonso",
        "house_number": "1201",
        "neighbourhood": null,
        "suburb": "San Bernardo",
        "city_district": null,
        "city": null,
        "state": "Santiago Metropolitan Region",
        "postcode": "8059001",
        "country": "Chile",
        "country_code": "cl"
      },
      "address": "1201 San Alfonso, San Bernardo, Santiago Metropolitan Region, Chile"
    },
    {
      "lat": -33.58115064961509,
      "lon": -70.65560734821541,
      "geoinfo": {
        "display_name": "785, Sargento Daniel Rebolledo, Raúl del Canto, La Pintana, Provincia de Santiago, Santiago Metropolitan Region, 8010000, Chile",
        "road": "Sargento Daniel Rebolledo",
        "house_number": "785",
        "neighbourhood": "Raúl del Canto",
        "suburb": "La Pintana",
        "city_district": null,
        "city": null,
        "state": "Santiago Metropolitan Region",
        "postcode": "8010000",
        "country": "Chile",
        "country_code": "cl"
      },
      "address": "785, Sargento Daniel Rebolledo, Raúl del Canto, La Pintana, Provincia de Santiago, Santiago Metropolitan Region, 8010000, Chile"
    },
    {
      "lat": -33.55732478546207,
      "lon": -70.71706532642355,
      "geoinfo": {
        "display_name": "PPI, Las Acacias, Barrio El Nocedal, San Bernardo, Provincia de Maipo, Santiago Metropolitan Region, 8071047, Chile",
        "road": "Las Acacias",
        "house_number": null,
        "neighbourhood": "Barrio El Nocedal",
        "suburb": "San Bernardo",
        "city_district": null,
        "city": null,
        "state": "Santiago Metropolitan Region",
        "postcode": "8071047",
        "country": "Chile",
        "country_code": "cl"
      },
      "address": "266, Las Acacias, San Bernardo, 8071047 Santiago Metropolitan Region, Chile"
    }
  ],
  "updated_at": "2025-10-19T03:10:15.797743+00:00",
  "_kind": "geo_samples"
}