{
  "country_code": "CL",
  "country": "Chile",
  "city": "Valparaíso",
  "geonameid": 3868626,
  "target_addresses": 2,
  "samples": [
    {
      "lat": -33.07126799361423,
      "lon": -71.65146537036397,
      "geoinfo": {
        "display_name": "Quebrada Verde, Valparaíso, Provincia de Valparaíso, Valparaiso Region, 2380484, Chile",
        "road": null,
        "house_number": null,
        "neighbourhood": null,
        "suburb": null,
        "city_district": null,
        "city": "Valparaíso",
        "state": "Valparaiso Region",
        "postcode": "2380484",
        "country": "Chile",
        "country_code": "cl"
      },
      "address": "Valparaíso, Valparaiso Region, Chile"
    },
    {
      "lat": -33.03481970702781,
      "lon": -71.64335498392067,
      "geoinfo": {
        "display_name": "Guampicol, Población Marina Mercante, Playa Ancha, Valparaíso, Provincia de Valparaíso, Valparaiso Region, 2361822, Chile",
        "road": "Guampicol",
        "house_number": null,
        "neighbourhood": "Población Marina Mercante",
        "suburb": "Playa Ancha",
        "city_district": null,
        "city": "Valparaíso",
        "state": "Valparaiso Region",
        "postcode": "2361822",
        "country": "Chile",
        "country_code": "cl"
      },
      "address": "Guampicol, Valparaíso, Valparaiso Region, Chile"
    },
    {
      "lat": -33.030202853413144,
      "lon": -71.62275592865684,
      "geoinfo": {
        "display_name": "Base Naval Valparaíso, Taqueadero, Cerro Artillería, Playa Ancha, Valparaíso, Provincia de Valparaíso, Valparaiso Region, 2390418, Chile",
        "road": "Taqueadero",
        "house_number": null,
        "neighbourhood": "Cerro Artillería",
        "suburb": "Playa Ancha",
        "city_district": null,
        "city": "Valparaíso",
        "state": "Valparaiso Region",
        "postcode": "2390418",
        "country": "Chile",
        "country_code": "cl"
      },
      "address": "120, Taqueadero, Valparaíso, 2390418 Valparaiso Region, Chile"
    },
    {
      "lat": -33.04121917270319,
      "lon": -71.67520389460888,
      "geoinfo": {
        "display_name": "Playa Ancha, Valparaíso, Provincia de Valparaíso, Valparaiso Region, 2361822, Chile",
        "road": null,
        "house_number": null,
        "neighbourhood": null,
        "suburb": "Playa Ancha",
        "city_district": null,
        "city": "Valparaíso",
        "state": "Valparaiso Region",
        "postcode": "2361822",
        "country": "Chile",
        "country_code": "cl"
      },
      "address": "782, Playa Ancha, Valparaíso, Provincia de Valparaíso, Valparaiso Region, 2361822, Chile"
    }
  ],
  "updated_at": "2025-10-19T03:14:23.688463+00:00",
  "_kind": "geo_samples"
}