{
  "country_code": "LT",
  "country": "Lithuania",
  "city": "Aleksotas",
  "geonameid": 601138,
  "target_addresses": 3,
  "samples": [
    {
      "lat": 54.86884116292535,
      "lon": 23.874014126674616,
      "geoinfo": {
        "display_name": "28D, Kalvarijos g., Yliškės, Aleksoto seniūnija, Kaunas, Kauno miesto savivaldybė, Kaunas County, 46345, Lithuania",
        "road": "Kalvarijos g.",
        "house_number": "28D",
        "neighbourhood": null,
        "suburb": "Yliškės",
        "city_district": null,
        "city": "Kaunas",
        "state": "Kaunas County",
        "postcode": "46345",
        "country": "Lithuania",
        "country_code": "lt"
      },
      "address": "28D Kalvarijos g., Aleksotas, Kaunas County, Lithuania"
    },
    {
      "lat": 54.903032228731334,
      "lon": 23.890732660426504,
      "geoinfo": {
        "display_name": "Petras Vileišis bridge, 141;222, Old Town, Centro seniūnija, Kaunas, Kauno miesto savivaldybė, Kaunas County, 44269, Lithuania",
        "road": "141;222",
        "house_number": null,
        "neighbourhood": null,
        "suburb": "Old Town",
        "city_district": null,
        "city": "Kaunas",
        "state": "Kaunas County",
        "postcode": "44269",
        "country": "Lithuania",
        "country_code": "lt"
      },
      "address": "141;222, Aleksotas, Kaunas County, Lithuania"
    },
    {
      "lat": 54.882700894689826,
      "lon": 23.88780615026235,
      "geoinfo": {
        "display_name": "Yliškių g., Aleksotas, Aleksoto seniūnija, Kaunas, Kauno miesto savivaldybė, Kaunas County, 46271, Lithuania",
        "road": "Yliškių g.",
        "house_number": null,
        "neighbourhood": null,
        "suburb": "Aleksotas",
        "city_district": null,
        "city": "Kaunas",
        "state": "Kaunas County",
        "postcode": "46271",
        "country": "Lithuania",
        "country_code": "lt"
      },
      "address": "Yliškių g., Aleksotas, Kaunas County, Lithuania"
    },
    {
      "lat": 54.90455254376268,
      "lon": 23.860924766041865,
      "geoinfo": {
        "display_name": "113, Raudondvario pl., Mikalinava, Vilijampolės seniūnija, Kaunas, Kauno miesto savivaldybė, Kaunas County, 47187, Lithuania",
        "road": "Raudondvario pl.",
        "house_number": "113",
        "neighbourhood": null,
        "suburb": "Mikalinava",
        "city_district": null,
        "city": "Kaunas",
        "state": "Kaunas County",
        "postcode": "47187",
        "country": "Lithuania",
        "country_code": "lt"
      },
      "address": "113, Raudondvario pl., Mikalinava, Vilijampolės seniūnija, Kaunas, Kauno miesto savivaldybė, Kaunas County, 47187, Lithuania"
    },
    {
      "lat": 54.852690540146526,
      "lon": 23.8653579482149,
      "geoinfo": {
        "display_name": "30, Jono Karučio g., Narsiečiai, Alšėnų seniūnija, Kaunas District Municipality, Kaunas County, 46491, Lithuania",
        "road": "Jono Karučio g.",
        "house_number": "30",
        "neighbourhood": null,
        "suburb": null,
        "city_district": null,
        "city": "Narsiečiai",
        "state": "Kaunas County",
        "postcode": "46491",
        "country": "Lithuania",
        "country_code": "lt"
      },
      "address": "30, Jono Karučio g., Narsiečiai, Alšėnų seniūnija, Kaunas District Municipality, Kaunas County, 46491, Lithuania"
    },
    {
      "lat": 54.872044000890895,
      "lon": 23.91726967778835,
      "geoinfo": {
        "display_name": "13, Vilties g., Aukštoji Freda, Aleksoto seniūnija, Kaunas, Kauno miesto savivaldybė, Kaunas County, 46299, Lithuania",
        "road": "Vilties g.",
        "house_number": "13",
        "neighbourhood": null,
        "suburb": "Aukštoji Freda",
        "city_district": null,
        "city": "Kaunas",
        "state": "Kaunas County",
        "postcode": "46299",
        "country": "Lithuania",
        "country_code": "lt"
      },
      "address": "13, Vilties g., Aukštoji Freda, Aleksoto seniūnija, Kaunas, Kauno miesto savivaldybė, Kaunas County, 46299, Lithuania"
    }
  ],
  "updated_at": "2025-10-19T05:27:14.283108+00:00",
  "_kind": "geo_samples"
}