{
  "country_code": "LT",
  "country": "Lithuania",
  "city": "Fabijoniškės",
  "geonameid": 596479,
  "target_addresses": 3,
  "samples": [
    {
      "lat": 54.7390254713665,
      "lon": 25.257407860928804,
      "geoinfo": {
        "display_name": "18, Prano Ancevičiaus g., Jeruzalė, Verkių seniūnija, Vilnius, Vilnius city municipality, Vilnius County, 08300, Lithuania",
        "road": "Prano Ancevičiaus g.",
        "house_number": "18",
        "neighbourhood": null,
        "suburb": "Verkių seniūnija",
        "city_district": null,
        "city": "Vilnius",
        "state": "Vilnius County",
        "postcode": "08300",
        "country": "Lithuania",
        "country_code": "lt"
      },
      "address": "18, Prano Ancevičiaus g., Jeruzalė, Verkių seniūnija, Vilnius, Vilnius city municipality, Vilnius County, 08300, Lithuania"
    },
    {
      "lat": 54.731496592506865,
      "lon": 25.18924511459261,
      "geoinfo": {
        "display_name": "3A, Mėtų g., Antežeriai, Zujūnai Eldership, Vilniaus rajono savivaldybė, Vilnius County, 14166, Lithuania",
        "road": "Mėtų g.",
        "house_number": "3A",
        "neighbourhood": null,
        "suburb": null,
        "city_district": null,
        "city": "Antežeriai",
        "state": "Vilnius County",
        "postcode": "14166",
        "country": "Lithuania",
        "country_code": "lt"
      },
      "address": "3A, Mėtų g., Antežeriai, Zujūnai Eldership, Vilniaus rajono savivaldybė, Vilnius County, 14166, Lithuania"
    },
    {
      "lat": 54.721718245631536,
      "lon": 25.21409438871479,
      "geoinfo": {
        "display_name": "Taikos g., Justiniškės, Justiniškių seniūnija, Vilnius, Vilnius city municipality, Vilnius County, 05215, Lithuania",
        "road": "Taikos g.",
        "house_number": null,
        "neighbourhood": null,
        "suburb": "Justiniškės",
        "city_district": null,
        "city": "Vilnius",
        "state": "Vilnius County",
        "postcode": "05215",
        "country": "Lithuania",
        "country_code": "lt"
      },
      "address": "860, Taikos g., Justiniškės, Justiniškių seniūnija, Vilnius, Vilnius city municipality, Vilnius County, 05215, Lithuania"
    }
  ],
  "updated_at": "2025-10-19T05:51:17.561062+00:00",
  "_kind": "geo_samples"
}