{
  "country_code": "LT",
  "country": "Lithuania",
  "city": "Gargždai",
  "geonameid": 599506,
  "target_addresses": 3,
  "samples": [
    {
      "lat": 55.72630164052779,
      "lon": 21.35321267777799,
      "geoinfo": {
        "display_name": "19, Bereniškės g., Gargždai, Gargždų seniūnija, Klaipėda District Municipality, Klaipėda County, 96156, Lithuania",
        "road": "Bereniškės g.",
        "house_number": "19",
        "neighbourhood": null,
        "suburb": null,
        "city_district": null,
        "city": "Gargždai",
        "state": "Klaipėda County",
        "postcode": "96156",
        "country": "Lithuania",
        "country_code": "lt"
      },
      "address": "19 Bereniškės g., Gargždai, Klaipėda County, Lithuania"
    },
    {
      "lat": 55.731191091931926,
      "lon": 21.388465633544538,
      "geoinfo": {
        "display_name": "Užmiesčio g., Gargždai, Gargždų seniūnija, Klaipėda District Municipality, Klaipėda County, 96100, Lithuania",
        "road": "Užmiesčio g.",
        "house_number": null,
        "neighbourhood": null,
        "suburb": null,
        "city_district": null,
        "city": "Gargždai",
        "state": "Klaipėda County",
        "postcode": "96100",
        "country": "Lithuania",
        "country_code": "lt"
      },
      "address": "Užmiesčio g., Gargždai, Klaipėda County, Lithuania"
    },
    {
      "lat": 55.68772182263862,
      "lon": 21.365370733173346,
      "geoinfo": {
        "display_name": "12, Smėlio g., Kuliai, Dovilų seniūnija, Klaipėda District Municipality, Klaipėda County, 95496, Lithuania",
        "road": "Smėlio g.",
        "house_number": "12",
        "neighbourhood": null,
        "suburb": null,
        "city_district": null,
        "city": "Kuliai",
        "state": "Klaipėda County",
        "postcode": "95496",
        "country": "Lithuania",
        "country_code": "lt"
      },
      "address": "12 Smėlio g., Gargždai, Klaipėda County, Lithuania"
    },
    {
      "lat": 55.73469450375665,
      "lon": 21.37840615617921,
      "geoinfo": {
        "display_name": "Vilniaus pl., Saulažoliai, Dauparų-Kvietinių seniūnija, Klaipėda District Municipality, Klaipėda County, 96177, Lithuania",
        "road": "Vilniaus pl.",
        "house_number": null,
        "neighbourhood": null,
        "suburb": null,
        "city_district": null,
        "city": "Saulažoliai",
        "state": "Klaipėda County",
        "postcode": "96177",
        "country": "Lithuania",
        "country_code": "lt"
      },
      "address": "507, Vilniaus pl., Saulažoliai, Dauparų-Kvietinių seniūnija, Klaipėda District Municipality, Klaipėda County, 96177, Lithuania"
    },
    {
      "lat": 55.72332255205251,
      "lon": 21.398671163657884,
      "geoinfo": {
        "display_name": "19, Užuovėjos g., Gargždai, Gargždų seniūnija, Klaipėda District Municipality, Klaipėda County, 96112, Lithuania",
        "road": "Užuovėjos g.",
        "house_number": "19",
        "neighbourhood": null,
        "suburb": null,
        "city_district": null,
        "city": "Gargždai",
        "state": "Klaipėda County",
        "postcode": "96112",
        "country": "Lithuania",
        "country_code": "lt"
      },
      "address": "19, Užuovėjos g., Gargždai, Gargždų seniūnija, Klaipėda District Municipality, Klaipėda County, 96112, Lithuania"
    },
    {
      "lat": 55.718302421434196,
      "lon": 21.371995399819745,
      "geoinfo": {
        "display_name": "1D, Lietuvininkų g., Gargždai, Gargždų seniūnija, Klaipėda District Municipality, Klaipėda County, 96106, Lithuania",
        "road": "Lietuvininkų g.",
        "house_number": "1D",
        "neighbourhood": null,
        "suburb": null,
        "city_district": null,
        "city": "Gargždai",
        "state": "Klaipėda County",
        "postcode": "96106",
        "country": "Lithuania",
        "country_code": "lt"
      },
      "address": "1D, Lietuvininkų g., Gargždai, Gargždų seniūnija, Klaipėda District Municipality, Klaipėda County, 96106, Lithuania"
    }
  ],
  "updated_at": "2025-10-19T05:46:19.242638+00:00",
  "_kind": "geo_samples"
}