{
  "country_code": "LT",
  "country": "Lithuania",
  "city": "Karoliniškės",
  "geonameid": 8714608,
  "target_addresses": 3,
  "samples": [
    {
      "lat": 54.67809142631861,
      "lon": 25.168018947950774,
      "geoinfo": {
        "display_name": "Upės g., Naujakiemis, Zujūnai Eldership, Vilniaus rajono savivaldybė, Vilnius County, 02300, Lithuania",
        "road": "Upės g.",
        "house_number": null,
        "neighbourhood": null,
        "suburb": null,
        "city_district": null,
        "city": "Naujakiemis",
        "state": "Vilnius County",
        "postcode": "02300",
        "country": "Lithuania",
        "country_code": "lt"
      },
      "address": "Upės g., Karoliniškės, Vilnius County, Lithuania"
    },
    {
      "lat": 54.695595494592325,
      "lon": 25.18809919609816,
      "geoinfo": {
        "display_name": "Baltynės g., Senoji Pilaitė, Pilaitės seniūnija, Vilnius, Vilnius city municipality, Vilnius County, 06296, Lithuania",
        "road": "Baltynės g.",
        "house_number": null,
        "neighbourhood": null,
        "suburb": "Pilaitės seniūnija",
        "city_district": null,
        "city": "Vilnius",
        "state": "Vilnius County",
        "postcode": "06296",
        "country": "Lithuania",
        "country_code": "lt"
      },
      "address": "Baltynės g., Karoliniškės, Vilnius County, Lithuania"
    },
    {
      "lat": 54.69677244664488,
      "lon": 25.235684027145552,
      "geoinfo": {
        "display_name": "Kalvų keterų takas, Karoliniškės, Karoliniškės eldership, Vilnius, Vilnius city municipality, Vilnius County, 08111, Lithuania",
        "road": "Kalvų keterų takas",
        "house_number": null,
        "neighbourhood": null,
        "suburb": "Karoliniškės",
        "city_district": null,
        "city": "Vilnius",
        "state": "Vilnius County",
        "postcode": "08111",
        "country": "Lithuania",
        "country_code": "lt"
      },
      "address": "Kalvų keterų takas, Karoliniškės, Vilnius County, Lithuania"
    },
    {
      "lat": 54.654227564797765,
      "lon": 25.25067506161761,
      "geoinfo": {
        "display_name": "18, Bartų g., Burbiškės, Naujininkų seniūnija, Vilnius, Vilnius city municipality, Vilnius County, 02198, Lithuania",
        "road": "Bartų g.",
        "house_number": "18",
        "neighbourhood": null,
        "suburb": "Naujininkų seniūnija",
        "city_district": null,
        "city": "Vilnius",
        "state": "Vilnius County",
        "postcode": "02198",
        "country": "Lithuania",
        "country_code": "lt"
      },
      "address": "18, Bartų g., Burbiškės, Naujininkų seniūnija, Vilnius, Vilnius city municipality, Vilnius County, 02198, Lithuania"
    },
    {
      "lat": 54.64949521635519,
      "lon": 25.193834440324856,
      "geoinfo": {
        "display_name": "Jankiškių g., Jankiškės, Vilkpėdės seniūnija, Vilnius, Vilnius city municipality, Vilnius County, 04127, Lithuania",
        "road": "Jankiškių g.",
        "house_number": null,
        "neighbourhood": null,
        "suburb": "Vilkpėdės seniūnija",
        "city_district": null,
        "city": "Vilnius",
        "state": "Vilnius County",
        "postcode": "04127",
        "country": "Lithuania",
        "country_code": "lt"
      },
      "address": "593, Jankiškių g., Jankiškės, Vilkpėdės seniūnija, Vilnius, Vilnius city municipality, Vilnius County, 04127, Lithuania"
    },
    {
      "lat": 54.71647647493677,
      "lon": 25.211433659583186,
      "geoinfo": {
        "display_name": "Vilniaus Taikos Progimnazija, 157, Taikos g., Justiniškės, Justiniškių seniūnija, Vilnius, Vilnius city municipality, Vilnius County, 05215, Lithuania",
        "road": "Taikos g.",
        "house_number": "157",
        "neighbourhood": null,
        "suburb": "Justiniškės",
        "city_district": null,
        "city": "Vilnius",
        "state": "Vilnius County",
        "postcode": "05215",
        "country": "Lithuania",
        "country_code": "lt"
      },
      "address": "Vilniaus Taikos Progimnazija, 157, Taikos g., Justiniškės, Justiniškių seniūnija, Vilnius, Vilnius city municipality, Vilnius County, 05215, Lithuania"
    }
  ],
  "updated_at": "2025-10-19T05:27:35.789095+00:00",
  "_kind": "geo_samples"
}