{
  "country_code": "LT",
  "country": "Lithuania",
  "city": "Kaunas",
  "geonameid": 598316,
  "target_addresses": 3,
  "samples": [
    {
      "lat": 54.9152452193294,
      "lon": 23.950075523921512,
      "geoinfo": {
        "display_name": "5A, Butrimonių g., Dainava, Dainavos seniūnija, Kaunas, Kauno miesto savivaldybė, Kaunas County, 50218, Lithuania",
        "road": "Butrimonių g.",
        "house_number": "5A",
        "neighbourhood": null,
        "suburb": "Dainava",
        "city_district": null,
        "city": "Kaunas",
        "state": "Kaunas County",
        "postcode": "50218",
        "country": "Lithuania",
        "country_code": "lt"
      },
      "address": "5A Butrimonių g., Kaunas, Kaunas County, Lithuania"
    },
    {
      "lat": 54.90781554885968,
      "lon": 23.869083036688426,
      "geoinfo": {
        "display_name": "Raudondvario pl., Mikalinava, Vilijampolės seniūnija, Kaunas, Kauno miesto savivaldybė, Kaunas County, 47180, Lithuania",
        "road": "Raudondvario pl.",
        "house_number": null,
        "neighbourhood": null,
        "suburb": "Mikalinava",
        "city_district": null,
        "city": "Kaunas",
        "state": "Kaunas County",
        "postcode": "47180",
        "country": "Lithuania",
        "country_code": "lt"
      },
      "address": "Raudondvario pl., Kaunas, Kaunas County, Lithuania"
    },
    {
      "lat": 54.88936439316349,
      "lon": 23.96927456302876,
      "geoinfo": {
        "display_name": "Gandrų al., Vičiūnai, Panemunės seniūnija, Kaunas, Kauno miesto savivaldybė, Kaunas County, 45362, Lithuania",
        "road": "Gandrų al.",
        "house_number": null,
        "neighbourhood": null,
        "suburb": "Vičiūnai",
        "city_district": null,
        "city": "Kaunas",
        "state": "Kaunas County",
        "postcode": "45362",
        "country": "Lithuania",
        "country_code": "lt"
      },
      "address": "Gandrų al., Kaunas, Kaunas County, Lithuania"
    },
    {
      "lat": 54.87816313541131,
      "lon": 23.871968427629422,
      "geoinfo": {
        "display_name": "76, Julijanavos g., Yliškės, Aleksoto seniūnija, Kaunas, Ringaudų seniūnija, Kauno miesto savivaldybė, Kaunas County, 46342, Lithuania",
        "road": "Julijanavos g.",
        "house_number": "76",
        "neighbourhood": null,
        "suburb": "Yliškės",
        "city_district": null,
        "city": "Kaunas",
        "state": "Kaunas County",
        "postcode": "46342",
        "country": "Lithuania",
        "country_code": "lt"
      },
      "address": "76, Julijanavos g., Yliškės, Aleksoto seniūnija, Kaunas, Ringaudų seniūnija, Kauno miesto savivaldybė, Kaunas County, 46342, Lithuania"
    },
    {
      "lat": 54.91497952043996,
      "lon": 23.970758326931538,
      "geoinfo": {
        "display_name": "Taikos pr., Dainava, Dainavos seniūnija, Kaunas, Kauno miesto savivaldybė, Kaunas County, 51297, Lithuania",
        "road": "Taikos pr.",
        "house_number": null,
        "neighbourhood": null,
        "suburb": "Dainava",
        "city_district": null,
        "city": "Kaunas",
        "state": "Kaunas County",
        "postcode": "51297",
        "country": "Lithuania",
        "country_code": "lt"
      },
      "address": "888, Taikos pr., Dainava, Dainavos seniūnija, Kaunas, Kauno miesto savivaldybė, Kaunas County, 51297, Lithuania"
    },
    {
      "lat": 54.91350005771403,
      "lon": 23.88711829107999,
      "geoinfo": {
        "display_name": "10, Šilalės g., Vilijampolė, Vilijampolės seniūnija, Kaunas, Kauno miesto savivaldybė, Kaunas County, 48315, Lithuania",
        "road": "Šilalės g.",
        "house_number": "10",
        "neighbourhood": null,
        "suburb": "Vilijampolė",
        "city_district": null,
        "city": "Kaunas",
        "state": "Kaunas County",
        "postcode": "48315",
        "country": "Lithuania",
        "country_code": "lt"
      },
      "address": "10, Šilalės g., Vilijampolė, Vilijampolės seniūnija, Kaunas, Kauno miesto savivaldybė, Kaunas County, 48315, Lithuania"
    }
  ],
  "updated_at": "2025-10-19T05:46:08.794532+00:00",
  "_kind": "geo_samples"
}