{
  "country_code": "LT",
  "country": "Lithuania",
  "city": "Klaipėda",
  "geonameid": 598098,
  "target_addresses": 3,
  "samples": [
    {
      "lat": 55.72006262077624,
      "lon": 21.17227138872466,
      "geoinfo": {
        "display_name": "28, Šienpjovių g., Paupiai, Upės uostas, Bachmano dvaras, Klaipėda, Klaipėda City Municipality, Klaipėda County, 91272, Lithuania",
        "road": "Šienpjovių g.",
        "house_number": "28",
        "neighbourhood": "Paupiai",
        "suburb": "Bachmano dvaras",
        "city_district": null,
        "city": "Klaipėda",
        "state": "Klaipėda County",
        "postcode": "91272",
        "country": "Lithuania",
        "country_code": "lt"
      },
      "address": "28 Šienpjovių g., Klaipėda, Klaipėda County, Lithuania"
    },
    {
      "lat": 55.67655104777812,
      "lon": 21.12953316658859,
      "geoinfo": {
        "display_name": "Buvusi Smiltynės siauruko trasa, Klaipėda, Klaipėda City Municipality, Klaipėda County, 91191, Lithuania",
        "road": "Buvusi Smiltynės siauruko trasa",
        "house_number": null,
        "neighbourhood": null,
        "suburb": null,
        "city_district": null,
        "city": "Klaipėda",
        "state": "Klaipėda County",
        "postcode": "91191",
        "country": "Lithuania",
        "country_code": "lt"
      },
      "address": "Buvusi Smiltynės siauruko trasa, Klaipėda, Klaipėda County, Lithuania"
    },
    {
      "lat": 55.713016545598805,
      "lon": 21.13061514395369,
      "geoinfo": {
        "display_name": "5, H. Manto g., Kretinga, Lietuvninkai, Old Town, Klaipėda, Klaipėda City Municipality, Klaipėda County, 92128, Lithuania",
        "road": "H. Manto g.",
        "house_number": "5",
        "neighbourhood": "Kretinga",
        "suburb": "Old Town",
        "city_district": null,
        "city": "Klaipėda",
        "state": "Klaipėda County",
        "postcode": "92128",
        "country": "Lithuania",
        "country_code": "lt"
      },
      "address": "5 H. Manto g., Klaipėda, Klaipėda County, Lithuania"
    },
    {
      "lat": 55.74080771434824,
      "lon": 21.13541455253476,
      "geoinfo": {
        "display_name": "62, Kretingos g., Šarlotės dvaras, Mažasis kaimelis, Luizė, Klaipėda, Klaipėda City Municipality, Klaipėda County, 92325, Lithuania",
        "road": "Kretingos g.",
        "house_number": "62",
        "neighbourhood": "Šarlotės dvaras",
        "suburb": "Luizė",
        "city_district": null,
        "city": "Klaipėda",
        "state": "Klaipėda County",
        "postcode": "92325",
        "country": "Lithuania",
        "country_code": "lt"
      },
      "address": "62, Kretingos g., Šarlotės dvaras, Mažasis kaimelis, Luizė, Klaipėda, Klaipėda City Municipality, Klaipėda County, 92325, Lithuania"
    },
    {
      "lat": 55.73844831456256,
      "lon": 21.08564263851205,
      "geoinfo": {
        "display_name": "Golden Gym, Audros g., Pirmoji Melnragė, Melnragė, Klaipėda, Klaipėda City Municipality, Klaipėda County, 92278, Lithuania",
        "road": "Audros g.",
        "house_number": null,
        "neighbourhood": "Pirmoji Melnragė",
        "suburb": "Melnragė",
        "city_district": null,
        "city": "Klaipėda",
        "state": "Klaipėda County",
        "postcode": "92278",
        "country": "Lithuania",
        "country_code": "lt"
      },
      "address": "673, Audros g., Klaipėda, 92278 Klaipėda County, Lithuania"
    },
    {
      "lat": 55.73136467899995,
      "lon": 21.12263011383052,
      "geoinfo": {
        "display_name": "Respublikinė Klaipėdos ligoninė, VšĮ Tuberkuliozės filialas, 2, Prano Lideikio g., Miškas, Universitetas, Luizė, Klaipėda, Klaipėda City Municipality, Klaipėda County, 92290, Lithuania",
        "road": "Prano Lideikio g.",
        "house_number": "2",
        "neighbourhood": "Miškas",
        "suburb": "Luizė",
        "city_district": null,
        "city": "Klaipėda",
        "state": "Klaipėda County",
        "postcode": "92290",
        "country": "Lithuania",
        "country_code": "lt"
      },
      "address": "2, Prano Lideikio g., Klaipėda, 92290 Klaipėda County, Lithuania"
    }
  ],
  "updated_at": "2025-10-19T05:26:53.256738+00:00",
  "_kind": "geo_samples"
}