{
  "country_code": "LT",
  "country": "Lithuania",
  "city": "Kretinga",
  "geonameid": 597989,
  "target_addresses": 3,
  "samples": [
    {
      "lat": 55.92849179827304,
      "lon": 21.22083498178429,
      "geoinfo": {
        "display_name": "Ankštakiai, Kretinga eldership, Kretinga District Municipality, Klaipėda County, 97163, Lithuania",
        "road": null,
        "house_number": null,
        "neighbourhood": null,
        "suburb": null,
        "city_district": null,
        "city": "Ankštakiai",
        "state": "Klaipėda County",
        "postcode": "97163",
        "country": "Lithuania",
        "country_code": "lt"
      },
      "address": "Kretinga, Klaipėda County, Lithuania"
    },
    {
      "lat": 55.8509269032379,
      "lon": 21.262483874317546,
      "geoinfo": {
        "display_name": "Petreikių g., Toliai, Žalgirio seniūnija, Kretinga District Municipality, Klaipėda County, 97211, Lithuania",
        "road": "Petreikių g.",
        "house_number": null,
        "neighbourhood": null,
        "suburb": null,
        "city_district": null,
        "city": "Toliai",
        "state": "Klaipėda County",
        "postcode": "97211",
        "country": "Lithuania",
        "country_code": "lt"
      },
      "address": "Petreikių g., Kretinga, Klaipėda County, Lithuania"
    },
    {
      "lat": 55.89078869552533,
      "lon": 21.301751108916225,
      "geoinfo": {
        "display_name": "29A, Lazdynų g., Dupulčiai, Žalgirio seniūnija, Kretinga District Municipality, Klaipėda County, 97159, Lithuania",
        "road": "Lazdynų g.",
        "house_number": "29A",
        "neighbourhood": null,
        "suburb": null,
        "city_district": null,
        "city": "Dupulčiai",
        "state": "Klaipėda County",
        "postcode": "97159",
        "country": "Lithuania",
        "country_code": "lt"
      },
      "address": "29A Lazdynų g., Kretinga, Klaipėda County, Lithuania"
    },
    {
      "lat": 55.86025021057025,
      "lon": 21.237249944800553,
      "geoinfo": {
        "display_name": "Danės g., Toliai, Žalgirio seniūnija, Kretinga District Municipality, Klaipėda County, 97161, Lithuania",
        "road": "Danės g.",
        "house_number": null,
        "neighbourhood": null,
        "suburb": null,
        "city_district": null,
        "city": "Toliai",
        "state": "Klaipėda County",
        "postcode": "97161",
        "country": "Lithuania",
        "country_code": "lt"
      },
      "address": "957, Danės g., Toliai, Žalgirio seniūnija, Kretinga District Municipality, Klaipėda County, 97161, Lithuania"
    },
    {
      "lat": 55.922721718065624,
      "lon": 21.259680341381465,
      "geoinfo": {
        "display_name": "Kurmaičiai, Kretinga eldership, Kretinga District Municipality, Klaipėda County, 97240, Lithuania",
        "road": null,
        "house_number": null,
        "neighbourhood": null,
        "suburb": null,
        "city_district": null,
        "city": "Kurmaičiai",
        "state": "Klaipėda County",
        "postcode": "97240",
        "country": "Lithuania",
        "country_code": "lt"
      },
      "address": "196, Kurmaičiai, Kretinga eldership, Kretinga District Municipality, Klaipėda County, 97240, Lithuania"
    },
    {
      "lat": 55.885850284188166,
      "lon": 21.321168068033327,
      "geoinfo": {
        "display_name": "Rubuliai, Žalgirio seniūnija, Kretinga District Municipality, Klaipėda County, Lithuania",
        "road": null,
        "house_number": null,
        "neighbourhood": null,
        "suburb": null,
        "city_district": null,
        "city": "Rubuliai",
        "state": "Klaipėda County",
        "postcode": null,
        "country": "Lithuania",
        "country_code": "lt"
      },
      "address": "665, Rubuliai, Žalgirio seniūnija, Kretinga District Municipality, 56632 Klaipėda County, Lithuania"
    }
  ],
  "updated_at": "2025-10-19T05:51:28.207479+00:00",
  "_kind": "geo_samples"
}