{
  "country_code": "LT",
  "country": "Lithuania",
  "city": "Palanga",
  "geonameid": 596238,
  "target_addresses": 3,
  "samples": [
    {
      "lat": 55.90030013356744,
      "lon": 21.05998930766394,
      "geoinfo": {
        "display_name": "Vytauto g., Palanga, Palangos miesto savivaldybė, Klaipėda County, 00160, Lithuania",
        "road": "Vytauto g.",
        "house_number": null,
        "neighbourhood": null,
        "suburb": null,
        "city_district": null,
        "city": "Palanga",
        "state": "Klaipėda County",
        "postcode": "00160",
        "country": "Lithuania",
        "country_code": "lt"
      },
      "address": "Vytauto g., Palanga, Klaipėda County, Lithuania"
    },
    {
      "lat": 55.952877782492095,
      "lon": 21.090514820538317,
      "geoinfo": {
        "display_name": "2A, Liepojos pl., Kunigiškiai, Palanga, Palangos miesto savivaldybė, Klaipėda County, 00170, Lithuania",
        "road": "Liepojos pl.",
        "house_number": "2A",
        "neighbourhood": null,
        "suburb": "Kunigiškiai",
        "city_district": null,
        "city": "Palanga",
        "state": "Klaipėda County",
        "postcode": "00170",
        "country": "Lithuania",
        "country_code": "lt"
      },
      "address": "2A Liepojos pl., Palanga, Klaipėda County, Lithuania"
    },
    {
      "lat": 55.941859873994645,
      "lon": 21.05883716356554,
      "geoinfo": {
        "display_name": "17, Naglio al., Kunigiškiai, Palanga, Palangos miesto savivaldybė, Klaipėda County, 00155, Lithuania",
        "road": "Naglio al.",
        "house_number": "17",
        "neighbourhood": null,
        "suburb": "Kunigiškiai",
        "city_district": null,
        "city": "Palanga",
        "state": "Klaipėda County",
        "postcode": "00155",
        "country": "Lithuania",
        "country_code": "lt"
      },
      "address": "17 Naglio al., Palanga, Klaipėda County, Lithuania"
    },
    {
      "lat": 55.898558194875385,
      "lon": 21.12178853174705,
      "geoinfo": {
        "display_name": "Vilimiškė, Vydmantų seniūnija, Kretinga District Municipality, Klaipėda County, 97221, Lithuania",
        "road": null,
        "house_number": null,
        "neighbourhood": null,
        "suburb": null,
        "city_district": null,
        "city": "Vilimiškė",
        "state": "Klaipėda County",
        "postcode": "97221",
        "country": "Lithuania",
        "country_code": "lt"
      },
      "address": "405, Vilimiškė, Vydmantų seniūnija, Kretinga District Municipality, Klaipėda County, 97221, Lithuania"
    },
    {
      "lat": 55.872917137020984,
      "lon": 21.073015319374967,
      "geoinfo": {
        "display_name": "4H, Klaipėdos pl., Nemirseta, Palanga, Palangos miesto savivaldybė, Klaipėda County, 00185, Lithuania",
        "road": "Klaipėdos pl.",
        "house_number": "4H",
        "neighbourhood": null,
        "suburb": "Nemirseta",
        "city_district": null,
        "city": "Palanga",
        "state": "Klaipėda County",
        "postcode": "00185",
        "country": "Lithuania",
        "country_code": "lt"
      },
      "address": "4H, Klaipėdos pl., Nemirseta, Palanga, Palangos miesto savivaldybė, Klaipėda County, 00185, Lithuania"
    },
    {
      "lat": 55.88406851505057,
      "lon": 21.034468470382155,
      "geoinfo": {
        "display_name": "Nemirseta, Palanga, Palangos miesto savivaldybė, Klaipėda County, 00185, Lithuania",
        "road": null,
        "house_number": null,
        "neighbourhood": null,
        "suburb": "Nemirseta",
        "city_district": null,
        "city": "Palanga",
        "state": "Klaipėda County",
        "postcode": "00185",
        "country": "Lithuania",
        "country_code": "lt"
      },
      "address": "370, Nemirseta, Palanga, Palangos miesto savivaldybė, Klaipėda County, 00185, Lithuania"
    }
  ],
  "updated_at": "2025-10-19T05:26:26.933123+00:00",
  "_kind": "geo_samples"
}