{
  "country_code": "LT",
  "country": "Lithuania",
  "city": "Plunge",
  "geonameid": 595689,
  "target_addresses": 3,
  "samples": [
    {
      "lat": 55.92219560305514,
      "lon": 21.858715181730336,
      "geoinfo": {
        "display_name": "53A, Dariaus ir Girėno g., Plungė, Plungės miesto seniūnija, Plungės rajono savivaldybė, Telšiai County, 90119, Lithuania",
        "road": "Dariaus ir Girėno g.",
        "house_number": "53A",
        "neighbourhood": null,
        "suburb": null,
        "city_district": null,
        "city": "Plungė",
        "state": "Telšiai County",
        "postcode": "90119",
        "country": "Lithuania",
        "country_code": "lt"
      },
      "address": "53A Dariaus ir Girėno g., Plunge, Telšiai County, Lithuania"
    },
    {
      "lat": 55.89883774793982,
      "lon": 21.8300386691023,
      "geoinfo": {
        "display_name": "2J, Mendeno g., Plungė, Plungės miesto seniūnija, Plungės rajono savivaldybė, Telšiai County, 90143, Lithuania",
        "road": "Mendeno g.",
        "house_number": "2J",
        "neighbourhood": null,
        "suburb": null,
        "city_district": null,
        "city": "Plungė",
        "state": "Telšiai County",
        "postcode": "90143",
        "country": "Lithuania",
        "country_code": "lt"
      },
      "address": "2J Mendeno g., Plunge, Telšiai County, Lithuania"
    },
    {
      "lat": 55.92418359946708,
      "lon": 21.828547643685358,
      "geoinfo": {
        "display_name": "12B, Salantų g., Plungė, Plungės miesto seniūnija, Plungės rajono savivaldybė, Telšiai County, 90115, Lithuania",
        "road": "Salantų g.",
        "house_number": "12B",
        "neighbourhood": null,
        "suburb": null,
        "city_district": null,
        "city": "Plungė",
        "state": "Telšiai County",
        "postcode": "90115",
        "country": "Lithuania",
        "country_code": "lt"
      },
      "address": "12B Salantų g., Plunge, Telšiai County, Lithuania"
    },
    {
      "lat": 55.9137768563781,
      "lon": 21.80758599699874,
      "geoinfo": {
        "display_name": "53, Birutės g., Plungė, Plungės miesto seniūnija, Plungės rajono savivaldybė, Telšiai County, 90112, Lithuania",
        "road": "Birutės g.",
        "house_number": "53",
        "neighbourhood": null,
        "suburb": null,
        "city_district": null,
        "city": "Plungė",
        "state": "Telšiai County",
        "postcode": "90112",
        "country": "Lithuania",
        "country_code": "lt"
      },
      "address": "53, Birutės g., Plunge, 90112 Telšiai County, Lithuania"
    },
    {
      "lat": 55.92446047056166,
      "lon": 21.820070693941805,
      "geoinfo": {
        "display_name": "Plungė, Plungės miesto seniūnija, Plungės rajono savivaldybė, Telšiai County, 90114, Lithuania",
        "road": null,
        "house_number": null,
        "neighbourhood": null,
        "suburb": null,
        "city_district": null,
        "city": "Plungė",
        "state": "Telšiai County",
        "postcode": "90114",
        "country": "Lithuania",
        "country_code": "lt"
      },
      "address": "797, Plunge, 90114 Telšiai County, Lithuania"
    },
    {
      "lat": 55.88284203582884,
      "lon": 21.84971174874347,
      "geoinfo": {
        "display_name": "4, Purienų g., Pakerai, Babrungo seniūnija, Plungės rajono savivaldybė, Telšiai County, 90355, Lithuania",
        "road": "Purienų g.",
        "house_number": "4",
        "neighbourhood": null,
        "suburb": null,
        "city_district": null,
        "city": "Pakerai",
        "state": "Telšiai County",
        "postcode": "90355",
        "country": "Lithuania",
        "country_code": "lt"
      },
      "address": "4, Purienų g., Plunge, 90355 Telšiai County, Lithuania"
    }
  ],
  "updated_at": "2025-10-19T05:51:07.151015+00:00",
  "_kind": "geo_samples"
}