{
  "country_code": "LT",
  "country": "Lithuania",
  "city": "Radviliskis",
  "geonameid": 595449,
  "target_addresses": 3,
  "samples": [
    {
      "lat": 55.78167526816505,
      "lon": 23.534831470673588,
      "geoinfo": {
        "display_name": "Parko g., Vaiduliai, Radviliškio seniūnija, Radviliškio rajono savivaldybė, Šiauliai County, 82113, Lithuania",
        "road": "Parko g.",
        "house_number": null,
        "neighbourhood": null,
        "suburb": null,
        "city_district": null,
        "city": "Vaiduliai",
        "state": "Šiauliai County",
        "postcode": "82113",
        "country": "Lithuania",
        "country_code": "lt"
      },
      "address": "Parko g., Radviliskis, Šiauliai County, Lithuania"
    },
    {
      "lat": 55.79438157815049,
      "lon": 23.509961134310803,
      "geoinfo": {
        "display_name": "Kaneivaičiai, Radviliškio seniūnija, Radviliškio rajono savivaldybė, Šiauliai County, 82115, Lithuania",
        "road": null,
        "house_number": null,
        "neighbourhood": null,
        "suburb": null,
        "city_district": null,
        "city": "Kaneivaičiai",
        "state": "Šiauliai County",
        "postcode": "82115",
        "country": "Lithuania",
        "country_code": "lt"
      },
      "address": "Radviliskis, Šiauliai County, Lithuania"
    },
    {
      "lat": 55.81788230721548,
      "lon": 23.569600929627686,
      "geoinfo": {
        "display_name": "6, Gedimino g., Radviliškis, Radviliškio miesto seniūnija, Radviliškio rajono savivaldybė, Šiauliai County, 82482, Lithuania",
        "road": "Gedimino g.",
        "house_number": "6",
        "neighbourhood": null,
        "suburb": null,
        "city_district": null,
        "city": "Radviliškis",
        "state": "Šiauliai County",
        "postcode": "82482",
        "country": "Lithuania",
        "country_code": "lt"
      },
      "address": "6 Gedimino g., Radviliskis, Šiauliai County, Lithuania"
    },
    {
      "lat": 55.807580156457036,
      "lon": 23.534147237866524,
      "geoinfo": {
        "display_name": "21, Laisvės al., Radviliškis, Radviliškio miesto seniūnija, Radviliškio rajono savivaldybė, Šiauliai County, 82121, Lithuania",
        "road": "Laisvės al.",
        "house_number": "21",
        "neighbourhood": null,
        "suburb": null,
        "city_district": null,
        "city": "Radviliškis",
        "state": "Šiauliai County",
        "postcode": "82121",
        "country": "Lithuania",
        "country_code": "lt"
      },
      "address": "21, Laisvės al., Radviliškis, Radviliškio miesto seniūnija, Radviliškio rajono savivaldybė, Šiauliai County, 82121, Lithuania"
    },
    {
      "lat": 55.84112702509061,
      "lon": 23.475745285525512,
      "geoinfo": {
        "display_name": "1A, Vilties g., Mankiškiai, Radviliškio seniūnija, Radviliškio rajono savivaldybė, Šiauliai County, 82101, Lithuania",
        "road": "Vilties g.",
        "house_number": "1A",
        "neighbourhood": null,
        "suburb": null,
        "city_district": null,
        "city": "Mankiškiai",
        "state": "Šiauliai County",
        "postcode": "82101",
        "country": "Lithuania",
        "country_code": "lt"
      },
      "address": "1A, Vilties g., Mankiškiai, Radviliškio seniūnija, Radviliškio rajono savivaldybė, Šiauliai County, 82101, Lithuania"
    },
    {
      "lat": 55.8161808031538,
      "lon": 23.509109587850666,
      "geoinfo": {
        "display_name": "Radviliškis, Radviliškio miesto seniūnija, Radviliškio rajono savivaldybė, Šiauliai County, 82115, Lithuania",
        "road": null,
        "house_number": null,
        "neighbourhood": null,
        "suburb": null,
        "city_district": null,
        "city": "Radviliškis",
        "state": "Šiauliai County",
        "postcode": "82115",
        "country": "Lithuania",
        "country_code": "lt"
      },
      "address": "226, Radviliškis, Radviliškio miesto seniūnija, Radviliškio rajono savivaldybė, Šiauliai County, 82115, Lithuania"
    }
  ],
  "updated_at": "2025-10-19T05:50:52.818720+00:00",
  "_kind": "geo_samples"
}