{
  "country_code": "LT",
  "country": "Lithuania",
  "city": "Ukmerge",
  "geonameid": 593733,
  "target_addresses": 3,
  "samples": [
    {
      "lat": 55.24921308208031,
      "lon": 24.79755600711161,
      "geoinfo": {
        "display_name": "1A, Slėnio g., Ukmergė, Ukmergės miesto seniūnija, Ukmerge District Municipality, Vilnius County, 20142, Lithuania",
        "road": "Slėnio g.",
        "house_number": "1A",
        "neighbourhood": null,
        "suburb": null,
        "city_district": null,
        "city": "Ukmergė",
        "state": "Vilnius County",
        "postcode": "20142",
        "country": "Lithuania",
        "country_code": "lt"
      },
      "address": "1A Slėnio g., Ukmerge, Vilnius County, Lithuania"
    },
    {
      "lat": 55.28959120822614,
      "lon": 24.759811862824197,
      "geoinfo": {
        "display_name": "Baubliai, Vidiškių seniūnija, Ukmerge District Municipality, Vilnius County, 20102, Lithuania",
        "road": null,
        "house_number": null,
        "neighbourhood": null,
        "suburb": null,
        "city_district": null,
        "city": "Baubliai",
        "state": "Vilnius County",
        "postcode": "20102",
        "country": "Lithuania",
        "country_code": "lt"
      },
      "address": "Ukmerge, Vilnius County, Lithuania"
    },
    {
      "lat": 55.260047611087614,
      "lon": 24.74241969242031,
      "geoinfo": {
        "display_name": "15, Ramygalos g., Old Town, Ukmergė, Ukmergės miesto seniūnija, Ukmerge District Municipality, Vilnius County, 20128, Lithuania",
        "road": "Ramygalos g.",
        "house_number": "15",
        "neighbourhood": null,
        "suburb": "Old Town",
        "city_district": null,
        "city": "Ukmergė",
        "state": "Vilnius County",
        "postcode": "20128",
        "country": "Lithuania",
        "country_code": "lt"
      },
      "address": "15 Ramygalos g., Ukmerge, Vilnius County, Lithuania"
    },
    {
      "lat": 55.23224045159346,
      "lon": 24.81757980048191,
      "geoinfo": {
        "display_name": "Antakalnis I, Lyduokių seniūnija, Ukmerge District Municipality, Vilnius County, 20148, Lithuania",
        "road": null,
        "house_number": null,
        "neighbourhood": null,
        "suburb": null,
        "city_district": null,
        "city": "Antakalnis I",
        "state": "Vilnius County",
        "postcode": "20148",
        "country": "Lithuania",
        "country_code": "lt"
      },
      "address": "410, Antakalnis I, Lyduokių seniūnija, Ukmerge District Municipality, Vilnius County, 20148, Lithuania"
    },
    {
      "lat": 55.25426663753382,
      "lon": 24.825513566354125,
      "geoinfo": {
        "display_name": "6, Jogvilų g., Jogvilai, Lyduokių seniūnija, Ukmerge District Municipality, Vilnius County, 20380, Lithuania",
        "road": "Jogvilų g.",
        "house_number": "6",
        "neighbourhood": null,
        "suburb": null,
        "city_district": null,
        "city": "Jogvilai",
        "state": "Vilnius County",
        "postcode": "20380",
        "country": "Lithuania",
        "country_code": "lt"
      },
      "address": "6, Jogvilų g., Jogvilai, Lyduokių seniūnija, Ukmerge District Municipality, Vilnius County, 20380, Lithuania"
    },
    {
      "lat": 55.247943783921855,
      "lon": 24.743856218902447,
      "geoinfo": {
        "display_name": "19, Žiedo g., Old Town, Ukmergė, Ukmergės miesto seniūnija, Ukmerge District Municipality, Vilnius County, 20127, Lithuania",
        "road": "Žiedo g.",
        "house_number": "19",
        "neighbourhood": null,
        "suburb": "Old Town",
        "city_district": null,
        "city": "Ukmergė",
        "state": "Vilnius County",
        "postcode": "20127",
        "country": "Lithuania",
        "country_code": "lt"
      },
      "address": "19, Žiedo g., Old Town, Ukmergė, Ukmergės miesto seniūnija, Ukmerge District Municipality, Vilnius County, 20127, Lithuania"
    }
  ],
  "updated_at": "2025-10-19T03:45:10.878971+00:00",
  "_kind": "geo_samples"
}