{
  "country_code": "LT",
  "country": "Lithuania",
  "city": "Vilnius",
  "geonameid": 593116,
  "target_addresses": 3,
  "samples": [
    {
      "lat": 54.68189742059909,
      "lon": 25.204814292929935,
      "geoinfo": {
        "display_name": "Loretos Asanavičiūtės g., Karoliniškės, Karoliniškės eldership, Vilnius, Vilnius city municipality, Vilnius County, 04301, Lithuania",
        "road": "Loretos Asanavičiūtės g.",
        "house_number": null,
        "neighbourhood": null,
        "suburb": "Karoliniškės",
        "city_district": null,
        "city": "Vilnius",
        "state": "Vilnius County",
        "postcode": "04301",
        "country": "Lithuania",
        "country_code": "lt"
      },
      "address": "Loretos Asanavičiūtės g., Vilnius, Vilnius County, Lithuania"
    },
    {
      "lat": 54.68941076192537,
      "lon": 25.349514520181785,
      "geoinfo": {
        "display_name": "Vaizdas į Pūčkorių slėnį, Pūčkorių pažintinis takas, Pūčkoriai, Naujosios Vilnios seniūnija, Vilnius, Vilnius city municipality, Vilnius County, 11300, Lithuania",
        "road": "Pūčkorių pažintinis takas",
        "house_number": null,
        "neighbourhood": null,
        "suburb": "Naujosios Vilnios seniūnija",
        "city_district": null,
        "city": "Vilnius",
        "state": "Vilnius County",
        "postcode": "11300",
        "country": "Lithuania",
        "country_code": "lt"
      },
      "address": "Pūčkorių pažintinis takas, Vilnius, Vilnius County, Lithuania"
    },
    {
      "lat": 54.65112183826442,
      "lon": 25.2722403368539,
      "geoinfo": {
        "display_name": "AeroCity Tech Valley, 34F, Dariaus ir Girėno g., Naujininkai, Naujininkų seniūnija, Vilnius, Vilnius city municipality, Vilnius County, 02196, Lithuania",
        "road": "Dariaus ir Girėno g.",
        "house_number": "34F",
        "neighbourhood": null,
        "suburb": "Naujininkai",
        "city_district": null,
        "city": "Vilnius",
        "state": "Vilnius County",
        "postcode": "02196",
        "country": "Lithuania",
        "country_code": "lt"
      },
      "address": "34F Dariaus ir Girėno g., Vilnius, Vilnius County, Lithuania"
    },
    {
      "lat": 54.65257537467623,
      "lon": 25.2499526346148,
      "geoinfo": {
        "display_name": "8, Bartų g., Burbiškės, Naujininkų seniūnija, Vilnius, Vilnius city municipality, Vilnius County, 02198, Lithuania",
        "road": "Bartų g.",
        "house_number": "8",
        "neighbourhood": null,
        "suburb": "Naujininkų seniūnija",
        "city_district": null,
        "city": "Vilnius",
        "state": "Vilnius County",
        "postcode": "02198",
        "country": "Lithuania",
        "country_code": "lt"
      },
      "address": "8, Bartų g., Burbiškės, Naujininkų seniūnija, Vilnius, Vilnius city municipality, Vilnius County, 02198, Lithuania"
    },
    {
      "lat": 54.70033528613144,
      "lon": 25.318415233450366,
      "geoinfo": {
        "display_name": "18, Petro Rimšos g., Antakalnis, Antakalnis Eldership, Vilnius, Vilnius city municipality, Vilnius County, 10313, Lithuania",
        "road": "Petro Rimšos g.",
        "house_number": "18",
        "neighbourhood": null,
        "suburb": "Antakalnis",
        "city_district": null,
        "city": "Vilnius",
        "state": "Vilnius County",
        "postcode": "10313",
        "country": "Lithuania",
        "country_code": "lt"
      },
      "address": "18, Petro Rimšos g., Antakalnis, Antakalnis Eldership, Vilnius, Vilnius city municipality, Vilnius County, 10313, Lithuania"
    },
    {
      "lat": 54.65220550459399,
      "lon": 25.29662316245951,
      "geoinfo": {
        "display_name": "Žirnių g., Naujininkų seniūnija, Vilnius, Vilnius city municipality, Vilnius County, 02120, Lithuania",
        "road": "Žirnių g.",
        "house_number": null,
        "neighbourhood": null,
        "suburb": "Naujininkų seniūnija",
        "city_district": null,
        "city": "Vilnius",
        "state": "Vilnius County",
        "postcode": "02120",
        "country": "Lithuania",
        "country_code": "lt"
      },
      "address": "776, Žirnių g., Naujininkų seniūnija, Vilnius, Vilnius city municipality, Vilnius County, 02120, Lithuania"
    }
  ],
  "updated_at": "2025-10-19T05:45:47.324895+00:00",
  "_kind": "geo_samples"
}