{
  "country_code": "LT",
  "country": "Lithuania",
  "city": "Šiauliai",
  "geonameid": 594739,
  "target_addresses": 3,
  "samples": [
    {
      "lat": 55.9559610874468,
      "lon": 23.29996845040755,
      "geoinfo": {
        "display_name": "9D, Klaipėdos g., Medelynas, Šiauliai, Šiaulių miesto savivaldybė, Šiauliai County, 76158, Lithuania",
        "road": "Klaipėdos g.",
        "house_number": "9D",
        "neighbourhood": null,
        "suburb": "Medelynas",
        "city_district": null,
        "city": "Šiauliai",
        "state": "Šiauliai County",
        "postcode": "76158",
        "country": "Lithuania",
        "country_code": "lt"
      },
      "address": "9D Klaipėdos g., Šiauliai, Šiauliai County, Lithuania"
    },
    {
      "lat": 55.942234370040055,
      "lon": 23.357784230055525,
      "geoinfo": {
        "display_name": "53, Rasos g., Švedės bendruomenė, Žuvininkai, Ginkūnų seniūnija, Šiaulių rajono savivaldybė, Šiauliai County, 76167, Lithuania",
        "road": "Rasos g.",
        "house_number": "53",
        "neighbourhood": "Švedės bendruomenė",
        "suburb": null,
        "city_district": null,
        "city": "Žuvininkai",
        "state": "Šiauliai County",
        "postcode": "76167",
        "country": "Lithuania",
        "country_code": "lt"
      },
      "address": "53 Rasos g., Šiauliai, Šiauliai County, Lithuania"
    },
    {
      "lat": 55.92043240821112,
      "lon": 23.370897265600313,
      "geoinfo": {
        "display_name": "Kairių g., Aleksandrija, Šiauliai rural eldership, Šiaulių rajono savivaldybė, Šiauliai County, 76267, Lithuania",
        "road": "Kairių g.",
        "house_number": null,
        "neighbourhood": null,
        "suburb": null,
        "city_district": null,
        "city": "Aleksandrija",
        "state": "Šiauliai County",
        "postcode": "76267",
        "country": "Lithuania",
        "country_code": "lt"
      },
      "address": "Kairių g., Šiauliai, Šiauliai County, Lithuania"
    },
    {
      "lat": 55.95999931510695,
      "lon": 23.36936353683542,
      "geoinfo": {
        "display_name": "Žiburių g., Ginkūnai, Ginkūnų seniūnija, Šiaulių rajono savivaldybė, Šiauliai County, 81488, Lithuania",
        "road": "Žiburių g.",
        "house_number": null,
        "neighbourhood": null,
        "suburb": null,
        "city_district": null,
        "city": "Ginkūnai",
        "state": "Šiauliai County",
        "postcode": "81488",
        "country": "Lithuania",
        "country_code": "lt"
      },
      "address": "771, Žiburių g., Ginkūnai, Ginkūnų seniūnija, Šiaulių rajono savivaldybė, Šiauliai County, 81488, Lithuania"
    },
    {
      "lat": 55.97163080846344,
      "lon": 23.281401093950866,
      "geoinfo": {
        "display_name": "Aplinkkelio g., Vinkšnėnai, Šiauliai rural eldership, Šiaulių rajono savivaldybė, Šiauliai County, 76122, Lithuania",
        "road": "Aplinkkelio g.",
        "house_number": null,
        "neighbourhood": null,
        "suburb": null,
        "city_district": null,
        "city": "Vinkšnėnai",
        "state": "Šiauliai County",
        "postcode": "76122",
        "country": "Lithuania",
        "country_code": "lt"
      },
      "address": "269, Aplinkkelio g., Šiauliai, 76122 Šiauliai County, Lithuania"
    },
    {
      "lat": 55.95552788338239,
      "lon": 23.354834597353324,
      "geoinfo": {
        "display_name": "Ginkūnų Sofijos ir Vladimiro Zubovų pagrindinė mokykla, 2, Aušros g., Švedės bendruomenė, Ginkūnai, Ginkūnų seniūnija, Šiaulių rajono savivaldybė, Šiauliai County, 81492, Lithuania",
        "road": "Aušros g.",
        "house_number": "2",
        "neighbourhood": "Švedės bendruomenė",
        "suburb": null,
        "city_district": null,
        "city": "Ginkūnai",
        "state": "Šiauliai County",
        "postcode": "81492",
        "country": "Lithuania",
        "country_code": "lt"
      },
      "address": "Ginkūnų Sofijos ir Vladimiro Zubovų pagrindinė mokykla, 2, Aušros g., Švedės bendruomenė, Ginkūnai, Ginkūnų seniūnija, Šiaulių rajono savivaldybė, Šiauliai County, 81492, Lithuania"
    }
  ],
  "updated_at": "2025-10-19T05:50:42.246087+00:00",
  "_kind": "geo_samples"
}