{
  "country_code": "NC",
  "country": "New Caledonia",
  "city": "Nouméa",
  "geonameid": 2139521,
  "target_addresses": 34,
  "samples": [
    {
      "lat": -22.244089073999078,
      "lon": 166.41640126286217,
      "geoinfo": {
        "display_name": "Endel GDF SUEZ (Maritime & Constructions Métalliques), 22, Rue des Frères Terrasson, Numbo, Secteur Presqu'île de Ducos, Noumea, South Province, New Caledonia, 98800, France",
        "road": "Rue des Frères Terrasson",
        "house_number": "22",
        "neighbourhood": null,
        "suburb": "Numbo",
        "city_district": "Secteur Presqu'île de Ducos",
        "city": "Noumea",
        "state": null,
        "postcode": "98800",
        "country": "France",
        "country_code": "fr"
      },
      "address": "22 Rue des Frères Terrasson, Nouméa, New Caledonia"
    },
    {
      "lat": -22.29147103495756,
      "lon": 166.41620960270288,
      "geoinfo": {
        "display_name": "South Province, New Caledonia, France",
        "road": null,
        "house_number": null,
        "neighbourhood": null,
        "suburb": null,
        "city_district": null,
        "city": null,
        "state": null,
        "postcode": null,
        "country": "France",
        "country_code": "fr"
      },
      "address": "Nouméa, New Caledonia"
    },
    {
      "lat": -22.25547734524419,
      "lon": 166.45537442153207,
      "geoinfo": {
        "display_name": "Sentier de la vierge Montravel, Montravel, Secteur Ouest, Noumea, South Province, New Caledonia, 98800, France",
        "road": "Sentier de la vierge Montravel",
        "house_number": null,
        "neighbourhood": null,
        "suburb": "Montravel",
        "city_district": "Secteur Ouest",
        "city": "Noumea",
        "state": null,
        "postcode": "98800",
        "country": "France",
        "country_code": "fr"
      },
      "address": "Sentier de la vierge Montravel, Nouméa, New Caledonia"
    },
    {
      "lat": -22.271168594121402,
      "lon": 166.449897037551,
      "geoinfo": {
        "display_name": "5, Rue Bataille, Les Massanes, Vallée des Colons, Secteur Sud, Noumea, South Province, New Caledonia, 98800, France",
        "road": "Rue Bataille",
        "house_number": "5",
        "neighbourhood": null,
        "suburb": "Vallée des Colons",
        "city_district": "Secteur Sud",
        "city": "Noumea",
        "state": null,
        "postcode": "98800",
        "country": "France",
        "country_code": "fr"
      },
      "address": "5 Rue Bataille, Nouméa, New Caledonia"
    },
    {
      "lat": -22.24751238131902,
      "lon": 166.461624287109,
      "geoinfo": {
        "display_name": "Cimetière du 4ème kilomètre, Chemin de mangrove, 4e Kilomètre, Secteur Est, Noumea, South Province, New Caledonia, 98800, France",
        "road": "Chemin de mangrove",
        "house_number": null,
        "neighbourhood": null,
        "suburb": "4e Kilomètre",
        "city_district": "Secteur Est",
        "city": "Noumea",
        "state": null,
        "postcode": "98800",
        "country": "France",
        "country_code": "fr"
      },
      "address": "Chemin de mangrove, Nouméa, New Caledonia"
    },
    {
      "lat": -22.270533516359084,
      "lon": 166.4389119749688,
      "geoinfo": {
        "display_name": "16, Rue du Général Gallieni, Quartier Asiatique, Centre-Ville, Secteur Ouest, Noumea, South Province, New Caledonia, 98800, France",
        "road": "Rue du Général Gallieni",
        "house_number": "16",
        "neighbourhood": "Quartier Asiatique",
        "suburb": "Centre-Ville",
        "city_district": "Secteur Ouest",
        "city": "Noumea",
        "state": null,
        "postcode": "98800",
        "country": "France",
        "country_code": "fr"
      },
      "address": "16 Rue du Général Gallieni, Nouméa, New Caledonia"
    },
    {
      "lat": -22.23335691173142,
      "lon": 166.45385395469248,
      "geoinfo": {
        "display_name": "Rue Georges Champion, Ducos Industriel, Secteur Presqu'île de Ducos, Noumea, South Province, New Caledonia, 98800, France",
        "road": "Rue Georges Champion",
        "house_number": null,
        "neighbourhood": null,
        "suburb": "Ducos Industriel",
        "city_district": "Secteur Presqu'île de Ducos",
        "city": "Noumea",
        "state": null,
        "postcode": "98800",
        "country": "France",
        "country_code": "fr"
      },
      "address": "Rue Georges Champion, Nouméa, New Caledonia"
    },
    {
      "lat": -22.264564799484273,
      "lon": 166.47795382560344,
      "geoinfo": {
        "display_name": "Rue Henri Martinet, Green Valley, Aérodrome, Secteur Est, Noumea, South Province, New Caledonia, 98800, France",
        "road": "Rue Henri Martinet",
        "house_number": null,
        "neighbourhood": null,
        "suburb": "Green Valley",
        "city_district": "Secteur Est",
        "city": "Noumea",
        "state": null,
        "postcode": "98800",
        "country": "France",
        "country_code": "fr"
      },
      "address": "Rue Henri Martinet, Nouméa, New Caledonia"
    },
    {
      "lat": -22.245899491978626,
      "lon": 166.4529453644966,
      "geoinfo": {
        "display_name": "Gie Transport En Commun Ducos, Accès Dépot de Bus, Dépot de Bus, Ducos Industriel, Secteur Presqu'île de Ducos, Noumea, South Province, New Caledonia, 98800, France",
        "road": "Accès Dépot de Bus",
        "house_number": null,
        "neighbourhood": null,
        "suburb": "Ducos Industriel",
        "city_district": "Secteur Presqu'île de Ducos",
        "city": "Noumea",
        "state": null,
        "postcode": "98800",
        "country": "France",
        "country_code": "fr"
      },
      "address": "Accès Dépot de Bus, Nouméa, New Caledonia"
    },
    {
      "lat": -22.298888313523936,
      "lon": 166.48414717338306,
      "geoinfo": {
        "display_name": "Rue des Alizés, Ouémo, Secteur Est, Noumea, South Province, New Caledonia, 98800, France",
        "road": "Rue des Alizés",
        "house_number": null,
        "neighbourhood": null,
        "suburb": "Ouémo",
        "city_district": "Secteur Est",
        "city": "Noumea",
        "state": null,
        "postcode": "98800",
        "country": "France",
        "country_code": "fr"
      },
      "address": "Rue des Alizés, Nouméa, New Caledonia"
    },
    {
      "lat": -22.25951716856182,
      "lon": 166.4645714159952,
      "geoinfo": {
        "display_name": "Collège des Portes de Fer, 224, Rue Armand Ohlen, Portes de Fer, Secteur Est, Noumea, South Province, New Caledonia, 98800, France",
        "road": "Rue Armand Ohlen",
        "house_number": "224",
        "neighbourhood": null,
        "suburb": "Portes de Fer",
        "city_district": "Secteur Est",
        "city": "Noumea",
        "state": null,
        "postcode": "98800",
        "country": "France",
        "country_code": "fr"
      },
      "address": "224 Rue Armand Ohlen, Nouméa, New Caledonia"
    },
    {
      "lat": -22.275987248882174,
      "lon": 166.48936833464882,
      "geoinfo": {
        "display_name": "Green Valley, Aérodrome, Secteur Est, Noumea, South Province, New Caledonia, 98800, France",
        "road": null,
        "house_number": null,
        "neighbourhood": null,
        "suburb": "Green Valley",
        "city_district": "Secteur Est",
        "city": "Noumea",
        "state": null,
        "postcode": "98800",
        "country": "France",
        "country_code": "fr"
      },
      "address": "Green Valley, Nouméa, New Caledonia"
    },
    {
      "lat": -22.271177073459828,
      "lon": 166.40551793928182,
      "geoinfo": {
        "display_name": "Rue Contre-Amiral Joseph du Bouzet, Nouville, Secteur Ouest, Noumea, South Province, New Caledonia, 98800, France",
        "road": "Rue Contre-Amiral Joseph du Bouzet",
        "house_number": null,
        "neighbourhood": null,
        "suburb": "Nouville",
        "city_district": "Secteur Ouest",
        "city": "Noumea",
        "state": null,
        "postcode": "98800",
        "country": "France",
        "country_code": "fr"
      },
      "address": "Rue Contre-Amiral Joseph du Bouzet, Nouméa, New Caledonia"
    },
    {
      "lat": -22.262627641512946,
      "lon": 166.43548330590957,
      "geoinfo": {
        "display_name": "Port Autonome de Nouméa, Rue Félix Russeil, Centre-Ville, Secteur Ouest, Noumea, South Province, New Caledonia, 98800, France",
        "road": "Rue Félix Russeil",
        "house_number": null,
        "neighbourhood": null,
        "suburb": "Centre-Ville",
        "city_district": "Secteur Ouest",
        "city": "Noumea",
        "state": null,
        "postcode": "98800",
        "country": "France",
        "country_code": "fr"
      },
      "address": "Rue Félix Russeil, Nouméa, New Caledonia"
    },
    {
      "lat": -22.25061738867403,
      "lon": 166.48907858283877,
      "geoinfo": {
        "display_name": "Golf de Tina, Rue Max Frouin, Green Valley, Aérodrome, Secteur Est, Noumea, South Province, New Caledonia, 98800, France",
        "road": "Rue Max Frouin",
        "house_number": null,
        "neighbourhood": null,
        "suburb": "Green Valley",
        "city_district": "Secteur Est",
        "city": "Noumea",
        "state": null,
        "postcode": "98800",
        "country": "France",
        "country_code": "fr"
      },
      "address": "Rue Max Frouin, Nouméa, New Caledonia"
    },
    {
      "lat": -22.26963479123608,
      "lon": 166.4594416826762,
      "geoinfo": {
        "display_name": "67, Rue du Maréchal Juin, Magenta, Secteur Est, Noumea, South Province, New Caledonia, 98800, France",
        "road": "Rue du Maréchal Juin",
        "house_number": "67",
        "neighbourhood": null,
        "suburb": "Magenta",
        "city_district": "Secteur Est",
        "city": "Noumea",
        "state": null,
        "postcode": "98800",
        "country": "France",
        "country_code": "fr"
      },
      "address": "67 Rue du Maréchal Juin, Nouméa, New Caledonia"
    },
    {
      "lat": -22.270840280801675,
      "lon": 166.41978730411392,
      "geoinfo": {
        "display_name": "Lycée Jules Garnier, Avenue James Cook, Nouville, Secteur Ouest, Noumea, South Province, New Caledonia, 98800, France",
        "road": "Avenue James Cook",
        "house_number": null,
        "neighbourhood": null,
        "suburb": "Nouville",
        "city_district": "Secteur Ouest",
        "city": "Noumea",
        "state": null,
        "postcode": "98800",
        "country": "France",
        "country_code": "fr"
      },
      "address": "Avenue James Cook, Nouméa, New Caledonia"
    },
    {
      "lat": -22.30952827537922,
      "lon": 166.4342114225257,
      "geoinfo": {
        "display_name": "Promenade Roger Laroque, Anse Vata, Secteur Sud, Noumea, South Province, New Caledonia, 98800, France",
        "road": "Promenade Roger Laroque",
        "house_number": null,
        "neighbourhood": null,
        "suburb": "Anse Vata",
        "city_district": "Secteur Sud",
        "city": "Noumea",
        "state": null,
        "postcode": "98800",
        "country": "France",
        "country_code": "fr"
      },
      "address": "Promenade Roger Laroque, Nouméa, New Caledonia"
    },
    {
      "lat": -22.29505768987742,
      "lon": 166.43049252029945,
      "geoinfo": {
        "display_name": "Baie des Citrons, Secteur Sud, Noumea, South Province, New Caledonia, 98800, France",
        "road": null,
        "house_number": null,
        "neighbourhood": null,
        "suburb": "Baie des Citrons",
        "city_district": "Secteur Sud",
        "city": "Noumea",
        "state": null,
        "postcode": "98800",
        "country": "France",
        "country_code": "fr"
      },
      "address": "Baie des Citrons, Nouméa, New Caledonia"
    },
    {
      "lat": -22.244124114221307,
      "lon": 166.42007495208372,
      "geoinfo": {
        "display_name": "Rue Raoul Follereau, Ducos, Secteur Presqu'île de Ducos, Noumea, South Province, New Caledonia, 98800, France",
        "road": "Rue Raoul Follereau",
        "house_number": null,
        "neighbourhood": null,
        "suburb": "Ducos",
        "city_district": "Secteur Presqu'île de Ducos",
        "city": "Noumea",
        "state": null,
        "postcode": "98800",
        "country": "France",
        "country_code": "fr"
      },
      "address": "Rue Raoul Follereau, Nouméa, New Caledonia"
    },
    {
      "lat": -22.256017773657533,
      "lon": 166.44716911077774,
      "geoinfo": {
        "display_name": "Arcopaint (magasin de peinture), Rue Alfred Edighoffer, Z.I. Doniambo, Doniambo, Secteur Ouest, Noumea, South Province, New Caledonia, 98800, France",
        "road": "Rue Alfred Edighoffer",
        "house_number": null,
        "neighbourhood": null,
        "suburb": "Doniambo",
        "city_district": "Secteur Ouest",
        "city": "Noumea",
        "state": null,
        "postcode": "98800",
        "country": "France",
        "country_code": "fr"
      },
      "address": "Rue Alfred Edighoffer, Nouméa, New Caledonia"
    },
    {
      "lat": -22.260752429512277,
      "lon": 166.4344566351046,
      "geoinfo": {
        "display_name": "SLN Route Sud, Doniambo, Secteur Ouest, Noumea, South Province, New Caledonia, 98800, France",
        "road": "SLN Route Sud",
        "house_number": null,
        "neighbourhood": null,
        "suburb": "Doniambo",
        "city_district": "Secteur Ouest",
        "city": "Noumea",
        "state": null,
        "postcode": "98800",
        "country": "France",
        "country_code": "fr"
      },
      "address": "SLN Route Sud, Nouméa, New Caledonia"
    },
    {
      "lat": -22.282998284163114,
      "lon": 166.4516737135758,
      "geoinfo": {
        "display_name": "10, Rue René-Louis Cuer, Faubourg-Blanchot, Secteur Sud, Noumea, South Province, New Caledonia, 98800, France",
        "road": "Rue René-Louis Cuer",
        "house_number": "10",
        "neighbourhood": null,
        "suburb": "Faubourg-Blanchot",
        "city_district": "Secteur Sud",
        "city": "Noumea",
        "state": null,
        "postcode": "98800",
        "country": "France",
        "country_code": "fr"
      },
      "address": "10 Rue René-Louis Cuer, Nouméa, New Caledonia"
    },
    {
      "lat": -22.25223134739829,
      "lon": 166.46567329196472,
      "geoinfo": {
        "display_name": "26, Rue du Rhin, Les Citrines, 4e Kilomètre, Secteur Est, Noumea, South Province, New Caledonia, 98800, France",
        "road": "Rue du Rhin",
        "house_number": "26",
        "neighbourhood": null,
        "suburb": "4e Kilomètre",
        "city_district": "Secteur Est",
        "city": "Noumea",
        "state": null,
        "postcode": "98800",
        "country": "France",
        "country_code": "fr"
      },
      "address": "26 Rue du Rhin, Nouméa, New Caledonia"
    },
    {
      "lat": -22.246322922894436,
      "lon": 166.457730192303,
      "geoinfo": {
        "display_name": "Route Provinciale du Normandie, Montravel, Secteur Ouest, Noumea, South Province, New Caledonia, 98800, France",
        "road": "Route Provinciale du Normandie",
        "house_number": null,
        "neighbourhood": null,
        "suburb": "Montravel",
        "city_district": "Secteur Ouest",
        "city": "Noumea",
        "state": null,
        "postcode": "98800",
        "country": "France",
        "country_code": "fr"
      },
      "address": "Route Provinciale du Normandie, Nouméa, New Caledonia"
    },
    {
      "lat": -22.261958200104022,
      "lon": 166.4699852055186,
      "geoinfo": {
        "display_name": "Leader Price Logistique, 83, Rue Roger Gervolino, Green Valley, Aérodrome, Secteur Est, Noumea, South Province, New Caledonia, 98800, France",
        "road": "Rue Roger Gervolino",
        "house_number": "83",
        "neighbourhood": null,
        "suburb": "Green Valley",
        "city_district": "Secteur Est",
        "city": "Noumea",
        "state": null,
        "postcode": "98800",
        "country": "France",
        "country_code": "fr"
      },
      "address": "83 Rue Roger Gervolino, Nouméa, New Caledonia"
    },
    {
      "lat": -22.259400411842048,
      "lon": 166.4415286611429,
      "geoinfo": {
        "display_name": "Piste de Roulage Port Autonome - SLN, Doniambo, Secteur Ouest, Noumea, South Province, New Caledonia, 98800, France",
        "road": "Piste de Roulage Port Autonome - SLN",
        "house_number": null,
        "neighbourhood": null,
        "suburb": "Doniambo",
        "city_district": "Secteur Ouest",
        "city": "Noumea",
        "state": null,
        "postcode": "98800",
        "country": "France",
        "country_code": "fr"
      },
      "address": "Piste de Roulage Port Autonome - SLN, Nouméa, New Caledonia"
    },
    {
      "lat": -22.242336174767686,
      "lon": 166.43639996200633,
      "geoinfo": {
        "display_name": "Rue de Papeete, Ducos, Secteur Presqu'île de Ducos, Noumea, South Province, New Caledonia, 98800, France",
        "road": "Rue de Papeete",
        "house_number": null,
        "neighbourhood": null,
        "suburb": "Ducos",
        "city_district": "Secteur Presqu'île de Ducos",
        "city": "Noumea",
        "state": null,
        "postcode": "98800",
        "country": "France",
        "country_code": "fr"
      },
      "address": "Rue de Papeete, Nouméa, New Caledonia"
    },
    {
      "lat": -22.28197485283163,
      "lon": 166.43065909738326,
      "geoinfo": {
        "display_name": "Route du Bain Militaire, Artillerie, Secteur Ouest, Noumea, South Province, New Caledonia, 98800, France",
        "road": "Route du Bain Militaire",
        "house_number": null,
        "neighbourhood": null,
        "suburb": "Artillerie",
        "city_district": "Secteur Ouest",
        "city": "Noumea",
        "state": null,
        "postcode": "98800",
        "country": "France",
        "country_code": "fr"
      },
      "address": "Route du Bain Militaire, Nouméa, New Caledonia"
    },
    {
      "lat": -22.281838146583254,
      "lon": 166.42930176306746,
      "geoinfo": {
        "display_name": "Rue du Capitaine Bois, Nouville, Secteur Ouest, Noumea, South Province, New Caledonia, 98800, France",
        "road": "Rue du Capitaine Bois",
        "house_number": null,
        "neighbourhood": null,
        "suburb": "Nouville",
        "city_district": "Secteur Ouest",
        "city": "Noumea",
        "state": null,
        "postcode": "98800",
        "country": "France",
        "country_code": "fr"
      },
      "address": "Rue du Capitaine Bois, Nouméa, New Caledonia"
    },
    {
      "lat": -22.23113668459927,
      "lon": 166.4532256187282,
      "geoinfo": {
        "display_name": "Rue Ampère, Ducos Industriel, Secteur Presqu'île de Ducos, Noumea, South Province, New Caledonia, 98800, France",
        "road": "Rue Ampère",
        "house_number": null,
        "neighbourhood": null,
        "suburb": "Ducos Industriel",
        "city_district": "Secteur Presqu'île de Ducos",
        "city": "Noumea",
        "state": null,
        "postcode": "98800",
        "country": "France",
        "country_code": "fr"
      },
      "address": "Rue Ampère, Nouméa, New Caledonia"
    },
    {
      "lat": -22.28779925592954,
      "lon": 166.473680139483,
      "geoinfo": {
        "display_name": "Rue Leprédour, Ouémo, Secteur Est, Noumea, South Province, New Caledonia, 98800, France",
        "road": "Rue Leprédour",
        "house_number": null,
        "neighbourhood": null,
        "suburb": "Ouémo",
        "city_district": "Secteur Est",
        "city": "Noumea",
        "state": null,
        "postcode": "98800",
        "country": "France",
        "country_code": "fr"
      },
      "address": "Rue Leprédour, Nouméa, New Caledonia"
    },
    {
      "lat": -22.270170050617605,
      "lon": 166.44679398651175,
      "geoinfo": {
        "display_name": "5, Rue Fernande Leriche, Vallée du Génie, Secteur Ouest, Noumea, South Province, New Caledonia, 98800, France",
        "road": "Rue Fernande Leriche",
        "house_number": "5",
        "neighbourhood": null,
        "suburb": "Vallée du Génie",
        "city_district": "Secteur Ouest",
        "city": "Noumea",
        "state": null,
        "postcode": "98800",
        "country": "France",
        "country_code": "fr"
      },
      "address": "5 Rue Fernande Leriche, Nouméa, New Caledonia"
    },
    {
      "lat": -22.29331450086709,
      "lon": 166.4479971512002,
      "geoinfo": {
        "display_name": "4ter, Rue Henri Defferrière, Motor Pool, Secteur Sud, Noumea, South Province, New Caledonia, 98800, France",
        "road": "Rue Henri Defferrière",
        "house_number": "4ter",
        "neighbourhood": null,
        "suburb": "Motor Pool",
        "city_district": "Secteur Sud",
        "city": "Noumea",
        "state": null,
        "postcode": "98800",
        "country": "France",
        "country_code": "fr"
      },
      "address": "4ter Rue Henri Defferrière, Nouméa, New Caledonia"
    }
  ],
  "updated_at": "2025-10-16T20:17:41.391230+00:00",
  "_kind": "geo_samples"
}