{
  "country_code": "NO",
  "country": "Norway",
  "city": "Hamar",
  "geonameid": 3154084,
  "target_addresses": 3,
  "samples": [
    {
      "lat": 60.770169701806665,
      "lon": 10.992516097312665,
      "geoinfo": {
        "display_name": "Avlangrud, Ringsaker, Innlandet, Norway",
        "road": null,
        "house_number": null,
        "neighbourhood": null,
        "suburb": null,
        "city_district": null,
        "city": null,
        "state": null,
        "postcode": null,
        "country": "Norway",
        "country_code": "no"
      },
      "address": "Hamar, Norway"
    },
    {
      "lat": 60.816557105359855,
      "lon": 11.03910078890905,
      "geoinfo": {
        "display_name": "48, Nordkronen, Hol, Hamar, Innlandet, 2315, Norway",
        "road": "Nordkronen",
        "house_number": "48",
        "neighbourhood": null,
        "suburb": "Hol",
        "city_district": null,
        "city": "Hamar",
        "state": null,
        "postcode": "2315",
        "country": "Norway",
        "country_code": "no"
      },
      "address": "48 Nordkronen, Hamar, Norway"
    },
    {
      "lat": 60.82404872676004,
      "lon": 11.117140676440723,
      "geoinfo": {
        "display_name": "49, Imerslundvegen, Ingeberg, Hamar, Innlandet, 2323, Norway",
        "road": "Imerslundvegen",
        "house_number": "49",
        "neighbourhood": null,
        "suburb": null,
        "city_district": null,
        "city": "Ingeberg",
        "state": null,
        "postcode": "2323",
        "country": "Norway",
        "country_code": "no"
      },
      "address": "49 Imerslundvegen, Hamar, Norway"
    },
    {
      "lat": 60.79743721045814,
      "lon": 11.050193938349032,
      "geoinfo": {
        "display_name": "Aslak Bolts gate, Stormyra, Storhamar, Hamar, Innlandet, 2315, Norway",
        "road": "Aslak Bolts gate",
        "house_number": null,
        "neighbourhood": "Stormyra",
        "suburb": "Storhamar",
        "city_district": null,
        "city": "Hamar",
        "state": null,
        "postcode": "2315",
        "country": "Norway",
        "country_code": "no"
      },
      "address": "213, Aslak Bolts gate, Stormyra, Storhamar, Hamar, Innlandet, 2315, Norway"
    },
    {
      "lat": 60.78757586523892,
      "lon": 11.083463754835902,
      "geoinfo": {
        "display_name": "Espern, Østbyen, Hamar, Innlandet, 2317, Norway",
        "road": null,
        "house_number": null,
        "neighbourhood": "Espern",
        "suburb": "Østbyen",
        "city_district": null,
        "city": "Hamar",
        "state": null,
        "postcode": "2317",
        "country": "Norway",
        "country_code": "no"
      },
      "address": "406, Espern, Østbyen, Hamar, Innlandet, 2317, Norway"
    },
    {
      "lat": 60.78883126462355,
      "lon": 11.090119604564642,
      "geoinfo": {
        "display_name": "111G, Stangevegen, Espern, Briskebyen, Hamar, Innlandet, 2321, Norway",
        "road": "Stangevegen",
        "house_number": "111G",
        "neighbourhood": "Espern",
        "suburb": "Briskebyen",
        "city_district": null,
        "city": "Hamar",
        "state": null,
        "postcode": "2321",
        "country": "Norway",
        "country_code": "no"
      },
      "address": "111G, Stangevegen, Espern, Briskebyen, Hamar, Innlandet, 2321, Norway"
    }
  ],
  "updated_at": "2025-10-19T04:51:54.784935+00:00",
  "_kind": "geo_samples"
}