{
  "country_code": "NO",
  "country": "Norway",
  "city": "Larvik",
  "geonameid": 3148129,
  "target_addresses": 3,
  "samples": [
    {
      "lat": 59.04525096975164,
      "lon": 10.014211480002409,
      "geoinfo": {
        "display_name": "Fritzøe Villa, Stavernsveien, Tenvik, Fritzøe villa, Larvik, Vestfold, 3264, Norway",
        "road": "Stavernsveien",
        "house_number": null,
        "neighbourhood": null,
        "suburb": null,
        "city_district": null,
        "city": "Larvik",
        "state": null,
        "postcode": "3264",
        "country": "Norway",
        "country_code": "no"
      },
      "address": "Stavernsveien, Larvik, Norway"
    },
    {
      "lat": 59.090829620996224,
      "lon": 9.993018184403313,
      "geoinfo": {
        "display_name": "Skautvet, Larvik, Vestfold, 3268, Norway",
        "road": null,
        "house_number": null,
        "neighbourhood": null,
        "suburb": null,
        "city_district": null,
        "city": null,
        "state": null,
        "postcode": "3268",
        "country": "Norway",
        "country_code": "no"
      },
      "address": "Larvik, Norway"
    },
    {
      "lat": 59.02993758027475,
      "lon": 9.979013994468318,
      "geoinfo": {
        "display_name": "Ullebergveien, Ulleberg, Larvik, Vestfold, 3267, Norway",
        "road": "Ullebergveien",
        "house_number": null,
        "neighbourhood": null,
        "suburb": null,
        "city_district": null,
        "city": "Larvik",
        "state": null,
        "postcode": "3267",
        "country": "Norway",
        "country_code": "no"
      },
      "address": "Ullebergveien, Larvik, Norway"
    },
    {
      "lat": 59.018481085495786,
      "lon": 10.042452559578779,
      "geoinfo": {
        "display_name": "Lillevikodden, Agnes, Stavern, Larvik, Vestfold, 3292, Norway",
        "road": null,
        "house_number": null,
        "neighbourhood": "Agnes",
        "suburb": null,
        "city_district": null,
        "city": "Stavern",
        "state": null,
        "postcode": "3292",
        "country": "Norway",
        "country_code": "no"
      },
      "address": "558, Lillevikodden, Agnes, Stavern, Larvik, Vestfold, 3292, Norway"
    },
    {
      "lat": 59.07286719371855,
      "lon": 10.018689782126495,
      "geoinfo": {
        "display_name": "151, Gopledalsveien, Gopledal, Larvik, Vestfold, 3269, Norway",
        "road": "Gopledalsveien",
        "house_number": "151",
        "neighbourhood": null,
        "suburb": null,
        "city_district": null,
        "city": "Larvik",
        "state": null,
        "postcode": "3269",
        "country": "Norway",
        "country_code": "no"
      },
      "address": "151, Gopledalsveien, Gopledal, Larvik, Vestfold, 3269, Norway"
    },
    {
      "lat": 59.05579591937947,
      "lon": 10.121922137269554,
      "geoinfo": {
        "display_name": "Kirkefjerdingen, Huseby, Tjøllingvollen, Larvik, Vestfold, 3261, Norway",
        "road": "Kirkefjerdingen",
        "house_number": null,
        "neighbourhood": null,
        "suburb": null,
        "city_district": null,
        "city": "Tjøllingvollen",
        "state": null,
        "postcode": "3261",
        "country": "Norway",
        "country_code": "no"
      },
      "address": "786, Kirkefjerdingen, Huseby, Tjøllingvollen, Larvik, Vestfold, 3261, Norway"
    }
  ],
  "updated_at": "2025-10-19T06:25:20.170173+00:00",
  "_kind": "geo_samples"
}