{
  "country_code": "NO",
  "country": "Norway",
  "city": "Lillehammer",
  "geonameid": 3147474,
  "target_addresses": 3,
  "samples": [
    {
      "lat": 61.081415808575876,
      "lon": 10.441012397116266,
      "geoinfo": {
        "display_name": "Nordre Hov, Lillehammer, Innlandet, 2608, Norway",
        "road": null,
        "house_number": null,
        "neighbourhood": null,
        "suburb": null,
        "city_district": null,
        "city": null,
        "state": null,
        "postcode": "2608",
        "country": "Norway",
        "country_code": "no"
      },
      "address": "Lillehammer, Norway"
    },
    {
      "lat": 61.11447467360594,
      "lon": 10.413595374842151,
      "geoinfo": {
        "display_name": "Kastrudvegen, Søre Trosset, Lillehammer, Innlandet, 2608, Norway",
        "road": "Kastrudvegen",
        "house_number": null,
        "neighbourhood": null,
        "suburb": null,
        "city_district": null,
        "city": "Lillehammer",
        "state": null,
        "postcode": "2608",
        "country": "Norway",
        "country_code": "no"
      },
      "address": "Kastrudvegen, Lillehammer, Norway"
    },
    {
      "lat": 61.09420015854701,
      "lon": 10.540359206337298,
      "geoinfo": {
        "display_name": "Messenlivegen, Vårsætergrenda, Engeset, Lillehammer, Innlandet, 2611, Norway",
        "road": "Messenlivegen",
        "house_number": null,
        "neighbourhood": null,
        "suburb": null,
        "city_district": null,
        "city": null,
        "state": null,
        "postcode": "2611",
        "country": "Norway",
        "country_code": "no"
      },
      "address": "Messenlivegen, Lillehammer, Norway"
    },
    {
      "lat": 61.09283484965689,
      "lon": 10.508871241199731,
      "geoinfo": {
        "display_name": "48, Gamle Røislivegen, Røyslimoen, Røyslia, Lillehammer, Innlandet, 2611, Norway",
        "road": "Gamle Røislivegen",
        "house_number": "48",
        "neighbourhood": "Røyslimoen",
        "suburb": null,
        "city_district": null,
        "city": "Lillehammer",
        "state": null,
        "postcode": "2611",
        "country": "Norway",
        "country_code": "no"
      },
      "address": "48, Gamle Røislivegen, Røyslimoen, Røyslia, Lillehammer, Innlandet, 2611, Norway"
    },
    {
      "lat": 61.08014557421604,
      "lon": 10.507902399173307,
      "geoinfo": {
        "display_name": "Roverudmyra gjenvinningsstasjon, Åsmarkvegen, Gjørlienga, Lillehammer, Innlandet, 2611, Norway",
        "road": "Åsmarkvegen",
        "house_number": null,
        "neighbourhood": null,
        "suburb": null,
        "city_district": null,
        "city": null,
        "state": null,
        "postcode": "2611",
        "country": "Norway",
        "country_code": "no"
      },
      "address": "516, Åsmarkvegen, 2611 Lillehammer, Norway"
    },
    {
      "lat": 61.116369803697054,
      "lon": 10.50215046963419,
      "geoinfo": {
        "display_name": "Mesnaelva1, Nybu, Svarga, Lillehammer, Innlandet, 2611, Norway",
        "road": "Mesnaelva1",
        "house_number": null,
        "neighbourhood": "Nybu",
        "suburb": null,
        "city_district": null,
        "city": "Lillehammer",
        "state": null,
        "postcode": "2611",
        "country": "Norway",
        "country_code": "no"
      },
      "address": "Mesnaelva1, Nybu, Svarga, Lillehammer, Innlandet, 2611, Norway"
    }
  ],
  "updated_at": "2025-10-19T04:51:40.545454+00:00",
  "_kind": "geo_samples"
}