{
  "country_code": "NO",
  "country": "Norway",
  "city": "Oslo",
  "geonameid": 3143244,
  "target_addresses": 3,
  "samples": [
    {
      "lat": 59.89913246698394,
      "lon": 10.80915540195263,
      "geoinfo": {
        "display_name": "17, Plogveien, Nordre Manglerud, Østensjø, Oslo, 0679, Norway",
        "road": "Plogveien",
        "house_number": "17",
        "neighbourhood": "Nordre Manglerud",
        "suburb": "Østensjø",
        "city_district": null,
        "city": "Oslo",
        "state": null,
        "postcode": "0679",
        "country": "Norway",
        "country_code": "no"
      },
      "address": "17 Plogveien, Oslo, Norway"
    },
    {
      "lat": 59.93571627977027,
      "lon": 10.778760135137054,
      "geoinfo": {
        "display_name": "Trondheimsveien, Åsen, Sagene, Oslo, 0574, Norway",
        "road": "Trondheimsveien",
        "house_number": null,
        "neighbourhood": "Åsen",
        "suburb": "Sagene",
        "city_district": null,
        "city": "Oslo",
        "state": null,
        "postcode": "0574",
        "country": "Norway",
        "country_code": "no"
      },
      "address": "Trondheimsveien, Oslo, Norway"
    },
    {
      "lat": 59.94521918561818,
      "lon": 10.703481110192154,
      "geoinfo": {
        "display_name": "1, Risalléen, Ris, Vestre Aker, Oslo, 0374, Norway",
        "road": "Risalléen",
        "house_number": "1",
        "neighbourhood": null,
        "suburb": "Ris",
        "city_district": null,
        "city": "Oslo",
        "state": null,
        "postcode": "0374",
        "country": "Norway",
        "country_code": "no"
      },
      "address": "1 Risalléen, Oslo, Norway"
    },
    {
      "lat": 59.89951908762689,
      "lon": 10.770517544775165,
      "geoinfo": {
        "display_name": "Ekeberg Camping, Operatunnelen / Ekebergtunnelen, Ekeberg, Nordstrand, Oslo, 0192, Norway",
        "road": "Operatunnelen / Ekebergtunnelen",
        "house_number": null,
        "neighbourhood": null,
        "suburb": "Ekeberg",
        "city_district": null,
        "city": "Oslo",
        "state": null,
        "postcode": "0192",
        "country": "Norway",
        "country_code": "no"
      },
      "address": "042, Operatunnelen / Ekebergtunnelen, 0192 Oslo, Norway"
    },
    {
      "lat": 59.91271080016845,
      "lon": 10.783862977171623,
      "geoinfo": {
        "display_name": "Kampen skole, Elverumgata, Jordal, Gamle Oslo, Oslo, 0655, Norway",
        "road": "Elverumgata",
        "house_number": null,
        "neighbourhood": null,
        "suburb": "Jordal",
        "city_district": null,
        "city": "Oslo",
        "state": null,
        "postcode": "0655",
        "country": "Norway",
        "country_code": "no"
      },
      "address": "923, Elverumgata, 0655 Oslo, Norway"
    },
    {
      "lat": 59.93571987123715,
      "lon": 10.74258786744255,
      "geoinfo": {
        "display_name": "Ullevål sykehus, Kirkeveien, Lindern, St. Hanshaugen, Oslo, 0455, Norway",
        "road": "Kirkeveien",
        "house_number": null,
        "neighbourhood": "Lindern",
        "suburb": "St. Hanshaugen",
        "city_district": null,
        "city": "Oslo",
        "state": null,
        "postcode": "0455",
        "country": "Norway",
        "country_code": "no"
      },
      "address": "666, Kirkeveien, 0455 Oslo, Norway"
    }
  ],
  "updated_at": "2025-10-19T04:51:11.130783+00:00",
  "_kind": "geo_samples"
}