{
  "country_code": "NO",
  "country": "Norway",
  "city": "Sandefjord",
  "geonameid": 3140390,
  "target_addresses": 15,
  "samples": [
    {
      "lat": 59.165395418780136,
      "lon": 10.168509598876456,
      "geoinfo": {
        "display_name": "Semsbakken, Sem, nordre, Sandefjord, Vestfold, 3220, Norway",
        "road": "Semsbakken",
        "house_number": null,
        "neighbourhood": null,
        "suburb": null,
        "city_district": null,
        "city": "Sandefjord",
        "state": null,
        "postcode": "3220",
        "country": "Norway",
        "country_code": "no"
      },
      "address": "Semsbakken, Sandefjord, Norway"
    },
    {
      "lat": 59.17277082848289,
      "lon": 10.219216731156317,
      "geoinfo": {
        "display_name": "23C, Hunsrødveien, Fokserød, Hunsrød, Sandefjord, Vestfold, 3241, Norway",
        "road": "Hunsrødveien",
        "house_number": "23C",
        "neighbourhood": null,
        "suburb": null,
        "city_district": null,
        "city": "Sandefjord",
        "state": null,
        "postcode": "3241",
        "country": "Norway",
        "country_code": "no"
      },
      "address": "23C Hunsrødveien, Sandefjord, Norway"
    },
    {
      "lat": 59.0987578346126,
      "lon": 10.245767205651289,
      "geoinfo": {
        "display_name": "5, Tangenodden, Sandefjord, Vestfold, 3234, Norway",
        "road": "Tangenodden",
        "house_number": "5",
        "neighbourhood": null,
        "suburb": null,
        "city_district": null,
        "city": "Sandefjord",
        "state": null,
        "postcode": "3234",
        "country": "Norway",
        "country_code": "no"
      },
      "address": "5 Tangenodden, Sandefjord, Norway"
    },
    {
      "lat": 59.12052463987228,
      "lon": 10.191028409056115,
      "geoinfo": {
        "display_name": "Skiringssalveien, Stuen, Sandefjord, Vestfold, 3224, Norway",
        "road": "Skiringssalveien",
        "house_number": null,
        "neighbourhood": null,
        "suburb": null,
        "city_district": null,
        "city": "Sandefjord",
        "state": null,
        "postcode": "3224",
        "country": "Norway",
        "country_code": "no"
      },
      "address": "Skiringssalveien, Stuen, Sandefjord, Vestfold, 3224, Norway"
    },
    {
      "lat": 59.134986407023746,
      "lon": 10.29919897306484,
      "geoinfo": {
        "display_name": "55B, Østre Nesveien, Solløkka, York, Sandefjord, Vestfold, 3233, Norway",
        "road": "Østre Nesveien",
        "house_number": "55B",
        "neighbourhood": null,
        "suburb": null,
        "city_district": null,
        "city": "Sandefjord",
        "state": null,
        "postcode": "3233",
        "country": "Norway",
        "country_code": "no"
      },
      "address": "55B, Østre Nesveien, Solløkka, York, Sandefjord, Vestfold, 3233, Norway"
    },
    {
      "lat": 59.146937806552735,
      "lon": 10.23743049061656,
      "geoinfo": {
        "display_name": "14, Brentåsveien, Hasle, Sandefjord, Vestfold, 3229, Norway",
        "road": "Brentåsveien",
        "house_number": "14",
        "neighbourhood": null,
        "suburb": null,
        "city_district": null,
        "city": "Sandefjord",
        "state": null,
        "postcode": "3229",
        "country": "Norway",
        "country_code": "no"
      },
      "address": "14, Brentåsveien, Hasle, Sandefjord, Vestfold, 3229, Norway"
    },
    {
      "lat": 59.13807098968213,
      "lon": 10.131402302514713,
      "geoinfo": {
        "display_name": "80C, Solbergveien, Solberg, Sandefjord, Vestfold, 3232, Norway",
        "road": "Solbergveien",
        "house_number": "80C",
        "neighbourhood": null,
        "suburb": null,
        "city_district": null,
        "city": "Sandefjord",
        "state": null,
        "postcode": "3232",
        "country": "Norway",
        "country_code": "no"
      },
      "address": "80C, Solbergveien, Solberg, Sandefjord, Vestfold, 3232, Norway"
    },
    {
      "lat": 59.0903109872315,
      "lon": 10.184411619769177,
      "geoinfo": {
        "display_name": "73, Jåberggrenda, Jåberg, Tjøllingvollen, Sandefjord, Vestfold, 3280, Norway",
        "road": "Jåberggrenda",
        "house_number": "73",
        "neighbourhood": null,
        "suburb": null,
        "city_district": null,
        "city": "Tjøllingvollen",
        "state": null,
        "postcode": "3280",
        "country": "Norway",
        "country_code": "no"
      },
      "address": "73, Jåberggrenda, Jåberg, Tjøllingvollen, Sandefjord, Vestfold, 3280, Norway"
    },
    {
      "lat": 59.11136043872412,
      "lon": 10.189504836775573,
      "geoinfo": {
        "display_name": "61, Brønnumveien, Marum, nordre, Sandefjord, Vestfold, 3213, Norway",
        "road": "Brønnumveien",
        "house_number": "61",
        "neighbourhood": null,
        "suburb": null,
        "city_district": null,
        "city": "Sandefjord",
        "state": null,
        "postcode": "3213",
        "country": "Norway",
        "country_code": "no"
      },
      "address": "61, Brønnumveien, Marum, nordre, Sandefjord, Vestfold, 3213, Norway"
    },
    {
      "lat": 59.12502138528802,
      "lon": 10.28401880414095,
      "geoinfo": {
        "display_name": "Hagaløkka, Sunde, nordre, Sandefjord, Vestfold, 3236, Norway",
        "road": "Hagaløkka",
        "house_number": null,
        "neighbourhood": "Hagaløkka",
        "suburb": null,
        "city_district": null,
        "city": "Sandefjord",
        "state": null,
        "postcode": "3236",
        "country": "Norway",
        "country_code": "no"
      },
      "address": "878, Hagaløkka, Sunde, nordre, Sandefjord, Vestfold, 3236, Norway"
    },
    {
      "lat": 59.1026480668152,
      "lon": 10.208764025169547,
      "geoinfo": {
        "display_name": "59, Store Berganveien, Lofterød, Hystad østre, Sandefjord, Vestfold, 3230, Norway",
        "road": "Store Berganveien",
        "house_number": "59",
        "neighbourhood": null,
        "suburb": null,
        "city_district": null,
        "city": "Sandefjord",
        "state": null,
        "postcode": "3230",
        "country": "Norway",
        "country_code": "no"
      },
      "address": "59, Store Berganveien, Lofterød, Hystad østre, Sandefjord, Vestfold, 3230, Norway"
    },
    {
      "lat": 59.141250408600335,
      "lon": 10.299972565663,
      "geoinfo": {
        "display_name": "16, Neskilen, Solløkka, Østre Nes, Sandefjord, Vestfold, 3233, Norway",
        "road": "Neskilen",
        "house_number": "16",
        "neighbourhood": null,
        "suburb": null,
        "city_district": null,
        "city": "Sandefjord",
        "state": null,
        "postcode": "3233",
        "country": "Norway",
        "country_code": "no"
      },
      "address": "16, Neskilen, Solløkka, Østre Nes, Sandefjord, Vestfold, 3233, Norway"
    },
    {
      "lat": 59.17430868628063,
      "lon": 10.197125886696027,
      "geoinfo": {
        "display_name": "Hotvedtskogen, Fokserød, Hotvedt, Sandefjord, Vestfold, 3241, Norway",
        "road": "Hotvedtskogen",
        "house_number": null,
        "neighbourhood": null,
        "suburb": null,
        "city_district": null,
        "city": "Sandefjord",
        "state": null,
        "postcode": "3241",
        "country": "Norway",
        "country_code": "no"
      },
      "address": "111, Hotvedtskogen, Fokserød, Hotvedt, Sandefjord, Vestfold, 3241, Norway"
    },
    {
      "lat": 59.15754224963995,
      "lon": 10.245170192438417,
      "geoinfo": {
        "display_name": "65, Unnebergveien, Unneberg, Sandefjord, Vestfold, 3239, Norway",
        "road": "Unnebergveien",
        "house_number": "65",
        "neighbourhood": null,
        "suburb": null,
        "city_district": null,
        "city": "Sandefjord",
        "state": null,
        "postcode": "3239",
        "country": "Norway",
        "country_code": "no"
      },
      "address": "65, Unnebergveien, Unneberg, Sandefjord, Vestfold, 3239, Norway"
    },
    {
      "lat": 59.16281820333877,
      "lon": 10.160599089012408,
      "geoinfo": {
        "display_name": "Klavenesveien, Sem, søndre, Sandefjord, Vestfold, 3220, Norway",
        "road": "Klavenesveien",
        "house_number": null,
        "neighbourhood": null,
        "suburb": null,
        "city_district": null,
        "city": "Sandefjord",
        "state": null,
        "postcode": "3220",
        "country": "Norway",
        "country_code": "no"
      },
      "address": "509, Klavenesveien, Sem, søndre, Sandefjord, Vestfold, 3220, Norway"
    }
  ],
  "updated_at": "2025-10-19T06:00:29.721462+00:00",
  "_kind": "geo_samples"
}