{
  "country_code": "NO",
  "country": "Norway",
  "city": "Skien",
  "geonameid": 3139075,
  "target_addresses": 3,
  "samples": [
    {
      "lat": 59.20044939732379,
      "lon": 9.553258265357677,
      "geoinfo": {
        "display_name": "Åfosstien, Einaren, Nedre Åfoss, Åfoss, Skien, Telemark, 3731, Norway",
        "road": "Åfosstien",
        "house_number": null,
        "neighbourhood": null,
        "suburb": null,
        "city_district": null,
        "city": "Åfoss",
        "state": null,
        "postcode": "3731",
        "country": "Norway",
        "country_code": "no"
      },
      "address": "Åfosstien, Skien, Norway"
    },
    {
      "lat": 59.19216718703066,
      "lon": 9.616837238422788,
      "geoinfo": {
        "display_name": "1, Halvardus Kristensens gate, Gråten, Gimsøy, Skien, Telemark, 3732, Norway",
        "road": "Halvardus Kristensens gate",
        "house_number": "1",
        "neighbourhood": null,
        "suburb": "Gimsøy",
        "city_district": null,
        "city": "Skien",
        "state": null,
        "postcode": "3732",
        "country": "Norway",
        "country_code": "no"
      },
      "address": "1 Halvardus Kristensens gate, Skien, Norway"
    },
    {
      "lat": 59.21688291388528,
      "lon": 9.616951038862844,
      "geoinfo": {
        "display_name": "15, Fredrik Rodes veg, Frogner, Søndre Frogner, Skien, Telemark, 3715, Norway",
        "road": "Fredrik Rodes veg",
        "house_number": "15",
        "neighbourhood": null,
        "suburb": null,
        "city_district": null,
        "city": "Skien",
        "state": null,
        "postcode": "3715",
        "country": "Norway",
        "country_code": "no"
      },
      "address": "15 Fredrik Rodes veg, Skien, Norway"
    },
    {
      "lat": 59.173601759791566,
      "lon": 9.596056191806841,
      "geoinfo": {
        "display_name": "Rødmyrvegen, Rødmyr, Rødmyrberget, Skien, Telemark, 3734, Norway",
        "road": "Rødmyrvegen",
        "house_number": null,
        "neighbourhood": null,
        "suburb": null,
        "city_district": null,
        "city": "Skien",
        "state": null,
        "postcode": "3734",
        "country": "Norway",
        "country_code": "no"
      },
      "address": "154, Rødmyrvegen, Rødmyr, Rødmyrberget, Skien, Telemark, 3734, Norway"
    },
    {
      "lat": 59.24227471644017,
      "lon": 9.651726305785086,
      "geoinfo": {
        "display_name": "399, Siljanvegen, Hobekk, Skien, Telemark, 3719, Norway",
        "road": "Siljanvegen",
        "house_number": "399",
        "neighbourhood": null,
        "suburb": null,
        "city_district": null,
        "city": "Skien",
        "state": null,
        "postcode": "3719",
        "country": "Norway",
        "country_code": "no"
      },
      "address": "399, Siljanvegen, Hobekk, Skien, Telemark, 3719, Norway"
    },
    {
      "lat": 59.16918726778944,
      "lon": 9.621029548747432,
      "geoinfo": {
        "display_name": "50, Lyngbakkvegen, Nenset, Nordre Bjørntvedt, Skien, Telemark, 3736, Norway",
        "road": "Lyngbakkvegen",
        "house_number": "50",
        "neighbourhood": null,
        "suburb": null,
        "city_district": null,
        "city": "Skien",
        "state": null,
        "postcode": "3736",
        "country": "Norway",
        "country_code": "no"
      },
      "address": "50, Lyngbakkvegen, Nenset, Nordre Bjørntvedt, Skien, Telemark, 3736, Norway"
    }
  ],
  "updated_at": "2025-10-19T06:22:48.921307+00:00",
  "_kind": "geo_samples"
}