{
  "country_code": "NO",
  "country": "Norway",
  "city": "Stavanger",
  "geonameid": 3137115,
  "target_addresses": 3,
  "samples": [
    {
      "lat": 58.97218837970573,
      "lon": 5.73195446530044,
      "geoinfo": {
        "display_name": "Sting, Valberget, Holmen, Storhaug, Stavanger, Rogaland, 4006, Norway",
        "road": "Valberget",
        "house_number": null,
        "neighbourhood": null,
        "suburb": "Storhaug",
        "city_district": null,
        "city": "Stavanger",
        "state": null,
        "postcode": "4006",
        "country": "Norway",
        "country_code": "no"
      },
      "address": "Valberget, Stavanger, Norway"
    },
    {
      "lat": 58.982153968283896,
      "lon": 5.688992611586239,
      "geoinfo": {
        "display_name": "8, Smietunet, Nedre Tasta, Tasta, Stavanger, Rogaland, 4027, Norway",
        "road": "Smietunet",
        "house_number": "8",
        "neighbourhood": null,
        "suburb": "Tasta",
        "city_district": "Tasta",
        "city": "Stavanger",
        "state": null,
        "postcode": "4027",
        "country": "Norway",
        "country_code": "no"
      },
      "address": "8 Smietunet, Stavanger, Norway"
    },
    {
      "lat": 58.974270889845755,
      "lon": 5.7992844600888045,
      "geoinfo": {
        "display_name": "Lindøy, Storhaug, Stavanger, Rogaland, 4076, Norway",
        "road": null,
        "house_number": null,
        "neighbourhood": null,
        "suburb": "Storhaug",
        "city_district": null,
        "city": "Stavanger",
        "state": null,
        "postcode": "4076",
        "country": "Norway",
        "country_code": "no"
      },
      "address": "Storhaug, Stavanger, Norway"
    },
    {
      "lat": 58.954698876403874,
      "lon": 5.777100900085436,
      "geoinfo": {
        "display_name": "Hetlandsmarka, Rosendal og Ramsvik Kolonihage, Storhaug, Stavanger, Rogaland, 4015, Norway",
        "road": null,
        "house_number": null,
        "neighbourhood": null,
        "suburb": "Storhaug",
        "city_district": null,
        "city": "Stavanger",
        "state": null,
        "postcode": "4015",
        "country": "Norway",
        "country_code": "no"
      },
      "address": "056, Hetlandsmarka, Rosendal og Ramsvik Kolonihage, Storhaug, Stavanger, Rogaland, 4015, Norway"
    },
    {
      "lat": 58.94402615528842,
      "lon": 5.728177630624859,
      "geoinfo": {
        "display_name": "11, Auglendsmyrå, Åsen, Hillevåg, Stavanger, Rogaland, 4016, Norway",
        "road": "Auglendsmyrå",
        "house_number": "11",
        "neighbourhood": null,
        "suburb": "Åsen",
        "city_district": null,
        "city": "Stavanger",
        "state": null,
        "postcode": "4016",
        "country": "Norway",
        "country_code": "no"
      },
      "address": "11, Auglendsmyrå, Åsen, Hillevåg, Stavanger, Rogaland, 4016, Norway"
    },
    {
      "lat": 58.952069069080906,
      "lon": 5.7180632939873695,
      "geoinfo": {
        "display_name": "9B, Bakkesvingen, Schancheholen, Hillevåg, Stavanger, Rogaland, 4019, Norway",
        "road": "Bakkesvingen",
        "house_number": "9B",
        "neighbourhood": "Schancheholen",
        "suburb": "Hillevåg",
        "city_district": null,
        "city": "Stavanger",
        "state": null,
        "postcode": "4019",
        "country": "Norway",
        "country_code": "no"
      },
      "address": "9B, Bakkesvingen, Schancheholen, Hillevåg, Stavanger, Rogaland, 4019, Norway"
    }
  ],
  "updated_at": "2025-10-19T06:22:38.692061+00:00",
  "_kind": "geo_samples"
}