{
  "country_code": "NO",
  "country": "Norway",
  "city": "Tromsø",
  "geonameid": 3133895,
  "target_addresses": 3,
  "samples": [
    {
      "lat": 69.68611904148742,
      "lon": 19.01972410898348,
      "geoinfo": {
        "display_name": "Isrenna, Nygård, Tromsø, Troms, 9018, Norway",
        "road": null,
        "house_number": null,
        "neighbourhood": "Isrenna",
        "suburb": "Nygård",
        "city_district": null,
        "city": "Tromsø",
        "state": null,
        "postcode": "9018",
        "country": "Norway",
        "country_code": "no"
      },
      "address": "Isrenna, Tromsø, Norway"
    },
    {
      "lat": 69.6516657005348,
      "lon": 18.918678010068312,
      "geoinfo": {
        "display_name": "Lysløypa, Soltun, Nordheim, Stalheim, Tromsø, Troms, 9012, Norway",
        "road": "Lysløypa",
        "house_number": null,
        "neighbourhood": "Soltun",
        "suburb": "Stalheim",
        "city_district": null,
        "city": "Tromsø",
        "state": null,
        "postcode": "9012",
        "country": "Norway",
        "country_code": "no"
      },
      "address": "Lysløypa, Tromsø, Norway"
    },
    {
      "lat": 69.67036834554044,
      "lon": 18.894674942327754,
      "geoinfo": {
        "display_name": "Langnes, Workinnmarka, Kvaløysletta, Tromsø, Troms, 9102, Norway",
        "road": null,
        "house_number": null,
        "neighbourhood": null,
        "suburb": "Workinnmarka",
        "city_district": null,
        "city": "Tromsø",
        "state": null,
        "postcode": "9102",
        "country": "Norway",
        "country_code": "no"
      },
      "address": "Workinnmarka, Tromsø, Norway"
    },
    {
      "lat": 69.680109344551,
      "lon": 18.93463419958379,
      "geoinfo": {
        "display_name": "3, Ørnevegen, Mortensnes, Håpet, Tromsø, Troms, 9015, Norway",
        "road": "Ørnevegen",
        "house_number": "3",
        "neighbourhood": "Mortensnes",
        "suburb": "Håpet",
        "city_district": null,
        "city": "Tromsø",
        "state": null,
        "postcode": "9015",
        "country": "Norway",
        "country_code": "no"
      },
      "address": "3, Ørnevegen, Mortensnes, Håpet, Tromsø, Troms, 9015, Norway"
    },
    {
      "lat": 69.65931418082751,
      "lon": 18.933102302770596,
      "geoinfo": {
        "display_name": "Lysløypa, Soltun, Stalheim, Tromsø, Troms, 9016, Norway",
        "road": "Lysløypa",
        "house_number": null,
        "neighbourhood": "Soltun",
        "suburb": "Stalheim",
        "city_district": null,
        "city": "Tromsø",
        "state": null,
        "postcode": "9016",
        "country": "Norway",
        "country_code": "no"
      },
      "address": "698, Lysløypa, Soltun, Stalheim, Tromsø, Troms, 9016, Norway"
    },
    {
      "lat": 69.64983513799324,
      "lon": 18.91467732422648,
      "geoinfo": {
        "display_name": "Lysløypa, Soltun, Nordheim, Stalheim, Tromsø, Troms, 9012, Norway",
        "road": "Lysløypa",
        "house_number": null,
        "neighbourhood": "Soltun",
        "suburb": "Stalheim",
        "city_district": null,
        "city": "Tromsø",
        "state": null,
        "postcode": "9012",
        "country": "Norway",
        "country_code": "no"
      },
      "address": "981, Lysløypa, Soltun, Nordheim, Stalheim, Tromsø, Troms, 9012, Norway"
    }
  ],
  "updated_at": "2025-10-19T06:22:27.125890+00:00",
  "_kind": "geo_samples"
}