{
  "country_code": "BZ",
  "country": "Belize",
  "city": "Belmopan",
  "geonameid": 3582672,
  "target_addresses": 25,
  "samples": [
    {
      "lat": 17.266766467838764,
      "lon": -88.78081686502185,
      "geoinfo": {
        "display_name": "Sergeant Street, Belmopan, Cayo District, Belize",
        "road": "Sergeant Street",
        "house_number": null,
        "neighbourhood": null,
        "suburb": null,
        "city_district": null,
        "city": "Belmopan",
        "state": "Cayo District",
        "postcode": null,
        "country": "Belize",
        "country_code": "bz"
      },
      "address": "159, Sergeant Street, Belmopan, 30252 Cayo District, Belize"
    },
    {
      "lat": 17.266745641521236,
      "lon": -88.7651575956653,
      "geoinfo": {
        "display_name": "Our Lady of Guadalupe High School, George Price Boulevard, Belmopan, Cayo District, Belize",
        "road": "George Price Boulevard",
        "house_number": null,
        "neighbourhood": null,
        "suburb": null,
        "city_district": null,
        "city": "Belmopan",
        "state": "Cayo District",
        "postcode": null,
        "country": "Belize",
        "country_code": "bz"
      },
      "address": "768, George Price Boulevard, Belmopan, 76664 Cayo District, Belize"
    },
    {
      "lat": 17.217084724926274,
      "lon": -88.75411519098499,
      "geoinfo": {
        "display_name": "Cayo District, Belize",
        "road": null,
        "house_number": null,
        "neighbourhood": null,
        "suburb": null,
        "city_district": null,
        "city": null,
        "state": "Cayo District",
        "postcode": null,
        "country": "Belize",
        "country_code": "bz"
      },
      "address": "084, Belmopan, 96953 Cayo District, Belize"
    },
    {
      "lat": 17.228929427727252,
      "lon": -88.72915930897936,
      "geoinfo": {
        "display_name": "Cayo District, Belize",
        "road": null,
        "house_number": null,
        "neighbourhood": null,
        "suburb": null,
        "city_district": null,
        "city": null,
        "state": "Cayo District",
        "postcode": null,
        "country": "Belize",
        "country_code": "bz"
      },
      "address": "033, Belmopan, 35281 Cayo District, Belize"
    },
    {
      "lat": 17.226647782069392,
      "lon": -88.76034306261873,
      "geoinfo": {
        "display_name": "Mountain View Area, Belmopan, Cayo District, Belize",
        "road": null,
        "house_number": null,
        "neighbourhood": null,
        "suburb": "Mountain View Area",
        "city_district": null,
        "city": "Belmopan",
        "state": "Cayo District",
        "postcode": null,
        "country": "Belize",
        "country_code": "bz"
      },
      "address": "748, Mountain View Area, Belmopan, 17054 Cayo District, Belize"
    },
    {
      "lat": 17.250617292513283,
      "lon": -88.75338221634932,
      "geoinfo": {
        "display_name": "Peru Street, Salvapan, Belmopan, Cayo District, Belize",
        "road": "Peru Street",
        "house_number": null,
        "neighbourhood": "Salvapan",
        "suburb": "Salvapan",
        "city_district": null,
        "city": "Belmopan",
        "state": "Cayo District",
        "postcode": null,
        "country": "Belize",
        "country_code": "bz"
      },
      "address": "985, Peru Street, Salvapan, Belmopan, 50004 Cayo District, Belize"
    },
    {
      "lat": 17.266546760749726,
      "lon": -88.76792000113252,
      "geoinfo": {
        "display_name": "George Price Boulevard, Belmopan, Cayo District, Belize",
        "road": "George Price Boulevard",
        "house_number": null,
        "neighbourhood": null,
        "suburb": null,
        "city_district": null,
        "city": "Belmopan",
        "state": "Cayo District",
        "postcode": null,
        "country": "Belize",
        "country_code": "bz"
      },
      "address": "465, George Price Boulevard, Belmopan, 79717 Cayo District, Belize"
    },
    {
      "lat": 17.278673255472302,
      "lon": -88.75319085340178,
      "geoinfo": {
        "display_name": "George Price Highway, Belmopan, Cayo District, Belize",
        "road": "George Price Highway",
        "house_number": null,
        "neighbourhood": null,
        "suburb": null,
        "city_district": null,
        "city": "Belmopan",
        "state": "Cayo District",
        "postcode": null,
        "country": "Belize",
        "country_code": "bz"
      },
      "address": "235, George Price Highway, Belmopan, 07394 Cayo District, Belize"
    },
    {
      "lat": 17.21665584272304,
      "lon": -88.7553284321535,
      "geoinfo": {
        "display_name": "Cayo District, Belize",
        "road": null,
        "house_number": null,
        "neighbourhood": null,
        "suburb": null,
        "city_district": null,
        "city": null,
        "state": "Cayo District",
        "postcode": null,
        "country": "Belize",
        "country_code": "bz"
      },
      "address": "494, Belmopan, 46313 Cayo District, Belize"
    },
    {
      "lat": 17.266358735351545,
      "lon": -88.80075557931606,
      "geoinfo": {
        "display_name": "Roaring Creek, Cayo District, Belize",
        "road": null,
        "house_number": null,
        "neighbourhood": null,
        "suburb": null,
        "city_district": null,
        "city": "Roaring Creek",
        "state": "Cayo District",
        "postcode": null,
        "country": "Belize",
        "country_code": "bz"
      },
      "address": "478, Belmopan, 38652 Cayo District, Belize"
    },
    {
      "lat": 17.248890318395066,
      "lon": -88.78428379001082,
      "geoinfo": {
        "display_name": "Hummingbird Highway, Belmopan, Cayo District, Belize",
        "road": "Hummingbird Highway",
        "house_number": null,
        "neighbourhood": null,
        "suburb": null,
        "city_district": null,
        "city": "Belmopan",
        "state": "Cayo District",
        "postcode": null,
        "country": "Belize",
        "country_code": "bz"
      },
      "address": "808, Hummingbird Highway, Belmopan, 21597 Cayo District, Belize"
    },
    {
      "lat": 17.223503867917135,
      "lon": -88.75476361976136,
      "geoinfo": {
        "display_name": "Mountain View Area, Belmopan, Cayo District, Belize",
        "road": null,
        "house_number": null,
        "neighbourhood": null,
        "suburb": "Mountain View Area",
        "city_district": null,
        "city": "Belmopan",
        "state": "Cayo District",
        "postcode": null,
        "country": "Belize",
        "country_code": "bz"
      },
      "address": "554, Mountain View Area, Belmopan, 00226 Cayo District, Belize"
    },
    {
      "lat": 17.272806436377696,
      "lon": -88.77882136873697,
      "geoinfo": {
        "display_name": "Ginger Street, Belmopan, Cayo District, Belize",
        "road": "Ginger Street",
        "house_number": null,
        "neighbourhood": null,
        "suburb": null,
        "city_district": null,
        "city": "Belmopan",
        "state": "Cayo District",
        "postcode": null,
        "country": "Belize",
        "country_code": "bz"
      },
      "address": "987, Ginger Street, Belmopan, 37341 Cayo District, Belize"
    },
    {
      "lat": 17.215630212559567,
      "lon": -88.76064778995433,
      "geoinfo": {
        "display_name": "Hillview, Las Flores, Belmopan, Cayo District, Belize",
        "road": null,
        "house_number": null,
        "neighbourhood": "Hillview",
        "suburb": "Las Flores",
        "city_district": null,
        "city": "Belmopan",
        "state": "Cayo District",
        "postcode": null,
        "country": "Belize",
        "country_code": "bz"
      },
      "address": "880, Hillview, Las Flores, Belmopan, 46714 Cayo District, Belize"
    },
    {
      "lat": 17.24768545468629,
      "lon": -88.78721795249574,
      "geoinfo": {
        "display_name": "Hugh Leyton Road, Belmopan, Cayo District, Belize",
        "road": "Hugh Leyton Road",
        "house_number": null,
        "neighbourhood": null,
        "suburb": null,
        "city_district": null,
        "city": "Belmopan",
        "state": "Cayo District",
        "postcode": null,
        "country": "Belize",
        "country_code": "bz"
      },
      "address": "833, Hugh Leyton Road, Belmopan, 81094 Cayo District, Belize"
    },
    {
      "lat": 17.256121765868407,
      "lon": -88.73220529968326,
      "geoinfo": {
        "display_name": "Salvapan, Belmopan, Cayo District, Belize",
        "road": null,
        "house_number": null,
        "neighbourhood": null,
        "suburb": "Salvapan",
        "city_district": null,
        "city": "Belmopan",
        "state": "Cayo District",
        "postcode": null,
        "country": "Belize",
        "country_code": "bz"
      },
      "address": "649, Salvapan, Belmopan, 13559 Cayo District, Belize"
    },
    {
      "lat": 17.23286830983682,
      "lon": -88.76238339685658,
      "geoinfo": {
        "display_name": "Mountain View Area, Belmopan, Cayo District, Belize",
        "road": null,
        "house_number": null,
        "neighbourhood": null,
        "suburb": "Mountain View Area",
        "city_district": null,
        "city": "Belmopan",
        "state": "Cayo District",
        "postcode": null,
        "country": "Belize",
        "country_code": "bz"
      },
      "address": "621, Mountain View Area, Belmopan, 02458 Cayo District, Belize"
    },
    {
      "lat": 17.278136434972886,
      "lon": -88.76133689917562,
      "geoinfo": {
        "display_name": "Cayo District, Belize",
        "road": null,
        "house_number": null,
        "neighbourhood": null,
        "suburb": null,
        "city_district": null,
        "city": null,
        "state": "Cayo District",
        "postcode": null,
        "country": "Belize",
        "country_code": "bz"
      },
      "address": "711, Belmopan, 13995 Cayo District, Belize"
    },
    {
      "lat": 17.245478466107503,
      "lon": -88.76382556636553,
      "geoinfo": {
        "display_name": "Kingdom Hall of Jehovah's Witnesses, 24, Orange Walk Street, Mountain View Area, Belmopan, Cayo District, Belize",
        "road": "Orange Walk Street",
        "house_number": "24",
        "neighbourhood": null,
        "suburb": "Mountain View Area",
        "city_district": null,
        "city": "Belmopan",
        "state": "Cayo District",
        "postcode": null,
        "country": "Belize",
        "country_code": "bz"
      },
      "address": "24, Orange Walk Street, Belmopan, 66957 Cayo District, Belize"
    },
    {
      "lat": 17.230017286471572,
      "lon": -88.7894735987309,
      "geoinfo": {
        "display_name": "La Chosa, Belmopan, Cayo District, Belize",
        "road": null,
        "house_number": null,
        "neighbourhood": "La Chosa",
        "suburb": null,
        "city_district": null,
        "city": "Belmopan",
        "state": "Cayo District",
        "postcode": null,
        "country": "Belize",
        "country_code": "bz"
      },
      "address": "723, La Chosa, Belmopan, 37459 Cayo District, Belize"
    },
    {
      "lat": 17.24606793535443,
      "lon": -88.72713918834619,
      "geoinfo": {
        "display_name": "Maya Mopan, Belmopan, Cayo District, Belize",
        "road": null,
        "house_number": null,
        "neighbourhood": null,
        "suburb": "Maya Mopan",
        "city_district": null,
        "city": "Belmopan",
        "state": "Cayo District",
        "postcode": null,
        "country": "Belize",
        "country_code": "bz"
      },
      "address": "691, Maya Mopan, Belmopan, 31479 Cayo District, Belize"
    },
    {
      "lat": 17.266516837560864,
      "lon": -88.72936397513075,
      "geoinfo": {
        "display_name": "Treasure Road, Belmopan, Cayo District, Belize",
        "road": "Treasure Road",
        "house_number": null,
        "neighbourhood": null,
        "suburb": null,
        "city_district": null,
        "city": "Belmopan",
        "state": "Cayo District",
        "postcode": null,
        "country": "Belize",
        "country_code": "bz"
      },
      "address": "073, Treasure Road, Belmopan, 42337 Cayo District, Belize"
    }
  ],
  "updated_at": "2025-10-19T03:16:17.103153+00:00",
  "_kind": "geo_samples"
}