{
  "country_code": "BZ",
  "country": "Belize",
  "city": "Orange Walk",
  "geonameid": 3581514,
  "target_addresses": 25,
  "samples": [
    {
      "lat": 18.07450081916827,
      "lon": -88.60836153110994,
      "geoinfo": {
        "display_name": "San Antonio Road, Orange Walk Town, Orange Walk District, Belize",
        "road": "San Antonio Road",
        "house_number": null,
        "neighbourhood": null,
        "suburb": null,
        "city_district": null,
        "city": "Orange Walk Town",
        "state": "Orange Walk District",
        "postcode": null,
        "country": "Belize",
        "country_code": "bz"
      },
      "address": "San Antonio Road, Orange Walk, Orange Walk District, Belize"
    },
    {
      "lat": 18.040215748832175,
      "lon": -88.54412077400494,
      "geoinfo": {
        "display_name": "Carmelita, Orange Walk District, Belize",
        "road": null,
        "house_number": null,
        "neighbourhood": null,
        "suburb": null,
        "city_district": null,
        "city": "Carmelita",
        "state": "Orange Walk District",
        "postcode": null,
        "country": "Belize",
        "country_code": "bz"
      },
      "address": "Orange Walk, Orange Walk District, Belize"
    },
    {
      "lat": 18.05155521847991,
      "lon": -88.58376616026776,
      "geoinfo": {
        "display_name": "Dump Site Road, Chan Pine Ridge, Orange Walk District, Belize",
        "road": "Dump Site Road",
        "house_number": null,
        "neighbourhood": null,
        "suburb": null,
        "city_district": null,
        "city": "Chan Pine Ridge",
        "state": "Orange Walk District",
        "postcode": null,
        "country": "Belize",
        "country_code": "bz"
      },
      "address": "Dump Site Road, Orange Walk, Orange Walk District, Belize"
    },
    {
      "lat": 18.085357547065122,
      "lon": -88.5766356423137,
      "geoinfo": {
        "display_name": "BEL Street, Union Town Area, Orange Walk Town, Orange Walk District, Belize",
        "road": "BEL Street",
        "house_number": null,
        "neighbourhood": "Union Town Area",
        "suburb": null,
        "city_district": null,
        "city": "Orange Walk Town",
        "state": "Orange Walk District",
        "postcode": null,
        "country": "Belize",
        "country_code": "bz"
      },
      "address": "BEL Street, Orange Walk, Orange Walk District, Belize"
    },
    {
      "lat": 18.09814469438166,
      "lon": -88.57438197238311,
      "geoinfo": {
        "display_name": "ITVET Preparatory, San Lorenzo Avenue, San Lorenzo, Orange Walk Town, Orange Walk District, Belize",
        "road": "San Lorenzo Avenue",
        "house_number": null,
        "neighbourhood": null,
        "suburb": "San Lorenzo",
        "city_district": null,
        "city": "Orange Walk Town",
        "state": "Orange Walk District",
        "postcode": null,
        "country": "Belize",
        "country_code": "bz"
      },
      "address": "San Lorenzo Avenue, Orange Walk, Orange Walk District, Belize"
    },
    {
      "lat": 18.099379682869902,
      "lon": -88.53219992790436,
      "geoinfo": {
        "display_name": "Orange Walk - San Estevan Road, San Estevan, Orange Walk District, Belize",
        "road": "Orange Walk - San Estevan Road",
        "house_number": null,
        "neighbourhood": null,
        "suburb": null,
        "city_district": null,
        "city": "San Estevan",
        "state": "Orange Walk District",
        "postcode": null,
        "country": "Belize",
        "country_code": "bz"
      },
      "address": "Orange Walk - San Estevan Road, Orange Walk, Orange Walk District, Belize"
    },
    {
      "lat": 18.090043120622486,
      "lon": -88.5745116405653,
      "geoinfo": {
        "display_name": "San Jose Street, Union Town Area, Orange Walk Town, Orange Walk District, Belize",
        "road": "San Jose Street",
        "house_number": null,
        "neighbourhood": "Union Town Area",
        "suburb": null,
        "city_district": null,
        "city": "Orange Walk Town",
        "state": "Orange Walk District",
        "postcode": null,
        "country": "Belize",
        "country_code": "bz"
      },
      "address": "San Jose Street, Orange Walk, Orange Walk District, Belize"
    },
    {
      "lat": 18.108825809309838,
      "lon": -88.57178789956083,
      "geoinfo": {
        "display_name": "Black Water Creek Area, Trial Farm, Orange Walk District, Belize",
        "road": null,
        "house_number": null,
        "neighbourhood": null,
        "suburb": "Black Water Creek Area",
        "city_district": null,
        "city": "Trial Farm",
        "state": "Orange Walk District",
        "postcode": null,
        "country": "Belize",
        "country_code": "bz"
      },
      "address": "Black Water Creek Area, Orange Walk, Orange Walk District, Belize"
    },
    {
      "lat": 18.09455119145623,
      "lon": -88.56748494387301,
      "geoinfo": {
        "display_name": "Oleander Street, Union Town Area, Orange Walk Town, Orange Walk District, Belize",
        "road": "Oleander Street",
        "house_number": null,
        "neighbourhood": "Union Town Area",
        "suburb": null,
        "city_district": null,
        "city": "Orange Walk Town",
        "state": "Orange Walk District",
        "postcode": null,
        "country": "Belize",
        "country_code": "bz"
      },
      "address": "Oleander Street, Orange Walk, Orange Walk District, Belize"
    },
    {
      "lat": 18.080719761872132,
      "lon": -88.52594375681102,
      "geoinfo": {
        "display_name": "Honey Camp Road, Pettville, Orange Walk District, Belize",
        "road": "Honey Camp Road",
        "house_number": null,
        "neighbourhood": null,
        "suburb": null,
        "city_district": null,
        "city": null,
        "state": "Orange Walk District",
        "postcode": null,
        "country": "Belize",
        "country_code": "bz"
      },
      "address": "Honey Camp Road, Orange Walk, Orange Walk District, Belize"
    },
    {
      "lat": 18.04949102521864,
      "lon": -88.53534958563768,
      "geoinfo": {
        "display_name": "Carmelita Sugar Road, Carmelita, Orange Walk District, Belize",
        "road": "Carmelita Sugar Road",
        "house_number": null,
        "neighbourhood": null,
        "suburb": null,
        "city_district": null,
        "city": "Carmelita",
        "state": "Orange Walk District",
        "postcode": null,
        "country": "Belize",
        "country_code": "bz"
      },
      "address": "Carmelita Sugar Road, Orange Walk, Orange Walk District, Belize"
    },
    {
      "lat": 18.07116500430415,
      "lon": -88.57128431095617,
      "geoinfo": {
        "display_name": "Princess Diana Street, Dr. George Estate Area, Orange Walk Town, Orange Walk District, Belize",
        "road": "Princess Diana Street",
        "house_number": null,
        "neighbourhood": null,
        "suburb": null,
        "city_district": null,
        "city": "Orange Walk Town",
        "state": "Orange Walk District",
        "postcode": null,
        "country": "Belize",
        "country_code": "bz"
      },
      "address": "Princess Diana Street, Orange Walk, Orange Walk District, Belize"
    },
    {
      "lat": 18.091310082114063,
      "lon": -88.58155915147091,
      "geoinfo": {
        "display_name": "Union Town Area, Orange Walk Town, Orange Walk District, Belize",
        "road": null,
        "house_number": null,
        "neighbourhood": "Union Town Area",
        "suburb": null,
        "city_district": null,
        "city": "Orange Walk Town",
        "state": "Orange Walk District",
        "postcode": null,
        "country": "Belize",
        "country_code": "bz"
      },
      "address": "Union Town Area, Orange Walk, Orange Walk District, Belize"
    },
    {
      "lat": 18.091291804418013,
      "lon": -88.57869275767854,
      "geoinfo": {
        "display_name": "San Pablo Street, Union Town Area, Orange Walk Town, Orange Walk District, Belize",
        "road": "San Pablo Street",
        "house_number": null,
        "neighbourhood": "Union Town Area",
        "suburb": null,
        "city_district": null,
        "city": "Orange Walk Town",
        "state": "Orange Walk District",
        "postcode": null,
        "country": "Belize",
        "country_code": "bz"
      },
      "address": "San Pablo Street, Orange Walk, Orange Walk District, Belize"
    },
    {
      "lat": 18.077889918199997,
      "lon": -88.54605653855577,
      "geoinfo": {
        "display_name": "Orange Walk Bypass, Pettville, Orange Walk District, Belize",
        "road": "Orange Walk Bypass",
        "house_number": null,
        "neighbourhood": null,
        "suburb": null,
        "city_district": null,
        "city": null,
        "state": "Orange Walk District",
        "postcode": null,
        "country": "Belize",
        "country_code": "bz"
      },
      "address": "Orange Walk Bypass, Orange Walk, Orange Walk District, Belize"
    },
    {
      "lat": 18.071223930311348,
      "lon": -88.56841281307949,
      "geoinfo": {
        "display_name": "Belize-Corozal Road, Louisiana, Orange Walk Town, Orange Walk District, Belize",
        "road": "Belize-Corozal Road",
        "house_number": null,
        "neighbourhood": null,
        "suburb": null,
        "city_district": null,
        "city": "Orange Walk Town",
        "state": "Orange Walk District",
        "postcode": null,
        "country": "Belize",
        "country_code": "bz"
      },
      "address": "Belize-Corozal Road, Orange Walk, Orange Walk District, Belize"
    },
    {
      "lat": 18.058151548642023,
      "lon": -88.52469426157353,
      "geoinfo": {
        "display_name": "Miller's Bight Road, Orange Walk District, Belize",
        "road": "Miller's Bight Road",
        "house_number": null,
        "neighbourhood": null,
        "suburb": null,
        "city_district": null,
        "city": null,
        "state": "Orange Walk District",
        "postcode": null,
        "country": "Belize",
        "country_code": "bz"
      },
      "address": "Miller's Bight Road, Orange Walk, Orange Walk District, Belize"
    },
    {
      "lat": 18.097878034966648,
      "lon": -88.57944189712289,
      "geoinfo": {
        "display_name": "San Lorenzo, Orange Walk Town, Orange Walk District, Belize",
        "road": null,
        "house_number": null,
        "neighbourhood": null,
        "suburb": "San Lorenzo",
        "city_district": null,
        "city": "Orange Walk Town",
        "state": "Orange Walk District",
        "postcode": null,
        "country": "Belize",
        "country_code": "bz"
      },
      "address": "San Lorenzo, Orange Walk, Orange Walk District, Belize"
    },
    {
      "lat": 18.10157152147465,
      "lon": -88.5697564531734,
      "geoinfo": {
        "display_name": "Black Water Street, Trial Farm, Orange Walk District, Belize",
        "road": "Black Water Street",
        "house_number": null,
        "neighbourhood": null,
        "suburb": null,
        "city_district": null,
        "city": "Trial Farm",
        "state": "Orange Walk District",
        "postcode": null,
        "country": "Belize",
        "country_code": "bz"
      },
      "address": "Black Water Street, Orange Walk, Orange Walk District, Belize"
    },
    {
      "lat": 18.102477266433404,
      "lon": -88.57274590462991,
      "geoinfo": {
        "display_name": "Turtle Street, Black Water Creek Area, Trial Farm, Orange Walk District, Belize",
        "road": "Turtle Street",
        "house_number": null,
        "neighbourhood": null,
        "suburb": "Black Water Creek Area",
        "city_district": null,
        "city": "Trial Farm",
        "state": "Orange Walk District",
        "postcode": null,
        "country": "Belize",
        "country_code": "bz"
      },
      "address": "Turtle Street, Orange Walk, Orange Walk District, Belize"
    },
    {
      "lat": 18.07633051764598,
      "lon": -88.55265018739448,
      "geoinfo": {
        "display_name": "Custard Apple Road, Louisiana, Orange Walk Town, Orange Walk District, Belize",
        "road": "Custard Apple Road",
        "house_number": null,
        "neighbourhood": null,
        "suburb": null,
        "city_district": null,
        "city": "Orange Walk Town",
        "state": "Orange Walk District",
        "postcode": null,
        "country": "Belize",
        "country_code": "bz"
      },
      "address": "Custard Apple Road, Orange Walk, Orange Walk District, Belize"
    },
    {
      "lat": 18.0831281863828,
      "lon": -88.55678253662366,
      "geoinfo": {
        "display_name": "Progresso Road, Pettville, Orange Walk District, Belize",
        "road": "Progresso Road",
        "house_number": null,
        "neighbourhood": null,
        "suburb": null,
        "city_district": null,
        "city": null,
        "state": "Orange Walk District",
        "postcode": null,
        "country": "Belize",
        "country_code": "bz"
      },
      "address": "Progresso Road, Orange Walk, Orange Walk District, Belize"
    },
    {
      "lat": 18.080608479697993,
      "lon": -88.57027874941755,
      "geoinfo": {
        "display_name": "Goff Caye Street, Orange Walk Town, Orange Walk District, Belize",
        "road": "Goff Caye Street",
        "house_number": null,
        "neighbourhood": null,
        "suburb": null,
        "city_district": null,
        "city": "Orange Walk Town",
        "state": "Orange Walk District",
        "postcode": null,
        "country": "Belize",
        "country_code": "bz"
      },
      "address": "Goff Caye Street, Orange Walk, Orange Walk District, Belize"
    },
    {
      "lat": 18.072594850032555,
      "lon": -88.56946911565312,
      "geoinfo": {
        "display_name": "Santa Familia Street, Dr. George Estate Area, Orange Walk Town, Orange Walk District, Belize",
        "road": "Santa Familia Street",
        "house_number": null,
        "neighbourhood": null,
        "suburb": null,
        "city_district": null,
        "city": "Orange Walk Town",
        "state": "Orange Walk District",
        "postcode": null,
        "country": "Belize",
        "country_code": "bz"
      },
      "address": "Santa Familia Street, Orange Walk, Orange Walk District, Belize"
    },
    {
      "lat": 18.074188627458184,
      "lon": -88.57859417302896,
      "geoinfo": {
        "display_name": "7th Street, Dr. George Estate Area, Orange Walk Town, Orange Walk District, Belize",
        "road": "7th Street",
        "house_number": null,
        "neighbourhood": null,
        "suburb": null,
        "city_district": null,
        "city": "Orange Walk Town",
        "state": "Orange Walk District",
        "postcode": null,
        "country": "Belize",
        "country_code": "bz"
      },
      "address": "7th Street, Orange Walk, Orange Walk District, Belize"
    },
    {
      "lat": 18.05837430264443,
      "lon": -88.58687440012642,
      "geoinfo": {
        "display_name": "Dr. George Estate Area, Orange Walk Town, Orange Walk District, Belize",
        "road": null,
        "house_number": null,
        "neighbourhood": null,
        "suburb": null,
        "city_district": null,
        "city": "Orange Walk Town",
        "state": "Orange Walk District",
        "postcode": null,
        "country": "Belize",
        "country_code": "bz"
      },
      "address": "154, Dr. George Estate Area, Orange Walk Town, 49501 Orange Walk District, Belize"
    },
    {
      "lat": 18.089269624430706,
      "lon": -88.54777689298511,
      "geoinfo": {
        "display_name": "Orange Walk Bypass, Pettville, Orange Walk District, Belize",
        "road": "Orange Walk Bypass",
        "house_number": null,
        "neighbourhood": null,
        "suburb": null,
        "city_district": null,
        "city": null,
        "state": "Orange Walk District",
        "postcode": null,
        "country": "Belize",
        "country_code": "bz"
      },
      "address": "701, Orange Walk Bypass, Pettville, 05392 Orange Walk District, Belize"
    },
    {
      "lat": 18.117782414833023,
      "lon": -88.57674044038353,
      "geoinfo": {
        "display_name": "Manatee Boulevard, Orange Walk District, Belize",
        "road": "Manatee Boulevard",
        "house_number": null,
        "neighbourhood": null,
        "suburb": null,
        "city_district": null,
        "city": null,
        "state": "Orange Walk District",
        "postcode": null,
        "country": "Belize",
        "country_code": "bz"
      },
      "address": "486, Manatee Boulevard, 43722 Orange Walk District, Belize"
    },
    {
      "lat": 18.114482550914968,
      "lon": -88.53591164339174,
      "geoinfo": {
        "display_name": "Orange Walk District, Belize",
        "road": null,
        "house_number": null,
        "neighbourhood": null,
        "suburb": null,
        "city_district": null,
        "city": null,
        "state": "Orange Walk District",
        "postcode": null,
        "country": "Belize",
        "country_code": "bz"
      },
      "address": "939, Orange Walk, 03428 Orange Walk District, Belize"
    },
    {
      "lat": 18.109242111588273,
      "lon": -88.55462480714846,
      "geoinfo": {
        "display_name": "Orange Walk Bypass, Trial Farm, Orange Walk District, Belize",
        "road": "Orange Walk Bypass",
        "house_number": null,
        "neighbourhood": null,
        "suburb": null,
        "city_district": null,
        "city": "Trial Farm",
        "state": "Orange Walk District",
        "postcode": null,
        "country": "Belize",
        "country_code": "bz"
      },
      "address": "969, Orange Walk Bypass, Trial Farm, 02089 Orange Walk District, Belize"
    },
    {
      "lat": 18.089721996417666,
      "lon": -88.55292853980784,
      "geoinfo": {
        "display_name": "Orange Walk Bypass, Pettville, Orange Walk District, Belize",
        "road": "Orange Walk Bypass",
        "house_number": null,
        "neighbourhood": null,
        "suburb": null,
        "city_district": null,
        "city": null,
        "state": "Orange Walk District",
        "postcode": null,
        "country": "Belize",
        "country_code": "bz"
      },
      "address": "691, Orange Walk Bypass, Pettville, 07165 Orange Walk District, Belize"
    },
    {
      "lat": 18.12308747105137,
      "lon": -88.5773653704204,
      "geoinfo": {
        "display_name": "Orange Walk District, Belize",
        "road": null,
        "house_number": null,
        "neighbourhood": null,
        "suburb": null,
        "city_district": null,
        "city": null,
        "state": "Orange Walk District",
        "postcode": null,
        "country": "Belize",
        "country_code": "bz"
      },
      "address": "701, Orange Walk, 84887 Orange Walk District, Belize"
    },
    {
      "lat": 18.065564593053182,
      "lon": -88.59204990986653,
      "geoinfo": {
        "display_name": "Cuello, Orange Walk District, Belize",
        "road": null,
        "house_number": null,
        "neighbourhood": null,
        "suburb": null,
        "city_district": null,
        "city": null,
        "state": "Orange Walk District",
        "postcode": null,
        "country": "Belize",
        "country_code": "bz"
      },
      "address": "788, Cuello, 38633 Orange Walk District, Belize"
    },
    {
      "lat": 18.120814655156853,
      "lon": -88.57605673094376,
      "geoinfo": {
        "display_name": "Orange Walk District, Belize",
        "road": null,
        "house_number": null,
        "neighbourhood": null,
        "suburb": null,
        "city_district": null,
        "city": null,
        "state": "Orange Walk District",
        "postcode": null,
        "country": "Belize",
        "country_code": "bz"
      },
      "address": "427, Orange Walk, 07130 Orange Walk District, Belize"
    },
    {
      "lat": 18.111885259669485,
      "lon": -88.59577518928717,
      "geoinfo": {
        "display_name": "San Lorenzo Road, Black Water Creek Area, Trial Farm, Orange Walk District, Belize",
        "road": "San Lorenzo Road",
        "house_number": null,
        "neighbourhood": null,
        "suburb": "Black Water Creek Area",
        "city_district": null,
        "city": "Trial Farm",
        "state": "Orange Walk District",
        "postcode": null,
        "country": "Belize",
        "country_code": "bz"
      },
      "address": "964, San Lorenzo Road, Black Water Creek Area, Trial Farm, 83227 Orange Walk District, Belize"
    },
    {
      "lat": 18.069341751862172,
      "lon": -88.55905918173062,
      "geoinfo": {
        "display_name": "Rose Apple Street, Louisiana, Orange Walk Town, Orange Walk District, Belize",
        "road": "Rose Apple Street",
        "house_number": null,
        "neighbourhood": null,
        "suburb": null,
        "city_district": null,
        "city": "Orange Walk Town",
        "state": "Orange Walk District",
        "postcode": null,
        "country": "Belize",
        "country_code": "bz"
      },
      "address": "538, Rose Apple Street, Louisiana, Orange Walk Town, 69007 Orange Walk District, Belize"
    },
    {
      "lat": 18.06904591557464,
      "lon": -88.58708449772995,
      "geoinfo": {
        "display_name": "Cuello, Orange Walk District, Belize",
        "road": null,
        "house_number": null,
        "neighbourhood": null,
        "suburb": null,
        "city_district": null,
        "city": null,
        "state": "Orange Walk District",
        "postcode": null,
        "country": "Belize",
        "country_code": "bz"
      },
      "address": "353, Cuello, 30658 Orange Walk District, Belize"
    },
    {
      "lat": 18.108554515614085,
      "lon": -88.53099653188099,
      "geoinfo": {
        "display_name": "Orange Walk - San Estevan Road, San Estevan, Orange Walk District, Belize",
        "road": "Orange Walk - San Estevan Road",
        "house_number": null,
        "neighbourhood": null,
        "suburb": null,
        "city_district": null,
        "city": "San Estevan",
        "state": "Orange Walk District",
        "postcode": null,
        "country": "Belize",
        "country_code": "bz"
      },
      "address": "248, Orange Walk - San Estevan Road, San Estevan, 84127 Orange Walk District, Belize"
    },
    {
      "lat": 18.085189656642275,
      "lon": -88.58080204244234,
      "geoinfo": {
        "display_name": "San Antonio Road, Orange Walk Town, Orange Walk District, Belize",
        "road": "San Antonio Road",
        "house_number": null,
        "neighbourhood": null,
        "suburb": null,
        "city_district": null,
        "city": "Orange Walk Town",
        "state": "Orange Walk District",
        "postcode": null,
        "country": "Belize",
        "country_code": "bz"
      },
      "address": "367, San Antonio Road, Orange Walk Town, 84476 Orange Walk District, Belize"
    },
    {
      "lat": 18.09430810024886,
      "lon": -88.56893506221667,
      "geoinfo": {
        "display_name": "Evergreen Street, Union Town Area, Orange Walk Town, Orange Walk District, Belize",
        "road": "Evergreen Street",
        "house_number": null,
        "neighbourhood": "Union Town Area",
        "suburb": null,
        "city_district": null,
        "city": "Orange Walk Town",
        "state": "Orange Walk District",
        "postcode": null,
        "country": "Belize",
        "country_code": "bz"
      },
      "address": "152, Evergreen Street, Union Town Area, Orange Walk Town, 13005 Orange Walk District, Belize"
    },
    {
      "lat": 18.095360606411255,
      "lon": -88.56252928509045,
      "geoinfo": {
        "display_name": "San Jose Street, Trial Farm, Orange Walk District, Belize",
        "road": "San Jose Street",
        "house_number": null,
        "neighbourhood": null,
        "suburb": null,
        "city_district": null,
        "city": "Trial Farm",
        "state": "Orange Walk District",
        "postcode": null,
        "country": "Belize",
        "country_code": "bz"
      },
      "address": "321, San Jose Street, Trial Farm, 53429 Orange Walk District, Belize"
    },
    {
      "lat": 18.07631145442641,
      "lon": -88.58795416713193,
      "geoinfo": {
        "display_name": "Cuello, Orange Walk District, Belize",
        "road": null,
        "house_number": null,
        "neighbourhood": null,
        "suburb": null,
        "city_district": null,
        "city": null,
        "state": "Orange Walk District",
        "postcode": null,
        "country": "Belize",
        "country_code": "bz"
      },
      "address": "976, Cuello, 81722 Orange Walk District, Belize"
    },
    {
      "lat": 18.106527169198845,
      "lon": -88.57467156958347,
      "geoinfo": {
        "display_name": "West San Martin Street, Black Water Creek Area, Trial Farm, Orange Walk District, Belize",
        "road": "West San Martin Street",
        "house_number": null,
        "neighbourhood": null,
        "suburb": "Black Water Creek Area",
        "city_district": null,
        "city": "Trial Farm",
        "state": "Orange Walk District",
        "postcode": null,
        "country": "Belize",
        "country_code": "bz"
      },
      "address": "802, West San Martin Street, Black Water Creek Area, Trial Farm, 41714 Orange Walk District, Belize"
    },
    {
      "lat": 18.07870570998273,
      "lon": -88.59620559140633,
      "geoinfo": {
        "display_name": "San Antonio Road, Orange Walk Town, Orange Walk District, Belize",
        "road": "San Antonio Road",
        "house_number": null,
        "neighbourhood": null,
        "suburb": null,
        "city_district": null,
        "city": "Orange Walk Town",
        "state": "Orange Walk District",
        "postcode": null,
        "country": "Belize",
        "country_code": "bz"
      },
      "address": "403, San Antonio Road, Orange Walk Town, 83867 Orange Walk District, Belize"
    },
    {
      "lat": 18.03720605753576,
      "lon": -88.5624987811994,
      "geoinfo": {
        "display_name": "Philip Goldson Highway, Orange Walk District, Belize",
        "road": "Philip Goldson Highway",
        "house_number": null,
        "neighbourhood": null,
        "suburb": null,
        "city_district": null,
        "city": null,
        "state": "Orange Walk District",
        "postcode": null,
        "country": "Belize",
        "country_code": "bz"
      },
      "address": "075, Philip Goldson Highway, 00225 Orange Walk District, Belize"
    },
    {
      "lat": 18.073400596016334,
      "lon": -88.56083553750491,
      "geoinfo": {
        "display_name": "Sapodilla Street, Louisiana, Orange Walk Town, Orange Walk District, Belize",
        "road": "Sapodilla Street",
        "house_number": null,
        "neighbourhood": null,
        "suburb": null,
        "city_district": null,
        "city": "Orange Walk Town",
        "state": "Orange Walk District",
        "postcode": null,
        "country": "Belize",
        "country_code": "bz"
      },
      "address": "688, Sapodilla Street, Louisiana, Orange Walk Town, 77576 Orange Walk District, Belize"
    },
    {
      "lat": 18.088059848908493,
      "lon": -88.59067784937534,
      "geoinfo": {
        "display_name": "San Antonio Road, Orange Walk Town, Orange Walk District, Belize",
        "road": "San Antonio Road",
        "house_number": null,
        "neighbourhood": null,
        "suburb": null,
        "city_district": null,
        "city": "Orange Walk Town",
        "state": "Orange Walk District",
        "postcode": null,
        "country": "Belize",
        "country_code": "bz"
      },
      "address": "673, San Antonio Road, Orange Walk Town, 29523 Orange Walk District, Belize"
    },
    {
      "lat": 18.06157920934887,
      "lon": -88.58503338873122,
      "geoinfo": {
        "display_name": "Dr. George Estate Area, Orange Walk Town, Orange Walk District, Belize",
        "road": null,
        "house_number": null,
        "neighbourhood": null,
        "suburb": null,
        "city_district": null,
        "city": "Orange Walk Town",
        "state": "Orange Walk District",
        "postcode": null,
        "country": "Belize",
        "country_code": "bz"
      },
      "address": "961, Dr. George Estate Area, Orange Walk Town, 90476 Orange Walk District, Belize"
    },
    {
      "lat": 18.074394024545093,
      "lon": -88.6056377475641,
      "geoinfo": {
        "display_name": "San Antonio Road, Orange Walk Town, Orange Walk District, Belize",
        "road": "San Antonio Road",
        "house_number": null,
        "neighbourhood": null,
        "suburb": null,
        "city_district": null,
        "city": "Orange Walk Town",
        "state": "Orange Walk District",
        "postcode": null,
        "country": "Belize",
        "country_code": "bz"
      },
      "address": "828, San Antonio Road, Orange Walk Town, 43141 Orange Walk District, Belize"
    },
    {
      "lat": 18.10469837374591,
      "lon": -88.56416369232483,
      "geoinfo": {
        "display_name": "West San Martin Street, Black Water Creek Area, Trial Farm, Orange Walk District, Belize",
        "road": "West San Martin Street",
        "house_number": null,
        "neighbourhood": null,
        "suburb": "Black Water Creek Area",
        "city_district": null,
        "city": "Trial Farm",
        "state": "Orange Walk District",
        "postcode": null,
        "country": "Belize",
        "country_code": "bz"
      },
      "address": "005, West San Martin Street, Black Water Creek Area, Trial Farm, 90733 Orange Walk District, Belize"
    }
  ],
  "updated_at": "2025-10-19T01:37:09.683492+00:00",
  "_kind": "geo_samples"
}