{
  "country_code": "BZ",
  "country": "Belize",
  "city": "San Pedro",
  "geonameid": 3581164,
  "target_addresses": 25,
  "samples": [
    {
      "lat": 17.91869166147391,
      "lon": -88.00285748804025,
      "geoinfo": {
        "display_name": "Pedro Salazar Drive, Ellis Subdivision, San Pedro Town, Belize",
        "road": "Pedro Salazar Drive",
        "house_number": null,
        "neighbourhood": null,
        "suburb": "Ellis Subdivision",
        "city_district": null,
        "city": "San Pedro Town",
        "state": null,
        "postcode": null,
        "country": "Belize",
        "country_code": "bz"
      },
      "address": "Pedro Salazar Drive, San Pedro, Belize"
    },
    {
      "lat": 17.87785749094454,
      "lon": -87.95387058298883,
      "geoinfo": {
        "display_name": "Belize District, Belize",
        "road": null,
        "house_number": null,
        "neighbourhood": null,
        "suburb": null,
        "city_district": null,
        "city": null,
        "state": "Belize District",
        "postcode": null,
        "country": "Belize",
        "country_code": "bz"
      },
      "address": "San Pedro, Belize District, Belize"
    },
    {
      "lat": 17.91963860015697,
      "lon": -87.99885817062456,
      "geoinfo": {
        "display_name": "Pedro Salazar Drive, Ellis Subdivision, San Pedro Town, Belize",
        "road": "Pedro Salazar Drive",
        "house_number": null,
        "neighbourhood": null,
        "suburb": "Ellis Subdivision",
        "city_district": null,
        "city": "San Pedro Town",
        "state": null,
        "postcode": null,
        "country": "Belize",
        "country_code": "bz"
      },
      "address": "Pedro Salazar Drive, San Pedro, Belize District, Belize"
    },
    {
      "lat": 17.93528386273047,
      "lon": -87.95881211423237,
      "geoinfo": {
        "display_name": "Honourable Heredia Jr. North Road, Mara Laguna Community, San Pedro Town, Belize District, Belize",
        "road": "Honourable Heredia Jr. North Road",
        "house_number": null,
        "neighbourhood": null,
        "suburb": null,
        "city_district": null,
        "city": "San Pedro Town",
        "state": "Belize District",
        "postcode": null,
        "country": "Belize",
        "country_code": "bz"
      },
      "address": "Honourable Heredia Jr. North Road, San Pedro, Belize District, Belize"
    },
    {
      "lat": 17.88864655882293,
      "lon": -87.98168304134735,
      "geoinfo": {
        "display_name": "Elsa Paz South Road, Boca Ciega, San Pedro Town, Belize",
        "road": "Elsa Paz South Road",
        "house_number": null,
        "neighbourhood": null,
        "suburb": null,
        "city_district": null,
        "city": "San Pedro Town",
        "state": null,
        "postcode": null,
        "country": "Belize",
        "country_code": "bz"
      },
      "address": "Elsa Paz South Road, San Pedro, Belize District, Belize"
    },
    {
      "lat": 17.911989336310768,
      "lon": -87.96644968406805,
      "geoinfo": {
        "display_name": "Coconut Drive, San Pablo, San Pedro Town, Belize District, Belize",
        "road": "Coconut Drive",
        "house_number": null,
        "neighbourhood": null,
        "suburb": "San Pablo",
        "city_district": null,
        "city": "San Pedro Town",
        "state": "Belize District",
        "postcode": null,
        "country": "Belize",
        "country_code": "bz"
      },
      "address": "Coconut Drive, San Pedro, Belize District, Belize"
    },
    {
      "lat": 17.93065930611295,
      "lon": -87.99267026266614,
      "geoinfo": {
        "display_name": "Mahogany Bay Resort Beach Club, Crocodile Street, San Pedrito, Collins Subdivision, San Pedro Town, Belize District, Belize",
        "road": "Crocodile Street",
        "house_number": null,
        "neighbourhood": null,
        "suburb": "Collins Subdivision",
        "city_district": null,
        "city": "San Pedro Town",
        "state": "Belize District",
        "postcode": null,
        "country": "Belize",
        "country_code": "bz"
      },
      "address": "Crocodile Street, San Pedro, Belize District, Belize"
    },
    {
      "lat": 17.922147890880506,
      "lon": -87.96162280940821,
      "geoinfo": {
        "display_name": "Seaweed Street, Rio Golf Cart Rental, San Juan, San Pedro Town, Belize District, Belize",
        "road": "Seaweed Street",
        "house_number": null,
        "neighbourhood": null,
        "suburb": "San Juan",
        "city_district": null,
        "city": "San Pedro Town",
        "state": "Belize District",
        "postcode": null,
        "country": "Belize",
        "country_code": "bz"
      },
      "address": "Seaweed Street, San Pedro, Belize District, Belize"
    },
    {
      "lat": 17.916989007339108,
      "lon": -87.95716900341347,
      "geoinfo": {
        "display_name": "Caribeña Street, Rio Golf Cart Rental, San Pedro Town, Belize",
        "road": "Caribeña Street",
        "house_number": null,
        "neighbourhood": null,
        "suburb": null,
        "city_district": null,
        "city": "San Pedro Town",
        "state": null,
        "postcode": null,
        "country": "Belize",
        "country_code": "bz"
      },
      "address": "Caribeña Street, San Pedro, Belize District, Belize"
    },
    {
      "lat": 17.906250076653066,
      "lon": -87.955137025596,
      "geoinfo": {
        "display_name": "San Pablo, San Pedro Town, Belize",
        "road": null,
        "house_number": null,
        "neighbourhood": null,
        "suburb": "San Pablo",
        "city_district": null,
        "city": "San Pedro Town",
        "state": null,
        "postcode": null,
        "country": "Belize",
        "country_code": "bz"
      },
      "address": "San Pablo, San Pedro, Belize District, Belize"
    },
    {
      "lat": 17.904089672385616,
      "lon": -87.99099986750011,
      "geoinfo": {
        "display_name": "Ellis Subdivision, San Pedro Town, Belize",
        "road": null,
        "house_number": null,
        "neighbourhood": null,
        "suburb": "Ellis Subdivision",
        "city_district": null,
        "city": "San Pedro Town",
        "state": null,
        "postcode": null,
        "country": "Belize",
        "country_code": "bz"
      },
      "address": "Ellis Subdivision, San Pedro, Belize District, Belize"
    },
    {
      "lat": 17.911798686547954,
      "lon": -87.98050641564039,
      "geoinfo": {
        "display_name": "Baldemar Graniel Drive, Collins Subdivision, San Pedro Town, Belize District, Belize",
        "road": "Baldemar Graniel Drive",
        "house_number": null,
        "neighbourhood": null,
        "suburb": "Collins Subdivision",
        "city_district": null,
        "city": "San Pedro Town",
        "state": "Belize District",
        "postcode": null,
        "country": "Belize",
        "country_code": "bz"
      },
      "address": "Baldemar Graniel Drive, San Pedro, Belize District, Belize"
    },
    {
      "lat": 17.894512741275275,
      "lon": -87.96645544301374,
      "geoinfo": {
        "display_name": "Escalante Subdivision, San Pedro Town, Belize",
        "road": null,
        "house_number": null,
        "neighbourhood": "Escalante Subdivision",
        "suburb": null,
        "city_district": null,
        "city": "San Pedro Town",
        "state": null,
        "postcode": null,
        "country": "Belize",
        "country_code": "bz"
      },
      "address": "Escalante Subdivision, San Pedro, Belize District, Belize"
    },
    {
      "lat": 17.92445920149589,
      "lon": -87.96910870646815,
      "geoinfo": {
        "display_name": "San Pedrito, Collins Subdivision, San Pedro Town, Belize",
        "road": null,
        "house_number": null,
        "neighbourhood": null,
        "suburb": "Collins Subdivision",
        "city_district": null,
        "city": "San Pedro Town",
        "state": null,
        "postcode": null,
        "country": "Belize",
        "country_code": "bz"
      },
      "address": "Collins Subdivision, San Pedro, Belize District, Belize"
    },
    {
      "lat": 17.91146498526055,
      "lon": -87.97671100535143,
      "geoinfo": {
        "display_name": "San Pedrito Highway, San Pedrito, Collins Subdivision, San Pedro Town, Belize District, Belize",
        "road": "San Pedrito Highway",
        "house_number": null,
        "neighbourhood": null,
        "suburb": "Collins Subdivision",
        "city_district": null,
        "city": "San Pedro Town",
        "state": "Belize District",
        "postcode": null,
        "country": "Belize",
        "country_code": "bz"
      },
      "address": "San Pedrito Highway, San Pedro, Belize District, Belize"
    },
    {
      "lat": 17.91768812954406,
      "lon": -87.96131158531495,
      "geoinfo": {
        "display_name": "Black Coral Street, Rio Golf Cart Rental, San Pedro Town, Belize District, Belize",
        "road": "Black Coral Street",
        "house_number": null,
        "neighbourhood": null,
        "suburb": null,
        "city_district": null,
        "city": "San Pedro Town",
        "state": "Belize District",
        "postcode": null,
        "country": "Belize",
        "country_code": "bz"
      },
      "address": "Black Coral Street, San Pedro, Belize District, Belize"
    },
    {
      "lat": 17.90457414764793,
      "lon": -87.97994709781848,
      "geoinfo": {
        "display_name": "Ambergris Stadium, Stadium Street, D.F.C. Area, San Pedro Town, Belize",
        "road": "Stadium Street",
        "house_number": null,
        "neighbourhood": null,
        "suburb": null,
        "city_district": null,
        "city": "San Pedro Town",
        "state": null,
        "postcode": null,
        "country": "Belize",
        "country_code": "bz"
      },
      "address": "Stadium Street, San Pedro, Belize District, Belize"
    },
    {
      "lat": 17.909689847427405,
      "lon": -87.95669125951956,
      "geoinfo": {
        "display_name": "San Pablo, San Pedro Town, Belize",
        "road": null,
        "house_number": null,
        "neighbourhood": null,
        "suburb": "San Pablo",
        "city_district": null,
        "city": "San Pedro Town",
        "state": null,
        "postcode": null,
        "country": "Belize",
        "country_code": "bz"
      },
      "address": "313, San Pablo, 72536 San Pedro Town, Belize"
    },
    {
      "lat": 17.90076064594932,
      "lon": -87.94149423268144,
      "geoinfo": {
        "display_name": "Belize District, Belize",
        "road": null,
        "house_number": null,
        "neighbourhood": null,
        "suburb": null,
        "city_district": null,
        "city": null,
        "state": "Belize District",
        "postcode": null,
        "country": "Belize",
        "country_code": "bz"
      },
      "address": "735, San Pedro, 19358 Belize District, Belize"
    },
    {
      "lat": 17.90373555869299,
      "lon": -87.9262907955034,
      "geoinfo": {
        "display_name": "Belize District, Belize",
        "road": null,
        "house_number": null,
        "neighbourhood": null,
        "suburb": null,
        "city_district": null,
        "city": null,
        "state": "Belize District",
        "postcode": null,
        "country": "Belize",
        "country_code": "bz"
      },
      "address": "383, San Pedro, 64401 Belize District, Belize"
    },
    {
      "lat": 17.896945548820664,
      "lon": -87.97019393692783,
      "geoinfo": {
        "display_name": "Elsa Paz South Road, Escalante Subdivision, San Pedro Town, Belize",
        "road": "Elsa Paz South Road",
        "house_number": null,
        "neighbourhood": "Escalante Subdivision",
        "suburb": null,
        "city_district": null,
        "city": "San Pedro Town",
        "state": null,
        "postcode": null,
        "country": "Belize",
        "country_code": "bz"
      },
      "address": "221, Elsa Paz South Road, Escalante Subdivision, 93579 San Pedro Town, Belize"
    },
    {
      "lat": 17.949582585092116,
      "lon": -87.93613405299621,
      "geoinfo": {
        "display_name": "Honourable Heredia Jr. North Road, Caribeville, San Pedro Town, Belize",
        "road": "Honourable Heredia Jr. North Road",
        "house_number": null,
        "neighbourhood": null,
        "suburb": null,
        "city_district": null,
        "city": "San Pedro Town",
        "state": null,
        "postcode": null,
        "country": "Belize",
        "country_code": "bz"
      },
      "address": "235, Honourable Heredia Jr. North Road, Caribeville, 51026 San Pedro Town, Belize"
    },
    {
      "lat": 17.876053141058627,
      "lon": -87.98375922149589,
      "geoinfo": {
        "display_name": "Boca Ciega, San Pedro Town, Belize",
        "road": null,
        "house_number": null,
        "neighbourhood": null,
        "suburb": null,
        "city_district": null,
        "city": "San Pedro Town",
        "state": null,
        "postcode": null,
        "country": "Belize",
        "country_code": "bz"
      },
      "address": "838, Boca Ciega, 78352 San Pedro Town, Belize"
    },
    {
      "lat": 17.935411958989707,
      "lon": -87.94588824732149,
      "geoinfo": {
        "display_name": "Honourable Heredia Jr. North Road, Mara Laguna Community, San Pedro Town, Belize District, Belize",
        "road": "Honourable Heredia Jr. North Road",
        "house_number": null,
        "neighbourhood": null,
        "suburb": null,
        "city_district": null,
        "city": "San Pedro Town",
        "state": "Belize District",
        "postcode": null,
        "country": "Belize",
        "country_code": "bz"
      },
      "address": "542, Honourable Heredia Jr. North Road, Mara Laguna Community, San Pedro Town, 20925 Belize District, Belize"
    },
    {
      "lat": 17.92390098621841,
      "lon": -87.93032573249054,
      "geoinfo": {
        "display_name": "Belize District, Belize",
        "road": null,
        "house_number": null,
        "neighbourhood": null,
        "suburb": null,
        "city_district": null,
        "city": null,
        "state": "Belize District",
        "postcode": null,
        "country": "Belize",
        "country_code": "bz"
      },
      "address": "499, San Pedro, 83898 Belize District, Belize"
    },
    {
      "lat": 17.914987764668147,
      "lon": -87.97691401883927,
      "geoinfo": {
        "display_name": "San Pedrito, Collins Subdivision, San Pedro Town, Belize",
        "road": null,
        "house_number": null,
        "neighbourhood": null,
        "suburb": "Collins Subdivision",
        "city_district": null,
        "city": "San Pedro Town",
        "state": null,
        "postcode": null,
        "country": "Belize",
        "country_code": "bz"
      },
      "address": "392, San Pedrito, Collins Subdivision, 29251 San Pedro Town, Belize"
    },
    {
      "lat": 17.883375596918686,
      "lon": -87.94587356439926,
      "geoinfo": {
        "display_name": "Belize District, Belize",
        "road": null,
        "house_number": null,
        "neighbourhood": null,
        "suburb": null,
        "city_district": null,
        "city": null,
        "state": "Belize District",
        "postcode": null,
        "country": "Belize",
        "country_code": "bz"
      },
      "address": "475, San Pedro, 23738 Belize District, Belize"
    },
    {
      "lat": 17.910061681486745,
      "lon": -87.95644409479532,
      "geoinfo": {
        "display_name": "San Pablo, San Pedro Town, Belize",
        "road": null,
        "house_number": null,
        "neighbourhood": null,
        "suburb": "San Pablo",
        "city_district": null,
        "city": "San Pedro Town",
        "state": null,
        "postcode": null,
        "country": "Belize",
        "country_code": "bz"
      },
      "address": "439, San Pablo, 90701 San Pedro Town, Belize"
    },
    {
      "lat": 17.91695149352687,
      "lon": -88.00056566608349,
      "geoinfo": {
        "display_name": "Pedro Salazar Drive, Ellis Subdivision, San Pedro Town, Belize",
        "road": "Pedro Salazar Drive",
        "house_number": null,
        "neighbourhood": null,
        "suburb": "Ellis Subdivision",
        "city_district": null,
        "city": "San Pedro Town",
        "state": null,
        "postcode": null,
        "country": "Belize",
        "country_code": "bz"
      },
      "address": "890, Pedro Salazar Drive, Ellis Subdivision, 27375 San Pedro Town, Belize"
    },
    {
      "lat": 17.893622379595744,
      "lon": -87.97800818591351,
      "geoinfo": {
        "display_name": "Elsa Paz South Road, Mosquito Coast, San Pedro Town, Belize",
        "road": "Elsa Paz South Road",
        "house_number": null,
        "neighbourhood": null,
        "suburb": null,
        "city_district": null,
        "city": "San Pedro Town",
        "state": null,
        "postcode": null,
        "country": "Belize",
        "country_code": "bz"
      },
      "address": "544, Elsa Paz South Road, Mosquito Coast, 79796 San Pedro Town, Belize"
    },
    {
      "lat": 17.92561247221175,
      "lon": -87.9468679101336,
      "geoinfo": {
        "display_name": "The Split, San Mateo, Belize",
        "road": null,
        "house_number": null,
        "neighbourhood": null,
        "suburb": null,
        "city_district": null,
        "city": null,
        "state": null,
        "postcode": null,
        "country": "Belize",
        "country_code": "bz"
      },
      "address": "199, The Split, 81880 San Mateo, Belize"
    },
    {
      "lat": 17.929155810788238,
      "lon": -87.9268239586243,
      "geoinfo": {
        "display_name": "Belize District, Belize",
        "road": null,
        "house_number": null,
        "neighbourhood": null,
        "suburb": null,
        "city_district": null,
        "city": null,
        "state": "Belize District",
        "postcode": null,
        "country": "Belize",
        "country_code": "bz"
      },
      "address": "900, San Pedro, 10787 Belize District, Belize"
    },
    {
      "lat": 17.94214018700275,
      "lon": -87.95840436561905,
      "geoinfo": {
        "display_name": "The Split, San Mateo, Belize",
        "road": null,
        "house_number": null,
        "neighbourhood": null,
        "suburb": null,
        "city_district": null,
        "city": null,
        "state": null,
        "postcode": null,
        "country": "Belize",
        "country_code": "bz"
      },
      "address": "144, The Split, 38128 San Mateo, Belize"
    },
    {
      "lat": 17.93438977510487,
      "lon": -87.94818511411343,
      "geoinfo": {
        "display_name": "Honourable Heredia Jr. North Road, Mara Laguna Community, San Pedro Town, Belize District, Belize",
        "road": "Honourable Heredia Jr. North Road",
        "house_number": null,
        "neighbourhood": null,
        "suburb": null,
        "city_district": null,
        "city": "San Pedro Town",
        "state": "Belize District",
        "postcode": null,
        "country": "Belize",
        "country_code": "bz"
      },
      "address": "805, Honourable Heredia Jr. North Road, Mara Laguna Community, San Pedro Town, 61319 Belize District, Belize"
    },
    {
      "lat": 17.879351324183574,
      "lon": -87.94503595799111,
      "geoinfo": {
        "display_name": "Belize District, Belize",
        "road": null,
        "house_number": null,
        "neighbourhood": null,
        "suburb": null,
        "city_district": null,
        "city": null,
        "state": "Belize District",
        "postcode": null,
        "country": "Belize",
        "country_code": "bz"
      },
      "address": "822, San Pedro, 58394 Belize District, Belize"
    },
    {
      "lat": 17.94166078793825,
      "lon": -87.96499210538931,
      "geoinfo": {
        "display_name": "The Split, San Mateo, Belize",
        "road": null,
        "house_number": null,
        "neighbourhood": null,
        "suburb": null,
        "city_district": null,
        "city": null,
        "state": null,
        "postcode": null,
        "country": "Belize",
        "country_code": "bz"
      },
      "address": "221, The Split, 63772 San Mateo, Belize"
    },
    {
      "lat": 17.9335437862939,
      "lon": -87.9895848906582,
      "geoinfo": {
        "display_name": "Beach Club For Mahogany Bay Resort, Crocodile Street, San Pedrito, Collins Subdivision, San Pedro Town, Belize District, Belize",
        "road": "Crocodile Street",
        "house_number": null,
        "neighbourhood": null,
        "suburb": "Collins Subdivision",
        "city_district": null,
        "city": "San Pedro Town",
        "state": "Belize District",
        "postcode": null,
        "country": "Belize",
        "country_code": "bz"
      },
      "address": "328, Crocodile Street, San Pedro, 95990 Belize District, Belize"
    },
    {
      "lat": 17.929888616154013,
      "lon": -87.92580147041971,
      "geoinfo": {
        "display_name": "Belize District, Belize",
        "road": null,
        "house_number": null,
        "neighbourhood": null,
        "suburb": null,
        "city_district": null,
        "city": null,
        "state": "Belize District",
        "postcode": null,
        "country": "Belize",
        "country_code": "bz"
      },
      "address": "358, San Pedro, 99063 Belize District, Belize"
    },
    {
      "lat": 17.87703894956111,
      "lon": -87.98360701578567,
      "geoinfo": {
        "display_name": "Boca Ciega, San Pedro Town, Belize",
        "road": null,
        "house_number": null,
        "neighbourhood": null,
        "suburb": null,
        "city_district": null,
        "city": "San Pedro Town",
        "state": null,
        "postcode": null,
        "country": "Belize",
        "country_code": "bz"
      },
      "address": "094, Boca Ciega, 83976 San Pedro Town, Belize"
    },
    {
      "lat": 17.882087636921685,
      "lon": -87.9437750854117,
      "geoinfo": {
        "display_name": "Belize District, Belize",
        "road": null,
        "house_number": null,
        "neighbourhood": null,
        "suburb": null,
        "city_district": null,
        "city": null,
        "state": "Belize District",
        "postcode": null,
        "country": "Belize",
        "country_code": "bz"
      },
      "address": "863, San Pedro, 80126 Belize District, Belize"
    },
    {
      "lat": 17.877318924152828,
      "lon": -87.96817194405769,
      "geoinfo": {
        "display_name": "Mosquito Coast, San Pedro Town, Belize",
        "road": null,
        "house_number": null,
        "neighbourhood": null,
        "suburb": null,
        "city_district": null,
        "city": "San Pedro Town",
        "state": null,
        "postcode": null,
        "country": "Belize",
        "country_code": "bz"
      },
      "address": "108, Mosquito Coast, 49454 San Pedro Town, Belize"
    }
  ],
  "updated_at": "2025-10-19T01:35:28.705690+00:00",
  "_kind": "geo_samples"
}