{
  "country_code": "ML",
  "country": "Mali",
  "city": "Kolokani",
  "geonameid": 2454955,
  "target_addresses": 2,
  "samples": [
    {
      "lat": 13.582359142402307,
      "lon": -7.995483092429188,
      "geoinfo": {
        "display_name": "RR8, Fadieda, Sirakoroba, Kolokani Cercle, Koulikoro, Mali",
        "road": "RR8",
        "house_number": null,
        "neighbourhood": null,
        "suburb": null,
        "city_district": null,
        "city": "Sirakoroba",
        "state": "Koulikoro",
        "postcode": null,
        "country": "Mali",
        "country_code": "ml"
      },
      "address": "RR8, Kolokani, Koulikoro, Mali"
    },
    {
      "lat": 13.611766787662505,
      "lon": -8.021137679043308,
      "geoinfo": {
        "display_name": "Kolokani, Kolokani Cercle, Koulikoro, Mali",
        "road": null,
        "house_number": null,
        "neighbourhood": null,
        "suburb": null,
        "city_district": null,
        "city": "Kolokani",
        "state": "Koulikoro",
        "postcode": null,
        "country": "Mali",
        "country_code": "ml"
      },
      "address": "Kolokani, Koulikoro, Mali"
    },
    {
      "lat": 13.588587956083327,
      "lon": -8.0133246849965,
      "geoinfo": {
        "display_name": "Koundogoni, Kolokani Cercle, Koulikoro, Mali",
        "road": null,
        "house_number": null,
        "neighbourhood": null,
        "suburb": null,
        "city_district": null,
        "city": "Koundogoni",
        "state": "Koulikoro",
        "postcode": null,
        "country": "Mali",
        "country_code": "ml"
      },
      "address": "719, Koundogoni, Kolokani Cercle, 00616 Koulikoro, Mali"
    },
    {
      "lat": 13.556858894805204,
      "lon": -8.00564237927318,
      "geoinfo": {
        "display_name": "Samba, Ngabakoro, Kolokani Cercle, Koulikoro, Mali",
        "road": null,
        "house_number": null,
        "neighbourhood": null,
        "suburb": null,
        "city_district": null,
        "city": "Ngabakoro",
        "state": "Koulikoro",
        "postcode": null,
        "country": "Mali",
        "country_code": "ml"
      },
      "address": "856, Kolokani, 58166 Koulikoro, Mali"
    }
  ],
  "updated_at": "2025-10-19T05:58:48.463762+00:00",
  "_kind": "geo_samples"
}