{
  "country_code": "ML",
  "country": "Mali",
  "city": "Koulikoro",
  "geonameid": 2454530,
  "target_addresses": 11,
  "samples": [
    {
      "lat": 12.871945506596315,
      "lon": -7.558682607940748,
      "geoinfo": {
        "display_name": "Koulikoro-Gare 1, Koulikoro, Koulikoro Cercle, Koulikoro, Mali",
        "road": null,
        "house_number": null,
        "neighbourhood": "Koulikoro-Gare 1",
        "suburb": null,
        "city_district": null,
        "city": "Koulikoro",
        "state": "Koulikoro",
        "postcode": null,
        "country": "Mali",
        "country_code": "ml"
      },
      "address": "Koulikoro-Gare 1, Koulikoro, Koulikoro, Mali"
    },
    {
      "lat": 12.898211863703535,
      "lon": -7.5344685423894635,
      "geoinfo": {
        "display_name": "ATTbougou, Koulikoroba, Koulikoro, Koulikoro Cercle, Koulikoro, Mali",
        "road": null,
        "house_number": null,
        "neighbourhood": "ATTbougou",
        "suburb": "Koulikoroba",
        "city_district": null,
        "city": "Koulikoro",
        "state": "Koulikoro",
        "postcode": null,
        "country": "Mali",
        "country_code": "ml"
      },
      "address": "ATTbougou, Koulikoro, Koulikoro, Mali"
    },
    {
      "lat": 12.877819737633716,
      "lon": -7.558519685140506,
      "geoinfo": {
        "display_name": "Koulikoro-Gare 1, Koulikoroba, Koulikoro, Koulikoro Cercle, Koulikoro, Mali",
        "road": null,
        "house_number": null,
        "neighbourhood": "Koulikoro-Gare 1",
        "suburb": "Koulikoroba",
        "city_district": null,
        "city": "Koulikoro",
        "state": "Koulikoro",
        "postcode": null,
        "country": "Mali",
        "country_code": "ml"
      },
      "address": "Koulikoro-Gare 1, Koulikoroba, Koulikoro, Koulikoro Cercle, Koulikoro, Mali"
    },
    {
      "lat": 12.878196436446526,
      "lon": -7.596952715521294,
      "geoinfo": {
        "display_name": "Koulikoro, Koulikoro Cercle, Koulikoro, Mali",
        "road": null,
        "house_number": null,
        "neighbourhood": null,
        "suburb": null,
        "city_district": null,
        "city": "Koulikoro",
        "state": "Koulikoro",
        "postcode": null,
        "country": "Mali",
        "country_code": "ml"
      },
      "address": "525, Koulikoro, Koulikoro Cercle, 34452 Koulikoro, Mali"
    },
    {
      "lat": 12.825782632971025,
      "lon": -7.542755993407326,
      "geoinfo": {
        "display_name": "Fegoun, Koulikoro Cercle, Koulikoro, Mali",
        "road": null,
        "house_number": null,
        "neighbourhood": null,
        "suburb": null,
        "city_district": null,
        "city": "Fegoun",
        "state": "Koulikoro",
        "postcode": null,
        "country": "Mali",
        "country_code": "ml"
      },
      "address": "918, Fegoun, Koulikoro Cercle, 29621 Koulikoro, Mali"
    },
    {
      "lat": 12.851903119785513,
      "lon": -7.551029067470918,
      "geoinfo": {
        "display_name": "Fegoun, Koulikoro Cercle, Koulikoro, Mali",
        "road": null,
        "house_number": null,
        "neighbourhood": null,
        "suburb": null,
        "city_district": null,
        "city": "Fegoun",
        "state": "Koulikoro",
        "postcode": null,
        "country": "Mali",
        "country_code": "ml"
      },
      "address": "101, Fegoun, Koulikoro Cercle, 49990 Koulikoro, Mali"
    },
    {
      "lat": 12.862169086914594,
      "lon": -7.516456225646385,
      "geoinfo": {
        "display_name": "Koulikoro, Koulikoro Cercle, Koulikoro, Mali",
        "road": null,
        "house_number": null,
        "neighbourhood": null,
        "suburb": null,
        "city_district": null,
        "city": "Koulikoro",
        "state": "Koulikoro",
        "postcode": null,
        "country": "Mali",
        "country_code": "ml"
      },
      "address": "917, Koulikoro, Koulikoro Cercle, 72131 Koulikoro, Mali"
    },
    {
      "lat": 12.862654272902809,
      "lon": -7.5360923085433225,
      "geoinfo": {
        "display_name": "Bodogo, Fegoun, Koulikoro Cercle, Koulikoro, Mali",
        "road": null,
        "house_number": null,
        "neighbourhood": null,
        "suburb": null,
        "city_district": null,
        "city": "Fegoun",
        "state": "Koulikoro",
        "postcode": null,
        "country": "Mali",
        "country_code": "ml"
      },
      "address": "784, Koulikoro, 60527 Koulikoro, Mali"
    },
    {
      "lat": 12.86971919840689,
      "lon": -7.516295147361024,
      "geoinfo": {
        "display_name": "Koulikoro, Koulikoro Cercle, Koulikoro, Mali",
        "road": null,
        "house_number": null,
        "neighbourhood": null,
        "suburb": null,
        "city_district": null,
        "city": "Koulikoro",
        "state": "Koulikoro",
        "postcode": null,
        "country": "Mali",
        "country_code": "ml"
      },
      "address": "143, Koulikoro, Koulikoro Cercle, 66241 Koulikoro, Mali"
    },
    {
      "lat": 12.845614237735077,
      "lon": -7.540073102674915,
      "geoinfo": {
        "display_name": "Fegoun, Koulikoro Cercle, Koulikoro, Mali",
        "road": null,
        "house_number": null,
        "neighbourhood": null,
        "suburb": null,
        "city_district": null,
        "city": "Fegoun",
        "state": "Koulikoro",
        "postcode": null,
        "country": "Mali",
        "country_code": "ml"
      },
      "address": "894, Fegoun, Koulikoro Cercle, 73659 Koulikoro, Mali"
    },
    {
      "lat": 12.874158570344601,
      "lon": -7.534085616440387,
      "geoinfo": {
        "display_name": "Koulikoroba, Gouni, Koulikoro Cercle, Koulikoro, Mali",
        "road": null,
        "house_number": null,
        "neighbourhood": null,
        "suburb": "Koulikoroba",
        "city_district": null,
        "city": "Gouni",
        "state": "Koulikoro",
        "postcode": null,
        "country": "Mali",
        "country_code": "ml"
      },
      "address": "389, Koulikoroba, Koulikoro, 64547 Koulikoro, Mali"
    }
  ],
  "updated_at": "2025-10-19T05:44:27.619640+00:00",
  "_kind": "geo_samples"
}