{
  "country_code": "ML",
  "country": "Mali",
  "city": "Niono",
  "geonameid": 2452655,
  "target_addresses": 2,
  "samples": [
    {
      "lat": 14.268873560041902,
      "lon": -5.952746713628638,
      "geoinfo": {
        "display_name": "Soroweli, Niono Cercle, Ségou Region, Mali",
        "road": null,
        "house_number": null,
        "neighbourhood": null,
        "suburb": null,
        "city_district": null,
        "city": "Soroweli",
        "state": "Ségou Region",
        "postcode": null,
        "country": "Mali",
        "country_code": "ml"
      },
      "address": "Niono, Ségou Region, Mali"
    },
    {
      "lat": 14.257679128414795,
      "lon": -5.96549471153852,
      "geoinfo": {
        "display_name": "Koloni Km26, Kouyan-Coura, Niono Cercle, Ségou Region, Mali",
        "road": null,
        "house_number": null,
        "neighbourhood": null,
        "suburb": "Koloni Km26",
        "city_district": null,
        "city": "Kouyan-Coura",
        "state": "Ségou Region",
        "postcode": null,
        "country": "Mali",
        "country_code": "ml"
      },
      "address": "Koloni Km26, Niono, Ségou Region, Mali"
    },
    {
      "lat": 14.235192660021394,
      "lon": -6.0035878940663885,
      "geoinfo": {
        "display_name": "RN27, Molodo-Centre, Niono Cercle, Ségou Region, Mali",
        "road": "RN27",
        "house_number": null,
        "neighbourhood": null,
        "suburb": null,
        "city_district": null,
        "city": "Molodo-Centre",
        "state": "Ségou Region",
        "postcode": null,
        "country": "Mali",
        "country_code": "ml"
      },
      "address": "RN27, Molodo-Centre, Niono Cercle, 53390 Ségou Region, Mali"
    },
    {
      "lat": 14.239713490100941,
      "lon": -5.9980808519669715,
      "geoinfo": {
        "display_name": "Route de Niono - Molodo, Koloni Km26, Kouyan-N'Golobala, Niono Cercle, Ségou Region, Mali",
        "road": "Route de Niono - Molodo",
        "house_number": null,
        "neighbourhood": null,
        "suburb": "Koloni Km26",
        "city_district": null,
        "city": "Kouyan-N'Golobala",
        "state": "Ségou Region",
        "postcode": null,
        "country": "Mali",
        "country_code": "ml"
      },
      "address": "034, Route de Niono - Molodo, Koloni Km26, Kouyan-N'Golobala, Niono Cercle, Ségou Region, Mali"
    }
  ],
  "updated_at": "2025-10-19T05:58:34.748347+00:00",
  "_kind": "geo_samples"
}