{
  "country_code": "KR",
  "country": "South Korea",
  "city": "Seongnam-si",
  "geonameid": 1897000,
  "target_addresses": 4,
  "samples": [
    {
      "lat": 37.43813995164572,
      "lon": 127.09687334998216,
      "geoinfo": {
        "display_name": "Deungja-ro 60beon-gil, Sujeong-gu, Seongnam-si, 13105, South Korea",
        "road": "Deungja-ro 60beon-gil",
        "house_number": null,
        "neighbourhood": null,
        "suburb": null,
        "city_district": null,
        "city": "Seongnam-si",
        "state": null,
        "postcode": "13105",
        "country": "South Korea",
        "country_code": "kr"
      },
      "address": "Deungja-ro 60beon-gil, Seongnam-si, South Korea"
    },
    {
      "lat": 37.45446647231046,
      "lon": 127.18055667778701,
      "geoinfo": {
        "display_name": "Sejong-Pocheon Expressway, Eunhaeng-dong, Jungwon-gu, Seongnam-si, Gyeonggi, 13203, South Korea",
        "road": "Sejong-Pocheon Expressway",
        "house_number": null,
        "neighbourhood": null,
        "suburb": null,
        "city_district": null,
        "city": "Seongnam-si",
        "state": null,
        "postcode": "13203",
        "country": "South Korea",
        "country_code": "kr"
      },
      "address": "022, Sejong-Pocheon Expressway, Eunhaeng-dong, Jungwon-gu, Seongnam-si, Gyeonggi, 13203, South Korea"
    },
    {
      "lat": 37.43393162911612,
      "lon": 127.15169195472433,
      "geoinfo": {
        "display_name": "Gongwon-ro, Jungang-dong, Jungwon-gu, Seongnam-si, 13390, South Korea",
        "road": "Gongwon-ro",
        "house_number": null,
        "neighbourhood": null,
        "suburb": null,
        "city_district": null,
        "city": "Seongnam-si",
        "state": null,
        "postcode": "13390",
        "country": "South Korea",
        "country_code": "kr"
      },
      "address": "351, Gongwon-ro, Jungang-dong, Jungwon-gu, Seongnam-si, 13390, South Korea"
    },
    {
      "lat": 37.449592489984695,
      "lon": 127.16896954193528,
      "geoinfo": {
        "display_name": "숭신여고, Hwangsong-ro 77beon-gil, Geumgwang-dong, Jungwon-gu, Seongnam-si, 13165, South Korea",
        "road": "Hwangsong-ro 77beon-gil",
        "house_number": null,
        "neighbourhood": null,
        "suburb": null,
        "city_district": null,
        "city": "Seongnam-si",
        "state": null,
        "postcode": "13165",
        "country": "South Korea",
        "country_code": "kr"
      },
      "address": "숭신여고, Hwangsong-ro 77beon-gil, Geumgwang-dong, Jungwon-gu, Seongnam-si, 13165, South Korea"
    }
  ],
  "updated_at": "2025-10-19T05:18:44.376555+00:00",
  "_kind": "geo_samples"
}