{
  "country_code": "LK",
  "country": "Sri Lanka",
  "city": "Homagama",
  "geonameid": 1243936,
  "target_addresses": 2,
  "samples": [
    {
      "lat": 6.846602682935757,
      "lon": 80.02549077739364,
      "geoinfo": {
        "display_name": "Pitipana Junction, Gabadawatte, Godagama, Colombo District, Western Province, 10200, Sri Lanka",
        "road": null,
        "house_number": null,
        "neighbourhood": "Pitipana Junction",
        "suburb": null,
        "city_district": null,
        "city": "Godagama",
        "state": "Western Province",
        "postcode": "10200",
        "country": "Sri Lanka",
        "country_code": "lk"
      },
      "address": "Pitipana Junction, Homagama, Western Province, Sri Lanka"
    },
    {
      "lat": 6.856795990058268,
      "lon": 80.02752986305624,
      "geoinfo": {
        "display_name": "Godagama Junction, Godagama, Colombo District, Western Province, 10200, Sri Lanka",
        "road": null,
        "house_number": null,
        "neighbourhood": "Godagama Junction",
        "suburb": null,
        "city_district": null,
        "city": "Godagama",
        "state": "Western Province",
        "postcode": "10200",
        "country": "Sri Lanka",
        "country_code": "lk"
      },
      "address": "Godagama Junction, Homagama, Western Province, Sri Lanka"
    },
    {
      "lat": 6.812466053194905,
      "lon": 80.02834487119941,
      "geoinfo": {
        "display_name": "Pitipana, Kiriwattuduwa, Colombo District, Western Province, 10200, Sri Lanka",
        "road": null,
        "house_number": null,
        "neighbourhood": null,
        "suburb": null,
        "city_district": null,
        "city": "Kiriwattuduwa",
        "state": "Western Province",
        "postcode": "10200",
        "country": "Sri Lanka",
        "country_code": "lk"
      },
      "address": "628, Pitipana, Kiriwattuduwa, Colombo District, Western Province, 10200, Sri Lanka"
    },
    {
      "lat": 6.81390853114924,
      "lon": 80.00825977801922,
      "geoinfo": {
        "display_name": "Temple Road, Moonamale Watta, Diyagama, Colombo District, Western Province, 10200, Sri Lanka",
        "road": "Temple Road",
        "house_number": null,
        "neighbourhood": null,
        "suburb": null,
        "city_district": null,
        "city": "Diyagama",
        "state": "Western Province",
        "postcode": "10200",
        "country": "Sri Lanka",
        "country_code": "lk"
      },
      "address": "369, Temple Road, Moonamale Watta, Diyagama, Colombo District, Western Province, 10200, Sri Lanka"
    }
  ],
  "updated_at": "2025-10-19T05:43:42.863367+00:00",
  "_kind": "geo_samples"
}