{
  "country_code": "LK",
  "country": "Sri Lanka",
  "city": "Maharagama",
  "geonameid": 1236854,
  "target_addresses": 2,
  "samples": [
    {
      "lat": 6.858880826677712,
      "lon": 79.90963054847332,
      "geoinfo": {
        "display_name": "Sri Wijayarama Lane, Wijerama Junction, Nawinna, Delkanda, Colombo District, Western Province, 10290, Sri Lanka",
        "road": "Sri Wijayarama Lane",
        "house_number": null,
        "neighbourhood": "Wijerama Junction",
        "suburb": null,
        "city_district": null,
        "city": "Delkanda",
        "state": "Western Province",
        "postcode": "10290",
        "country": "Sri Lanka",
        "country_code": "lk"
      },
      "address": "Sri Wijayarama Lane, Maharagama, Western Province, Sri Lanka"
    },
    {
      "lat": 6.876289059985338,
      "lon": 79.9059095120555,
      "geoinfo": {
        "display_name": "Jubilee Post, Mirihana, Sri Jayawardenepura Kotte, Colombo District, Western Province, 23010, Sri Lanka",
        "road": null,
        "house_number": null,
        "neighbourhood": "Jubilee Post",
        "suburb": "Mirihana",
        "city_district": null,
        "city": "Sri Jayawardenepura Kotte",
        "state": "Western Province",
        "postcode": "23010",
        "country": "Sri Lanka",
        "country_code": "lk"
      },
      "address": "Jubilee Post, Maharagama, Western Province, Sri Lanka"
    },
    {
      "lat": 6.836726195119111,
      "lon": 79.92670432460135,
      "geoinfo": {
        "display_name": "Neelammahara Road, Neelammahara, Niwanthidiya, Maharagama, Colombo District, Western Province, 00290, Sri Lanka",
        "road": "Neelammahara Road",
        "house_number": null,
        "neighbourhood": null,
        "suburb": null,
        "city_district": null,
        "city": "Maharagama",
        "state": "Western Province",
        "postcode": "00290",
        "country": "Sri Lanka",
        "country_code": "lk"
      },
      "address": "087, Neelammahara Road, Neelammahara, Niwanthidiya, Maharagama, Colombo District, Western Province, 00290, Sri Lanka"
    },
    {
      "lat": 6.8421506449416345,
      "lon": 79.95413803246578,
      "geoinfo": {
        "display_name": "Dharmapala Mawatha, Kottawa, Colombo District, Western Province, 10230, Sri Lanka",
        "road": "Dharmapala Mawatha",
        "house_number": null,
        "neighbourhood": null,
        "suburb": "Kottawa",
        "city_district": null,
        "city": "Kottawa",
        "state": "Western Province",
        "postcode": "10230",
        "country": "Sri Lanka",
        "country_code": "lk"
      },
      "address": "492, Dharmapala Mawatha, Kottawa, Colombo District, Western Province, 10230, Sri Lanka"
    }
  ],
  "updated_at": "2025-10-19T04:06:00.501941+00:00",
  "_kind": "geo_samples"
}