{
  "country_code": "LK",
  "country": "Sri Lanka",
  "city": "Moratuwa",
  "geonameid": 1234633,
  "target_addresses": 2,
  "samples": [
    {
      "lat": 6.802661670112248,
      "lon": 79.8787261380557,
      "geoinfo": {
        "display_name": "Soysapura, Kaldemulla, Colombo District, Western Province, 10390, Sri Lanka",
        "road": null,
        "house_number": null,
        "neighbourhood": null,
        "suburb": "Soysapura",
        "city_district": null,
        "city": "Kaldemulla",
        "state": "Western Province",
        "postcode": "10390",
        "country": "Sri Lanka",
        "country_code": "lk"
      },
      "address": "Soysapura, Moratuwa, Western Province, Sri Lanka"
    },
    {
      "lat": 6.753553899645132,
      "lon": 79.84087721318276,
      "geoinfo": {
        "display_name": "Rawathawatta, Colombo District, Western Province, 10400, Sri Lanka",
        "road": null,
        "house_number": null,
        "neighbourhood": null,
        "suburb": null,
        "city_district": null,
        "city": "Rawathawatta",
        "state": "Western Province",
        "postcode": "10400",
        "country": "Sri Lanka",
        "country_code": "lk"
      },
      "address": "Moratuwa, Western Province, Sri Lanka"
    },
    {
      "lat": 6.7738926029870425,
      "lon": 79.92101586269447,
      "geoinfo": {
        "display_name": "Dampe, Kesbewa, Colombo District, Western Province, 10306, Sri Lanka",
        "road": null,
        "house_number": null,
        "neighbourhood": null,
        "suburb": null,
        "city_district": null,
        "city": "Kesbewa",
        "state": "Western Province",
        "postcode": "10306",
        "country": "Sri Lanka",
        "country_code": "lk"
      },
      "address": "625, Dampe, Kesbewa, Colombo District, Western Province, 10306, Sri Lanka"
    },
    {
      "lat": 6.758430157218242,
      "lon": 79.84729721444035,
      "geoinfo": {
        "display_name": "Rawathawatta, Colombo District, Western Province, 10400, Sri Lanka",
        "road": null,
        "house_number": null,
        "neighbourhood": null,
        "suburb": null,
        "city_district": null,
        "city": "Rawathawatta",
        "state": "Western Province",
        "postcode": "10400",
        "country": "Sri Lanka",
        "country_code": "lk"
      },
      "address": "760, Rawathawatta, Colombo District, Western Province, 10400, Sri Lanka"
    }
  ],
  "updated_at": "2025-10-19T03:43:39.461003+00:00",
  "_kind": "geo_samples"
}