{
  "country_code": "LK",
  "country": "Sri Lanka",
  "city": "Mulleriyawa",
  "geonameid": 1234378,
  "target_addresses": 2,
  "samples": [
    {
      "lat": 6.949851385342899,
      "lon": 79.89283691301739,
      "geoinfo": {
        "display_name": "Weliwatte, Kelani Nadeegama, Colombo District, Western Province, 10600, Sri Lanka",
        "road": null,
        "house_number": null,
        "neighbourhood": null,
        "suburb": null,
        "city_district": null,
        "city": "Kelani Nadeegama",
        "state": "Western Province",
        "postcode": "10600",
        "country": "Sri Lanka",
        "country_code": "lk"
      },
      "address": "Mulleriyawa, Western Province, Sri Lanka"
    },
    {
      "lat": 6.907547570684766,
      "lon": 79.89925596899022,
      "geoinfo": {
        "display_name": "Rajagiriya Garden, Rajagiriya, Sri Jayawardenepura Kotte, Colombo District, Western Province, 10100, Sri Lanka",
        "road": null,
        "house_number": null,
        "neighbourhood": "Rajagiriya Garden",
        "suburb": "Rajagiriya",
        "city_district": null,
        "city": "Sri Jayawardenepura Kotte",
        "state": "Western Province",
        "postcode": "10100",
        "country": "Sri Lanka",
        "country_code": "lk"
      },
      "address": "Rajagiriya Garden, Mulleriyawa, Western Province, Sri Lanka"
    },
    {
      "lat": 6.958440775305985,
      "lon": 79.89258046695844,
      "geoinfo": {
        "display_name": "Bandaranaika Road, 4th Mile Post, Peliyagoda, Pattiya, Gampaha District, Western Province, 10600, Sri Lanka",
        "road": "Bandaranaika Road",
        "house_number": null,
        "neighbourhood": "4th Mile Post",
        "suburb": "Peliyagoda",
        "city_district": null,
        "city": "Pattiya",
        "state": "Western Province",
        "postcode": "10600",
        "country": "Sri Lanka",
        "country_code": "lk"
      },
      "address": "Bandaranaika Road, 4th Mile Post, Peliyagoda, Pattiya, Gampaha District, Western Province, 10600, Sri Lanka"
    },
    {
      "lat": 6.957860733048612,
      "lon": 79.96244526979385,
      "geoinfo": {
        "display_name": "Mabima, Gampaha District, Western Province, 11640, Sri Lanka",
        "road": null,
        "house_number": null,
        "neighbourhood": null,
        "suburb": null,
        "city_district": null,
        "city": "Mabima",
        "state": "Western Province",
        "postcode": "11640",
        "country": "Sri Lanka",
        "country_code": "lk"
      },
      "address": "391, Mulleriyawa, 11640 Western Province, Sri Lanka"
    }
  ],
  "updated_at": "2025-10-19T05:23:09.523182+00:00",
  "_kind": "geo_samples"
}