{
  "country_code": "LK",
  "country": "Sri Lanka",
  "city": "Panadura",
  "geonameid": 1231410,
  "target_addresses": 10,
  "samples": [
    {
      "lat": 6.717799735885577,
      "lon": 79.90766332998109,
      "geoinfo": {
        "display_name": "Galle Road, Walana, Panadura DS Division, Kalutara District, Western Province, 12500, Sri Lanka",
        "road": "Galle Road",
        "house_number": null,
        "neighbourhood": null,
        "suburb": null,
        "city_district": null,
        "city": "Walana",
        "state": "Western Province",
        "postcode": "12500",
        "country": "Sri Lanka",
        "country_code": "lk"
      },
      "address": "Galle Road, Panadura, Western Province, Sri Lanka"
    },
    {
      "lat": 6.708596871867504,
      "lon": 79.86941921551713,
      "geoinfo": {
        "display_name": "Wadduwa, Panadura DS Division, Kalutara District, Western Province, 12560, Sri Lanka",
        "road": null,
        "house_number": null,
        "neighbourhood": null,
        "suburb": null,
        "city_district": null,
        "city": "Wadduwa",
        "state": "Western Province",
        "postcode": "12560",
        "country": "Sri Lanka",
        "country_code": "lk"
      },
      "address": "Panadura, Western Province, Sri Lanka"
    },
    {
      "lat": 6.712706836660289,
      "lon": 79.8624891700376,
      "geoinfo": {
        "display_name": "Rawathawatta, Colombo District, Western Province, 10400, Sri Lanka",
        "road": null,
        "house_number": null,
        "neighbourhood": null,
        "suburb": null,
        "city_district": null,
        "city": "Rawathawatta",
        "state": "Western Province",
        "postcode": "10400",
        "country": "Sri Lanka",
        "country_code": "lk"
      },
      "address": "Rawathawatta, Colombo District, Western Province, 10400, Sri Lanka"
    },
    {
      "lat": 6.680612706247737,
      "lon": 79.8717774977626,
      "geoinfo": {
        "display_name": "Wadduwa, Panadura DS Division, Kalutara District, Western Province, 12560, Sri Lanka",
        "road": null,
        "house_number": null,
        "neighbourhood": null,
        "suburb": null,
        "city_district": null,
        "city": "Wadduwa",
        "state": "Western Province",
        "postcode": "12560",
        "country": "Sri Lanka",
        "country_code": "lk"
      },
      "address": "934, Wadduwa, Panadura DS Division, Kalutara District, Western Province, 12560, Sri Lanka"
    },
    {
      "lat": 6.75180761667063,
      "lon": 79.89566675340335,
      "geoinfo": {
        "display_name": "Sarikkamulla, Panadura DS Division, Kalutara District, Western Province, 12550, Sri Lanka",
        "road": null,
        "house_number": null,
        "neighbourhood": null,
        "suburb": null,
        "city_district": null,
        "city": "Sarikkamulla",
        "state": "Western Province",
        "postcode": "12550",
        "country": "Sri Lanka",
        "country_code": "lk"
      },
      "address": "796, Sarikkamulla, Panadura DS Division, Kalutara District, Western Province, 12550, Sri Lanka"
    },
    {
      "lat": 6.703103443542521,
      "lon": 79.90298610755845,
      "geoinfo": {
        "display_name": "Jie Jie Beach, Samudra Mawatha, Panadura DS Division, Kalutara District, Western Province, 12500, Sri Lanka",
        "road": "Samudra Mawatha",
        "house_number": null,
        "neighbourhood": null,
        "suburb": null,
        "city_district": null,
        "city": null,
        "state": "Western Province",
        "postcode": "12500",
        "country": "Sri Lanka",
        "country_code": "lk"
      },
      "address": "614, Samudra Mawatha, Panadura, 12500 Western Province, Sri Lanka"
    },
    {
      "lat": 6.698558719368333,
      "lon": 79.8912822972773,
      "geoinfo": {
        "display_name": "Walana, Panadura DS Division, Kalutara District, Western Province, 12500, Sri Lanka",
        "road": null,
        "house_number": null,
        "neighbourhood": null,
        "suburb": null,
        "city_district": null,
        "city": "Walana",
        "state": "Western Province",
        "postcode": "12500",
        "country": "Sri Lanka",
        "country_code": "lk"
      },
      "address": "415, Walana, Panadura DS Division, Kalutara District, Western Province, 12500, Sri Lanka"
    },
    {
      "lat": 6.71765059342113,
      "lon": 79.89183945228328,
      "geoinfo": {
        "display_name": "Rawathawatta, Colombo District, Western Province, 10400, Sri Lanka",
        "road": null,
        "house_number": null,
        "neighbourhood": null,
        "suburb": null,
        "city_district": null,
        "city": "Rawathawatta",
        "state": "Western Province",
        "postcode": "10400",
        "country": "Sri Lanka",
        "country_code": "lk"
      },
      "address": "271, Rawathawatta, Colombo District, Western Province, 10400, Sri Lanka"
    },
    {
      "lat": 6.7135679796538,
      "lon": 79.92505409475113,
      "geoinfo": {
        "display_name": "Eluwila, Bandaragama DS Division, Kalutara District, Western Province, 12500, Sri Lanka",
        "road": null,
        "house_number": null,
        "neighbourhood": null,
        "suburb": "Eluwila",
        "city_district": null,
        "city": null,
        "state": "Western Province",
        "postcode": "12500",
        "country": "Sri Lanka",
        "country_code": "lk"
      },
      "address": "700, Eluwila, Panadura, 12500 Western Province, Sri Lanka"
    },
    {
      "lat": 6.7225873764946575,
      "lon": 79.91002555047397,
      "geoinfo": {
        "display_name": "Walana, Panadura DS Division, Kalutara District, Western Province, 12500, Sri Lanka",
        "road": null,
        "house_number": null,
        "neighbourhood": null,
        "suburb": null,
        "city_district": null,
        "city": "Walana",
        "state": "Western Province",
        "postcode": "12500",
        "country": "Sri Lanka",
        "country_code": "lk"
      },
      "address": "447, Walana, Panadura DS Division, Kalutara District, Western Province, 12500, Sri Lanka"
    }
  ],
  "updated_at": "2025-10-19T05:34:30.716454+00:00",
  "_kind": "geo_samples"
}