{
  "country_code": "LK",
  "country": "Sri Lanka",
  "city": "Trincomalee",
  "geonameid": 1226260,
  "target_addresses": 10,
  "samples": [
    {
      "lat": 8.590627602391407,
      "lon": 81.22138188112126,
      "geoinfo": {
        "display_name": "Abeypura Junction, Trincomalee, Trincomalee District, Eastern Province, 32100, Sri Lanka",
        "road": null,
        "house_number": null,
        "neighbourhood": null,
        "suburb": null,
        "city_district": null,
        "city": "Trincomalee",
        "state": "Eastern Province",
        "postcode": "32100",
        "country": "Sri Lanka",
        "country_code": "lk"
      },
      "address": "Trincomalee, Eastern Province, Sri Lanka"
    },
    {
      "lat": 8.55547648670156,
      "lon": 81.19425721700118,
      "geoinfo": {
        "display_name": "Lanka Fuel Station, Trincomalee-Batticaloa Road, 4th Mile Post, Sinhapura, Trincomalee District, Eastern Province, 31003, Sri Lanka",
        "road": "Trincomalee-Batticaloa Road",
        "house_number": null,
        "neighbourhood": null,
        "suburb": null,
        "city_district": null,
        "city": "Sinhapura",
        "state": "Eastern Province",
        "postcode": "31003",
        "country": "Sri Lanka",
        "country_code": "lk"
      },
      "address": "Trincomalee-Batticaloa Road, Trincomalee, Eastern Province, Sri Lanka"
    },
    {
      "lat": 8.621556559378813,
      "lon": 81.2270830212819,
      "geoinfo": {
        "display_name": "Trincomalee, Trincomalee District, Eastern Province, 31232, Sri Lanka",
        "road": null,
        "house_number": null,
        "neighbourhood": null,
        "suburb": null,
        "city_district": null,
        "city": "Trincomalee",
        "state": "Eastern Province",
        "postcode": "31232",
        "country": "Sri Lanka",
        "country_code": "lk"
      },
      "address": "Trincomalee, Trincomalee District, Eastern Province, 31232, Sri Lanka"
    },
    {
      "lat": 8.557087420897815,
      "lon": 81.2589959176741,
      "geoinfo": {
        "display_name": "Trincomalee, Trincomalee District, Eastern Province, 32100, Sri Lanka",
        "road": null,
        "house_number": null,
        "neighbourhood": null,
        "suburb": null,
        "city_district": null,
        "city": "Trincomalee",
        "state": "Eastern Province",
        "postcode": "32100",
        "country": "Sri Lanka",
        "country_code": "lk"
      },
      "address": "549, Trincomalee, Trincomalee District, Eastern Province, 32100, Sri Lanka"
    },
    {
      "lat": 8.570165366951501,
      "lon": 81.21065218739716,
      "geoinfo": {
        "display_name": "Trincomalee, Trincomalee District, Eastern Province, 31003, Sri Lanka",
        "road": null,
        "house_number": null,
        "neighbourhood": null,
        "suburb": null,
        "city_district": null,
        "city": "Trincomalee",
        "state": "Eastern Province",
        "postcode": "31003",
        "country": "Sri Lanka",
        "country_code": "lk"
      },
      "address": "788, Trincomalee, Trincomalee District, Eastern Province, 31003, Sri Lanka"
    },
    {
      "lat": 8.554867981804149,
      "lon": 81.22431395018766,
      "geoinfo": {
        "display_name": "Dockyard Road, Trincomalee, Trincomalee District, Eastern Province, 32100, Sri Lanka",
        "road": "Dockyard Road",
        "house_number": null,
        "neighbourhood": null,
        "suburb": null,
        "city_district": null,
        "city": "Trincomalee",
        "state": "Eastern Province",
        "postcode": "32100",
        "country": "Sri Lanka",
        "country_code": "lk"
      },
      "address": "670, Dockyard Road, Trincomalee, Trincomalee District, Eastern Province, 32100, Sri Lanka"
    },
    {
      "lat": 8.554389540950257,
      "lon": 81.23426418562308,
      "geoinfo": {
        "display_name": "Trincomalee, Trincomalee District, Eastern Province, Sri Lanka",
        "road": null,
        "house_number": null,
        "neighbourhood": null,
        "suburb": null,
        "city_district": null,
        "city": "Trincomalee",
        "state": "Eastern Province",
        "postcode": null,
        "country": "Sri Lanka",
        "country_code": "lk"
      },
      "address": "843, Trincomalee, Trincomalee District, 94515 Eastern Province, Sri Lanka"
    },
    {
      "lat": 8.595533863813895,
      "lon": 81.20890461034392,
      "geoinfo": {
        "display_name": "Trincomalee, Trincomalee District, Eastern Province, 32100, Sri Lanka",
        "road": null,
        "house_number": null,
        "neighbourhood": null,
        "suburb": null,
        "city_district": null,
        "city": "Trincomalee",
        "state": "Eastern Province",
        "postcode": "32100",
        "country": "Sri Lanka",
        "country_code": "lk"
      },
      "address": "503, Trincomalee, Trincomalee District, Eastern Province, 32100, Sri Lanka"
    },
    {
      "lat": 8.598621825063105,
      "lon": 81.1906630675887,
      "geoinfo": {
        "display_name": "Sinhapura, Trincomalee District, Eastern Province, 31003, Sri Lanka",
        "road": null,
        "house_number": null,
        "neighbourhood": null,
        "suburb": null,
        "city_district": null,
        "city": "Sinhapura",
        "state": "Eastern Province",
        "postcode": "31003",
        "country": "Sri Lanka",
        "country_code": "lk"
      },
      "address": "276, Sinhapura, Trincomalee District, Eastern Province, 31003, Sri Lanka"
    },
    {
      "lat": 8.557117286501079,
      "lon": 81.23574593291488,
      "geoinfo": {
        "display_name": "Trincomalee, Trincomalee District, Eastern Province, 32100, Sri Lanka",
        "road": null,
        "house_number": null,
        "neighbourhood": null,
        "suburb": null,
        "city_district": null,
        "city": "Trincomalee",
        "state": "Eastern Province",
        "postcode": "32100",
        "country": "Sri Lanka",
        "country_code": "lk"
      },
      "address": "795, Trincomalee, Trincomalee District, Eastern Province, 32100, Sri Lanka"
    }
  ],
  "updated_at": "2025-10-19T05:34:09.655552+00:00",
  "_kind": "geo_samples"
}