{
  "country_code": "LK",
  "country": "Sri Lanka",
  "city": "Wattala",
  "geonameid": 1224085,
  "target_addresses": 2,
  "samples": [
    {
      "lat": 6.985407035695593,
      "lon": 79.89949946796816,
      "geoinfo": {
        "display_name": "Colombo - Katunayake Expressway, Hunupitiya North, Hunupitiya, Gampaha District, Western Province, 11300, Sri Lanka",
        "road": "Colombo - Katunayake Expressway",
        "house_number": null,
        "neighbourhood": null,
        "suburb": null,
        "city_district": null,
        "city": "Hunupitiya",
        "state": "Western Province",
        "postcode": "11300",
        "country": "Sri Lanka",
        "country_code": "lk"
      },
      "address": "Colombo - Katunayake Expressway, Wattala, Western Province, Sri Lanka"
    },
    {
      "lat": 6.973048286939038,
      "lon": 79.9171742433876,
      "geoinfo": {
        "display_name": "University of Kelaniya, Colombo - Kandy Road, Tyre Junction, Dalugama, Kelaniya, Gampaha District, Western Province, 11600, Sri Lanka",
        "road": "Colombo - Kandy Road",
        "house_number": null,
        "neighbourhood": "Tyre Junction",
        "suburb": null,
        "city_district": null,
        "city": "Kelaniya",
        "state": "Western Province",
        "postcode": "11600",
        "country": "Sri Lanka",
        "country_code": "lk"
      },
      "address": "Colombo - Kandy Road, Wattala, Western Province, Sri Lanka"
    },
    {
      "lat": 6.965316379146691,
      "lon": 79.88990245214829,
      "geoinfo": {
        "display_name": "Peliyagoda, Pattiya, Gampaha District, Western Province, 00150, Sri Lanka",
        "road": null,
        "house_number": null,
        "neighbourhood": null,
        "suburb": "Peliyagoda",
        "city_district": null,
        "city": "Pattiya",
        "state": "Western Province",
        "postcode": "00150",
        "country": "Sri Lanka",
        "country_code": "lk"
      },
      "address": "945, Peliyagoda, Pattiya, Gampaha District, Western Province, 00150, Sri Lanka"
    },
    {
      "lat": 7.002046923103434,
      "lon": 79.93196707515808,
      "geoinfo": {
        "display_name": "Dalupitiya, Kadawatha, Gampaha District, Western Province, 00222, Sri Lanka",
        "road": null,
        "house_number": null,
        "neighbourhood": null,
        "suburb": null,
        "city_district": null,
        "city": "Kadawatha",
        "state": "Western Province",
        "postcode": "00222",
        "country": "Sri Lanka",
        "country_code": "lk"
      },
      "address": "494, Wattala, 00222 Western Province, Sri Lanka"
    }
  ],
  "updated_at": "2025-10-19T05:45:51.199925+00:00",
  "_kind": "geo_samples"
}