{
  "country_code": "MQ",
  "country": "Martinique",
  "city": "Ducos",
  "geonameid": 3570785,
  "target_addresses": 13,
  "samples": [
    {
      "lat": 14.549368948433226,
      "lon": -60.964972025537044,
      "geoinfo": {
        "display_name": "5, Lotissement les Alizés, Petit Morne, Petit-Bourg, Rivière-Salée, Le Marin, Martinique, 97215, France",
        "road": "Lotissement les Alizés",
        "house_number": "5",
        "neighbourhood": "Petit Morne",
        "suburb": "Petit-Bourg",
        "city_district": null,
        "city": "Rivière-Salée",
        "state": "Martinique",
        "postcode": "97215",
        "country": "France",
        "country_code": "fr"
      },
      "address": "5 Lotissement les Alizés, Ducos, Martinique, Martinique"
    },
    {
      "lat": 14.592088889584513,
      "lon": -61.000779734675966,
      "geoinfo": {
        "display_name": "Martinique Aimé Césaire International Airport, N 5, Le Lamentin, Fort-de-France, Martinique, 97232, France",
        "road": "N 5",
        "house_number": null,
        "neighbourhood": null,
        "suburb": null,
        "city_district": null,
        "city": "Le Lamentin",
        "state": "Martinique",
        "postcode": "97232",
        "country": "France",
        "country_code": "fr"
      },
      "address": "N 5, Ducos, Martinique, Martinique"
    },
    {
      "lat": 14.554969461740491,
      "lon": -60.9766897282372,
      "geoinfo": {
        "display_name": "Impasse du Tonnelier, Dikos, Le Marin, Martinique, 97224, France",
        "road": "Impasse du Tonnelier",
        "house_number": null,
        "neighbourhood": null,
        "suburb": null,
        "city_district": null,
        "city": "Dikos",
        "state": "Martinique",
        "postcode": "97224",
        "country": "France",
        "country_code": "fr"
      },
      "address": "Impasse du Tonnelier, Ducos, Martinique, Martinique"
    },
    {
      "lat": 14.550057542388206,
      "lon": -60.97631978935748,
      "geoinfo": {
        "display_name": "Route Nationale 5, Dikos, Le Marin, Martinique, 97224, France",
        "road": "Route Nationale 5",
        "house_number": null,
        "neighbourhood": null,
        "suburb": null,
        "city_district": null,
        "city": "Dikos",
        "state": "Martinique",
        "postcode": "97224",
        "country": "France",
        "country_code": "fr"
      },
      "address": "Route Nationale 5, Ducos, Martinique, Martinique"
    },
    {
      "lat": 14.568709053692997,
      "lon": -61.010167517143074,
      "geoinfo": {
        "display_name": "Martinique, France",
        "road": null,
        "house_number": null,
        "neighbourhood": null,
        "suburb": null,
        "city_district": null,
        "city": null,
        "state": "Martinique",
        "postcode": null,
        "country": "France",
        "country_code": "fr"
      },
      "address": "Ducos, Martinique, Martinique"
    },
    {
      "lat": 14.566461767827333,
      "lon": -60.95297430666268,
      "geoinfo": {
        "display_name": "Impasse des Russelias, La Cheneaux, Dikos, Le Marin, Martinique, 97224, France",
        "road": "Impasse des Russelias",
        "house_number": null,
        "neighbourhood": "La Cheneaux",
        "suburb": null,
        "city_district": null,
        "city": "Dikos",
        "state": "Martinique",
        "postcode": "97224",
        "country": "France",
        "country_code": "fr"
      },
      "address": "Impasse des Russelias, Ducos, Martinique, Martinique"
    },
    {
      "lat": 14.551505961691484,
      "lon": -60.960647885800974,
      "geoinfo": {
        "display_name": "N 8, Rivière-Salée, Le Marin, Martinique, 97224, France",
        "road": "N 8",
        "house_number": null,
        "neighbourhood": null,
        "suburb": null,
        "city_district": null,
        "city": "Rivière-Salée",
        "state": "Martinique",
        "postcode": "97224",
        "country": "France",
        "country_code": "fr"
      },
      "address": "N 8, Ducos, Martinique, Martinique"
    },
    {
      "lat": 14.610662888079515,
      "lon": -60.954492970424766,
      "geoinfo": {
        "display_name": "N 2006, Le Lamentin, Fort-de-France, Martinique, 97232, France",
        "road": "N 2006",
        "house_number": null,
        "neighbourhood": null,
        "suburb": null,
        "city_district": null,
        "city": "Le Lamentin",
        "state": "Martinique",
        "postcode": "97232",
        "country": "France",
        "country_code": "fr"
      },
      "address": "N 2006, Ducos, Martinique, Martinique"
    },
    {
      "lat": 14.60079804214109,
      "lon": -60.95646414689017,
      "geoinfo": {
        "display_name": "Route Nationale 6, Quartier Fond d'Or, Dikos, Le Marin, Martinique, 97224, France",
        "road": "Route Nationale 6",
        "house_number": null,
        "neighbourhood": "Quartier Fond d'Or",
        "suburb": null,
        "city_district": null,
        "city": "Dikos",
        "state": "Martinique",
        "postcode": "97224",
        "country": "France",
        "country_code": "fr"
      },
      "address": "Route Nationale 6, Ducos, Martinique, Martinique"
    },
    {
      "lat": 14.576736635191052,
      "lon": -60.99358912695866,
      "geoinfo": {
        "display_name": "Route de Champigny, Dikos, Le Marin, Martinique, 97224, France",
        "road": "Route de Champigny",
        "house_number": null,
        "neighbourhood": null,
        "suburb": null,
        "city_district": null,
        "city": "Dikos",
        "state": "Martinique",
        "postcode": "97224",
        "country": "France",
        "country_code": "fr"
      },
      "address": "Route de Champigny, Ducos, Martinique, Martinique"
    },
    {
      "lat": 14.575079429533117,
      "lon": -60.9545284386967,
      "geoinfo": {
        "display_name": "Chemin la Régis, Lotissement Chatrou, Dikos, Le Marin, Martinique, 97224, France",
        "road": "Chemin la Régis",
        "house_number": null,
        "neighbourhood": "Lotissement Chatrou",
        "suburb": null,
        "city_district": null,
        "city": "Dikos",
        "state": "Martinique",
        "postcode": "97224",
        "country": "France",
        "country_code": "fr"
      },
      "address": "Chemin la Régis, Ducos, Martinique, Martinique"
    },
    {
      "lat": 14.561391452186518,
      "lon": -60.96900751308172,
      "geoinfo": {
        "display_name": "Route de Rivière la Manche, Vaudrancourt, Dikos, Le Marin, Martinique, 97224, France",
        "road": "Route de Rivière la Manche",
        "house_number": null,
        "neighbourhood": "Vaudrancourt",
        "suburb": null,
        "city_district": null,
        "city": "Dikos",
        "state": "Martinique",
        "postcode": "97224",
        "country": "France",
        "country_code": "fr"
      },
      "address": "Route de Rivière la Manche, Ducos, Martinique, Martinique"
    },
    {
      "lat": 14.559974659250686,
      "lon": -60.93771474419202,
      "geoinfo": {
        "display_name": "Parcours de Santé, Saint-Esprit, Le Marin, Martinique, 97270, France",
        "road": "Parcours de Santé",
        "house_number": null,
        "neighbourhood": null,
        "suburb": null,
        "city_district": null,
        "city": "Saint-Esprit",
        "state": "Martinique",
        "postcode": "97270",
        "country": "France",
        "country_code": "fr"
      },
      "address": "Parcours de Santé, Ducos, Martinique, Martinique"
    },
    {
      "lat": 14.559757394385715,
      "lon": -60.97479193253165,
      "geoinfo": {
        "display_name": "Chemin des Cristallines, Dikos, Le Marin, Martinique, 97224, France",
        "road": "Chemin des Cristallines",
        "house_number": null,
        "neighbourhood": null,
        "suburb": null,
        "city_district": null,
        "city": "Dikos",
        "state": "Martinique",
        "postcode": "97224",
        "country": "France",
        "country_code": "fr"
      },
      "address": "647, Chemin des Cristallines, Ducos, 97224 Martinique, Martinique"
    },
    {
      "lat": 14.581787342550987,
      "lon": -60.98852326108881,
      "geoinfo": {
        "display_name": "Z.I. Champigny, Dikos, Le Marin, Martinique, 97224, France",
        "road": null,
        "house_number": null,
        "neighbourhood": null,
        "suburb": null,
        "city_district": null,
        "city": "Dikos",
        "state": "Martinique",
        "postcode": "97224",
        "country": "France",
        "country_code": "fr"
      },
      "address": "294, Ducos, 97224 Martinique, Martinique"
    },
    {
      "lat": 14.585896844342543,
      "lon": -60.96050572721539,
      "geoinfo": {
        "display_name": "Allée de l'Abricotier, Morne Carette, Dikos, Le Marin, Martinique, 97224, France",
        "road": "Allée de l'Abricotier",
        "house_number": null,
        "neighbourhood": "Morne Carette",
        "suburb": null,
        "city_district": null,
        "city": "Dikos",
        "state": "Martinique",
        "postcode": "97224",
        "country": "France",
        "country_code": "fr"
      },
      "address": "903, Allée de l'Abricotier, Ducos, 97224 Martinique, Martinique"
    },
    {
      "lat": 14.554545867117792,
      "lon": -60.96761037152111,
      "geoinfo": {
        "display_name": "Chemin des 3 Avé, Dikos, Le Marin, Martinique, 97224, France",
        "road": "Chemin des 3 Avé",
        "house_number": null,
        "neighbourhood": null,
        "suburb": null,
        "city_district": null,
        "city": "Dikos",
        "state": "Martinique",
        "postcode": "97224",
        "country": "France",
        "country_code": "fr"
      },
      "address": "Chemin des 3 Avé, Ducos, 97224 Martinique, Martinique"
    },
    {
      "lat": 14.539561739893818,
      "lon": -60.98428739255854,
      "geoinfo": {
        "display_name": "N 5, Cité Concorde, Petit-Bourg, Rivière-Salée, Le Marin, Martinique, 97215, France",
        "road": "N 5",
        "house_number": null,
        "neighbourhood": "Cité Concorde",
        "suburb": "Petit-Bourg",
        "city_district": null,
        "city": "Rivière-Salée",
        "state": "Martinique",
        "postcode": "97215",
        "country": "France",
        "country_code": "fr"
      },
      "address": "N 5, Ducos, 97215 Martinique, Martinique"
    },
    {
      "lat": 14.60696681256393,
      "lon": -60.94735318302693,
      "geoinfo": {
        "display_name": "960, Route de Croix Rivail, Dikos, Le Marin, Martinique, 97240, France",
        "road": "Route de Croix Rivail",
        "house_number": "960",
        "neighbourhood": null,
        "suburb": null,
        "city_district": null,
        "city": "Dikos",
        "state": "Martinique",
        "postcode": "97240",
        "country": "France",
        "country_code": "fr"
      },
      "address": "960, Route de Croix Rivail, Ducos, 97240 Martinique, Martinique"
    },
    {
      "lat": 14.571177349394965,
      "lon": -60.99204503110492,
      "geoinfo": {
        "display_name": "Chemin Pont Fer, Dikos, Le Marin, Martinique, 97224, France",
        "road": "Chemin Pont Fer",
        "house_number": null,
        "neighbourhood": null,
        "suburb": null,
        "city_district": null,
        "city": "Dikos",
        "state": "Martinique",
        "postcode": "97224",
        "country": "France",
        "country_code": "fr"
      },
      "address": "911, Chemin Pont Fer, Ducos, 97224 Martinique, Martinique"
    },
    {
      "lat": 14.568964911639954,
      "lon": -60.977998478669114,
      "geoinfo": {
        "display_name": "Impasse de l'Aloé Vera, Ducos, Dikos, Le Marin, Martinique, 97224, France",
        "road": "Impasse de l'Aloé Vera",
        "house_number": null,
        "neighbourhood": null,
        "suburb": null,
        "city_district": null,
        "city": "Dikos",
        "state": "Martinique",
        "postcode": "97224",
        "country": "France",
        "country_code": "fr"
      },
      "address": "268, Impasse de l'Aloé Vera, Ducos, 97224 Martinique, Martinique"
    },
    {
      "lat": 14.564730418007166,
      "lon": -60.963556007999124,
      "geoinfo": {
        "display_name": "Route de Durivage, Vaudrancourt, Dikos, Le Marin, Martinique, 97224, France",
        "road": "Route de Durivage",
        "house_number": null,
        "neighbourhood": "Vaudrancourt",
        "suburb": null,
        "city_district": null,
        "city": "Dikos",
        "state": "Martinique",
        "postcode": "97224",
        "country": "France",
        "country_code": "fr"
      },
      "address": "827, Route de Durivage, Ducos, 97224 Martinique, Martinique"
    },
    {
      "lat": 14.597567075220319,
      "lon": -60.93531402752304,
      "geoinfo": {
        "display_name": "Le François, Le Marin, Martinique, 97240, France",
        "road": null,
        "house_number": null,
        "neighbourhood": null,
        "suburb": null,
        "city_district": null,
        "city": "Le François",
        "state": "Martinique",
        "postcode": "97240",
        "country": "France",
        "country_code": "fr"
      },
      "address": "863, Ducos, 97240 Martinique, Martinique"
    },
    {
      "lat": 14.561043559794095,
      "lon": -60.95801499090244,
      "geoinfo": {
        "display_name": "Route de La Chassaing, Dikos, Le Marin, Martinique, 97224, France",
        "road": "Route de La Chassaing",
        "house_number": null,
        "neighbourhood": null,
        "suburb": null,
        "city_district": null,
        "city": "Dikos",
        "state": "Martinique",
        "postcode": "97224",
        "country": "France",
        "country_code": "fr"
      },
      "address": "899, Route de La Chassaing, Ducos, 97224 Martinique, Martinique"
    },
    {
      "lat": 14.579427496024906,
      "lon": -60.973813913981914,
      "geoinfo": {
        "display_name": "Rue des Orchidées, Ducos, Dikos, Le Marin, Martinique, 97224, France",
        "road": "Rue des Orchidées",
        "house_number": null,
        "neighbourhood": null,
        "suburb": null,
        "city_district": null,
        "city": "Dikos",
        "state": "Martinique",
        "postcode": "97224",
        "country": "France",
        "country_code": "fr"
      },
      "address": "020, Rue des Orchidées, Ducos, 97224 Martinique, Martinique"
    },
    {
      "lat": 14.550760568086714,
      "lon": -60.948739125252025,
      "geoinfo": {
        "display_name": "La Vielet, Rivière-Salée, Le Marin, Martinique, 97215, France",
        "road": null,
        "house_number": null,
        "neighbourhood": null,
        "suburb": null,
        "city_district": null,
        "city": "Rivière-Salée",
        "state": "Martinique",
        "postcode": "97215",
        "country": "France",
        "country_code": "fr"
      },
      "address": "891, Ducos, 97215 Martinique, Martinique"
    }
  ],
  "updated_at": "2025-10-19T06:03:57.136419+00:00",
  "_kind": "geo_samples"
}