{
  "country_code": "MQ",
  "country": "Martinique",
  "city": "Sainte-Marie",
  "geonameid": 3569926,
  "target_addresses": 13,
  "samples": [
    {
      "lat": 14.791905108814154,
      "lon": -60.998310167587235,
      "geoinfo": {
        "display_name": "Impasse Ancienne Tannerie, Sainte-Marie, La Trinité, Martinique, 97230, France",
        "road": "Impasse Ancienne Tannerie",
        "house_number": null,
        "neighbourhood": null,
        "suburb": null,
        "city_district": null,
        "city": "Sainte-Marie",
        "state": "Martinique",
        "postcode": "97230",
        "country": "France",
        "country_code": "fr"
      },
      "address": "Impasse Ancienne Tannerie, Sainte-Marie, Martinique, Martinique"
    },
    {
      "lat": 14.770513817334505,
      "lon": -60.996905473639664,
      "geoinfo": {
        "display_name": "182, Impasse 4 Carrés, Belle Étoile, Sainte-Marie, La Trinité, Martinique, 97230, France",
        "road": "Impasse 4 Carrés",
        "house_number": "182",
        "neighbourhood": null,
        "suburb": null,
        "city_district": null,
        "city": "Sainte-Marie",
        "state": "Martinique",
        "postcode": "97230",
        "country": "France",
        "country_code": "fr"
      },
      "address": "182 Impasse 4 Carrés, Sainte-Marie, Martinique, Martinique"
    },
    {
      "lat": 14.783085490260019,
      "lon": -60.95152176260073,
      "geoinfo": {
        "display_name": "Martinique, France",
        "road": null,
        "house_number": null,
        "neighbourhood": null,
        "suburb": null,
        "city_district": null,
        "city": null,
        "state": "Martinique",
        "postcode": null,
        "country": "France",
        "country_code": "fr"
      },
      "address": "Sainte-Marie, Martinique, Martinique"
    },
    {
      "lat": 14.798326426786746,
      "lon": -61.01814119785298,
      "geoinfo": {
        "display_name": "Impasse Bwa Core, Desroses, Pain de Sucre, Sainte-Marie, La Trinité, Martinique, 97230, France",
        "road": "Impasse Bwa Core",
        "house_number": null,
        "neighbourhood": null,
        "suburb": null,
        "city_district": null,
        "city": "Sainte-Marie",
        "state": "Martinique",
        "postcode": "97230",
        "country": "France",
        "country_code": "fr"
      },
      "address": "Impasse Bwa Core, Sainte-Marie, Martinique, Martinique"
    },
    {
      "lat": 14.77357025510283,
      "lon": -60.99162157064023,
      "geoinfo": {
        "display_name": "62, Rue de Félicité, Sainte-Marie, Cité Étoile, Sainte-Marie, La Trinité, Martinique, 97230, France",
        "road": "Rue de Félicité",
        "house_number": "62",
        "neighbourhood": null,
        "suburb": null,
        "city_district": null,
        "city": "Sainte-Marie",
        "state": "Martinique",
        "postcode": "97230",
        "country": "France",
        "country_code": "fr"
      },
      "address": "62 Rue de Félicité, Sainte-Marie, Martinique, Martinique"
    },
    {
      "lat": 14.751310878978884,
      "lon": -61.003205819832104,
      "geoinfo": {
        "display_name": "297, Impasse de la Randonnée, Bon Air, Bon AIr, Sainte-Marie, La Trinité, Martinique, 97230, France",
        "road": "Impasse de la Randonnée",
        "house_number": "297",
        "neighbourhood": null,
        "suburb": null,
        "city_district": null,
        "city": "Sainte-Marie",
        "state": "Martinique",
        "postcode": "97230",
        "country": "France",
        "country_code": "fr"
      },
      "address": "297 Impasse de la Randonnée, Sainte-Marie, Martinique, Martinique"
    },
    {
      "lat": 14.758221161381755,
      "lon": -61.004620797321074,
      "geoinfo": {
        "display_name": "138, Impasse de la Fratrie, Bon AIr, Sainte-Marie, La Trinité, Martinique, 97230, France",
        "road": "Impasse de la Fratrie",
        "house_number": "138",
        "neighbourhood": null,
        "suburb": null,
        "city_district": null,
        "city": "Sainte-Marie",
        "state": "Martinique",
        "postcode": "97230",
        "country": "France",
        "country_code": "fr"
      },
      "address": "138 Impasse de la Fratrie, Sainte-Marie, Martinique, Martinique"
    },
    {
      "lat": 14.807598561499942,
      "lon": -61.01397552266419,
      "geoinfo": {
        "display_name": "Route Nationale 1 Saint-Jacques, Pain de Sucre, Sainte-Marie, La Trinité, Martinique, 97230, France",
        "road": "Route Nationale 1 Saint-Jacques",
        "house_number": null,
        "neighbourhood": null,
        "suburb": null,
        "city_district": null,
        "city": "Sainte-Marie",
        "state": "Martinique",
        "postcode": "97230",
        "country": "France",
        "country_code": "fr"
      },
      "address": "Route Nationale 1 Saint-Jacques, Sainte-Marie, Martinique, Martinique"
    },
    {
      "lat": 14.75932820885215,
      "lon": -60.9858776881373,
      "geoinfo": {
        "display_name": "300, Impasse Landragin, Morne à Roche, Sainte-Marie, La Trinité, Martinique, 97230, France",
        "road": "Impasse Landragin",
        "house_number": "300",
        "neighbourhood": null,
        "suburb": null,
        "city_district": null,
        "city": "Sainte-Marie",
        "state": "Martinique",
        "postcode": "97230",
        "country": "France",
        "country_code": "fr"
      },
      "address": "300 Impasse Landragin, Sainte-Marie, Martinique, Martinique"
    },
    {
      "lat": 14.752821093592413,
      "lon": -60.99666120402131,
      "geoinfo": {
        "display_name": "215, Rue Eucalyptus, Bon Air, Bon AIr, Sainte-Marie, La Trinité, Martinique, 97230, France",
        "road": "Rue Eucalyptus",
        "house_number": "215",
        "neighbourhood": null,
        "suburb": null,
        "city_district": null,
        "city": "Sainte-Marie",
        "state": "Martinique",
        "postcode": "97230",
        "country": "France",
        "country_code": "fr"
      },
      "address": "215 Rue Eucalyptus, Sainte-Marie, Martinique, Martinique"
    },
    {
      "lat": 14.752252899057765,
      "lon": -60.982377469957704,
      "geoinfo": {
        "display_name": "Rue Deux Terres, La Trinité, Martinique, 97220, France",
        "road": "Rue Deux Terres",
        "house_number": null,
        "neighbourhood": null,
        "suburb": null,
        "city_district": null,
        "city": "La Trinité",
        "state": "Martinique",
        "postcode": "97220",
        "country": "France",
        "country_code": "fr"
      },
      "address": "Rue Deux Terres, Sainte-Marie, Martinique, Martinique"
    },
    {
      "lat": 14.770146137235432,
      "lon": -61.031457254751544,
      "geoinfo": {
        "display_name": "77, Impasse Mancelinier, Rivière Romanet, Bezaudin, Sainte-Marie, La Trinité, Martinique, 97230, France",
        "road": "Impasse Mancelinier",
        "house_number": "77",
        "neighbourhood": null,
        "suburb": null,
        "city_district": null,
        "city": "Sainte-Marie",
        "state": "Martinique",
        "postcode": "97230",
        "country": "France",
        "country_code": "fr"
      },
      "address": "77 Impasse Mancelinier, Sainte-Marie, Martinique, Martinique"
    },
    {
      "lat": 14.765487752307395,
      "lon": -60.99156972909402,
      "geoinfo": {
        "display_name": "1180, Rue de Félicité, Sainte-Marie, Cité Étoile, Sainte-Marie, La Trinité, Martinique, 97230, France",
        "road": "Rue de Félicité",
        "house_number": "1180",
        "neighbourhood": null,
        "suburb": null,
        "city_district": null,
        "city": "Sainte-Marie",
        "state": "Martinique",
        "postcode": "97230",
        "country": "France",
        "country_code": "fr"
      },
      "address": "1180 Rue de Félicité, Sainte-Marie, Martinique, Martinique"
    },
    {
      "lat": 14.768941758565195,
      "lon": -60.95587732854277,
      "geoinfo": {
        "display_name": "Pointe de la Batterie, La Trinité, Martinique, 97220, France",
        "road": null,
        "house_number": null,
        "neighbourhood": null,
        "suburb": null,
        "city_district": null,
        "city": "La Trinité",
        "state": "Martinique",
        "postcode": "97220",
        "country": "France",
        "country_code": "fr"
      },
      "address": "702, Sainte-Marie, 97220 Martinique, Martinique"
    },
    {
      "lat": 14.772760411597782,
      "lon": -60.982515044139944,
      "geoinfo": {
        "display_name": "Impasse Tocla, L'Anse Azerot, Sainte-Marie, La Trinité, Martinique, 97230, France",
        "road": "Impasse Tocla",
        "house_number": null,
        "neighbourhood": null,
        "suburb": null,
        "city_district": null,
        "city": "Sainte-Marie",
        "state": "Martinique",
        "postcode": "97230",
        "country": "France",
        "country_code": "fr"
      },
      "address": "974, Impasse Tocla, Sainte-Marie, 97230 Martinique, Martinique"
    },
    {
      "lat": 14.771080314018455,
      "lon": -60.97233023705552,
      "geoinfo": {
        "display_name": "Habitation Merveilleuse, La Trinité, Martinique, 97220, France",
        "road": null,
        "house_number": null,
        "neighbourhood": null,
        "suburb": null,
        "city_district": null,
        "city": "La Trinité",
        "state": "Martinique",
        "postcode": "97220",
        "country": "France",
        "country_code": "fr"
      },
      "address": "205, Sainte-Marie, 97220 Martinique, Martinique"
    },
    {
      "lat": 14.745546796297537,
      "lon": -61.00763036761921,
      "geoinfo": {
        "display_name": "246, Rue Fond Missoré, Rivière Canari, Bon AIr, Sainte-Marie, La Trinité, Martinique, 97230, France",
        "road": "Rue Fond Missoré",
        "house_number": "246",
        "neighbourhood": null,
        "suburb": null,
        "city_district": null,
        "city": "Sainte-Marie",
        "state": "Martinique",
        "postcode": "97230",
        "country": "France",
        "country_code": "fr"
      },
      "address": "246, Rue Fond Missoré, Sainte-Marie, 97230 Martinique, Martinique"
    },
    {
      "lat": 14.811929137943679,
      "lon": -61.01157160222124,
      "geoinfo": {
        "display_name": "Route Nationale 1 Saint-Jacques, Épineux, Sainte-Marie, La Trinité, Martinique, 97230, France",
        "road": "Route Nationale 1 Saint-Jacques",
        "house_number": null,
        "neighbourhood": null,
        "suburb": null,
        "city_district": null,
        "city": "Sainte-Marie",
        "state": "Martinique",
        "postcode": "97230",
        "country": "France",
        "country_code": "fr"
      },
      "address": "Route Nationale 1 Saint-Jacques, Sainte-Marie, 97230 Martinique, Martinique"
    },
    {
      "lat": 14.780611398100904,
      "lon": -60.95382049057126,
      "geoinfo": {
        "display_name": "Martinique, France",
        "road": null,
        "house_number": null,
        "neighbourhood": null,
        "suburb": null,
        "city_district": null,
        "city": null,
        "state": "Martinique",
        "postcode": null,
        "country": "France",
        "country_code": "fr"
      },
      "address": "850, Sainte-Marie, 02961 Martinique, Martinique"
    },
    {
      "lat": 14.773052788772949,
      "lon": -60.97924628276603,
      "geoinfo": {
        "display_name": "Rue de Restaroute, Belle Étoile, Sainte-Marie, La Trinité, Martinique, 97230, France",
        "road": "Rue de Restaroute",
        "house_number": null,
        "neighbourhood": null,
        "suburb": null,
        "city_district": null,
        "city": "Sainte-Marie",
        "state": "Martinique",
        "postcode": "97230",
        "country": "France",
        "country_code": "fr"
      },
      "address": "334, Rue de Restaroute, Sainte-Marie, 97230 Martinique, Martinique"
    },
    {
      "lat": 14.75583571592867,
      "lon": -61.008637213657686,
      "geoinfo": {
        "display_name": "Quartier Félix, Bon AIr, Sainte-Marie, La Trinité, Martinique, 97230, France",
        "road": null,
        "house_number": null,
        "neighbourhood": null,
        "suburb": null,
        "city_district": null,
        "city": "Sainte-Marie",
        "state": "Martinique",
        "postcode": "97230",
        "country": "France",
        "country_code": "fr"
      },
      "address": "029, Sainte-Marie, 97230 Martinique, Martinique"
    },
    {
      "lat": 14.820107781305651,
      "lon": -60.96652520841199,
      "geoinfo": {
        "display_name": "Martinique, France",
        "road": null,
        "house_number": null,
        "neighbourhood": null,
        "suburb": null,
        "city_district": null,
        "city": null,
        "state": "Martinique",
        "postcode": null,
        "country": "France",
        "country_code": "fr"
      },
      "address": "736, Sainte-Marie, 59105 Martinique, Martinique"
    },
    {
      "lat": 14.81018727021128,
      "lon": -60.99271373326538,
      "geoinfo": {
        "display_name": "Pain de Sucre, Sainte-Marie, La Trinité, Martinique, 97230, France",
        "road": null,
        "house_number": null,
        "neighbourhood": null,
        "suburb": null,
        "city_district": null,
        "city": "Sainte-Marie",
        "state": "Martinique",
        "postcode": "97230",
        "country": "France",
        "country_code": "fr"
      },
      "address": "161, Sainte-Marie, 97230 Martinique, Martinique"
    },
    {
      "lat": 14.77531049352486,
      "lon": -60.988588865671105,
      "geoinfo": {
        "display_name": "680, Boulevard Céleste, Sainte-Marie, Cité Étoile, Sainte-Marie, La Trinité, Martinique, 97230, France",
        "road": "Boulevard Céleste",
        "house_number": "680",
        "neighbourhood": null,
        "suburb": null,
        "city_district": null,
        "city": "Sainte-Marie",
        "state": "Martinique",
        "postcode": "97230",
        "country": "France",
        "country_code": "fr"
      },
      "address": "680, Boulevard Céleste, Sainte-Marie, 97230 Martinique, Martinique"
    },
    {
      "lat": 14.799628447774301,
      "lon": -60.97457634102986,
      "geoinfo": {
        "display_name": "Martinique, France",
        "road": null,
        "house_number": null,
        "neighbourhood": null,
        "suburb": null,
        "city_district": null,
        "city": null,
        "state": "Martinique",
        "postcode": null,
        "country": "France",
        "country_code": "fr"
      },
      "address": "863, Sainte-Marie, 65104 Martinique, Martinique"
    },
    {
      "lat": 14.747649783507576,
      "lon": -60.99923393627579,
      "geoinfo": {
        "display_name": "578, Rue Fond Moulin, Bon Air, Bon AIr, Sainte-Marie, La Trinité, Martinique, 97230, France",
        "road": "Rue Fond Moulin",
        "house_number": "578",
        "neighbourhood": null,
        "suburb": null,
        "city_district": null,
        "city": "Sainte-Marie",
        "state": "Martinique",
        "postcode": "97230",
        "country": "France",
        "country_code": "fr"
      },
      "address": "578, Rue Fond Moulin, Sainte-Marie, 97230 Martinique, Martinique"
    }
  ],
  "updated_at": "2025-10-19T05:59:42.286087+00:00",
  "_kind": "geo_samples"
}