{
  "country_code": "BI",
  "country": "Burundi",
  "city": "Bujumbura",
  "geonameid": 425378,
  "target_addresses": 10,
  "samples": [
    {
      "lat": -3.3570604737222585,
      "lon": 29.359971528004476,
      "geoinfo": {
        "display_name": "Avenue Nyabitsindu, Buyenzi, Bujumbura, Bujumbura Mairie, Burundi",
        "road": "Avenue Nyabitsindu",
        "house_number": null,
        "neighbourhood": null,
        "suburb": "Buyenzi",
        "city_district": null,
        "city": "Bujumbura",
        "state": "Bujumbura Mairie",
        "postcode": null,
        "country": "Burundi",
        "country_code": "bi"
      },
      "address": "Avenue Nyabitsindu, Bujumbura, Bujumbura Mairie, Burundi"
    },
    {
      "lat": -3.3767462395840795,
      "lon": 29.34690113768049,
      "geoinfo": {
        "display_name": "Avenue du Lac, Buyenzi, Bujumbura, Bujumbura Mairie, Burundi",
        "road": "Avenue du Lac",
        "house_number": null,
        "neighbourhood": null,
        "suburb": "Buyenzi",
        "city_district": null,
        "city": "Bujumbura",
        "state": "Bujumbura Mairie",
        "postcode": null,
        "country": "Burundi",
        "country_code": "bi"
      },
      "address": "Avenue du Lac, Bujumbura, Bujumbura Mairie, Burundi"
    },
    {
      "lat": -3.4164678140658697,
      "lon": 29.360113616064783,
      "geoinfo": {
        "display_name": "chapelle des dominicains, Avenue du Roi David, Chez Renovat, Muha, Bujumbura Mairie, Burundi",
        "road": "Avenue du Roi David",
        "house_number": null,
        "neighbourhood": null,
        "suburb": null,
        "city_district": null,
        "city": "Muha",
        "state": "Bujumbura Mairie",
        "postcode": null,
        "country": "Burundi",
        "country_code": "bi"
      },
      "address": "Avenue du Roi David, Bujumbura, Bujumbura Mairie, Burundi"
    },
    {
      "lat": -3.363184887331136,
      "lon": 29.32301232642339,
      "geoinfo": {
        "display_name": "Beach, Bujumbura, Bujumbura Mairie, Burundi",
        "road": null,
        "house_number": null,
        "neighbourhood": null,
        "suburb": "Beach",
        "city_district": null,
        "city": "Bujumbura",
        "state": "Bujumbura Mairie",
        "postcode": null,
        "country": "Burundi",
        "country_code": "bi"
      },
      "address": "Beach, Bujumbura, Bujumbura Mairie, Burundi"
    },
    {
      "lat": -3.3877685062143645,
      "lon": 29.355830391852283,
      "geoinfo": {
        "display_name": "Avenue du 13 Octobre, Mukaza, Kabondo, Bujumbura, Bujumbura Mairie, Burundi",
        "road": "Avenue du 13 Octobre",
        "house_number": null,
        "neighbourhood": "Mukaza",
        "suburb": "Kabondo",
        "city_district": null,
        "city": "Bujumbura",
        "state": "Bujumbura Mairie",
        "postcode": null,
        "country": "Burundi",
        "country_code": "bi"
      },
      "address": "Avenue du 13 Octobre, Bujumbura, Bujumbura Mairie, Burundi"
    },
    {
      "lat": -3.41336002857049,
      "lon": 29.380272229492324,
      "geoinfo": {
        "display_name": "Musaga, Bujumbura, Bujumbura Mairie, Burundi",
        "road": null,
        "house_number": null,
        "neighbourhood": null,
        "suburb": "Musaga",
        "city_district": null,
        "city": "Bujumbura",
        "state": "Bujumbura Mairie",
        "postcode": null,
        "country": "Burundi",
        "country_code": "bi"
      },
      "address": "Musaga, Bujumbura, Bujumbura Mairie, Burundi"
    },
    {
      "lat": -3.411769490504735,
      "lon": 29.349797431736132,
      "geoinfo": {
        "display_name": "Rue Mubimbi, Kinindo, Muha, Bujumbura Mairie, Burundi",
        "road": "Rue Mubimbi",
        "house_number": null,
        "neighbourhood": null,
        "suburb": "Kinindo",
        "city_district": null,
        "city": "Muha",
        "state": "Bujumbura Mairie",
        "postcode": null,
        "country": "Burundi",
        "country_code": "bi"
      },
      "address": "Rue Mubimbi, Bujumbura, Bujumbura Mairie, Burundi"
    },
    {
      "lat": -3.3845912663880164,
      "lon": 29.334384845156375,
      "geoinfo": {
        "display_name": "Kabondo, Bujumbura, Bujumbura Mairie, Burundi",
        "road": null,
        "house_number": null,
        "neighbourhood": null,
        "suburb": "Kabondo",
        "city_district": null,
        "city": "Bujumbura",
        "state": "Bujumbura Mairie",
        "postcode": null,
        "country": "Burundi",
        "country_code": "bi"
      },
      "address": "Kabondo, Bujumbura, Bujumbura Mairie, Burundi"
    },
    {
      "lat": -3.37466205385074,
      "lon": 29.36342349572922,
      "geoinfo": {
        "display_name": "Chaussée du Peuple Murundi, Mukaza, Building Bata, Bujumbura, Bujumbura Mairie, Burundi",
        "road": "Chaussée du Peuple Murundi",
        "house_number": null,
        "neighbourhood": "Mukaza",
        "suburb": "Building Bata",
        "city_district": null,
        "city": "Bujumbura",
        "state": "Bujumbura Mairie",
        "postcode": null,
        "country": "Burundi",
        "country_code": "bi"
      },
      "address": "Chaussée du Peuple Murundi, Bujumbura, Bujumbura Mairie, Burundi"
    },
    {
      "lat": -3.343446062166361,
      "lon": 29.377069435132373,
      "geoinfo": {
        "display_name": "Cibitoke, Bujumbura, Bujumbura Mairie, Burundi",
        "road": null,
        "house_number": null,
        "neighbourhood": null,
        "suburb": "Cibitoke",
        "city_district": null,
        "city": "Bujumbura",
        "state": "Bujumbura Mairie",
        "postcode": null,
        "country": "Burundi",
        "country_code": "bi"
      },
      "address": "Cibitoke, Bujumbura, Bujumbura Mairie, Burundi"
    },
    {
      "lat": -3.3528628307629553,
      "lon": 29.37767217987361,
      "geoinfo": {
        "display_name": "Boulevard de l'Afrique, Ngagara, Bujumbura, Bujumbura Mairie, Burundi",
        "road": "Boulevard de l'Afrique",
        "house_number": null,
        "neighbourhood": null,
        "suburb": "Ngagara",
        "city_district": null,
        "city": "Bujumbura",
        "state": "Bujumbura Mairie",
        "postcode": null,
        "country": "Burundi",
        "country_code": "bi"
      },
      "address": "900, Boulevard de l'Afrique, Ngagara, Bujumbura, 19108 Bujumbura Mairie, Burundi"
    },
    {
      "lat": -3.4029287117705405,
      "lon": 29.377471477782215,
      "geoinfo": {
        "display_name": "Musaga, Bujumbura, Bujumbura Mairie, Burundi",
        "road": null,
        "house_number": null,
        "neighbourhood": null,
        "suburb": "Musaga",
        "city_district": null,
        "city": "Bujumbura",
        "state": "Bujumbura Mairie",
        "postcode": null,
        "country": "Burundi",
        "country_code": "bi"
      },
      "address": "430, Musaga, Bujumbura, 48801 Bujumbura Mairie, Burundi"
    },
    {
      "lat": -3.396448077728251,
      "lon": 29.35998250732,
      "geoinfo": {
        "display_name": "Boulevard de la Liberté, Kinanira, Muha, Bujumbura Mairie, Burundi",
        "road": "Boulevard de la Liberté",
        "house_number": null,
        "neighbourhood": null,
        "suburb": "Kinanira",
        "city_district": null,
        "city": "Muha",
        "state": "Bujumbura Mairie",
        "postcode": null,
        "country": "Burundi",
        "country_code": "bi"
      },
      "address": "783, Boulevard de la Liberté, Kinanira, Muha, 67852 Bujumbura Mairie, Burundi"
    },
    {
      "lat": -3.3658890066430946,
      "lon": 29.336003181317476,
      "geoinfo": {
        "display_name": "Quartier Industriel, Bujumbura, Bujumbura Mairie, Burundi",
        "road": null,
        "house_number": null,
        "neighbourhood": null,
        "suburb": "Quartier Industriel",
        "city_district": null,
        "city": "Bujumbura",
        "state": "Bujumbura Mairie",
        "postcode": null,
        "country": "Burundi",
        "country_code": "bi"
      },
      "address": "907, Quartier Industriel, Bujumbura, 21382 Bujumbura Mairie, Burundi"
    },
    {
      "lat": -3.3602107625732467,
      "lon": 29.35065674660043,
      "geoinfo": {
        "display_name": "Chaussée de l'Agriculture, Quartier Industriel, Bujumbura, Bujumbura Mairie, Burundi",
        "road": "Chaussée de l'Agriculture",
        "house_number": null,
        "neighbourhood": null,
        "suburb": "Quartier Industriel",
        "city_district": null,
        "city": "Bujumbura",
        "state": "Bujumbura Mairie",
        "postcode": null,
        "country": "Burundi",
        "country_code": "bi"
      },
      "address": "583, Chaussée de l'Agriculture, Quartier Industriel, Bujumbura, 51196 Bujumbura Mairie, Burundi"
    },
    {
      "lat": -3.3717767314988527,
      "lon": 29.372042911644016,
      "geoinfo": {
        "display_name": "9ème Avenue, Bwiza, Bujumbura, Bujumbura Mairie, Burundi",
        "road": "9ème Avenue",
        "house_number": null,
        "neighbourhood": null,
        "suburb": "Bwiza",
        "city_district": null,
        "city": "Bujumbura",
        "state": "Bujumbura Mairie",
        "postcode": null,
        "country": "Burundi",
        "country_code": "bi"
      },
      "address": "9ème Avenue, Bwiza, Bujumbura, 46380 Bujumbura Mairie, Burundi"
    },
    {
      "lat": -3.3610162020891106,
      "lon": 29.355864558242,
      "geoinfo": {
        "display_name": "Avenue Nyuminkwi, Buyenzi, Bujumbura, Bujumbura Mairie, Burundi",
        "road": "Avenue Nyuminkwi",
        "house_number": null,
        "neighbourhood": null,
        "suburb": "Buyenzi",
        "city_district": null,
        "city": "Bujumbura",
        "state": "Bujumbura Mairie",
        "postcode": null,
        "country": "Burundi",
        "country_code": "bi"
      },
      "address": "415, Avenue Nyuminkwi, Buyenzi, Bujumbura, 25720 Bujumbura Mairie, Burundi"
    },
    {
      "lat": -3.4158847379447916,
      "lon": 29.36191669516529,
      "geoinfo": {
        "display_name": "Avenue Mpimba, Musaga, Muha, Bujumbura Mairie, Burundi",
        "road": "Avenue Mpimba",
        "house_number": null,
        "neighbourhood": null,
        "suburb": "Musaga",
        "city_district": null,
        "city": "Muha",
        "state": "Bujumbura Mairie",
        "postcode": null,
        "country": "Burundi",
        "country_code": "bi"
      },
      "address": "213, Avenue Mpimba, Musaga, Muha, 45926 Bujumbura Mairie, Burundi"
    },
    {
      "lat": -3.3401349637153874,
      "lon": 29.350824050676295,
      "geoinfo": {
        "display_name": "2ème Avenue, Buterere, Bujumbura, Bujumbura Mairie, Burundi",
        "road": "2ème Avenue",
        "house_number": null,
        "neighbourhood": null,
        "suburb": "Buterere",
        "city_district": null,
        "city": "Bujumbura",
        "state": "Bujumbura Mairie",
        "postcode": null,
        "country": "Burundi",
        "country_code": "bi"
      },
      "address": "2ème Avenue, Buterere, Bujumbura, 96811 Bujumbura Mairie, Burundi"
    },
    {
      "lat": -3.3658196598743686,
      "lon": 29.379328376634295,
      "geoinfo": {
        "display_name": "Embassy of the United States of America, Avenue des États-Unis, Kigobe, Bujumbura, Bujumbura Mairie, Burundi",
        "road": "Avenue des États-Unis",
        "house_number": null,
        "neighbourhood": null,
        "suburb": "Kigobe",
        "city_district": null,
        "city": "Bujumbura",
        "state": "Bujumbura Mairie",
        "postcode": null,
        "country": "Burundi",
        "country_code": "bi"
      },
      "address": "674, Avenue des États-Unis, Bujumbura, 46196 Bujumbura Mairie, Burundi"
    }
  ],
  "updated_at": "2025-10-19T02:42:26.836584+00:00",
  "_kind": "geo_samples"
}