{
  "country_code": "EE",
  "country": "Estonia",
  "city": "Maardu",
  "geonameid": 590447,
  "target_addresses": 13,
  "samples": [
    {
      "lat": 59.467132073833035,
      "lon": 25.028046501682393,
      "geoinfo": {
        "display_name": "Kure tee, Kasekese, Võerdla küla, Maardu, Jõelähtme vald, Harju County, 74221, Estonia",
        "road": "Kure tee",
        "house_number": null,
        "neighbourhood": null,
        "suburb": null,
        "city_district": "Võerdla küla",
        "city": "Maardu",
        "state": null,
        "postcode": "74221",
        "country": "Estonia",
        "country_code": "ee"
      },
      "address": "Kure tee, Maardu, Estonia"
    },
    {
      "lat": 59.482169126796634,
      "lon": 25.044894093048654,
      "geoinfo": {
        "display_name": "9, Nurme tee, Kallavere küla, Jõelähtme vald, Harju County, 74121, Estonia",
        "road": "Nurme tee",
        "house_number": "9",
        "neighbourhood": null,
        "suburb": null,
        "city_district": null,
        "city": null,
        "state": null,
        "postcode": "74121",
        "country": "Estonia",
        "country_code": "ee"
      },
      "address": "9 Nurme tee, Maardu, Estonia"
    },
    {
      "lat": 59.50212657108648,
      "lon": 24.943115609775504,
      "geoinfo": {
        "display_name": "Muuga sadam, Muuga küla, Viimsi vald, Harju County, 74004, Estonia",
        "road": null,
        "house_number": null,
        "neighbourhood": null,
        "suburb": null,
        "city_district": null,
        "city": null,
        "state": null,
        "postcode": "74004",
        "country": "Estonia",
        "country_code": "ee"
      },
      "address": "Maardu, Estonia"
    },
    {
      "lat": 59.49592815926004,
      "lon": 24.955146559534175,
      "geoinfo": {
        "display_name": "7c, Koorma, Muuga sadam, Muuga küla, Maardu, Viimsi vald, Harju County, 74004, Estonia",
        "road": "Koorma",
        "house_number": "7c",
        "neighbourhood": null,
        "suburb": null,
        "city_district": null,
        "city": "Maardu",
        "state": null,
        "postcode": "74004",
        "country": "Estonia",
        "country_code": "ee"
      },
      "address": "7c Koorma, Maardu, Estonia"
    },
    {
      "lat": 59.446595121180195,
      "lon": 25.024402413759752,
      "geoinfo": {
        "display_name": "Loovälja tee, Maardu küla, Jõelähtme vald, Harju County, 74221, Estonia",
        "road": "Loovälja tee",
        "house_number": null,
        "neighbourhood": null,
        "suburb": null,
        "city_district": "Maardu küla",
        "city": null,
        "state": null,
        "postcode": "74221",
        "country": "Estonia",
        "country_code": "ee"
      },
      "address": "Loovälja tee, Maardu, Estonia"
    },
    {
      "lat": 59.50015270213574,
      "lon": 25.006645892246993,
      "geoinfo": {
        "display_name": "Hoidla tee, Uusküla, Jõelähtme vald, Harju County, 74113, Estonia",
        "road": "Hoidla tee",
        "house_number": null,
        "neighbourhood": null,
        "suburb": null,
        "city_district": "Uusküla",
        "city": null,
        "state": null,
        "postcode": "74113",
        "country": "Estonia",
        "country_code": "ee"
      },
      "address": "Hoidla tee, Maardu, Estonia"
    },
    {
      "lat": 59.4608941162633,
      "lon": 25.02834826657335,
      "geoinfo": {
        "display_name": "Vahtra, 4, Kure tee, Kasekese, Võerdla küla, Maardu, Jõelähtme vald, Harju County, 74221, Estonia",
        "road": "Kure tee",
        "house_number": "4",
        "neighbourhood": null,
        "suburb": null,
        "city_district": "Võerdla küla",
        "city": "Maardu",
        "state": null,
        "postcode": "74221",
        "country": "Estonia",
        "country_code": "ee"
      },
      "address": "4 Kure tee, Maardu, Estonia"
    },
    {
      "lat": 59.453088699822175,
      "lon": 24.982361849256502,
      "geoinfo": {
        "display_name": "Muuga sadama tee, Maardu, Harju County, 74114, Estonia",
        "road": "Muuga sadama tee",
        "house_number": null,
        "neighbourhood": null,
        "suburb": null,
        "city_district": null,
        "city": "Maardu",
        "state": null,
        "postcode": "74114",
        "country": "Estonia",
        "country_code": "ee"
      },
      "address": "Muuga sadama tee, Maardu, Estonia"
    },
    {
      "lat": 59.45866606817395,
      "lon": 24.994258914699984,
      "geoinfo": {
        "display_name": "2, Fosforiidi, Maardu, Harju County, 74114, Estonia",
        "road": "Fosforiidi",
        "house_number": "2",
        "neighbourhood": null,
        "suburb": null,
        "city_district": null,
        "city": "Maardu",
        "state": null,
        "postcode": "74114",
        "country": "Estonia",
        "country_code": "ee"
      },
      "address": "2 Fosforiidi, Maardu, Estonia"
    },
    {
      "lat": 59.45355788285726,
      "lon": 25.051741427103163,
      "geoinfo": {
        "display_name": "Tallinn — Narva, Võerdla, Võerdla küla, Jõelähtme vald, Harju County, 74220, Estonia",
        "road": "Tallinn — Narva",
        "house_number": null,
        "neighbourhood": null,
        "suburb": null,
        "city_district": "Võerdla küla",
        "city": null,
        "state": null,
        "postcode": "74220",
        "country": "Estonia",
        "country_code": "ee"
      },
      "address": "Tallinn — Narva, Maardu, Estonia"
    },
    {
      "lat": 59.47973833236623,
      "lon": 24.983618014095555,
      "geoinfo": {
        "display_name": "24, Oja tee, Uusküla, Maardu, Jõelähtme vald, Harju County, 74120, Estonia",
        "road": "Oja tee",
        "house_number": "24",
        "neighbourhood": null,
        "suburb": null,
        "city_district": "Uusküla",
        "city": "Maardu",
        "state": null,
        "postcode": "74120",
        "country": "Estonia",
        "country_code": "ee"
      },
      "address": "24 Oja tee, Maardu, Estonia"
    },
    {
      "lat": 59.481719984859616,
      "lon": 24.934724029558264,
      "geoinfo": {
        "display_name": "Kallavere tee, Maardu, Harju County, 74004, Estonia",
        "road": "Kallavere tee",
        "house_number": null,
        "neighbourhood": null,
        "suburb": null,
        "city_district": null,
        "city": "Maardu",
        "state": null,
        "postcode": "74004",
        "country": "Estonia",
        "country_code": "ee"
      },
      "address": "Kallavere tee, Maardu, Estonia"
    },
    {
      "lat": 59.46627407593335,
      "lon": 25.01157539531437,
      "geoinfo": {
        "display_name": "Keemikute, Maardu, Harju County, 74111, Estonia",
        "road": "Keemikute",
        "house_number": null,
        "neighbourhood": null,
        "suburb": null,
        "city_district": null,
        "city": "Maardu",
        "state": null,
        "postcode": "74111",
        "country": "Estonia",
        "country_code": "ee"
      },
      "address": "Keemikute, Maardu, Estonia"
    },
    {
      "lat": 59.44865798600918,
      "lon": 24.906518848027176,
      "geoinfo": {
        "display_name": "Priisle tee, Priisle, Lasnamäe linnaosa, Tallinn, Harju County, 13914, Estonia",
        "road": "Priisle tee",
        "house_number": null,
        "neighbourhood": null,
        "suburb": "Lasnamäe linnaosa",
        "city_district": null,
        "city": "Tallinn",
        "state": null,
        "postcode": "13914",
        "country": "Estonia",
        "country_code": "ee"
      },
      "address": "161, Priisle tee, Priisle, Lasnamäe linnaosa, Tallinn, Harju County, 13914, Estonia"
    },
    {
      "lat": 59.46419890835874,
      "lon": 25.031769843013244,
      "geoinfo": {
        "display_name": "Lõhangu, Kure tee, Kasekese, Võerdla küla, Maardu, Jõelähtme vald, Harju County, 74221, Estonia",
        "road": "Kure tee",
        "house_number": null,
        "neighbourhood": null,
        "suburb": null,
        "city_district": "Võerdla küla",
        "city": "Maardu",
        "state": null,
        "postcode": "74221",
        "country": "Estonia",
        "country_code": "ee"
      },
      "address": "764, Kure tee, 74221 Maardu, Estonia"
    },
    {
      "lat": 59.476172489675704,
      "lon": 24.936069809471277,
      "geoinfo": {
        "display_name": "46/1, Pirnipuu pst, Maardu, Harju County, 74117, Estonia",
        "road": "Pirnipuu pst",
        "house_number": "46/1",
        "neighbourhood": null,
        "suburb": null,
        "city_district": null,
        "city": "Maardu",
        "state": null,
        "postcode": "74117",
        "country": "Estonia",
        "country_code": "ee"
      },
      "address": "46/1, Pirnipuu pst, Maardu, Harju County, 74117, Estonia"
    },
    {
      "lat": 59.46953648220032,
      "lon": 24.96434309342945,
      "geoinfo": {
        "display_name": "Maardu, Harju County, 74115, Estonia",
        "road": null,
        "house_number": null,
        "neighbourhood": null,
        "suburb": null,
        "city_district": null,
        "city": "Maardu",
        "state": null,
        "postcode": "74115",
        "country": "Estonia",
        "country_code": "ee"
      },
      "address": "278, Maardu, Harju County, 74115, Estonia"
    },
    {
      "lat": 59.49919315387783,
      "lon": 24.97258337295173,
      "geoinfo": {
        "display_name": "21, Veose, Muuga sadam, Muuga küla, Maardu, Harju County, 74115, Estonia",
        "road": "Veose",
        "house_number": null,
        "neighbourhood": null,
        "suburb": null,
        "city_district": null,
        "city": "Maardu",
        "state": null,
        "postcode": "74115",
        "country": "Estonia",
        "country_code": "ee"
      },
      "address": "21, Veose, Muuga sadam, Muuga küla, Maardu, Harju County, 74115, Estonia"
    },
    {
      "lat": 59.46579350834834,
      "lon": 24.990470972435432,
      "geoinfo": {
        "display_name": "Piiri tee, Maardu, Harju County, 74114, Estonia",
        "road": "Piiri tee",
        "house_number": null,
        "neighbourhood": null,
        "suburb": null,
        "city_district": null,
        "city": "Maardu",
        "state": null,
        "postcode": "74114",
        "country": "Estonia",
        "country_code": "ee"
      },
      "address": "470, Piiri tee, Maardu, Harju County, 74114, Estonia"
    },
    {
      "lat": 59.45495354287405,
      "lon": 24.924405348793073,
      "geoinfo": {
        "display_name": "6, Jaama tee, Maardu, Harju County, 74114, Estonia",
        "road": "Jaama tee",
        "house_number": "6",
        "neighbourhood": null,
        "suburb": null,
        "city_district": null,
        "city": "Maardu",
        "state": null,
        "postcode": "74114",
        "country": "Estonia",
        "country_code": "ee"
      },
      "address": "6, Jaama tee, Maardu, Harju County, 74114, Estonia"
    },
    {
      "lat": 59.47623666002853,
      "lon": 25.031453514168582,
      "geoinfo": {
        "display_name": "5, Kure tee, Kasekese, Võerdla küla, Maardu, Jõelähtme vald, Harju County, 74121, Estonia",
        "road": "Kure tee",
        "house_number": "5",
        "neighbourhood": null,
        "suburb": null,
        "city_district": "Võerdla küla",
        "city": "Maardu",
        "state": null,
        "postcode": "74121",
        "country": "Estonia",
        "country_code": "ee"
      },
      "address": "5, Kure tee, Kasekese, Võerdla küla, Maardu, Jõelähtme vald, Harju County, 74121, Estonia"
    },
    {
      "lat": 59.42706429156723,
      "lon": 24.950183180405546,
      "geoinfo": {
        "display_name": "18, Saha tee, Liivamäe küla, Loo, Jõelähtme vald, Harju County, 74201, Estonia",
        "road": "Saha tee",
        "house_number": "18",
        "neighbourhood": null,
        "suburb": null,
        "city_district": null,
        "city": "Loo",
        "state": null,
        "postcode": "74201",
        "country": "Estonia",
        "country_code": "ee"
      },
      "address": "18, Saha tee, 74201 Maardu, Estonia"
    },
    {
      "lat": 59.47495304692563,
      "lon": 25.027430244567213,
      "geoinfo": {
        "display_name": "1/1, Rajaniidu, Maardu, Harju County, 74114, Estonia",
        "road": "Rajaniidu",
        "house_number": "1/1",
        "neighbourhood": null,
        "suburb": null,
        "city_district": null,
        "city": "Maardu",
        "state": null,
        "postcode": "74114",
        "country": "Estonia",
        "country_code": "ee"
      },
      "address": "1/1, Rajaniidu, Maardu, Harju County, 74114, Estonia"
    },
    {
      "lat": 59.46577565053232,
      "lon": 24.993600934830113,
      "geoinfo": {
        "display_name": "Lao, Maardu, Harju County, 74114, Estonia",
        "road": "Lao",
        "house_number": null,
        "neighbourhood": null,
        "suburb": null,
        "city_district": null,
        "city": "Maardu",
        "state": null,
        "postcode": "74114",
        "country": "Estonia",
        "country_code": "ee"
      },
      "address": "087, Lao, Maardu, Harju County, 74114, Estonia"
    },
    {
      "lat": 59.46328655695239,
      "lon": 24.984396594371937,
      "geoinfo": {
        "display_name": "16, Põhjaranna tee, Maardu, Harju County, 74114, Estonia",
        "road": "Põhjaranna tee",
        "house_number": "16",
        "neighbourhood": null,
        "suburb": null,
        "city_district": null,
        "city": "Maardu",
        "state": null,
        "postcode": "74114",
        "country": "Estonia",
        "country_code": "ee"
      },
      "address": "16, Põhjaranna tee, Maardu, Harju County, 74114, Estonia"
    },
    {
      "lat": 59.448721914753904,
      "lon": 24.99121682753785,
      "geoinfo": {
        "display_name": "Järvekalda tee, Maardu, Harju County, 74114, Estonia",
        "road": "Järvekalda tee",
        "house_number": null,
        "neighbourhood": null,
        "suburb": null,
        "city_district": null,
        "city": "Maardu",
        "state": null,
        "postcode": "74114",
        "country": "Estonia",
        "country_code": "ee"
      },
      "address": "438, Järvekalda tee, Maardu, Harju County, 74114, Estonia"
    }
  ],
  "updated_at": "2025-10-19T04:42:29.876066+00:00",
  "_kind": "geo_samples"
}