{
  "country_code": "EE",
  "country": "Estonia",
  "city": "Tartu",
  "geonameid": 588335,
  "target_addresses": 13,
  "samples": [
    {
      "lat": 58.34299704541511,
      "lon": 26.723078373633157,
      "geoinfo": {
        "display_name": "25, Ringtee, Ropka tööstusrajoon, Tartu, Tartu linn, Tartu County, 50105, Estonia",
        "road": "Ringtee",
        "house_number": "25",
        "neighbourhood": null,
        "suburb": null,
        "city_district": null,
        "city": "Tartu",
        "state": null,
        "postcode": "50105",
        "country": "Estonia",
        "country_code": "ee"
      },
      "address": "25 Ringtee, Tartu, Estonia"
    },
    {
      "lat": 58.388080398243744,
      "lon": 26.65577577695965,
      "geoinfo": {
        "display_name": "5, Kase-Juhani tee, Kandiküla, Tartu linn, Tartu County, 61404, Estonia",
        "road": "Kase-Juhani tee",
        "house_number": "5",
        "neighbourhood": null,
        "suburb": null,
        "city_district": "Kandiküla",
        "city": null,
        "state": null,
        "postcode": "61404",
        "country": "Estonia",
        "country_code": "ee"
      },
      "address": "5 Kase-Juhani tee, Tartu, Estonia"
    },
    {
      "lat": 58.37273359026546,
      "lon": 26.737221340585915,
      "geoinfo": {
        "display_name": "Lina, Karlova, Tartu, Tartu linn, Tartu County, 51004, Estonia",
        "road": "Lina",
        "house_number": null,
        "neighbourhood": null,
        "suburb": null,
        "city_district": null,
        "city": "Tartu",
        "state": null,
        "postcode": "51004",
        "country": "Estonia",
        "country_code": "ee"
      },
      "address": "Lina, Tartu, Estonia"
    },
    {
      "lat": 58.353413848790254,
      "lon": 26.74212758693301,
      "geoinfo": {
        "display_name": "14a, Tehnika, Ropka tööstusrajoon, Tartu, Tartu linn, Tartu County, 50104, Estonia",
        "road": "Tehnika",
        "house_number": "14a",
        "neighbourhood": null,
        "suburb": null,
        "city_district": null,
        "city": "Tartu",
        "state": null,
        "postcode": "50104",
        "country": "Estonia",
        "country_code": "ee"
      },
      "address": "14a Tehnika, Tartu, Estonia"
    },
    {
      "lat": 58.39833521988243,
      "lon": 26.764699194791014,
      "geoinfo": {
        "display_name": "Raadiraja, Raadi alev, Tartu vald, Tartu County, 60532, Estonia",
        "road": "Raadiraja",
        "house_number": null,
        "neighbourhood": null,
        "suburb": null,
        "city_district": "Raadi alev",
        "city": null,
        "state": null,
        "postcode": "60532",
        "country": "Estonia",
        "country_code": "ee"
      },
      "address": "Raadiraja, Tartu, Estonia"
    },
    {
      "lat": 58.34375525054624,
      "lon": 26.772341146966543,
      "geoinfo": {
        "display_name": "Ihaste Ratsakeskus, 4, Raeremmelga, Ihaste, Tartu, Tartu linn, Tartu County, 51011, Estonia",
        "road": "Raeremmelga",
        "house_number": "4",
        "neighbourhood": null,
        "suburb": null,
        "city_district": null,
        "city": "Tartu",
        "state": null,
        "postcode": "51011",
        "country": "Estonia",
        "country_code": "ee"
      },
      "address": "4 Raeremmelga, Tartu, Estonia"
    },
    {
      "lat": 58.404925929486176,
      "lon": 26.740139752619505,
      "geoinfo": {
        "display_name": "5, Pärna allee, Raadi alev, Tartu vald, Tartu County, 60534, Estonia",
        "road": "Pärna allee",
        "house_number": "5",
        "neighbourhood": null,
        "suburb": null,
        "city_district": "Raadi alev",
        "city": null,
        "state": null,
        "postcode": "60534",
        "country": "Estonia",
        "country_code": "ee"
      },
      "address": "5 Pärna allee, Tartu, Estonia"
    },
    {
      "lat": 58.37313517270784,
      "lon": 26.754465138147058,
      "geoinfo": {
        "display_name": "Kalda tee, Annelinn, Tartu, Tartu linn, Tartu County, 50703, Estonia",
        "road": "Kalda tee",
        "house_number": null,
        "neighbourhood": null,
        "suburb": null,
        "city_district": null,
        "city": "Tartu",
        "state": null,
        "postcode": "50703",
        "country": "Estonia",
        "country_code": "ee"
      },
      "address": "Kalda tee, Tartu, Estonia"
    },
    {
      "lat": 58.34940064161834,
      "lon": 26.776601027272115,
      "geoinfo": {
        "display_name": "11, Arukase, Ihaste, Tartu, Tartu linn, Tartu County, 51011, Estonia",
        "road": "Arukase",
        "house_number": "11",
        "neighbourhood": null,
        "suburb": null,
        "city_district": null,
        "city": "Tartu",
        "state": null,
        "postcode": "51011",
        "country": "Estonia",
        "country_code": "ee"
      },
      "address": "11 Arukase, Tartu, Estonia"
    },
    {
      "lat": 58.34890867032474,
      "lon": 26.735217156166108,
      "geoinfo": {
        "display_name": "3, Selli, Ropka tööstusrajoon, Tartu, Tartu linn, Tartu County, 50113, Estonia",
        "road": "Selli",
        "house_number": "3",
        "neighbourhood": null,
        "suburb": null,
        "city_district": null,
        "city": "Tartu",
        "state": null,
        "postcode": "50113",
        "country": "Estonia",
        "country_code": "ee"
      },
      "address": "3 Selli, Tartu, Estonia"
    },
    {
      "lat": 58.367885196455426,
      "lon": 26.69178808123108,
      "geoinfo": {
        "display_name": "Wilhelm Ostwaldi, Maarjamõisa, Tartu, Tartu linn, Tartu County, 50411, Estonia",
        "road": "Wilhelm Ostwaldi",
        "house_number": null,
        "neighbourhood": null,
        "suburb": null,
        "city_district": null,
        "city": "Tartu",
        "state": null,
        "postcode": "50411",
        "country": "Estonia",
        "country_code": "ee"
      },
      "address": "Wilhelm Ostwaldi, Tartu, Estonia"
    },
    {
      "lat": 58.4052674617642,
      "lon": 26.752384773645666,
      "geoinfo": {
        "display_name": "Stardiraja, Raadi alev, Tartu vald, Tartu County, 60532, Estonia",
        "road": "Stardiraja",
        "house_number": null,
        "neighbourhood": null,
        "suburb": null,
        "city_district": "Raadi alev",
        "city": null,
        "state": null,
        "postcode": "60532",
        "country": "Estonia",
        "country_code": "ee"
      },
      "address": "Stardiraja, Tartu, Estonia"
    },
    {
      "lat": 58.376547166137826,
      "lon": 26.67115612829215,
      "geoinfo": {
        "display_name": "3, Tasa tee, Kandiküla, Tartu linn, Tartu County, 61404, Estonia",
        "road": "Tasa tee",
        "house_number": "3",
        "neighbourhood": null,
        "suburb": null,
        "city_district": "Kandiküla",
        "city": null,
        "state": null,
        "postcode": "61404",
        "country": "Estonia",
        "country_code": "ee"
      },
      "address": "3 Tasa tee, Tartu, Estonia"
    },
    {
      "lat": 58.3432093827174,
      "lon": 26.770181216200992,
      "geoinfo": {
        "display_name": "Ihaste Ratsakeskus, 4, Raeremmelga, Ihaste, Tartu, Tartu linn, Tartu County, 51011, Estonia",
        "road": "Raeremmelga",
        "house_number": "4",
        "neighbourhood": null,
        "suburb": null,
        "city_district": null,
        "city": "Tartu",
        "state": null,
        "postcode": "51011",
        "country": "Estonia",
        "country_code": "ee"
      },
      "address": "Ihaste Ratsakeskus, 4, Raeremmelga, Ihaste, Tartu, Tartu linn, Tartu County, 51011, Estonia"
    },
    {
      "lat": 58.410695802773496,
      "lon": 26.688140432805184,
      "geoinfo": {
        "display_name": "Jänese matkarada, Kalamaja, Tähtvere küla, Tartu linn, Tartu County, 51017, Estonia",
        "road": "Jänese matkarada",
        "house_number": null,
        "neighbourhood": null,
        "suburb": null,
        "city_district": "Tähtvere küla",
        "city": null,
        "state": null,
        "postcode": "51017",
        "country": "Estonia",
        "country_code": "ee"
      },
      "address": "574, Jänese matkarada, Kalamaja, Tähtvere küla, Tartu linn, Tartu County, 51017, Estonia"
    },
    {
      "lat": 58.42038670753426,
      "lon": 26.72241303501023,
      "geoinfo": {
        "display_name": "12, Estakaadi, Vahi tööstuspark, Vahi alevik, Tartu vald, Tartu County, 60534, Estonia",
        "road": "Estakaadi",
        "house_number": "12",
        "neighbourhood": null,
        "suburb": null,
        "city_district": null,
        "city": "Vahi alevik",
        "state": null,
        "postcode": "60534",
        "country": "Estonia",
        "country_code": "ee"
      },
      "address": "12, Estakaadi, Vahi tööstuspark, Vahi alevik, Tartu vald, Tartu County, 60534, Estonia"
    },
    {
      "lat": 58.41432202950593,
      "lon": 26.769033619576415,
      "geoinfo": {
        "display_name": "Rähni, Raadi alev, Tartu vald, Tartu County, 60512, Estonia",
        "road": "Rähni",
        "house_number": null,
        "neighbourhood": null,
        "suburb": null,
        "city_district": "Raadi alev",
        "city": null,
        "state": null,
        "postcode": "60512",
        "country": "Estonia",
        "country_code": "ee"
      },
      "address": "481, Rähni, Raadi alev, Tartu vald, Tartu County, 60512, Estonia"
    },
    {
      "lat": 58.374931645004935,
      "lon": 26.67741241355259,
      "geoinfo": {
        "display_name": "Põhjala, Mündeli, Õssu küla, Kambja vald, Tartu County, 50408, Estonia",
        "road": "Põhjala",
        "house_number": null,
        "neighbourhood": null,
        "suburb": null,
        "city_district": "Õssu küla",
        "city": null,
        "state": null,
        "postcode": "50408",
        "country": "Estonia",
        "country_code": "ee"
      },
      "address": "151, Põhjala, Mündeli, Õssu küla, Kambja vald, Tartu County, 50408, Estonia"
    },
    {
      "lat": 58.38632773647972,
      "lon": 26.80740140599489,
      "geoinfo": {
        "display_name": "Hobuallika, Rõõmu — Viira, Muri, Rõõmu küla, Luunja vald, Tartu County, 62213, Estonia",
        "road": "Rõõmu — Viira",
        "house_number": null,
        "neighbourhood": null,
        "suburb": null,
        "city_district": "Rõõmu küla",
        "city": null,
        "state": null,
        "postcode": "62213",
        "country": "Estonia",
        "country_code": "ee"
      },
      "address": "640, Rõõmu — Viira, 62213 Tartu, Estonia"
    },
    {
      "lat": 58.33758136735467,
      "lon": 26.738924965328597,
      "geoinfo": {
        "display_name": "7a, Kuslapuu, Soinaste küla, Kambja vald, Tartu County, 61709, Estonia",
        "road": "Kuslapuu",
        "house_number": "7a",
        "neighbourhood": null,
        "suburb": null,
        "city_district": null,
        "city": null,
        "state": null,
        "postcode": "61709",
        "country": "Estonia",
        "country_code": "ee"
      },
      "address": "7a, Kuslapuu, Soinaste küla, Kambja vald, Tartu County, 61709, Estonia"
    },
    {
      "lat": 58.395648274534324,
      "lon": 26.7351106828578,
      "geoinfo": {
        "display_name": "Narva mnt, Raadi-Kruusamäe, Tartu, Tartu linn, Tartu County, 51009, Estonia",
        "road": "Narva mnt",
        "house_number": null,
        "neighbourhood": null,
        "suburb": null,
        "city_district": null,
        "city": "Tartu",
        "state": null,
        "postcode": "51009",
        "country": "Estonia",
        "country_code": "ee"
      },
      "address": "031, Narva mnt, Raadi-Kruusamäe, Tartu, Tartu linn, Tartu County, 51009, Estonia"
    },
    {
      "lat": 58.35639129065449,
      "lon": 26.660027635210376,
      "geoinfo": {
        "display_name": "Kivimetsa tee, Räni alevik, Räni, Kambja vald, Tartu County, 61708, Estonia",
        "road": "Kivimetsa tee",
        "house_number": null,
        "neighbourhood": null,
        "suburb": null,
        "city_district": "Räni alevik",
        "city": "Räni",
        "state": null,
        "postcode": "61708",
        "country": "Estonia",
        "country_code": "ee"
      },
      "address": "223, Kivimetsa tee, Räni alevik, Räni, Kambja vald, Tartu County, 61708, Estonia"
    },
    {
      "lat": 58.375237471031504,
      "lon": 26.756487366386253,
      "geoinfo": {
        "display_name": "Anne, Annelinn, Tartu, Tartu linn, Tartu County, 50705, Estonia",
        "road": "Anne",
        "house_number": null,
        "neighbourhood": null,
        "suburb": null,
        "city_district": null,
        "city": "Tartu",
        "state": null,
        "postcode": "50705",
        "country": "Estonia",
        "country_code": "ee"
      },
      "address": "281, Anne, Annelinn, Tartu, Tartu linn, Tartu County, 50705, Estonia"
    },
    {
      "lat": 58.3665711828571,
      "lon": 26.65267581518468,
      "geoinfo": {
        "display_name": "27, Karja tee, Õssu, Õssu küla, Kambja vald, Tartu County, 61713, Estonia",
        "road": "Karja tee",
        "house_number": "27",
        "neighbourhood": null,
        "suburb": null,
        "city_district": "Õssu küla",
        "city": null,
        "state": null,
        "postcode": "61713",
        "country": "Estonia",
        "country_code": "ee"
      },
      "address": "27, Karja tee, Õssu, Õssu küla, Kambja vald, Tartu County, 61713, Estonia"
    },
    {
      "lat": 58.3931468084959,
      "lon": 26.799105110942396,
      "geoinfo": {
        "display_name": "17, Roobi tee, Teearu, Rõõmu küla, Luunja vald, Tartu County, 62213, Estonia",
        "road": "Roobi tee",
        "house_number": "17",
        "neighbourhood": null,
        "suburb": null,
        "city_district": "Rõõmu küla",
        "city": null,
        "state": null,
        "postcode": "62213",
        "country": "Estonia",
        "country_code": "ee"
      },
      "address": "17, Roobi tee, Teearu, Rõõmu küla, Luunja vald, Tartu County, 62213, Estonia"
    },
    {
      "lat": 58.360072382044734,
      "lon": 26.667861896433447,
      "geoinfo": {
        "display_name": "32, Ränirahnu tee, Räni alevik, Räni, Kambja vald, Tartu County, 61708, Estonia",
        "road": "Ränirahnu tee",
        "house_number": "32",
        "neighbourhood": null,
        "suburb": null,
        "city_district": "Räni alevik",
        "city": "Räni",
        "state": null,
        "postcode": "61708",
        "country": "Estonia",
        "country_code": "ee"
      },
      "address": "32, Ränirahnu tee, Räni alevik, Räni, Kambja vald, Tartu County, 61708, Estonia"
    }
  ],
  "updated_at": "2025-10-19T03:57:13.618983+00:00",
  "_kind": "geo_samples"
}