{
  "country_code": "SH",
  "country": "Saint Helena",
  "city": "Jamestown",
  "geonameid": 3370903,
  "target_addresses": 100,
  "samples": [
    {
      "lat": -15.929865631190173,
      "lon": -5.721609135193846,
      "geoinfo": {
        "display_name": "Half Tree Hollow, Saint Helena, STHL 1ZZ, Saint Helena, Ascension and Tristan da Cunha",
        "road": null,
        "house_number": null,
        "neighbourhood": null,
        "suburb": null,
        "city_district": null,
        "city": "Half Tree Hollow",
        "state": "Saint Helena",
        "postcode": "STHL 1ZZ",
        "country": "Saint Helena, Ascension and Tristan da Cunha",
        "country_code": "sh"
      },
      "address": "Jamestown, Saint Helena, Saint Helena"
    },
    {
      "lat": -15.929564656888786,
      "lon": -5.715350848790694,
      "geoinfo": {
        "display_name": "Colemans House - Police Station and Immigration, Market Street, Jamestown, Saint Helena, STHL 1ZZ, Saint Helena, Ascension and Tristan da Cunha",
        "road": "Market Street",
        "house_number": null,
        "neighbourhood": null,
        "suburb": null,
        "city_district": null,
        "city": "Jamestown",
        "state": "Saint Helena",
        "postcode": "STHL 1ZZ",
        "country": "Saint Helena, Ascension and Tristan da Cunha",
        "country_code": "sh"
      },
      "address": "Market Street, Jamestown, Saint Helena, Saint Helena"
    },
    {
      "lat": -15.924607116681399,
      "lon": -5.723608375169243,
      "geoinfo": {
        "display_name": "Ladder Hill Road, Jamestown, Saint Helena, STHL 1ZZ, Saint Helena, Ascension and Tristan da Cunha",
        "road": "Ladder Hill Road",
        "house_number": null,
        "neighbourhood": null,
        "suburb": null,
        "city_district": null,
        "city": "Jamestown",
        "state": "Saint Helena",
        "postcode": "STHL 1ZZ",
        "country": "Saint Helena, Ascension and Tristan da Cunha",
        "country_code": "sh"
      },
      "address": "Ladder Hill Road, Jamestown, Saint Helena, Saint Helena"
    },
    {
      "lat": -15.93691443524985,
      "lon": -5.712520902357833,
      "geoinfo": {
        "display_name": "Maldive Road, Jamestown, Saint Helena, STHL 1ZZ, Saint Helena, Ascension and Tristan da Cunha",
        "road": "Maldive Road",
        "house_number": null,
        "neighbourhood": null,
        "suburb": null,
        "city_district": null,
        "city": "Jamestown",
        "state": "Saint Helena",
        "postcode": "STHL 1ZZ",
        "country": "Saint Helena, Ascension and Tristan da Cunha",
        "country_code": "sh"
      },
      "address": "Maldive Road, Jamestown, Saint Helena, Saint Helena"
    },
    {
      "lat": -15.926964625498865,
      "lon": -5.7183326095135385,
      "geoinfo": {
        "display_name": "Shy Road, Jamestown, Saint Helena, STHL 1ZZ, Saint Helena, Ascension and Tristan da Cunha",
        "road": "Shy Road",
        "house_number": null,
        "neighbourhood": null,
        "suburb": null,
        "city_district": null,
        "city": "Jamestown",
        "state": "Saint Helena",
        "postcode": "STHL 1ZZ",
        "country": "Saint Helena, Ascension and Tristan da Cunha",
        "country_code": "sh"
      },
      "address": "Shy Road, Jamestown, Saint Helena, Saint Helena"
    },
    {
      "lat": -15.92237200965328,
      "lon": -5.719157804366341,
      "geoinfo": {
        "display_name": "The Wharf, Jamestown, Saint Helena, STHL 1ZZ, Saint Helena, Ascension and Tristan da Cunha",
        "road": "The Wharf",
        "house_number": null,
        "neighbourhood": null,
        "suburb": null,
        "city_district": null,
        "city": "Jamestown",
        "state": "Saint Helena",
        "postcode": "STHL 1ZZ",
        "country": "Saint Helena, Ascension and Tristan da Cunha",
        "country_code": "sh"
      },
      "address": "The Wharf, Jamestown, Saint Helena, Saint Helena"
    },
    {
      "lat": -15.939451411237627,
      "lon": -5.711969433840886,
      "geoinfo": {
        "display_name": "Constitution Hill Road, The Briars, Saint Helena, STHL 1ZZ, Saint Helena, Ascension and Tristan da Cunha",
        "road": "Constitution Hill Road",
        "house_number": null,
        "neighbourhood": null,
        "suburb": null,
        "city_district": null,
        "city": "The Briars",
        "state": "Saint Helena",
        "postcode": "STHL 1ZZ",
        "country": "Saint Helena, Ascension and Tristan da Cunha",
        "country_code": "sh"
      },
      "address": "Constitution Hill Road, Jamestown, Saint Helena, Saint Helena"
    },
    {
      "lat": -15.92390957706781,
      "lon": -5.717829314453798,
      "geoinfo": {
        "display_name": "Main pool, Castle Terrace, Jamestown, Saint Helena, STHL 1ZZ, Saint Helena, Ascension and Tristan da Cunha",
        "road": "Castle Terrace",
        "house_number": null,
        "neighbourhood": null,
        "suburb": null,
        "city_district": null,
        "city": "Jamestown",
        "state": "Saint Helena",
        "postcode": "STHL 1ZZ",
        "country": "Saint Helena, Ascension and Tristan da Cunha",
        "country_code": "sh"
      },
      "address": "Castle Terrace, Jamestown, Saint Helena, Saint Helena"
    },
    {
      "lat": -15.911106075148583,
      "lon": -5.689802185961702,
      "geoinfo": {
        "display_name": "The Briars, Saint Helena, STHL 1ZZ, Saint Helena, Ascension and Tristan da Cunha",
        "road": null,
        "house_number": null,
        "neighbourhood": null,
        "suburb": null,
        "city_district": null,
        "city": "The Briars",
        "state": "Saint Helena",
        "postcode": "STHL 1ZZ",
        "country": "Saint Helena, Ascension and Tristan da Cunha",
        "country_code": "sh"
      },
      "address": "275, Jamestown, STHL 1ZZ Saint Helena, Saint Helena"
    },
    {
      "lat": -15.910895428075195,
      "lon": -5.7580849838453805,
      "geoinfo": {
        "display_name": "Saint Helena, Saint Helena, Ascension and Tristan da Cunha",
        "road": null,
        "house_number": null,
        "neighbourhood": null,
        "suburb": null,
        "city_district": null,
        "city": null,
        "state": "Saint Helena",
        "postcode": null,
        "country": "Saint Helena, Ascension and Tristan da Cunha",
        "country_code": "sh"
      },
      "address": "405, Jamestown, 41255 Saint Helena, Saint Helena"
    },
    {
      "lat": -15.90347138373528,
      "lon": -5.730011012187591,
      "geoinfo": {
        "display_name": "Half Tree Hollow, Saint Helena, STHL 1ZZ, Saint Helena, Ascension and Tristan da Cunha",
        "road": null,
        "house_number": null,
        "neighbourhood": null,
        "suburb": null,
        "city_district": null,
        "city": "Half Tree Hollow",
        "state": "Saint Helena",
        "postcode": "STHL 1ZZ",
        "country": "Saint Helena, Ascension and Tristan da Cunha",
        "country_code": "sh"
      },
      "address": "058, Jamestown, STHL 1ZZ Saint Helena, Saint Helena"
    },
    {
      "lat": -15.908114904077605,
      "lon": -5.739311139906769,
      "geoinfo": {
        "display_name": "Half Tree Hollow, Saint Helena, STHL 1ZZ, Saint Helena, Ascension and Tristan da Cunha",
        "road": null,
        "house_number": null,
        "neighbourhood": null,
        "suburb": null,
        "city_district": null,
        "city": "Half Tree Hollow",
        "state": "Saint Helena",
        "postcode": "STHL 1ZZ",
        "country": "Saint Helena, Ascension and Tristan da Cunha",
        "country_code": "sh"
      },
      "address": "730, Jamestown, STHL 1ZZ Saint Helena, Saint Helena"
    },
    {
      "lat": -15.89485533666666,
      "lon": -5.732426501857337,
      "geoinfo": {
        "display_name": "Saint Helena, Saint Helena, Ascension and Tristan da Cunha",
        "road": null,
        "house_number": null,
        "neighbourhood": null,
        "suburb": null,
        "city_district": null,
        "city": null,
        "state": "Saint Helena",
        "postcode": null,
        "country": "Saint Helena, Ascension and Tristan da Cunha",
        "country_code": "sh"
      },
      "address": "165, Jamestown, 33926 Saint Helena, Saint Helena"
    },
    {
      "lat": -15.90378657617245,
      "lon": -5.690898830222338,
      "geoinfo": {
        "display_name": "Saint Helena, Saint Helena, Ascension and Tristan da Cunha",
        "road": null,
        "house_number": null,
        "neighbourhood": null,
        "suburb": null,
        "city_district": null,
        "city": null,
        "state": "Saint Helena",
        "postcode": null,
        "country": "Saint Helena, Ascension and Tristan da Cunha",
        "country_code": "sh"
      },
      "address": "115, Jamestown, 15825 Saint Helena, Saint Helena"
    },
    {
      "lat": -15.948178326298054,
      "lon": -5.722581569378364,
      "geoinfo": {
        "display_name": "New Ground, Cleughs Plain, Saint Helena, STHL 1ZZ, Saint Helena, Ascension and Tristan da Cunha",
        "road": null,
        "house_number": null,
        "neighbourhood": null,
        "suburb": null,
        "city_district": null,
        "city": "Cleughs Plain",
        "state": "Saint Helena",
        "postcode": "STHL 1ZZ",
        "country": "Saint Helena, Ascension and Tristan da Cunha",
        "country_code": "sh"
      },
      "address": "999, Jamestown, STHL 1ZZ Saint Helena, Saint Helena"
    },
    {
      "lat": -15.896575595489441,
      "lon": -5.737273901134643,
      "geoinfo": {
        "display_name": "Saint Helena, Saint Helena, Ascension and Tristan da Cunha",
        "road": null,
        "house_number": null,
        "neighbourhood": null,
        "suburb": null,
        "city_district": null,
        "city": null,
        "state": "Saint Helena",
        "postcode": null,
        "country": "Saint Helena, Ascension and Tristan da Cunha",
        "country_code": "sh"
      },
      "address": "565, Jamestown, 46446 Saint Helena, Saint Helena"
    },
    {
      "lat": -15.963804842218693,
      "lon": -5.73233356011807,
      "geoinfo": {
        "display_name": "Rosemary Plain, St Paul's, Saint Helena, STHL 1ZZ, Saint Helena, Ascension and Tristan da Cunha",
        "road": null,
        "house_number": null,
        "neighbourhood": null,
        "suburb": null,
        "city_district": null,
        "city": "St Paul's",
        "state": "Saint Helena",
        "postcode": "STHL 1ZZ",
        "country": "Saint Helena, Ascension and Tristan da Cunha",
        "country_code": "sh"
      },
      "address": "214, Jamestown, STHL 1ZZ Saint Helena, Saint Helena"
    },
    {
      "lat": -15.931610001364392,
      "lon": -5.76182217028806,
      "geoinfo": {
        "display_name": "Cleughs Plain, Saint Helena, STHL 1ZZ, Saint Helena, Ascension and Tristan da Cunha",
        "road": null,
        "house_number": null,
        "neighbourhood": null,
        "suburb": null,
        "city_district": null,
        "city": "Cleughs Plain",
        "state": "Saint Helena",
        "postcode": "STHL 1ZZ",
        "country": "Saint Helena, Ascension and Tristan da Cunha",
        "country_code": "sh"
      },
      "address": "504, Jamestown, STHL 1ZZ Saint Helena, Saint Helena"
    },
    {
      "lat": -15.907331659797263,
      "lon": -5.749555986567644,
      "geoinfo": {
        "display_name": "Saint Helena, Saint Helena, Ascension and Tristan da Cunha",
        "road": null,
        "house_number": null,
        "neighbourhood": null,
        "suburb": null,
        "city_district": null,
        "city": null,
        "state": "Saint Helena",
        "postcode": null,
        "country": "Saint Helena, Ascension and Tristan da Cunha",
        "country_code": "sh"
      },
      "address": "096, Jamestown, 22747 Saint Helena, Saint Helena"
    },
    {
      "lat": -15.939234952919112,
      "lon": -5.696304340059173,
      "geoinfo": {
        "display_name": "Deadwood, Longwood, Saint Helena, STHL 1ZZ, Saint Helena, Ascension and Tristan da Cunha",
        "road": null,
        "house_number": null,
        "neighbourhood": null,
        "suburb": null,
        "city_district": null,
        "city": "Longwood",
        "state": "Saint Helena",
        "postcode": "STHL 1ZZ",
        "country": "Saint Helena, Ascension and Tristan da Cunha",
        "country_code": "sh"
      },
      "address": "256, Jamestown, STHL 1ZZ Saint Helena, Saint Helena"
    },
    {
      "lat": -15.88962097114764,
      "lon": -5.694349179479259,
      "geoinfo": {
        "display_name": "Saint Helena, Saint Helena, Ascension and Tristan da Cunha",
        "road": null,
        "house_number": null,
        "neighbourhood": null,
        "suburb": null,
        "city_district": null,
        "city": null,
        "state": "Saint Helena",
        "postcode": null,
        "country": "Saint Helena, Ascension and Tristan da Cunha",
        "country_code": "sh"
      },
      "address": "866, Jamestown, 81961 Saint Helena, Saint Helena"
    },
    {
      "lat": -15.904095025381695,
      "lon": -5.733143973128114,
      "geoinfo": {
        "display_name": "Half Tree Hollow, Saint Helena, STHL 1ZZ, Saint Helena, Ascension and Tristan da Cunha",
        "road": null,
        "house_number": null,
        "neighbourhood": null,
        "suburb": null,
        "city_district": null,
        "city": "Half Tree Hollow",
        "state": "Saint Helena",
        "postcode": "STHL 1ZZ",
        "country": "Saint Helena, Ascension and Tristan da Cunha",
        "country_code": "sh"
      },
      "address": "498, Jamestown, STHL 1ZZ Saint Helena, Saint Helena"
    },
    {
      "lat": -15.943377705746425,
      "lon": -5.700255737654031,
      "geoinfo": {
        "display_name": "Alarm Forest, Saint Helena, STHL 1ZZ, Saint Helena, Ascension and Tristan da Cunha",
        "road": null,
        "house_number": null,
        "neighbourhood": null,
        "suburb": null,
        "city_district": null,
        "city": "Alarm Forest",
        "state": "Saint Helena",
        "postcode": "STHL 1ZZ",
        "country": "Saint Helena, Ascension and Tristan da Cunha",
        "country_code": "sh"
      },
      "address": "799, Jamestown, STHL 1ZZ Saint Helena, Saint Helena"
    },
    {
      "lat": -15.93743259751342,
      "lon": -5.755212585334567,
      "geoinfo": {
        "display_name": "Cleughs Plain, Saint Helena, STHL 1ZZ, Saint Helena, Ascension and Tristan da Cunha",
        "road": null,
        "house_number": null,
        "neighbourhood": null,
        "suburb": null,
        "city_district": null,
        "city": "Cleughs Plain",
        "state": "Saint Helena",
        "postcode": "STHL 1ZZ",
        "country": "Saint Helena, Ascension and Tristan da Cunha",
        "country_code": "sh"
      },
      "address": "567, Jamestown, STHL 1ZZ Saint Helena, Saint Helena"
    },
    {
      "lat": -15.925129542663472,
      "lon": -5.746740610481804,
      "geoinfo": {
        "display_name": "Half Tree Hollow, Saint Helena, STHL 1ZZ, Saint Helena, Ascension and Tristan da Cunha",
        "road": null,
        "house_number": null,
        "neighbourhood": null,
        "suburb": null,
        "city_district": null,
        "city": "Half Tree Hollow",
        "state": "Saint Helena",
        "postcode": "STHL 1ZZ",
        "country": "Saint Helena, Ascension and Tristan da Cunha",
        "country_code": "sh"
      },
      "address": "950, Jamestown, STHL 1ZZ Saint Helena, Saint Helena"
    },
    {
      "lat": -15.930122412860438,
      "lon": -5.735601003084528,
      "geoinfo": {
        "display_name": "New Ground, Cleughs Plain, Saint Helena, STHL 1ZZ, Saint Helena, Ascension and Tristan da Cunha",
        "road": null,
        "house_number": null,
        "neighbourhood": null,
        "suburb": null,
        "city_district": null,
        "city": "Cleughs Plain",
        "state": "Saint Helena",
        "postcode": "STHL 1ZZ",
        "country": "Saint Helena, Ascension and Tristan da Cunha",
        "country_code": "sh"
      },
      "address": "854, Jamestown, STHL 1ZZ Saint Helena, Saint Helena"
    },
    {
      "lat": -15.885364272718128,
      "lon": -5.7308628495506415,
      "geoinfo": {
        "display_name": "Saint Helena, Saint Helena, Ascension and Tristan da Cunha",
        "road": null,
        "house_number": null,
        "neighbourhood": null,
        "suburb": null,
        "city_district": null,
        "city": null,
        "state": "Saint Helena",
        "postcode": null,
        "country": "Saint Helena, Ascension and Tristan da Cunha",
        "country_code": "sh"
      },
      "address": "321, Jamestown, 61979 Saint Helena, Saint Helena"
    },
    {
      "lat": -15.913087686932455,
      "lon": -5.699998639463322,
      "geoinfo": {
        "display_name": "Rupert's Wharf, Rupert's Valley, Saint Helena, STHL 1ZZ, Saint Helena, Ascension and Tristan da Cunha",
        "road": null,
        "house_number": null,
        "neighbourhood": null,
        "suburb": null,
        "city_district": null,
        "city": null,
        "state": "Saint Helena",
        "postcode": "STHL 1ZZ",
        "country": "Saint Helena, Ascension and Tristan da Cunha",
        "country_code": "sh"
      },
      "address": "000, Jamestown, STHL 1ZZ Saint Helena, Saint Helena"
    },
    {
      "lat": -15.90873014789548,
      "lon": -5.727021790918732,
      "geoinfo": {
        "display_name": "Rupert's Wharf, Rupert's Valley, Saint Helena, STHL 1ZZ, Saint Helena, Ascension and Tristan da Cunha",
        "road": null,
        "house_number": null,
        "neighbourhood": null,
        "suburb": null,
        "city_district": null,
        "city": null,
        "state": "Saint Helena",
        "postcode": "STHL 1ZZ",
        "country": "Saint Helena, Ascension and Tristan da Cunha",
        "country_code": "sh"
      },
      "address": "022, Jamestown, STHL 1ZZ Saint Helena, Saint Helena"
    },
    {
      "lat": -15.892976358588957,
      "lon": -5.710722286351969,
      "geoinfo": {
        "display_name": "Saint Helena, Saint Helena, Ascension and Tristan da Cunha",
        "road": null,
        "house_number": null,
        "neighbourhood": null,
        "suburb": null,
        "city_district": null,
        "city": null,
        "state": "Saint Helena",
        "postcode": null,
        "country": "Saint Helena, Ascension and Tristan da Cunha",
        "country_code": "sh"
      },
      "address": "740, Jamestown, 76775 Saint Helena, Saint Helena"
    },
    {
      "lat": -15.898732852093284,
      "lon": -5.741642743562059,
      "geoinfo": {
        "display_name": "Saint Helena, Saint Helena, Ascension and Tristan da Cunha",
        "road": null,
        "house_number": null,
        "neighbourhood": null,
        "suburb": null,
        "city_district": null,
        "city": null,
        "state": "Saint Helena",
        "postcode": null,
        "country": "Saint Helena, Ascension and Tristan da Cunha",
        "country_code": "sh"
      },
      "address": "787, Jamestown, 77355 Saint Helena, Saint Helena"
    },
    {
      "lat": -15.953197383987112,
      "lon": -5.726415879012439,
      "geoinfo": {
        "display_name": "Guinea Grass, Cleughs Plain, Saint Helena, STHL 1ZZ, Saint Helena, Ascension and Tristan da Cunha",
        "road": null,
        "house_number": null,
        "neighbourhood": null,
        "suburb": null,
        "city_district": null,
        "city": "Cleughs Plain",
        "state": "Saint Helena",
        "postcode": "STHL 1ZZ",
        "country": "Saint Helena, Ascension and Tristan da Cunha",
        "country_code": "sh"
      },
      "address": "142, Jamestown, STHL 1ZZ Saint Helena, Saint Helena"
    },
    {
      "lat": -15.89659156939071,
      "lon": -5.742589980260481,
      "geoinfo": {
        "display_name": "Saint Helena, Saint Helena, Ascension and Tristan da Cunha",
        "road": null,
        "house_number": null,
        "neighbourhood": null,
        "suburb": null,
        "city_district": null,
        "city": null,
        "state": "Saint Helena",
        "postcode": null,
        "country": "Saint Helena, Ascension and Tristan da Cunha",
        "country_code": "sh"
      },
      "address": "229, Jamestown, 67917 Saint Helena, Saint Helena"
    },
    {
      "lat": -15.915972182594254,
      "lon": -5.75945132648711,
      "geoinfo": {
        "display_name": "Saint Helena, Saint Helena, Ascension and Tristan da Cunha",
        "road": null,
        "house_number": null,
        "neighbourhood": null,
        "suburb": null,
        "city_district": null,
        "city": null,
        "state": "Saint Helena",
        "postcode": null,
        "country": "Saint Helena, Ascension and Tristan da Cunha",
        "country_code": "sh"
      },
      "address": "749, Jamestown, 44171 Saint Helena, Saint Helena"
    },
    {
      "lat": -15.903046199058407,
      "lon": -5.733762514097526,
      "geoinfo": {
        "display_name": "Half Tree Hollow, Saint Helena, STHL 1ZZ, Saint Helena, Ascension and Tristan da Cunha",
        "road": null,
        "house_number": null,
        "neighbourhood": null,
        "suburb": null,
        "city_district": null,
        "city": "Half Tree Hollow",
        "state": "Saint Helena",
        "postcode": "STHL 1ZZ",
        "country": "Saint Helena, Ascension and Tristan da Cunha",
        "country_code": "sh"
      },
      "address": "591, Jamestown, STHL 1ZZ Saint Helena, Saint Helena"
    },
    {
      "lat": -15.902923861242824,
      "lon": -5.727217904001448,
      "geoinfo": {
        "display_name": "Half Tree Hollow, Saint Helena, STHL 1ZZ, Saint Helena, Ascension and Tristan da Cunha",
        "road": null,
        "house_number": null,
        "neighbourhood": null,
        "suburb": null,
        "city_district": null,
        "city": "Half Tree Hollow",
        "state": "Saint Helena",
        "postcode": "STHL 1ZZ",
        "country": "Saint Helena, Ascension and Tristan da Cunha",
        "country_code": "sh"
      },
      "address": "465, Jamestown, STHL 1ZZ Saint Helena, Saint Helena"
    },
    {
      "lat": -15.90096382644153,
      "lon": -5.72510481524612,
      "geoinfo": {
        "display_name": "Half Tree Hollow, Saint Helena, STHL 1ZZ, Saint Helena, Ascension and Tristan da Cunha",
        "road": null,
        "house_number": null,
        "neighbourhood": null,
        "suburb": null,
        "city_district": null,
        "city": "Half Tree Hollow",
        "state": "Saint Helena",
        "postcode": "STHL 1ZZ",
        "country": "Saint Helena, Ascension and Tristan da Cunha",
        "country_code": "sh"
      },
      "address": "264, Jamestown, STHL 1ZZ Saint Helena, Saint Helena"
    },
    {
      "lat": -15.93956663972236,
      "lon": -5.717596653504484,
      "geoinfo": {
        "display_name": "New Ground, Half Tree Hollow, Saint Helena, STHL 1ZZ, Saint Helena, Ascension and Tristan da Cunha",
        "road": null,
        "house_number": null,
        "neighbourhood": null,
        "suburb": null,
        "city_district": null,
        "city": "Half Tree Hollow",
        "state": "Saint Helena",
        "postcode": "STHL 1ZZ",
        "country": "Saint Helena, Ascension and Tristan da Cunha",
        "country_code": "sh"
      },
      "address": "159, Jamestown, STHL 1ZZ Saint Helena, Saint Helena"
    },
    {
      "lat": -15.886041550650225,
      "lon": -5.7042272661145175,
      "geoinfo": {
        "display_name": "Saint Helena, Saint Helena, Ascension and Tristan da Cunha",
        "road": null,
        "house_number": null,
        "neighbourhood": null,
        "suburb": null,
        "city_district": null,
        "city": null,
        "state": "Saint Helena",
        "postcode": null,
        "country": "Saint Helena, Ascension and Tristan da Cunha",
        "country_code": "sh"
      },
      "address": "925, Jamestown, 21392 Saint Helena, Saint Helena"
    },
    {
      "lat": -15.94771930921074,
      "lon": -5.722948939235415,
      "geoinfo": {
        "display_name": "New Ground, Cleughs Plain, Saint Helena, STHL 1ZZ, Saint Helena, Ascension and Tristan da Cunha",
        "road": null,
        "house_number": null,
        "neighbourhood": null,
        "suburb": null,
        "city_district": null,
        "city": "Cleughs Plain",
        "state": "Saint Helena",
        "postcode": "STHL 1ZZ",
        "country": "Saint Helena, Ascension and Tristan da Cunha",
        "country_code": "sh"
      },
      "address": "813, Jamestown, STHL 1ZZ Saint Helena, Saint Helena"
    },
    {
      "lat": -15.92960242589635,
      "lon": -5.722877887273378,
      "geoinfo": {
        "display_name": "Half Tree Hollow, Saint Helena, STHL 1ZZ, Saint Helena, Ascension and Tristan da Cunha",
        "road": null,
        "house_number": null,
        "neighbourhood": null,
        "suburb": null,
        "city_district": null,
        "city": "Half Tree Hollow",
        "state": "Saint Helena",
        "postcode": "STHL 1ZZ",
        "country": "Saint Helena, Ascension and Tristan da Cunha",
        "country_code": "sh"
      },
      "address": "620, Jamestown, STHL 1ZZ Saint Helena, Saint Helena"
    },
    {
      "lat": -15.95293146818709,
      "lon": -5.725825840051961,
      "geoinfo": {
        "display_name": "Guinea Grass, Cleughs Plain, Saint Helena, STHL 1ZZ, Saint Helena, Ascension and Tristan da Cunha",
        "road": null,
        "house_number": null,
        "neighbourhood": null,
        "suburb": null,
        "city_district": null,
        "city": "Cleughs Plain",
        "state": "Saint Helena",
        "postcode": "STHL 1ZZ",
        "country": "Saint Helena, Ascension and Tristan da Cunha",
        "country_code": "sh"
      },
      "address": "879, Jamestown, STHL 1ZZ Saint Helena, Saint Helena"
    },
    {
      "lat": -15.906635192042204,
      "lon": -5.732252950357492,
      "geoinfo": {
        "display_name": "Half Tree Hollow, Saint Helena, STHL 1ZZ, Saint Helena, Ascension and Tristan da Cunha",
        "road": null,
        "house_number": null,
        "neighbourhood": null,
        "suburb": null,
        "city_district": null,
        "city": "Half Tree Hollow",
        "state": "Saint Helena",
        "postcode": "STHL 1ZZ",
        "country": "Saint Helena, Ascension and Tristan da Cunha",
        "country_code": "sh"
      },
      "address": "608, Jamestown, STHL 1ZZ Saint Helena, Saint Helena"
    },
    {
      "lat": -15.894497660137576,
      "lon": -5.731672586673207,
      "geoinfo": {
        "display_name": "Saint Helena, Saint Helena, Ascension and Tristan da Cunha",
        "road": null,
        "house_number": null,
        "neighbourhood": null,
        "suburb": null,
        "city_district": null,
        "city": null,
        "state": "Saint Helena",
        "postcode": null,
        "country": "Saint Helena, Ascension and Tristan da Cunha",
        "country_code": "sh"
      },
      "address": "609, Jamestown, 73246 Saint Helena, Saint Helena"
    },
    {
      "lat": -15.910300117251701,
      "lon": -5.761965812909845,
      "geoinfo": {
        "display_name": "Saint Helena, Saint Helena, Ascension and Tristan da Cunha",
        "road": null,
        "house_number": null,
        "neighbourhood": null,
        "suburb": null,
        "city_district": null,
        "city": null,
        "state": "Saint Helena",
        "postcode": null,
        "country": "Saint Helena, Ascension and Tristan da Cunha",
        "country_code": "sh"
      },
      "address": "940, Jamestown, 05453 Saint Helena, Saint Helena"
    },
    {
      "lat": -15.929356108643974,
      "lon": -5.743420285558242,
      "geoinfo": {
        "display_name": "Half Tree Hollow, Saint Helena, STHL 1ZZ, Saint Helena, Ascension and Tristan da Cunha",
        "road": null,
        "house_number": null,
        "neighbourhood": null,
        "suburb": null,
        "city_district": null,
        "city": "Half Tree Hollow",
        "state": "Saint Helena",
        "postcode": "STHL 1ZZ",
        "country": "Saint Helena, Ascension and Tristan da Cunha",
        "country_code": "sh"
      },
      "address": "286, Jamestown, STHL 1ZZ Saint Helena, Saint Helena"
    },
    {
      "lat": -15.924329155487808,
      "lon": -5.718648902534419,
      "geoinfo": {
        "display_name": "Main Street, Jamestown, Saint Helena, STHL 1ZZ, Saint Helena, Ascension and Tristan da Cunha",
        "road": "Main Street",
        "house_number": null,
        "neighbourhood": null,
        "suburb": null,
        "city_district": null,
        "city": "Jamestown",
        "state": "Saint Helena",
        "postcode": "STHL 1ZZ",
        "country": "Saint Helena, Ascension and Tristan da Cunha",
        "country_code": "sh"
      },
      "address": "026, Main Street, Jamestown, STHL 1ZZ Saint Helena, Saint Helena"
    },
    {
      "lat": -15.942603733093703,
      "lon": -5.7578341832615765,
      "geoinfo": {
        "display_name": "Cleughs Plain, Saint Helena, STHL 1ZZ, Saint Helena, Ascension and Tristan da Cunha",
        "road": null,
        "house_number": null,
        "neighbourhood": null,
        "suburb": null,
        "city_district": null,
        "city": "Cleughs Plain",
        "state": "Saint Helena",
        "postcode": "STHL 1ZZ",
        "country": "Saint Helena, Ascension and Tristan da Cunha",
        "country_code": "sh"
      },
      "address": "810, Jamestown, STHL 1ZZ Saint Helena, Saint Helena"
    },
    {
      "lat": -15.886718871730277,
      "lon": -5.7053932155057,
      "geoinfo": {
        "display_name": "Saint Helena, Saint Helena, Ascension and Tristan da Cunha",
        "road": null,
        "house_number": null,
        "neighbourhood": null,
        "suburb": null,
        "city_district": null,
        "city": null,
        "state": "Saint Helena",
        "postcode": null,
        "country": "Saint Helena, Ascension and Tristan da Cunha",
        "country_code": "sh"
      },
      "address": "102, Jamestown, 29758 Saint Helena, Saint Helena"
    },
    {
      "lat": -15.935201471372196,
      "lon": -5.71009110105025,
      "geoinfo": {
        "display_name": "Constitution Hill Road, Jamestown, Saint Helena, STHL 1ZZ, Saint Helena, Ascension and Tristan da Cunha",
        "road": "Constitution Hill Road",
        "house_number": null,
        "neighbourhood": null,
        "suburb": null,
        "city_district": null,
        "city": "Jamestown",
        "state": "Saint Helena",
        "postcode": "STHL 1ZZ",
        "country": "Saint Helena, Ascension and Tristan da Cunha",
        "country_code": "sh"
      },
      "address": "834, Constitution Hill Road, Jamestown, STHL 1ZZ Saint Helena, Saint Helena"
    },
    {
      "lat": -15.919518137954244,
      "lon": -5.7313160671907255,
      "geoinfo": {
        "display_name": "Rupert's Wharf, Rupert's Valley, Saint Helena, STHL 1ZZ, Saint Helena, Ascension and Tristan da Cunha",
        "road": null,
        "house_number": null,
        "neighbourhood": null,
        "suburb": null,
        "city_district": null,
        "city": null,
        "state": "Saint Helena",
        "postcode": "STHL 1ZZ",
        "country": "Saint Helena, Ascension and Tristan da Cunha",
        "country_code": "sh"
      },
      "address": "540, Jamestown, STHL 1ZZ Saint Helena, Saint Helena"
    },
    {
      "lat": -15.926662729244256,
      "lon": -5.6762979957146955,
      "geoinfo": {
        "display_name": "Deadwood, Longwood, Saint Helena, STHL 1ZZ, Saint Helena, Ascension and Tristan da Cunha",
        "road": null,
        "house_number": null,
        "neighbourhood": null,
        "suburb": null,
        "city_district": null,
        "city": "Longwood",
        "state": "Saint Helena",
        "postcode": "STHL 1ZZ",
        "country": "Saint Helena, Ascension and Tristan da Cunha",
        "country_code": "sh"
      },
      "address": "162, Jamestown, STHL 1ZZ Saint Helena, Saint Helena"
    },
    {
      "lat": -15.893726547718986,
      "lon": -5.735318355780219,
      "geoinfo": {
        "display_name": "Saint Helena, Saint Helena, Ascension and Tristan da Cunha",
        "road": null,
        "house_number": null,
        "neighbourhood": null,
        "suburb": null,
        "city_district": null,
        "city": null,
        "state": "Saint Helena",
        "postcode": null,
        "country": "Saint Helena, Ascension and Tristan da Cunha",
        "country_code": "sh"
      },
      "address": "111, Jamestown, 35095 Saint Helena, Saint Helena"
    },
    {
      "lat": -15.931140300611586,
      "lon": -5.739116432970301,
      "geoinfo": {
        "display_name": "New Ground, Cleughs Plain, Saint Helena, STHL 1ZZ, Saint Helena, Ascension and Tristan da Cunha",
        "road": null,
        "house_number": null,
        "neighbourhood": null,
        "suburb": null,
        "city_district": null,
        "city": "Cleughs Plain",
        "state": "Saint Helena",
        "postcode": "STHL 1ZZ",
        "country": "Saint Helena, Ascension and Tristan da Cunha",
        "country_code": "sh"
      },
      "address": "106, Jamestown, STHL 1ZZ Saint Helena, Saint Helena"
    },
    {
      "lat": -15.930700347263738,
      "lon": -5.713352711203325,
      "geoinfo": {
        "display_name": "Market Street, Jamestown, Saint Helena, STHL 1ZZ, Saint Helena, Ascension and Tristan da Cunha",
        "road": "Market Street",
        "house_number": null,
        "neighbourhood": null,
        "suburb": null,
        "city_district": null,
        "city": "Jamestown",
        "state": "Saint Helena",
        "postcode": "STHL 1ZZ",
        "country": "Saint Helena, Ascension and Tristan da Cunha",
        "country_code": "sh"
      },
      "address": "400, Market Street, Jamestown, STHL 1ZZ Saint Helena, Saint Helena"
    },
    {
      "lat": -15.90456790694352,
      "lon": -5.758998889413852,
      "geoinfo": {
        "display_name": "Saint Helena, Saint Helena, Ascension and Tristan da Cunha",
        "road": null,
        "house_number": null,
        "neighbourhood": null,
        "suburb": null,
        "city_district": null,
        "city": null,
        "state": "Saint Helena",
        "postcode": null,
        "country": "Saint Helena, Ascension and Tristan da Cunha",
        "country_code": "sh"
      },
      "address": "957, Jamestown, 59053 Saint Helena, Saint Helena"
    },
    {
      "lat": -15.894764820616587,
      "lon": -5.720118979510834,
      "geoinfo": {
        "display_name": "Half Tree Hollow, Saint Helena, STHL 1ZZ, Saint Helena, Ascension and Tristan da Cunha",
        "road": null,
        "house_number": null,
        "neighbourhood": null,
        "suburb": null,
        "city_district": null,
        "city": "Half Tree Hollow",
        "state": "Saint Helena",
        "postcode": "STHL 1ZZ",
        "country": "Saint Helena, Ascension and Tristan da Cunha",
        "country_code": "sh"
      },
      "address": "630, Jamestown, STHL 1ZZ Saint Helena, Saint Helena"
    },
    {
      "lat": -15.934176766921809,
      "lon": -5.68063950990119,
      "geoinfo": {
        "display_name": "Deadwood, Longwood, Saint Helena, STHL 1ZZ, Saint Helena, Ascension and Tristan da Cunha",
        "road": null,
        "house_number": null,
        "neighbourhood": null,
        "suburb": null,
        "city_district": null,
        "city": "Longwood",
        "state": "Saint Helena",
        "postcode": "STHL 1ZZ",
        "country": "Saint Helena, Ascension and Tristan da Cunha",
        "country_code": "sh"
      },
      "address": "699, Jamestown, STHL 1ZZ Saint Helena, Saint Helena"
    },
    {
      "lat": -15.904342704507222,
      "lon": -5.75284969144887,
      "geoinfo": {
        "display_name": "Saint Helena, Saint Helena, Ascension and Tristan da Cunha",
        "road": null,
        "house_number": null,
        "neighbourhood": null,
        "suburb": null,
        "city_district": null,
        "city": null,
        "state": "Saint Helena",
        "postcode": null,
        "country": "Saint Helena, Ascension and Tristan da Cunha",
        "country_code": "sh"
      },
      "address": "409, Jamestown, 10969 Saint Helena, Saint Helena"
    },
    {
      "lat": -15.905417567415531,
      "lon": -5.750745597577948,
      "geoinfo": {
        "display_name": "Saint Helena, Saint Helena, Ascension and Tristan da Cunha",
        "road": null,
        "house_number": null,
        "neighbourhood": null,
        "suburb": null,
        "city_district": null,
        "city": null,
        "state": "Saint Helena",
        "postcode": null,
        "country": "Saint Helena, Ascension and Tristan da Cunha",
        "country_code": "sh"
      },
      "address": "807, Jamestown, 36297 Saint Helena, Saint Helena"
    },
    {
      "lat": -15.895755281886077,
      "lon": -5.746068903521586,
      "geoinfo": {
        "display_name": "Saint Helena, Saint Helena, Ascension and Tristan da Cunha",
        "road": null,
        "house_number": null,
        "neighbourhood": null,
        "suburb": null,
        "city_district": null,
        "city": null,
        "state": "Saint Helena",
        "postcode": null,
        "country": "Saint Helena, Ascension and Tristan da Cunha",
        "country_code": "sh"
      },
      "address": "816, Jamestown, 88132 Saint Helena, Saint Helena"
    },
    {
      "lat": -15.916371009740967,
      "lon": -5.731625020007801,
      "geoinfo": {
        "display_name": "Rupert's Wharf, Rupert's Valley, Saint Helena, STHL 1ZZ, Saint Helena, Ascension and Tristan da Cunha",
        "road": null,
        "house_number": null,
        "neighbourhood": null,
        "suburb": null,
        "city_district": null,
        "city": null,
        "state": "Saint Helena",
        "postcode": "STHL 1ZZ",
        "country": "Saint Helena, Ascension and Tristan da Cunha",
        "country_code": "sh"
      },
      "address": "865, Jamestown, STHL 1ZZ Saint Helena, Saint Helena"
    },
    {
      "lat": -15.948393911847472,
      "lon": -5.694324921771602,
      "geoinfo": {
        "display_name": "Alarm Forest, Saint Helena, STHL 1ZZ, Saint Helena, Ascension and Tristan da Cunha",
        "road": null,
        "house_number": null,
        "neighbourhood": null,
        "suburb": null,
        "city_district": null,
        "city": "Alarm Forest",
        "state": "Saint Helena",
        "postcode": "STHL 1ZZ",
        "country": "Saint Helena, Ascension and Tristan da Cunha",
        "country_code": "sh"
      },
      "address": "562, Jamestown, STHL 1ZZ Saint Helena, Saint Helena"
    },
    {
      "lat": -15.911080609870147,
      "lon": -5.6821416158445555,
      "geoinfo": {
        "display_name": "Longwood, Saint Helena, STHL 1ZZ, Saint Helena, Ascension and Tristan da Cunha",
        "road": null,
        "house_number": null,
        "neighbourhood": null,
        "suburb": null,
        "city_district": null,
        "city": "Longwood",
        "state": "Saint Helena",
        "postcode": "STHL 1ZZ",
        "country": "Saint Helena, Ascension and Tristan da Cunha",
        "country_code": "sh"
      },
      "address": "497, Jamestown, STHL 1ZZ Saint Helena, Saint Helena"
    },
    {
      "lat": -15.90117393538605,
      "lon": -5.680795701292499,
      "geoinfo": {
        "display_name": "Saint Helena, Saint Helena, Ascension and Tristan da Cunha",
        "road": null,
        "house_number": null,
        "neighbourhood": null,
        "suburb": null,
        "city_district": null,
        "city": null,
        "state": "Saint Helena",
        "postcode": null,
        "country": "Saint Helena, Ascension and Tristan da Cunha",
        "country_code": "sh"
      },
      "address": "757, Jamestown, 23635 Saint Helena, Saint Helena"
    },
    {
      "lat": -15.954232356536156,
      "lon": -5.752854248217913,
      "geoinfo": {
        "display_name": "Bluemans Field, Cleughs Plain, Saint Helena, STHL 1ZZ, Saint Helena, Ascension and Tristan da Cunha",
        "road": null,
        "house_number": null,
        "neighbourhood": null,
        "suburb": null,
        "city_district": null,
        "city": "Cleughs Plain",
        "state": "Saint Helena",
        "postcode": "STHL 1ZZ",
        "country": "Saint Helena, Ascension and Tristan da Cunha",
        "country_code": "sh"
      },
      "address": "401, Jamestown, STHL 1ZZ Saint Helena, Saint Helena"
    },
    {
      "lat": -15.881709015690811,
      "lon": -5.728470498612896,
      "geoinfo": {
        "display_name": "Saint Helena, Saint Helena, Ascension and Tristan da Cunha",
        "road": null,
        "house_number": null,
        "neighbourhood": null,
        "suburb": null,
        "city_district": null,
        "city": null,
        "state": "Saint Helena",
        "postcode": null,
        "country": "Saint Helena, Ascension and Tristan da Cunha",
        "country_code": "sh"
      },
      "address": "852, Jamestown, 20947 Saint Helena, Saint Helena"
    },
    {
      "lat": -15.895878396301917,
      "lon": -5.706492938054515,
      "geoinfo": {
        "display_name": "Saint Helena, Saint Helena, Ascension and Tristan da Cunha",
        "road": null,
        "house_number": null,
        "neighbourhood": null,
        "suburb": null,
        "city_district": null,
        "city": null,
        "state": "Saint Helena",
        "postcode": null,
        "country": "Saint Helena, Ascension and Tristan da Cunha",
        "country_code": "sh"
      },
      "address": "685, Jamestown, 58269 Saint Helena, Saint Helena"
    },
    {
      "lat": -15.917450675935122,
      "lon": -5.752784155306406,
      "geoinfo": {
        "display_name": "Half Tree Hollow, Saint Helena, STHL 1ZZ, Saint Helena, Ascension and Tristan da Cunha",
        "road": null,
        "house_number": null,
        "neighbourhood": null,
        "suburb": null,
        "city_district": null,
        "city": "Half Tree Hollow",
        "state": "Saint Helena",
        "postcode": "STHL 1ZZ",
        "country": "Saint Helena, Ascension and Tristan da Cunha",
        "country_code": "sh"
      },
      "address": "788, Jamestown, STHL 1ZZ Saint Helena, Saint Helena"
    },
    {
      "lat": -15.938033440044315,
      "lon": -5.717542106659673,
      "geoinfo": {
        "display_name": "New Ground, Half Tree Hollow, Saint Helena, STHL 1ZZ, Saint Helena, Ascension and Tristan da Cunha",
        "road": null,
        "house_number": null,
        "neighbourhood": null,
        "suburb": null,
        "city_district": null,
        "city": "Half Tree Hollow",
        "state": "Saint Helena",
        "postcode": "STHL 1ZZ",
        "country": "Saint Helena, Ascension and Tristan da Cunha",
        "country_code": "sh"
      },
      "address": "606, Jamestown, STHL 1ZZ Saint Helena, Saint Helena"
    },
    {
      "lat": -15.948717491634088,
      "lon": -5.687708541364138,
      "geoinfo": {
        "display_name": "Longwood, Saint Helena, STHL 1ZZ, Saint Helena, Ascension and Tristan da Cunha",
        "road": null,
        "house_number": null,
        "neighbourhood": null,
        "suburb": null,
        "city_district": null,
        "city": "Longwood",
        "state": "Saint Helena",
        "postcode": "STHL 1ZZ",
        "country": "Saint Helena, Ascension and Tristan da Cunha",
        "country_code": "sh"
      },
      "address": "446, Jamestown, STHL 1ZZ Saint Helena, Saint Helena"
    },
    {
      "lat": -15.89672610465729,
      "lon": -5.736737325241857,
      "geoinfo": {
        "display_name": "Saint Helena, Saint Helena, Ascension and Tristan da Cunha",
        "road": null,
        "house_number": null,
        "neighbourhood": null,
        "suburb": null,
        "city_district": null,
        "city": null,
        "state": "Saint Helena",
        "postcode": null,
        "country": "Saint Helena, Ascension and Tristan da Cunha",
        "country_code": "sh"
      },
      "address": "931, Jamestown, 35474 Saint Helena, Saint Helena"
    },
    {
      "lat": -15.943047052880592,
      "lon": -5.70166681139303,
      "geoinfo": {
        "display_name": "Gordons Post, Alarm Forest, Saint Helena, STHL 1ZZ, Saint Helena, Ascension and Tristan da Cunha",
        "road": null,
        "house_number": null,
        "neighbourhood": null,
        "suburb": null,
        "city_district": null,
        "city": "Alarm Forest",
        "state": "Saint Helena",
        "postcode": "STHL 1ZZ",
        "country": "Saint Helena, Ascension and Tristan da Cunha",
        "country_code": "sh"
      },
      "address": "466, Jamestown, STHL 1ZZ Saint Helena, Saint Helena"
    },
    {
      "lat": -15.950700248140587,
      "lon": -5.739381033429277,
      "geoinfo": {
        "display_name": "Bluemans Field, Cleughs Plain, Saint Helena, STHL 1ZZ, Saint Helena, Ascension and Tristan da Cunha",
        "road": null,
        "house_number": null,
        "neighbourhood": null,
        "suburb": null,
        "city_district": null,
        "city": "Cleughs Plain",
        "state": "Saint Helena",
        "postcode": "STHL 1ZZ",
        "country": "Saint Helena, Ascension and Tristan da Cunha",
        "country_code": "sh"
      },
      "address": "034, Jamestown, STHL 1ZZ Saint Helena, Saint Helena"
    },
    {
      "lat": -15.893577599319652,
      "lon": -5.719791716460443,
      "geoinfo": {
        "display_name": "Saint Helena, Saint Helena, Ascension and Tristan da Cunha",
        "road": null,
        "house_number": null,
        "neighbourhood": null,
        "suburb": null,
        "city_district": null,
        "city": null,
        "state": "Saint Helena",
        "postcode": null,
        "country": "Saint Helena, Ascension and Tristan da Cunha",
        "country_code": "sh"
      },
      "address": "427, Jamestown, 07595 Saint Helena, Saint Helena"
    },
    {
      "lat": -15.925665706071312,
      "lon": -5.719172364665793,
      "geoinfo": {
        "display_name": "Jacob's Ladder, Jamestown, Saint Helena, STHL 1ZZ, Saint Helena, Ascension and Tristan da Cunha",
        "road": "Jacob's Ladder",
        "house_number": null,
        "neighbourhood": null,
        "suburb": null,
        "city_district": null,
        "city": "Jamestown",
        "state": "Saint Helena",
        "postcode": "STHL 1ZZ",
        "country": "Saint Helena, Ascension and Tristan da Cunha",
        "country_code": "sh"
      },
      "address": "759, Jacob's Ladder, Jamestown, STHL 1ZZ Saint Helena, Saint Helena"
    },
    {
      "lat": -15.924638221910474,
      "lon": -5.716870250790855,
      "geoinfo": {
        "display_name": "Anne's Place, Castle Gardens, Jamestown, Saint Helena, STHL 1ZZ, Saint Helena, Ascension and Tristan da Cunha",
        "road": "Castle Gardens",
        "house_number": null,
        "neighbourhood": null,
        "suburb": null,
        "city_district": null,
        "city": "Jamestown",
        "state": "Saint Helena",
        "postcode": "STHL 1ZZ",
        "country": "Saint Helena, Ascension and Tristan da Cunha",
        "country_code": "sh"
      },
      "address": "123, Castle Gardens, Jamestown, STHL 1ZZ Saint Helena, Saint Helena"
    },
    {
      "lat": -15.925296250280963,
      "lon": -5.7175543036819505,
      "geoinfo": {
        "display_name": "Castle Gardens, Jamestown, Saint Helena, STHL 1ZZ, Saint Helena, Ascension and Tristan da Cunha",
        "road": "Castle Gardens",
        "house_number": null,
        "neighbourhood": null,
        "suburb": null,
        "city_district": null,
        "city": "Jamestown",
        "state": "Saint Helena",
        "postcode": "STHL 1ZZ",
        "country": "Saint Helena, Ascension and Tristan da Cunha",
        "country_code": "sh"
      },
      "address": "528, Castle Gardens, Jamestown, STHL 1ZZ Saint Helena, Saint Helena"
    },
    {
      "lat": -15.92505591375699,
      "lon": -5.7181152855518365,
      "geoinfo": {
        "display_name": "Main Street, Jamestown, Saint Helena, STHL 1ZZ, Saint Helena, Ascension and Tristan da Cunha",
        "road": "Main Street",
        "house_number": null,
        "neighbourhood": null,
        "suburb": null,
        "city_district": null,
        "city": "Jamestown",
        "state": "Saint Helena",
        "postcode": "STHL 1ZZ",
        "country": "Saint Helena, Ascension and Tristan da Cunha",
        "country_code": "sh"
      },
      "address": "696, Main Street, Jamestown, STHL 1ZZ Saint Helena, Saint Helena"
    },
    {
      "lat": -15.925378325353602,
      "lon": -5.718882613155886,
      "geoinfo": {
        "display_name": "Jacob's Ladder, Jamestown, Saint Helena, STHL 1ZZ, Saint Helena, Ascension and Tristan da Cunha",
        "road": "Jacob's Ladder",
        "house_number": null,
        "neighbourhood": null,
        "suburb": null,
        "city_district": null,
        "city": "Jamestown",
        "state": "Saint Helena",
        "postcode": "STHL 1ZZ",
        "country": "Saint Helena, Ascension and Tristan da Cunha",
        "country_code": "sh"
      },
      "address": "963, Jacob's Ladder, Jamestown, STHL 1ZZ Saint Helena, Saint Helena"
    },
    {
      "lat": -15.925256490969032,
      "lon": -5.7177564350535235,
      "geoinfo": {
        "display_name": "Castle Gardens, Jamestown, Saint Helena, STHL 1ZZ, Saint Helena, Ascension and Tristan da Cunha",
        "road": "Castle Gardens",
        "house_number": null,
        "neighbourhood": null,
        "suburb": null,
        "city_district": null,
        "city": "Jamestown",
        "state": "Saint Helena",
        "postcode": "STHL 1ZZ",
        "country": "Saint Helena, Ascension and Tristan da Cunha",
        "country_code": "sh"
      },
      "address": "163, Castle Gardens, Jamestown, STHL 1ZZ Saint Helena, Saint Helena"
    },
    {
      "lat": -15.925125272348543,
      "lon": -5.717092629514041,
      "geoinfo": {
        "display_name": "Anne's Place, Castle Gardens, Jamestown, Saint Helena, STHL 1ZZ, Saint Helena, Ascension and Tristan da Cunha",
        "road": "Castle Gardens",
        "house_number": null,
        "neighbourhood": null,
        "suburb": null,
        "city_district": null,
        "city": "Jamestown",
        "state": "Saint Helena",
        "postcode": "STHL 1ZZ",
        "country": "Saint Helena, Ascension and Tristan da Cunha",
        "country_code": "sh"
      },
      "address": "400, Castle Gardens, Jamestown, STHL 1ZZ Saint Helena, Saint Helena"
    },
    {
      "lat": -15.925682296271505,
      "lon": -5.719119560302165,
      "geoinfo": {
        "display_name": "Jacob's Ladder, Jamestown, Saint Helena, STHL 1ZZ, Saint Helena, Ascension and Tristan da Cunha",
        "road": "Jacob's Ladder",
        "house_number": null,
        "neighbourhood": null,
        "suburb": null,
        "city_district": null,
        "city": "Jamestown",
        "state": "Saint Helena",
        "postcode": "STHL 1ZZ",
        "country": "Saint Helena, Ascension and Tristan da Cunha",
        "country_code": "sh"
      },
      "address": "927, Jacob's Ladder, Jamestown, STHL 1ZZ Saint Helena, Saint Helena"
    },
    {
      "lat": -15.92467234879028,
      "lon": -5.717418691961364,
      "geoinfo": {
        "display_name": "Castle Gardens, Jamestown, Saint Helena, STHL 1ZZ, Saint Helena, Ascension and Tristan da Cunha",
        "road": "Castle Gardens",
        "house_number": null,
        "neighbourhood": null,
        "suburb": null,
        "city_district": null,
        "city": "Jamestown",
        "state": "Saint Helena",
        "postcode": "STHL 1ZZ",
        "country": "Saint Helena, Ascension and Tristan da Cunha",
        "country_code": "sh"
      },
      "address": "436, Castle Gardens, Jamestown, STHL 1ZZ Saint Helena, Saint Helena"
    },
    {
      "lat": -15.92573596818836,
      "lon": -5.718885978392135,
      "geoinfo": {
        "display_name": "Jacob's Ladder, Jamestown, Saint Helena, STHL 1ZZ, Saint Helena, Ascension and Tristan da Cunha",
        "road": "Jacob's Ladder",
        "house_number": null,
        "neighbourhood": null,
        "suburb": null,
        "city_district": null,
        "city": "Jamestown",
        "state": "Saint Helena",
        "postcode": "STHL 1ZZ",
        "country": "Saint Helena, Ascension and Tristan da Cunha",
        "country_code": "sh"
      },
      "address": "757, Jacob's Ladder, Jamestown, STHL 1ZZ Saint Helena, Saint Helena"
    },
    {
      "lat": -15.925262640477635,
      "lon": -5.7187984021311005,
      "geoinfo": {
        "display_name": "Jacob's Ladder, Jamestown, Saint Helena, STHL 1ZZ, Saint Helena, Ascension and Tristan da Cunha",
        "road": "Jacob's Ladder",
        "house_number": null,
        "neighbourhood": null,
        "suburb": null,
        "city_district": null,
        "city": "Jamestown",
        "state": "Saint Helena",
        "postcode": "STHL 1ZZ",
        "country": "Saint Helena, Ascension and Tristan da Cunha",
        "country_code": "sh"
      },
      "address": "022, Jacob's Ladder, Jamestown, STHL 1ZZ Saint Helena, Saint Helena"
    },
    {
      "lat": -15.924164156904485,
      "lon": -5.719180844165289,
      "geoinfo": {
        "display_name": "Seafront, Half Tree Hollow, Saint Helena, STHL 1ZZ, Saint Helena, Ascension and Tristan da Cunha",
        "road": "Seafront",
        "house_number": null,
        "neighbourhood": null,
        "suburb": null,
        "city_district": null,
        "city": "Half Tree Hollow",
        "state": "Saint Helena",
        "postcode": "STHL 1ZZ",
        "country": "Saint Helena, Ascension and Tristan da Cunha",
        "country_code": "sh"
      },
      "address": "529, Seafront, Jamestown, STHL 1ZZ Saint Helena, Saint Helena"
    },
    {
      "lat": -15.925055675112338,
      "lon": -5.718620152302247,
      "geoinfo": {
        "display_name": "Museum of St Helena, Castle Terrace, Jamestown, Saint Helena, STHL 1ZZ, Saint Helena, Ascension and Tristan da Cunha",
        "road": "Castle Terrace",
        "house_number": null,
        "neighbourhood": null,
        "suburb": null,
        "city_district": null,
        "city": "Jamestown",
        "state": "Saint Helena",
        "postcode": "STHL 1ZZ",
        "country": "Saint Helena, Ascension and Tristan da Cunha",
        "country_code": "sh"
      },
      "address": "614, Castle Terrace, Jamestown, STHL 1ZZ Saint Helena, Saint Helena"
    },
    {
      "lat": -15.924002054804987,
      "lon": -5.719011735400084,
      "geoinfo": {
        "display_name": "Seafront, Half Tree Hollow, Saint Helena, STHL 1ZZ, Saint Helena, Ascension and Tristan da Cunha",
        "road": "Seafront",
        "house_number": null,
        "neighbourhood": null,
        "suburb": null,
        "city_district": null,
        "city": "Half Tree Hollow",
        "state": "Saint Helena",
        "postcode": "STHL 1ZZ",
        "country": "Saint Helena, Ascension and Tristan da Cunha",
        "country_code": "sh"
      },
      "address": "748, Seafront, Jamestown, STHL 1ZZ Saint Helena, Saint Helena"
    },
    {
      "lat": -15.925087988377465,
      "lon": -5.71945395024673,
      "geoinfo": {
        "display_name": "Half Tree Hollow, Saint Helena, STHL 1ZZ, Saint Helena, Ascension and Tristan da Cunha",
        "road": null,
        "house_number": null,
        "neighbourhood": null,
        "suburb": null,
        "city_district": null,
        "city": "Half Tree Hollow",
        "state": "Saint Helena",
        "postcode": "STHL 1ZZ",
        "country": "Saint Helena, Ascension and Tristan da Cunha",
        "country_code": "sh"
      },
      "address": "674, Jamestown, STHL 1ZZ Saint Helena, Saint Helena"
    },
    {
      "lat": -15.926001150305307,
      "lon": -5.717544133972478,
      "geoinfo": {
        "display_name": "Main Street, Jamestown, Saint Helena, STHL 1ZZ, Saint Helena, Ascension and Tristan da Cunha",
        "road": "Main Street",
        "house_number": null,
        "neighbourhood": null,
        "suburb": null,
        "city_district": null,
        "city": "Jamestown",
        "state": "Saint Helena",
        "postcode": "STHL 1ZZ",
        "country": "Saint Helena, Ascension and Tristan da Cunha",
        "country_code": "sh"
      },
      "address": "930, Main Street, Jamestown, STHL 1ZZ Saint Helena, Saint Helena"
    },
    {
      "lat": -15.924738790600538,
      "lon": -5.717067728791468,
      "geoinfo": {
        "display_name": "Anne's Place, Castle Gardens, Jamestown, Saint Helena, STHL 1ZZ, Saint Helena, Ascension and Tristan da Cunha",
        "road": "Castle Gardens",
        "house_number": null,
        "neighbourhood": null,
        "suburb": null,
        "city_district": null,
        "city": "Jamestown",
        "state": "Saint Helena",
        "postcode": "STHL 1ZZ",
        "country": "Saint Helena, Ascension and Tristan da Cunha",
        "country_code": "sh"
      },
      "address": "531, Castle Gardens, Jamestown, STHL 1ZZ Saint Helena, Saint Helena"
    },
    {
      "lat": -15.925235021207882,
      "lon": -5.717470470127606,
      "geoinfo": {
        "display_name": "Castle Gardens, Jamestown, Saint Helena, STHL 1ZZ, Saint Helena, Ascension and Tristan da Cunha",
        "road": "Castle Gardens",
        "house_number": null,
        "neighbourhood": null,
        "suburb": null,
        "city_district": null,
        "city": "Jamestown",
        "state": "Saint Helena",
        "postcode": "STHL 1ZZ",
        "country": "Saint Helena, Ascension and Tristan da Cunha",
        "country_code": "sh"
      },
      "address": "698, Castle Gardens, Jamestown, STHL 1ZZ Saint Helena, Saint Helena"
    },
    {
      "lat": -15.924448564896108,
      "lon": -5.718603875102514,
      "geoinfo": {
        "display_name": "The Coffee Shop, Main Street, Jamestown, Saint Helena, STHL 1ZZ, Saint Helena, Ascension and Tristan da Cunha",
        "road": "Main Street",
        "house_number": null,
        "neighbourhood": null,
        "suburb": null,
        "city_district": null,
        "city": "Jamestown",
        "state": "Saint Helena",
        "postcode": "STHL 1ZZ",
        "country": "Saint Helena, Ascension and Tristan da Cunha",
        "country_code": "sh"
      },
      "address": "825, Main Street, Jamestown, STHL 1ZZ Saint Helena, Saint Helena"
    },
    {
      "lat": -15.924922319696785,
      "lon": -5.716928585962685,
      "geoinfo": {
        "display_name": "Anne's Place, Castle Gardens, Jamestown, Saint Helena, STHL 1ZZ, Saint Helena, Ascension and Tristan da Cunha",
        "road": "Castle Gardens",
        "house_number": null,
        "neighbourhood": null,
        "suburb": null,
        "city_district": null,
        "city": "Jamestown",
        "state": "Saint Helena",
        "postcode": "STHL 1ZZ",
        "country": "Saint Helena, Ascension and Tristan da Cunha",
        "country_code": "sh"
      },
      "address": "995, Castle Gardens, Jamestown, STHL 1ZZ Saint Helena, Saint Helena"
    },
    {
      "lat": -15.926030277830238,
      "lon": -5.717751979013763,
      "geoinfo": {
        "display_name": "Wellington House, Main Street, Jamestown, Saint Helena, STHL 1ZZ, Saint Helena, Ascension and Tristan da Cunha",
        "road": "Main Street",
        "house_number": null,
        "neighbourhood": null,
        "suburb": null,
        "city_district": null,
        "city": "Jamestown",
        "state": "Saint Helena",
        "postcode": "STHL 1ZZ",
        "country": "Saint Helena, Ascension and Tristan da Cunha",
        "country_code": "sh"
      },
      "address": "485, Main Street, Jamestown, STHL 1ZZ Saint Helena, Saint Helena"
    },
    {
      "lat": -15.923988268455266,
      "lon": -5.717661601169756,
      "geoinfo": {
        "display_name": "Castle Terrace, Jamestown, Saint Helena, STHL 1ZZ, Saint Helena, Ascension and Tristan da Cunha",
        "road": "Castle Terrace",
        "house_number": null,
        "neighbourhood": null,
        "suburb": null,
        "city_district": null,
        "city": "Jamestown",
        "state": "Saint Helena",
        "postcode": "STHL 1ZZ",
        "country": "Saint Helena, Ascension and Tristan da Cunha",
        "country_code": "sh"
      },
      "address": "330, Castle Terrace, Jamestown, STHL 1ZZ Saint Helena, Saint Helena"
    },
    {
      "lat": -15.925113198888496,
      "lon": -5.71776274973798,
      "geoinfo": {
        "display_name": "Castle Gardens, Jamestown, Saint Helena, STHL 1ZZ, Saint Helena, Ascension and Tristan da Cunha",
        "road": "Castle Gardens",
        "house_number": null,
        "neighbourhood": null,
        "suburb": null,
        "city_district": null,
        "city": "Jamestown",
        "state": "Saint Helena",
        "postcode": "STHL 1ZZ",
        "country": "Saint Helena, Ascension and Tristan da Cunha",
        "country_code": "sh"
      },
      "address": "495, Castle Gardens, Jamestown, STHL 1ZZ Saint Helena, Saint Helena"
    },
    {
      "lat": -15.925926483991653,
      "lon": -5.718731552607265,
      "geoinfo": {
        "display_name": "Shy Road, Jamestown, Saint Helena, STHL 1ZZ, Saint Helena, Ascension and Tristan da Cunha",
        "road": "Shy Road",
        "house_number": null,
        "neighbourhood": null,
        "suburb": null,
        "city_district": null,
        "city": "Jamestown",
        "state": "Saint Helena",
        "postcode": "STHL 1ZZ",
        "country": "Saint Helena, Ascension and Tristan da Cunha",
        "country_code": "sh"
      },
      "address": "277, Shy Road, Jamestown, STHL 1ZZ Saint Helena, Saint Helena"
    },
    {
      "lat": -15.92473444743221,
      "lon": -5.717651841277901,
      "geoinfo": {
        "display_name": "Castle Gardens, Jamestown, Saint Helena, STHL 1ZZ, Saint Helena, Ascension and Tristan da Cunha",
        "road": "Castle Gardens",
        "house_number": null,
        "neighbourhood": null,
        "suburb": null,
        "city_district": null,
        "city": "Jamestown",
        "state": "Saint Helena",
        "postcode": "STHL 1ZZ",
        "country": "Saint Helena, Ascension and Tristan da Cunha",
        "country_code": "sh"
      },
      "address": "968, Castle Gardens, Jamestown, STHL 1ZZ Saint Helena, Saint Helena"
    },
    {
      "lat": -15.925135289218948,
      "lon": -5.718746049871885,
      "geoinfo": {
        "display_name": "Narrabacks, Jamestown, Saint Helena, STHL 1ZZ, Saint Helena, Ascension and Tristan da Cunha",
        "road": "Narrabacks",
        "house_number": null,
        "neighbourhood": null,
        "suburb": null,
        "city_district": null,
        "city": "Jamestown",
        "state": "Saint Helena",
        "postcode": "STHL 1ZZ",
        "country": "Saint Helena, Ascension and Tristan da Cunha",
        "country_code": "sh"
      },
      "address": "323, Narrabacks, Jamestown, STHL 1ZZ Saint Helena, Saint Helena"
    },
    {
      "lat": -15.924846652615255,
      "lon": -5.719463893108345,
      "geoinfo": {
        "display_name": "Half Tree Hollow, Saint Helena, STHL 1ZZ, Saint Helena, Ascension and Tristan da Cunha",
        "road": null,
        "house_number": null,
        "neighbourhood": null,
        "suburb": null,
        "city_district": null,
        "city": "Half Tree Hollow",
        "state": "Saint Helena",
        "postcode": "STHL 1ZZ",
        "country": "Saint Helena, Ascension and Tristan da Cunha",
        "country_code": "sh"
      },
      "address": "376, Jamestown, STHL 1ZZ Saint Helena, Saint Helena"
    },
    {
      "lat": -15.925042175890052,
      "lon": -5.718164414758866,
      "geoinfo": {
        "display_name": "Castle Terrace, Jamestown, Saint Helena, STHL 1ZZ, Saint Helena, Ascension and Tristan da Cunha",
        "road": "Castle Terrace",
        "house_number": null,
        "neighbourhood": null,
        "suburb": null,
        "city_district": null,
        "city": "Jamestown",
        "state": "Saint Helena",
        "postcode": "STHL 1ZZ",
        "country": "Saint Helena, Ascension and Tristan da Cunha",
        "country_code": "sh"
      },
      "address": "028, Castle Terrace, Jamestown, STHL 1ZZ Saint Helena, Saint Helena"
    },
    {
      "lat": -15.924212240236415,
      "lon": -5.718480696506092,
      "geoinfo": {
        "display_name": "Seafront, Jamestown, Saint Helena, STHL 1ZZ, Saint Helena, Ascension and Tristan da Cunha",
        "road": "Seafront",
        "house_number": null,
        "neighbourhood": null,
        "suburb": null,
        "city_district": null,
        "city": "Jamestown",
        "state": "Saint Helena",
        "postcode": "STHL 1ZZ",
        "country": "Saint Helena, Ascension and Tristan da Cunha",
        "country_code": "sh"
      },
      "address": "493, Seafront, Jamestown, STHL 1ZZ Saint Helena, Saint Helena"
    },
    {
      "lat": -15.923993851339203,
      "lon": -5.71738956830212,
      "geoinfo": {
        "display_name": "Castle Terrace, Jamestown, Saint Helena, STHL 1ZZ, Saint Helena, Ascension and Tristan da Cunha",
        "road": "Castle Terrace",
        "house_number": null,
        "neighbourhood": null,
        "suburb": null,
        "city_district": null,
        "city": "Jamestown",
        "state": "Saint Helena",
        "postcode": "STHL 1ZZ",
        "country": "Saint Helena, Ascension and Tristan da Cunha",
        "country_code": "sh"
      },
      "address": "325, Castle Terrace, Jamestown, STHL 1ZZ Saint Helena, Saint Helena"
    },
    {
      "lat": -15.925512185560349,
      "lon": -5.718393058207586,
      "geoinfo": {
        "display_name": "Narrabacks, Jamestown, Saint Helena, STHL 1ZZ, Saint Helena, Ascension and Tristan da Cunha",
        "road": "Narrabacks",
        "house_number": null,
        "neighbourhood": null,
        "suburb": null,
        "city_district": null,
        "city": "Jamestown",
        "state": "Saint Helena",
        "postcode": "STHL 1ZZ",
        "country": "Saint Helena, Ascension and Tristan da Cunha",
        "country_code": "sh"
      },
      "address": "769, Narrabacks, Jamestown, STHL 1ZZ Saint Helena, Saint Helena"
    },
    {
      "lat": -15.92393935943942,
      "lon": -5.717541407217556,
      "geoinfo": {
        "display_name": "Castle Terrace, Jamestown, Saint Helena, STHL 1ZZ, Saint Helena, Ascension and Tristan da Cunha",
        "road": "Castle Terrace",
        "house_number": null,
        "neighbourhood": null,
        "suburb": null,
        "city_district": null,
        "city": "Jamestown",
        "state": "Saint Helena",
        "postcode": "STHL 1ZZ",
        "country": "Saint Helena, Ascension and Tristan da Cunha",
        "country_code": "sh"
      },
      "address": "311, Castle Terrace, Jamestown, STHL 1ZZ Saint Helena, Saint Helena"
    },
    {
      "lat": -15.925193620146027,
      "lon": -5.717480146807768,
      "geoinfo": {
        "display_name": "Castle Gardens, Jamestown, Saint Helena, STHL 1ZZ, Saint Helena, Ascension and Tristan da Cunha",
        "road": "Castle Gardens",
        "house_number": null,
        "neighbourhood": null,
        "suburb": null,
        "city_district": null,
        "city": "Jamestown",
        "state": "Saint Helena",
        "postcode": "STHL 1ZZ",
        "country": "Saint Helena, Ascension and Tristan da Cunha",
        "country_code": "sh"
      },
      "address": "620, Castle Gardens, Jamestown, STHL 1ZZ Saint Helena, Saint Helena"
    },
    {
      "lat": -15.924136172642411,
      "lon": -5.7174054022340055,
      "geoinfo": {
        "display_name": "Castle Gardens, Jamestown, Saint Helena, STHL 1ZZ, Saint Helena, Ascension and Tristan da Cunha",
        "road": "Castle Gardens",
        "house_number": null,
        "neighbourhood": null,
        "suburb": null,
        "city_district": null,
        "city": "Jamestown",
        "state": "Saint Helena",
        "postcode": "STHL 1ZZ",
        "country": "Saint Helena, Ascension and Tristan da Cunha",
        "country_code": "sh"
      },
      "address": "838, Castle Gardens, Jamestown, STHL 1ZZ Saint Helena, Saint Helena"
    },
    {
      "lat": -15.924176445365024,
      "lon": -5.718820091818473,
      "geoinfo": {
        "display_name": "Seafront, Half Tree Hollow, Saint Helena, STHL 1ZZ, Saint Helena, Ascension and Tristan da Cunha",
        "road": "Seafront",
        "house_number": null,
        "neighbourhood": null,
        "suburb": null,
        "city_district": null,
        "city": "Half Tree Hollow",
        "state": "Saint Helena",
        "postcode": "STHL 1ZZ",
        "country": "Saint Helena, Ascension and Tristan da Cunha",
        "country_code": "sh"
      },
      "address": "374, Seafront, Jamestown, STHL 1ZZ Saint Helena, Saint Helena"
    },
    {
      "lat": -15.924018067369792,
      "lon": -5.718352998733399,
      "geoinfo": {
        "display_name": "Seafront, Jamestown, Saint Helena, STHL 1ZZ, Saint Helena, Ascension and Tristan da Cunha",
        "road": "Seafront",
        "house_number": null,
        "neighbourhood": null,
        "suburb": null,
        "city_district": null,
        "city": "Jamestown",
        "state": "Saint Helena",
        "postcode": "STHL 1ZZ",
        "country": "Saint Helena, Ascension and Tristan da Cunha",
        "country_code": "sh"
      },
      "address": "229, Seafront, Jamestown, STHL 1ZZ Saint Helena, Saint Helena"
    },
    {
      "lat": -15.9255146117385,
      "lon": -5.717140846830268,
      "geoinfo": {
        "display_name": "Chad's Shop, Main Street, Jamestown, Saint Helena, STHL 1ZZ, Saint Helena, Ascension and Tristan da Cunha",
        "road": "Main Street",
        "house_number": null,
        "neighbourhood": null,
        "suburb": null,
        "city_district": null,
        "city": "Jamestown",
        "state": "Saint Helena",
        "postcode": "STHL 1ZZ",
        "country": "Saint Helena, Ascension and Tristan da Cunha",
        "country_code": "sh"
      },
      "address": "187, Main Street, Jamestown, STHL 1ZZ Saint Helena, Saint Helena"
    },
    {
      "lat": -15.924718285652315,
      "lon": -5.717236210568289,
      "geoinfo": {
        "display_name": "South Atlantic Media Services, Castle Gardens, Jamestown, Saint Helena, STHL 1ZZ, Saint Helena, Ascension and Tristan da Cunha",
        "road": "Castle Gardens",
        "house_number": null,
        "neighbourhood": null,
        "suburb": null,
        "city_district": null,
        "city": "Jamestown",
        "state": "Saint Helena",
        "postcode": "STHL 1ZZ",
        "country": "Saint Helena, Ascension and Tristan da Cunha",
        "country_code": "sh"
      },
      "address": "415, Castle Gardens, Jamestown, STHL 1ZZ Saint Helena, Saint Helena"
    },
    {
      "lat": -15.92393809130049,
      "lon": -5.71751646174626,
      "geoinfo": {
        "display_name": "Castle Terrace, Jamestown, Saint Helena, STHL 1ZZ, Saint Helena, Ascension and Tristan da Cunha",
        "road": "Castle Terrace",
        "house_number": null,
        "neighbourhood": null,
        "suburb": null,
        "city_district": null,
        "city": "Jamestown",
        "state": "Saint Helena",
        "postcode": "STHL 1ZZ",
        "country": "Saint Helena, Ascension and Tristan da Cunha",
        "country_code": "sh"
      },
      "address": "864, Castle Terrace, Jamestown, STHL 1ZZ Saint Helena, Saint Helena"
    },
    {
      "lat": -15.925843734820132,
      "lon": -5.718236971534709,
      "geoinfo": {
        "display_name": "Shy Road, Jamestown, Saint Helena, STHL 1ZZ, Saint Helena, Ascension and Tristan da Cunha",
        "road": "Shy Road",
        "house_number": null,
        "neighbourhood": null,
        "suburb": null,
        "city_district": null,
        "city": "Jamestown",
        "state": "Saint Helena",
        "postcode": "STHL 1ZZ",
        "country": "Saint Helena, Ascension and Tristan da Cunha",
        "country_code": "sh"
      },
      "address": "393, Shy Road, Jamestown, STHL 1ZZ Saint Helena, Saint Helena"
    },
    {
      "lat": -15.924141082434478,
      "lon": -5.718187264916366,
      "geoinfo": {
        "display_name": "Get Carters, Castle Terrace, Jamestown, Saint Helena, STHL 1ZZ, Saint Helena, Ascension and Tristan da Cunha",
        "road": "Castle Terrace",
        "house_number": null,
        "neighbourhood": null,
        "suburb": null,
        "city_district": null,
        "city": "Jamestown",
        "state": "Saint Helena",
        "postcode": "STHL 1ZZ",
        "country": "Saint Helena, Ascension and Tristan da Cunha",
        "country_code": "sh"
      },
      "address": "943, Castle Terrace, Jamestown, STHL 1ZZ Saint Helena, Saint Helena"
    },
    {
      "lat": -15.92416655709926,
      "lon": -5.7179704412202055,
      "geoinfo": {
        "display_name": "Children's pool, Castle Terrace, Jamestown, Saint Helena, STHL 1ZZ, Saint Helena, Ascension and Tristan da Cunha",
        "road": "Castle Terrace",
        "house_number": null,
        "neighbourhood": null,
        "suburb": null,
        "city_district": null,
        "city": "Jamestown",
        "state": "Saint Helena",
        "postcode": "STHL 1ZZ",
        "country": "Saint Helena, Ascension and Tristan da Cunha",
        "country_code": "sh"
      },
      "address": "342, Castle Terrace, Jamestown, STHL 1ZZ Saint Helena, Saint Helena"
    },
    {
      "lat": -15.924064462622738,
      "lon": -5.718523670228407,
      "geoinfo": {
        "display_name": "Seafront, Jamestown, Saint Helena, STHL 1ZZ, Saint Helena, Ascension and Tristan da Cunha",
        "road": "Seafront",
        "house_number": null,
        "neighbourhood": null,
        "suburb": null,
        "city_district": null,
        "city": "Jamestown",
        "state": "Saint Helena",
        "postcode": "STHL 1ZZ",
        "country": "Saint Helena, Ascension and Tristan da Cunha",
        "country_code": "sh"
      },
      "address": "423, Seafront, Jamestown, STHL 1ZZ Saint Helena, Saint Helena"
    },
    {
      "lat": -15.923735583666891,
      "lon": -5.717752754189495,
      "geoinfo": {
        "display_name": "Rifle Club, Castle Terrace, Jamestown, Saint Helena, STHL 1ZZ, Saint Helena, Ascension and Tristan da Cunha",
        "road": "Castle Terrace",
        "house_number": null,
        "neighbourhood": null,
        "suburb": null,
        "city_district": null,
        "city": "Jamestown",
        "state": "Saint Helena",
        "postcode": "STHL 1ZZ",
        "country": "Saint Helena, Ascension and Tristan da Cunha",
        "country_code": "sh"
      },
      "address": "483, Castle Terrace, Jamestown, STHL 1ZZ Saint Helena, Saint Helena"
    },
    {
      "lat": -15.925252411769462,
      "lon": -5.718681388498474,
      "geoinfo": {
        "display_name": "Jacob's Ladder, Jamestown, Saint Helena, STHL 1ZZ, Saint Helena, Ascension and Tristan da Cunha",
        "road": "Jacob's Ladder",
        "house_number": null,
        "neighbourhood": null,
        "suburb": null,
        "city_district": null,
        "city": "Jamestown",
        "state": "Saint Helena",
        "postcode": "STHL 1ZZ",
        "country": "Saint Helena, Ascension and Tristan da Cunha",
        "country_code": "sh"
      },
      "address": "500, Jacob's Ladder, Jamestown, STHL 1ZZ Saint Helena, Saint Helena"
    },
    {
      "lat": -15.925353183873234,
      "lon": -5.718692005789752,
      "geoinfo": {
        "display_name": "Jacob's Ladder, Jamestown, Saint Helena, STHL 1ZZ, Saint Helena, Ascension and Tristan da Cunha",
        "road": "Jacob's Ladder",
        "house_number": null,
        "neighbourhood": null,
        "suburb": null,
        "city_district": null,
        "city": "Jamestown",
        "state": "Saint Helena",
        "postcode": "STHL 1ZZ",
        "country": "Saint Helena, Ascension and Tristan da Cunha",
        "country_code": "sh"
      },
      "address": "187, Jacob's Ladder, Jamestown, STHL 1ZZ Saint Helena, Saint Helena"
    },
    {
      "lat": -15.924132000497062,
      "lon": -5.717452495642247,
      "geoinfo": {
        "display_name": "Castle Gardens, Jamestown, Saint Helena, STHL 1ZZ, Saint Helena, Ascension and Tristan da Cunha",
        "road": "Castle Gardens",
        "house_number": null,
        "neighbourhood": null,
        "suburb": null,
        "city_district": null,
        "city": "Jamestown",
        "state": "Saint Helena",
        "postcode": "STHL 1ZZ",
        "country": "Saint Helena, Ascension and Tristan da Cunha",
        "country_code": "sh"
      },
      "address": "978, Castle Gardens, Jamestown, STHL 1ZZ Saint Helena, Saint Helena"
    },
    {
      "lat": -15.925824052724602,
      "lon": -5.717400696468495,
      "geoinfo": {
        "display_name": "Essence Beauty Salon, Main Street, Jamestown, Saint Helena, STHL 1ZZ, Saint Helena, Ascension and Tristan da Cunha",
        "road": "Main Street",
        "house_number": null,
        "neighbourhood": null,
        "suburb": null,
        "city_district": null,
        "city": "Jamestown",
        "state": "Saint Helena",
        "postcode": "STHL 1ZZ",
        "country": "Saint Helena, Ascension and Tristan da Cunha",
        "country_code": "sh"
      },
      "address": "972, Main Street, Jamestown, STHL 1ZZ Saint Helena, Saint Helena"
    },
    {
      "lat": -15.923954479091721,
      "lon": -5.717160839419863,
      "geoinfo": {
        "display_name": "Castle Terrace, Jamestown, Saint Helena, STHL 1ZZ, Saint Helena, Ascension and Tristan da Cunha",
        "road": "Castle Terrace",
        "house_number": null,
        "neighbourhood": null,
        "suburb": null,
        "city_district": null,
        "city": "Jamestown",
        "state": "Saint Helena",
        "postcode": "STHL 1ZZ",
        "country": "Saint Helena, Ascension and Tristan da Cunha",
        "country_code": "sh"
      },
      "address": "408, Castle Terrace, Jamestown, STHL 1ZZ Saint Helena, Saint Helena"
    },
    {
      "lat": -15.924148549748143,
      "lon": -5.717211325838118,
      "geoinfo": {
        "display_name": "Castle Gardens, Jamestown, Saint Helena, STHL 1ZZ, Saint Helena, Ascension and Tristan da Cunha",
        "road": "Castle Gardens",
        "house_number": null,
        "neighbourhood": null,
        "suburb": null,
        "city_district": null,
        "city": "Jamestown",
        "state": "Saint Helena",
        "postcode": "STHL 1ZZ",
        "country": "Saint Helena, Ascension and Tristan da Cunha",
        "country_code": "sh"
      },
      "address": "630, Castle Gardens, Jamestown, STHL 1ZZ Saint Helena, Saint Helena"
    },
    {
      "lat": -15.92515848239457,
      "lon": -5.718961427344374,
      "geoinfo": {
        "display_name": "Jacob's Ladder, Jamestown, Saint Helena, STHL 1ZZ, Saint Helena, Ascension and Tristan da Cunha",
        "road": "Jacob's Ladder",
        "house_number": null,
        "neighbourhood": null,
        "suburb": null,
        "city_district": null,
        "city": "Jamestown",
        "state": "Saint Helena",
        "postcode": "STHL 1ZZ",
        "country": "Saint Helena, Ascension and Tristan da Cunha",
        "country_code": "sh"
      },
      "address": "426, Jacob's Ladder, Jamestown, STHL 1ZZ Saint Helena, Saint Helena"
    },
    {
      "lat": -15.92438472175731,
      "lon": -5.718598814862191,
      "geoinfo": {
        "display_name": "Main Street, Jamestown, Saint Helena, STHL 1ZZ, Saint Helena, Ascension and Tristan da Cunha",
        "road": "Main Street",
        "house_number": null,
        "neighbourhood": null,
        "suburb": null,
        "city_district": null,
        "city": "Jamestown",
        "state": "Saint Helena",
        "postcode": "STHL 1ZZ",
        "country": "Saint Helena, Ascension and Tristan da Cunha",
        "country_code": "sh"
      },
      "address": "933, Main Street, Jamestown, STHL 1ZZ Saint Helena, Saint Helena"
    },
    {
      "lat": -15.924223369538767,
      "lon": -5.717895815561996,
      "geoinfo": {
        "display_name": "The Castle, Castle Terrace, Jamestown, Saint Helena, STHL 1ZZ, Saint Helena, Ascension and Tristan da Cunha",
        "road": "Castle Terrace",
        "house_number": null,
        "neighbourhood": null,
        "suburb": null,
        "city_district": null,
        "city": "Jamestown",
        "state": "Saint Helena",
        "postcode": "STHL 1ZZ",
        "country": "Saint Helena, Ascension and Tristan da Cunha",
        "country_code": "sh"
      },
      "address": "707, Castle Terrace, Jamestown, STHL 1ZZ Saint Helena, Saint Helena"
    },
    {
      "lat": -15.924398518795185,
      "lon": -5.718911335786558,
      "geoinfo": {
        "display_name": "Seafront, Half Tree Hollow, Saint Helena, STHL 1ZZ, Saint Helena, Ascension and Tristan da Cunha",
        "road": "Seafront",
        "house_number": null,
        "neighbourhood": null,
        "suburb": null,
        "city_district": null,
        "city": "Half Tree Hollow",
        "state": "Saint Helena",
        "postcode": "STHL 1ZZ",
        "country": "Saint Helena, Ascension and Tristan da Cunha",
        "country_code": "sh"
      },
      "address": "476, Seafront, Jamestown, STHL 1ZZ Saint Helena, Saint Helena"
    },
    {
      "lat": -15.9237043636426,
      "lon": -5.71758357524983,
      "geoinfo": {
        "display_name": "Customs Building, Castle Terrace, Jamestown, Saint Helena, STHL 1ZZ, Saint Helena, Ascension and Tristan da Cunha",
        "road": "Castle Terrace",
        "house_number": null,
        "neighbourhood": null,
        "suburb": null,
        "city_district": null,
        "city": "Jamestown",
        "state": "Saint Helena",
        "postcode": "STHL 1ZZ",
        "country": "Saint Helena, Ascension and Tristan da Cunha",
        "country_code": "sh"
      },
      "address": "294, Castle Terrace, Jamestown, STHL 1ZZ Saint Helena, Saint Helena"
    },
    {
      "lat": -15.925335226820117,
      "lon": -5.717992226774923,
      "geoinfo": {
        "display_name": "Saint James' Church, Church Lane, Jamestown, Saint Helena, STHL 1ZZ, Saint Helena, Ascension and Tristan da Cunha",
        "road": "Church Lane",
        "house_number": null,
        "neighbourhood": null,
        "suburb": null,
        "city_district": null,
        "city": "Jamestown",
        "state": "Saint Helena",
        "postcode": "STHL 1ZZ",
        "country": "Saint Helena, Ascension and Tristan da Cunha",
        "country_code": "sh"
      },
      "address": "745, Church Lane, Jamestown, STHL 1ZZ Saint Helena, Saint Helena"
    },
    {
      "lat": -15.924964213858475,
      "lon": -5.718081738746235,
      "geoinfo": {
        "display_name": "Castle Terrace, Jamestown, Saint Helena, STHL 1ZZ, Saint Helena, Ascension and Tristan da Cunha",
        "road": "Castle Terrace",
        "house_number": null,
        "neighbourhood": null,
        "suburb": null,
        "city_district": null,
        "city": "Jamestown",
        "state": "Saint Helena",
        "postcode": "STHL 1ZZ",
        "country": "Saint Helena, Ascension and Tristan da Cunha",
        "country_code": "sh"
      },
      "address": "557, Castle Terrace, Jamestown, STHL 1ZZ Saint Helena, Saint Helena"
    },
    {
      "lat": -15.925561110267344,
      "lon": -5.718661771195608,
      "geoinfo": {
        "display_name": "Jacob's Ladder, Jamestown, Saint Helena, STHL 1ZZ, Saint Helena, Ascension and Tristan da Cunha",
        "road": "Jacob's Ladder",
        "house_number": null,
        "neighbourhood": null,
        "suburb": null,
        "city_district": null,
        "city": "Jamestown",
        "state": "Saint Helena",
        "postcode": "STHL 1ZZ",
        "country": "Saint Helena, Ascension and Tristan da Cunha",
        "country_code": "sh"
      },
      "address": "909, Jacob's Ladder, Jamestown, STHL 1ZZ Saint Helena, Saint Helena"
    },
    {
      "lat": -15.925640531526502,
      "lon": -5.718963255934988,
      "geoinfo": {
        "display_name": "Jacob's Ladder, Jamestown, Saint Helena, STHL 1ZZ, Saint Helena, Ascension and Tristan da Cunha",
        "road": "Jacob's Ladder",
        "house_number": null,
        "neighbourhood": null,
        "suburb": null,
        "city_district": null,
        "city": "Jamestown",
        "state": "Saint Helena",
        "postcode": "STHL 1ZZ",
        "country": "Saint Helena, Ascension and Tristan da Cunha",
        "country_code": "sh"
      },
      "address": "659, Jacob's Ladder, Jamestown, STHL 1ZZ Saint Helena, Saint Helena"
    },
    {
      "lat": -15.92406130015839,
      "lon": -5.718012497522171,
      "geoinfo": {
        "display_name": "Children's pool, Castle Terrace, Jamestown, Saint Helena, STHL 1ZZ, Saint Helena, Ascension and Tristan da Cunha",
        "road": "Castle Terrace",
        "house_number": null,
        "neighbourhood": null,
        "suburb": null,
        "city_district": null,
        "city": "Jamestown",
        "state": "Saint Helena",
        "postcode": "STHL 1ZZ",
        "country": "Saint Helena, Ascension and Tristan da Cunha",
        "country_code": "sh"
      },
      "address": "552, Castle Terrace, Jamestown, STHL 1ZZ Saint Helena, Saint Helena"
    },
    {
      "lat": -15.925031609651246,
      "lon": -5.71773722963398,
      "geoinfo": {
        "display_name": "Castle Gardens, Jamestown, Saint Helena, STHL 1ZZ, Saint Helena, Ascension and Tristan da Cunha",
        "road": "Castle Gardens",
        "house_number": null,
        "neighbourhood": null,
        "suburb": null,
        "city_district": null,
        "city": "Jamestown",
        "state": "Saint Helena",
        "postcode": "STHL 1ZZ",
        "country": "Saint Helena, Ascension and Tristan da Cunha",
        "country_code": "sh"
      },
      "address": "421, Castle Gardens, Jamestown, STHL 1ZZ Saint Helena, Saint Helena"
    },
    {
      "lat": -15.923947745432038,
      "lon": -5.717581705394433,
      "geoinfo": {
        "display_name": "Castle Terrace, Jamestown, Saint Helena, STHL 1ZZ, Saint Helena, Ascension and Tristan da Cunha",
        "road": "Castle Terrace",
        "house_number": null,
        "neighbourhood": null,
        "suburb": null,
        "city_district": null,
        "city": "Jamestown",
        "state": "Saint Helena",
        "postcode": "STHL 1ZZ",
        "country": "Saint Helena, Ascension and Tristan da Cunha",
        "country_code": "sh"
      },
      "address": "799, Castle Terrace, Jamestown, STHL 1ZZ Saint Helena, Saint Helena"
    },
    {
      "lat": -15.925161183750761,
      "lon": -5.716876275480992,
      "geoinfo": {
        "display_name": "Anne's Place, Castle Gardens, Jamestown, Saint Helena, STHL 1ZZ, Saint Helena, Ascension and Tristan da Cunha",
        "road": "Castle Gardens",
        "house_number": null,
        "neighbourhood": null,
        "suburb": null,
        "city_district": null,
        "city": "Jamestown",
        "state": "Saint Helena",
        "postcode": "STHL 1ZZ",
        "country": "Saint Helena, Ascension and Tristan da Cunha",
        "country_code": "sh"
      },
      "address": "153, Castle Gardens, Jamestown, STHL 1ZZ Saint Helena, Saint Helena"
    },
    {
      "lat": -15.924906924476645,
      "lon": -5.7189712417282585,
      "geoinfo": {
        "display_name": "Castle Terrace, Jamestown, Saint Helena, STHL 1ZZ, Saint Helena, Ascension and Tristan da Cunha",
        "road": "Castle Terrace",
        "house_number": null,
        "neighbourhood": null,
        "suburb": null,
        "city_district": null,
        "city": "Jamestown",
        "state": "Saint Helena",
        "postcode": "STHL 1ZZ",
        "country": "Saint Helena, Ascension and Tristan da Cunha",
        "country_code": "sh"
      },
      "address": "545, Castle Terrace, Jamestown, STHL 1ZZ Saint Helena, Saint Helena"
    },
    {
      "lat": -15.925264676345947,
      "lon": -5.718543106874757,
      "geoinfo": {
        "display_name": "Narrabacks, Jamestown, Saint Helena, STHL 1ZZ, Saint Helena, Ascension and Tristan da Cunha",
        "road": "Narrabacks",
        "house_number": null,
        "neighbourhood": null,
        "suburb": null,
        "city_district": null,
        "city": "Jamestown",
        "state": "Saint Helena",
        "postcode": "STHL 1ZZ",
        "country": "Saint Helena, Ascension and Tristan da Cunha",
        "country_code": "sh"
      },
      "address": "320, Narrabacks, Jamestown, STHL 1ZZ Saint Helena, Saint Helena"
    },
    {
      "lat": -15.92507041818126,
      "lon": -5.717023157690732,
      "geoinfo": {
        "display_name": "Anne's Place, Castle Gardens, Jamestown, Saint Helena, STHL 1ZZ, Saint Helena, Ascension and Tristan da Cunha",
        "road": "Castle Gardens",
        "house_number": null,
        "neighbourhood": null,
        "suburb": null,
        "city_district": null,
        "city": "Jamestown",
        "state": "Saint Helena",
        "postcode": "STHL 1ZZ",
        "country": "Saint Helena, Ascension and Tristan da Cunha",
        "country_code": "sh"
      },
      "address": "689, Castle Gardens, Jamestown, STHL 1ZZ Saint Helena, Saint Helena"
    },
    {
      "lat": -15.925690524337396,
      "lon": -5.717539904698687,
      "geoinfo": {
        "display_name": "Essence Beauty Salon, Main Street, Jamestown, Saint Helena, STHL 1ZZ, Saint Helena, Ascension and Tristan da Cunha",
        "road": "Main Street",
        "house_number": null,
        "neighbourhood": null,
        "suburb": null,
        "city_district": null,
        "city": "Jamestown",
        "state": "Saint Helena",
        "postcode": "STHL 1ZZ",
        "country": "Saint Helena, Ascension and Tristan da Cunha",
        "country_code": "sh"
      },
      "address": "363, Main Street, Jamestown, STHL 1ZZ Saint Helena, Saint Helena"
    },
    {
      "lat": -15.9251681214391,
      "lon": -5.719165712613085,
      "geoinfo": {
        "display_name": "Jacob's Ladder, Jamestown, Saint Helena, STHL 1ZZ, Saint Helena, Ascension and Tristan da Cunha",
        "road": "Jacob's Ladder",
        "house_number": null,
        "neighbourhood": null,
        "suburb": null,
        "city_district": null,
        "city": "Jamestown",
        "state": "Saint Helena",
        "postcode": "STHL 1ZZ",
        "country": "Saint Helena, Ascension and Tristan da Cunha",
        "country_code": "sh"
      },
      "address": "604, Jacob's Ladder, Jamestown, STHL 1ZZ Saint Helena, Saint Helena"
    },
    {
      "lat": -15.924977448455431,
      "lon": -5.7190037706945445,
      "geoinfo": {
        "display_name": "Castle Terrace, Jamestown, Saint Helena, STHL 1ZZ, Saint Helena, Ascension and Tristan da Cunha",
        "road": "Castle Terrace",
        "house_number": null,
        "neighbourhood": null,
        "suburb": null,
        "city_district": null,
        "city": "Jamestown",
        "state": "Saint Helena",
        "postcode": "STHL 1ZZ",
        "country": "Saint Helena, Ascension and Tristan da Cunha",
        "country_code": "sh"
      },
      "address": "968, Castle Terrace, Jamestown, STHL 1ZZ Saint Helena, Saint Helena"
    },
    {
      "lat": -15.925150804262671,
      "lon": -5.71868817513931,
      "geoinfo": {
        "display_name": "Jacob's Ladder, Jamestown, Saint Helena, STHL 1ZZ, Saint Helena, Ascension and Tristan da Cunha",
        "road": "Jacob's Ladder",
        "house_number": null,
        "neighbourhood": null,
        "suburb": null,
        "city_district": null,
        "city": "Jamestown",
        "state": "Saint Helena",
        "postcode": "STHL 1ZZ",
        "country": "Saint Helena, Ascension and Tristan da Cunha",
        "country_code": "sh"
      },
      "address": "878, Jacob's Ladder, Jamestown, STHL 1ZZ Saint Helena, Saint Helena"
    },
    {
      "lat": -15.925735252795556,
      "lon": -5.718709503835943,
      "geoinfo": {
        "display_name": "Jacob's Ladder, Jamestown, Saint Helena, STHL 1ZZ, Saint Helena, Ascension and Tristan da Cunha",
        "road": "Jacob's Ladder",
        "house_number": null,
        "neighbourhood": null,
        "suburb": null,
        "city_district": null,
        "city": "Jamestown",
        "state": "Saint Helena",
        "postcode": "STHL 1ZZ",
        "country": "Saint Helena, Ascension and Tristan da Cunha",
        "country_code": "sh"
      },
      "address": "473, Jacob's Ladder, Jamestown, STHL 1ZZ Saint Helena, Saint Helena"
    },
    {
      "lat": -15.92445372748585,
      "lon": -5.717630910129833,
      "geoinfo": {
        "display_name": "Castle Gardens, Jamestown, Saint Helena, STHL 1ZZ, Saint Helena, Ascension and Tristan da Cunha",
        "road": "Castle Gardens",
        "house_number": null,
        "neighbourhood": null,
        "suburb": null,
        "city_district": null,
        "city": "Jamestown",
        "state": "Saint Helena",
        "postcode": "STHL 1ZZ",
        "country": "Saint Helena, Ascension and Tristan da Cunha",
        "country_code": "sh"
      },
      "address": "697, Castle Gardens, Jamestown, STHL 1ZZ Saint Helena, Saint Helena"
    },
    {
      "lat": -15.92546067335831,
      "lon": -5.717452732824393,
      "geoinfo": {
        "display_name": "Serena's Gift Shop, Main Street, Jamestown, Saint Helena, STHL 1ZZ, Saint Helena, Ascension and Tristan da Cunha",
        "road": "Main Street",
        "house_number": null,
        "neighbourhood": null,
        "suburb": null,
        "city_district": null,
        "city": "Jamestown",
        "state": "Saint Helena",
        "postcode": "STHL 1ZZ",
        "country": "Saint Helena, Ascension and Tristan da Cunha",
        "country_code": "sh"
      },
      "address": "843, Main Street, Jamestown, STHL 1ZZ Saint Helena, Saint Helena"
    },
    {
      "lat": -15.923829472235397,
      "lon": -5.717467806994862,
      "geoinfo": {
        "display_name": "Castle Terrace, Jamestown, Saint Helena, STHL 1ZZ, Saint Helena, Ascension and Tristan da Cunha",
        "road": "Castle Terrace",
        "house_number": null,
        "neighbourhood": null,
        "suburb": null,
        "city_district": null,
        "city": "Jamestown",
        "state": "Saint Helena",
        "postcode": "STHL 1ZZ",
        "country": "Saint Helena, Ascension and Tristan da Cunha",
        "country_code": "sh"
      },
      "address": "711, Castle Terrace, Jamestown, STHL 1ZZ Saint Helena, Saint Helena"
    },
    {
      "lat": -15.925419744556658,
      "lon": -5.718036822317743,
      "geoinfo": {
        "display_name": "Church Lane, Jamestown, Saint Helena, STHL 1ZZ, Saint Helena, Ascension and Tristan da Cunha",
        "road": "Church Lane",
        "house_number": null,
        "neighbourhood": null,
        "suburb": null,
        "city_district": null,
        "city": "Jamestown",
        "state": "Saint Helena",
        "postcode": "STHL 1ZZ",
        "country": "Saint Helena, Ascension and Tristan da Cunha",
        "country_code": "sh"
      },
      "address": "498, Church Lane, Jamestown, STHL 1ZZ Saint Helena, Saint Helena"
    },
    {
      "lat": -15.924614922633246,
      "lon": -5.71820821265032,
      "geoinfo": {
        "display_name": "Castle Terrace, Jamestown, Saint Helena, STHL 1ZZ, Saint Helena, Ascension and Tristan da Cunha",
        "road": "Castle Terrace",
        "house_number": null,
        "neighbourhood": null,
        "suburb": null,
        "city_district": null,
        "city": "Jamestown",
        "state": "Saint Helena",
        "postcode": "STHL 1ZZ",
        "country": "Saint Helena, Ascension and Tristan da Cunha",
        "country_code": "sh"
      },
      "address": "267, Castle Terrace, Jamestown, STHL 1ZZ Saint Helena, Saint Helena"
    },
    {
      "lat": -15.92541788149695,
      "lon": -5.717786415696918,
      "geoinfo": {
        "display_name": "Hotel St Helena, Main Street, Jamestown, Saint Helena, STHL 1ZZ, Saint Helena, Ascension and Tristan da Cunha",
        "road": "Main Street",
        "house_number": null,
        "neighbourhood": null,
        "suburb": null,
        "city_district": null,
        "city": "Jamestown",
        "state": "Saint Helena",
        "postcode": "STHL 1ZZ",
        "country": "Saint Helena, Ascension and Tristan da Cunha",
        "country_code": "sh"
      },
      "address": "246, Main Street, Jamestown, STHL 1ZZ Saint Helena, Saint Helena"
    },
    {
      "lat": -15.925245897944949,
      "lon": -5.71901732193924,
      "geoinfo": {
        "display_name": "Jacob's Ladder, Jamestown, Saint Helena, STHL 1ZZ, Saint Helena, Ascension and Tristan da Cunha",
        "road": "Jacob's Ladder",
        "house_number": null,
        "neighbourhood": null,
        "suburb": null,
        "city_district": null,
        "city": "Jamestown",
        "state": "Saint Helena",
        "postcode": "STHL 1ZZ",
        "country": "Saint Helena, Ascension and Tristan da Cunha",
        "country_code": "sh"
      },
      "address": "549, Jacob's Ladder, Jamestown, STHL 1ZZ Saint Helena, Saint Helena"
    },
    {
      "lat": -15.92485012305566,
      "lon": -5.718615742172475,
      "geoinfo": {
        "display_name": "New Horizons, Castle Terrace, Jamestown, Saint Helena, STHL 1ZZ, Saint Helena, Ascension and Tristan da Cunha",
        "road": "Castle Terrace",
        "house_number": null,
        "neighbourhood": null,
        "suburb": null,
        "city_district": null,
        "city": "Jamestown",
        "state": "Saint Helena",
        "postcode": "STHL 1ZZ",
        "country": "Saint Helena, Ascension and Tristan da Cunha",
        "country_code": "sh"
      },
      "address": "117, Castle Terrace, Jamestown, STHL 1ZZ Saint Helena, Saint Helena"
    },
    {
      "lat": -15.925239015647808,
      "lon": -5.718394423293959,
      "geoinfo": {
        "display_name": "Police Offices, Narrabacks, Jamestown, Saint Helena, STHL 1ZZ, Saint Helena, Ascension and Tristan da Cunha",
        "road": "Narrabacks",
        "house_number": null,
        "neighbourhood": null,
        "suburb": null,
        "city_district": null,
        "city": "Jamestown",
        "state": "Saint Helena",
        "postcode": "STHL 1ZZ",
        "country": "Saint Helena, Ascension and Tristan da Cunha",
        "country_code": "sh"
      },
      "address": "726, Narrabacks, Jamestown, STHL 1ZZ Saint Helena, Saint Helena"
    },
    {
      "lat": -15.924530213545786,
      "lon": -5.717875819489276,
      "geoinfo": {
        "display_name": "The Castle, Castle Terrace, Jamestown, Saint Helena, STHL 1ZZ, Saint Helena, Ascension and Tristan da Cunha",
        "road": "Castle Terrace",
        "house_number": null,
        "neighbourhood": null,
        "suburb": null,
        "city_district": null,
        "city": "Jamestown",
        "state": "Saint Helena",
        "postcode": "STHL 1ZZ",
        "country": "Saint Helena, Ascension and Tristan da Cunha",
        "country_code": "sh"
      },
      "address": "665, Castle Terrace, Jamestown, STHL 1ZZ Saint Helena, Saint Helena"
    },
    {
      "lat": -15.924566689508929,
      "lon": -5.7190183817464435,
      "geoinfo": {
        "display_name": "Seafront, Half Tree Hollow, Saint Helena, STHL 1ZZ, Saint Helena, Ascension and Tristan da Cunha",
        "road": "Seafront",
        "house_number": null,
        "neighbourhood": null,
        "suburb": null,
        "city_district": null,
        "city": "Half Tree Hollow",
        "state": "Saint Helena",
        "postcode": "STHL 1ZZ",
        "country": "Saint Helena, Ascension and Tristan da Cunha",
        "country_code": "sh"
      },
      "address": "940, Seafront, Jamestown, STHL 1ZZ Saint Helena, Saint Helena"
    },
    {
      "lat": -15.923821090616656,
      "lon": -5.717862915393125,
      "geoinfo": {
        "display_name": "Rifle Club, Castle Terrace, Jamestown, Saint Helena, STHL 1ZZ, Saint Helena, Ascension and Tristan da Cunha",
        "road": "Castle Terrace",
        "house_number": null,
        "neighbourhood": null,
        "suburb": null,
        "city_district": null,
        "city": "Jamestown",
        "state": "Saint Helena",
        "postcode": "STHL 1ZZ",
        "country": "Saint Helena, Ascension and Tristan da Cunha",
        "country_code": "sh"
      },
      "address": "996, Castle Terrace, Jamestown, STHL 1ZZ Saint Helena, Saint Helena"
    },
    {
      "lat": -15.924320669344734,
      "lon": -5.719071287595351,
      "geoinfo": {
        "display_name": "Seafront, Half Tree Hollow, Saint Helena, STHL 1ZZ, Saint Helena, Ascension and Tristan da Cunha",
        "road": "Seafront",
        "house_number": null,
        "neighbourhood": null,
        "suburb": null,
        "city_district": null,
        "city": "Half Tree Hollow",
        "state": "Saint Helena",
        "postcode": "STHL 1ZZ",
        "country": "Saint Helena, Ascension and Tristan da Cunha",
        "country_code": "sh"
      },
      "address": "971, Seafront, Jamestown, STHL 1ZZ Saint Helena, Saint Helena"
    },
    {
      "lat": -15.924192026988377,
      "lon": -5.716958658317808,
      "geoinfo": {
        "display_name": "Castle Gardens, Jamestown, Saint Helena, STHL 1ZZ, Saint Helena, Ascension and Tristan da Cunha",
        "road": "Castle Gardens",
        "house_number": null,
        "neighbourhood": null,
        "suburb": null,
        "city_district": null,
        "city": "Jamestown",
        "state": "Saint Helena",
        "postcode": "STHL 1ZZ",
        "country": "Saint Helena, Ascension and Tristan da Cunha",
        "country_code": "sh"
      },
      "address": "289, Castle Gardens, Jamestown, STHL 1ZZ Saint Helena, Saint Helena"
    },
    {
      "lat": -15.92524070801382,
      "lon": -5.718346141701131,
      "geoinfo": {
        "display_name": "The Prison, Church Lane, Jamestown, Saint Helena, STHL 1ZZ, Saint Helena, Ascension and Tristan da Cunha",
        "road": "Church Lane",
        "house_number": null,
        "neighbourhood": null,
        "suburb": null,
        "city_district": null,
        "city": "Jamestown",
        "state": "Saint Helena",
        "postcode": "STHL 1ZZ",
        "country": "Saint Helena, Ascension and Tristan da Cunha",
        "country_code": "sh"
      },
      "address": "952, Church Lane, Jamestown, STHL 1ZZ Saint Helena, Saint Helena"
    },
    {
      "lat": -15.923828531052896,
      "lon": -5.718188810544183,
      "geoinfo": {
        "display_name": "Seafront, Jamestown, Saint Helena, STHL 1ZZ, Saint Helena, Ascension and Tristan da Cunha",
        "road": "Seafront",
        "house_number": null,
        "neighbourhood": null,
        "suburb": null,
        "city_district": null,
        "city": "Jamestown",
        "state": "Saint Helena",
        "postcode": "STHL 1ZZ",
        "country": "Saint Helena, Ascension and Tristan da Cunha",
        "country_code": "sh"
      },
      "address": "932, Seafront, Jamestown, STHL 1ZZ Saint Helena, Saint Helena"
    },
    {
      "lat": -15.92614721875943,
      "lon": -5.718143512140876,
      "geoinfo": {
        "display_name": "Shy Road, Jamestown, Saint Helena, STHL 1ZZ, Saint Helena, Ascension and Tristan da Cunha",
        "road": "Shy Road",
        "house_number": null,
        "neighbourhood": null,
        "suburb": null,
        "city_district": null,
        "city": "Jamestown",
        "state": "Saint Helena",
        "postcode": "STHL 1ZZ",
        "country": "Saint Helena, Ascension and Tristan da Cunha",
        "country_code": "sh"
      },
      "address": "344, Shy Road, Jamestown, STHL 1ZZ Saint Helena, Saint Helena"
    },
    {
      "lat": -15.924960219386891,
      "lon": -5.718752554124119,
      "geoinfo": {
        "display_name": "Narrabacks, Jamestown, Saint Helena, STHL 1ZZ, Saint Helena, Ascension and Tristan da Cunha",
        "road": "Narrabacks",
        "house_number": null,
        "neighbourhood": null,
        "suburb": null,
        "city_district": null,
        "city": "Jamestown",
        "state": "Saint Helena",
        "postcode": "STHL 1ZZ",
        "country": "Saint Helena, Ascension and Tristan da Cunha",
        "country_code": "sh"
      },
      "address": "614, Narrabacks, Jamestown, STHL 1ZZ Saint Helena, Saint Helena"
    },
    {
      "lat": -15.925305108928233,
      "lon": -5.717660229678033,
      "geoinfo": {
        "display_name": "Castle Gardens, Jamestown, Saint Helena, STHL 1ZZ, Saint Helena, Ascension and Tristan da Cunha",
        "road": "Castle Gardens",
        "house_number": null,
        "neighbourhood": null,
        "suburb": null,
        "city_district": null,
        "city": "Jamestown",
        "state": "Saint Helena",
        "postcode": "STHL 1ZZ",
        "country": "Saint Helena, Ascension and Tristan da Cunha",
        "country_code": "sh"
      },
      "address": "215, Castle Gardens, Jamestown, STHL 1ZZ Saint Helena, Saint Helena"
    }
  ],
  "updated_at": "2025-10-22T00:02:43.179912+00:00",
  "_kind": "geo_samples"
}