{
  "country_code": "LY",
  "country": "Libya",
  "city": "Al Abyār",
  "geonameid": 89087,
  "target_addresses": 2,
  "samples": [
    {
      "lat": 32.184978625855884,
      "lon": 20.619633131282388,
      "geoinfo": {
        "display_name": "Ghawt al Hisan, Benghazi, Libya",
        "road": null,
        "house_number": null,
        "neighbourhood": null,
        "suburb": null,
        "city_district": null,
        "city": "Benghazi",
        "state": null,
        "postcode": null,
        "country": "Libya",
        "country_code": "ly"
      },
      "address": "Al Abyār, Libya"
    },
    {
      "lat": 32.175845609920515,
      "lon": 20.611397477132954,
      "geoinfo": {
        "display_name": "El Souq, Ghawt al Hisan, Benghazi, Libya",
        "road": null,
        "house_number": null,
        "neighbourhood": null,
        "suburb": "El Souq",
        "city_district": null,
        "city": "Benghazi",
        "state": null,
        "postcode": null,
        "country": "Libya",
        "country_code": "ly"
      },
      "address": "El Souq, Al Abyār, Libya"
    },
    {
      "lat": 32.19408985885779,
      "lon": 20.637764338482818,
      "geoinfo": {
        "display_name": "Ghawt al Hisan, Benghazi, Libya",
        "road": null,
        "house_number": null,
        "neighbourhood": null,
        "suburb": null,
        "city_district": null,
        "city": "Benghazi",
        "state": null,
        "postcode": null,
        "country": "Libya",
        "country_code": "ly"
      },
      "address": "480, Ghawt al Hisan, 59888 Benghazi, Libya"
    },
    {
      "lat": 32.15291894178579,
      "lon": 20.6079389840044,
      "geoinfo": {
        "display_name": "Alabiyaar Dirt Road, Al Abyar, Benghazi, Libya",
        "road": "Alabiyaar Dirt Road",
        "house_number": null,
        "neighbourhood": null,
        "suburb": null,
        "city_district": null,
        "city": "Al Abyar",
        "state": null,
        "postcode": null,
        "country": "Libya",
        "country_code": "ly"
      },
      "address": "300, Alabiyaar Dirt Road, Al Abyar, 47754 Benghazi, Libya"
    }
  ],
  "updated_at": "2025-10-19T08:05:49.554939+00:00",
  "_kind": "geo_samples"
}