{
  "country_code": "LY",
  "country": "Libya",
  "city": "Al Burayqah",
  "geonameid": 2215210,
  "target_addresses": 10,
  "samples": [
    {
      "lat": 30.42210269118976,
      "lon": 19.576444907023422,
      "geoinfo": {
        "display_name": "Marsa Al Burayqah, Area 1, New Brega, Al Wahat, Libya",
        "road": null,
        "house_number": null,
        "neighbourhood": null,
        "suburb": "Area 1",
        "city_district": null,
        "city": "New Brega",
        "state": "Al Wahat",
        "postcode": null,
        "country": "Libya",
        "country_code": "ly"
      },
      "address": "Area 1, Al Burayqah, Al Wahat, Libya"
    },
    {
      "lat": 30.41518626574696,
      "lon": 19.61867365869499,
      "geoinfo": {
        "display_name": "المنطقة الثالثة, New Brega, Al Wahat, Libya",
        "road": null,
        "house_number": null,
        "neighbourhood": null,
        "suburb": null,
        "city_district": null,
        "city": "New Brega",
        "state": "Al Wahat",
        "postcode": null,
        "country": "Libya",
        "country_code": "ly"
      },
      "address": "Al Burayqah, Al Wahat, Libya"
    },
    {
      "lat": 30.371041606203665,
      "lon": 19.543900205800348,
      "geoinfo": {
        "display_name": "Brega, Al Wahat, Libya",
        "road": null,
        "house_number": null,
        "neighbourhood": null,
        "suburb": null,
        "city_district": null,
        "city": "Brega",
        "state": "Al Wahat",
        "postcode": null,
        "country": "Libya",
        "country_code": "ly"
      },
      "address": "Al Burayqah, 88903 Al Wahat, Libya"
    },
    {
      "lat": 30.415919865502158,
      "lon": 19.564930389780752,
      "geoinfo": {
        "display_name": "Area 1, New Brega, Al Wahat, Libya",
        "road": null,
        "house_number": null,
        "neighbourhood": null,
        "suburb": "Area 1",
        "city_district": null,
        "city": "New Brega",
        "state": "Al Wahat",
        "postcode": null,
        "country": "Libya",
        "country_code": "ly"
      },
      "address": "Area 1, New Brega, 82687 Al Wahat, Libya"
    },
    {
      "lat": 30.40373334708235,
      "lon": 19.531674650062016,
      "geoinfo": {
        "display_name": "Brega, Al Wahat, Libya",
        "road": null,
        "house_number": null,
        "neighbourhood": null,
        "suburb": null,
        "city_district": null,
        "city": "Brega",
        "state": "Al Wahat",
        "postcode": null,
        "country": "Libya",
        "country_code": "ly"
      },
      "address": "005, Al Burayqah, 31288 Al Wahat, Libya"
    },
    {
      "lat": 30.450221009104705,
      "lon": 19.574083201433,
      "geoinfo": {
        "display_name": "Brega, Al Wahat, Libya",
        "road": null,
        "house_number": null,
        "neighbourhood": null,
        "suburb": null,
        "city_district": null,
        "city": "Brega",
        "state": "Al Wahat",
        "postcode": null,
        "country": "Libya",
        "country_code": "ly"
      },
      "address": "166, Al Burayqah, 19024 Al Wahat, Libya"
    },
    {
      "lat": 30.403047808153524,
      "lon": 19.586658476260123,
      "geoinfo": {
        "display_name": "طريق المنطقة الأولي, Area 1, New Brega, Al Wahat, Libya",
        "road": "طريق المنطقة الأولي",
        "house_number": null,
        "neighbourhood": null,
        "suburb": "Area 1",
        "city_district": null,
        "city": "New Brega",
        "state": "Al Wahat",
        "postcode": null,
        "country": "Libya",
        "country_code": "ly"
      },
      "address": "370, طريق المنطقة الأولي, Area 1, New Brega, Al Wahat, Libya"
    },
    {
      "lat": 30.4229643073733,
      "lon": 19.52822756153102,
      "geoinfo": {
        "display_name": "Brega, Al Wahat, Libya",
        "road": null,
        "house_number": null,
        "neighbourhood": null,
        "suburb": null,
        "city_district": null,
        "city": "Brega",
        "state": "Al Wahat",
        "postcode": null,
        "country": "Libya",
        "country_code": "ly"
      },
      "address": "099, Al Burayqah, 84085 Al Wahat, Libya"
    },
    {
      "lat": 30.44122205252505,
      "lon": 19.58963832102491,
      "geoinfo": {
        "display_name": "Area 1, New Brega, Al Wahat, Libya",
        "road": null,
        "house_number": null,
        "neighbourhood": null,
        "suburb": "Area 1",
        "city_district": null,
        "city": "New Brega",
        "state": "Al Wahat",
        "postcode": null,
        "country": "Libya",
        "country_code": "ly"
      },
      "address": "Area 1, New Brega, 90308 Al Wahat, Libya"
    },
    {
      "lat": 30.395071632223317,
      "lon": 19.563763713997236,
      "geoinfo": {
        "display_name": "Area 1, New Brega, Al Wahat, Libya",
        "road": null,
        "house_number": null,
        "neighbourhood": null,
        "suburb": "Area 1",
        "city_district": null,
        "city": "New Brega",
        "state": "Al Wahat",
        "postcode": null,
        "country": "Libya",
        "country_code": "ly"
      },
      "address": "Area 1, New Brega, 06559 Al Wahat, Libya"
    }
  ],
  "updated_at": "2025-10-19T05:39:28.140775+00:00",
  "_kind": "geo_samples"
}