{
  "country_code": "LY",
  "country": "Libya",
  "city": "Al Marj",
  "geonameid": 88903,
  "target_addresses": 2,
  "samples": [
    {
      "lat": 32.52156385279871,
      "lon": 20.830506261777618,
      "geoinfo": {
        "display_name": "Area 4, Marj, Libya",
        "road": null,
        "house_number": null,
        "neighbourhood": null,
        "suburb": "Area 4",
        "city_district": null,
        "city": "Marj",
        "state": "Marj",
        "postcode": null,
        "country": "Libya",
        "country_code": "ly"
      },
      "address": "Area 4, Al Marj, Marj, Libya"
    },
    {
      "lat": 32.52609544826241,
      "lon": 20.80471473762705,
      "geoinfo": {
        "display_name": "Marj, Libya",
        "road": null,
        "house_number": null,
        "neighbourhood": null,
        "suburb": null,
        "city_district": null,
        "city": "Marj",
        "state": "Marj",
        "postcode": null,
        "country": "Libya",
        "country_code": "ly"
      },
      "address": "Al Marj, Marj, Libya"
    },
    {
      "lat": 32.49745941194906,
      "lon": 20.79582296727971,
      "geoinfo": {
        "display_name": "Coastal Road, Marj, Libya",
        "road": "Coastal Road",
        "house_number": null,
        "neighbourhood": null,
        "suburb": null,
        "city_district": null,
        "city": "Marj",
        "state": "Marj",
        "postcode": null,
        "country": "Libya",
        "country_code": "ly"
      },
      "address": "877, Coastal Road, Al Marj, 86802 Marj, Libya"
    },
    {
      "lat": 32.466933453272596,
      "lon": 20.8199219340507,
      "geoinfo": {
        "display_name": "منطقة ألف, Marj, Libya",
        "road": null,
        "house_number": null,
        "neighbourhood": null,
        "suburb": "منطقة ألف",
        "city_district": null,
        "city": "Marj",
        "state": "Marj",
        "postcode": null,
        "country": "Libya",
        "country_code": "ly"
      },
      "address": "942, منطقة ألف, Al Marj, 60890 Marj, Libya"
    }
  ],
  "updated_at": "2025-10-19T03:47:16.377507+00:00",
  "_kind": "geo_samples"
}