{
  "country_code": "LY",
  "country": "Libya",
  "city": "Al Ḩurshah",
  "geonameid": 2219994,
  "target_addresses": 2,
  "samples": [
    {
      "lat": 32.74470492866563,
      "lon": 12.684004037942582,
      "geoinfo": {
        "display_name": "Al Hurshah, Az Zawiya District, Libya",
        "road": null,
        "house_number": null,
        "neighbourhood": null,
        "suburb": null,
        "city_district": null,
        "city": "Al Hurshah",
        "state": "Az Zawiya District",
        "postcode": null,
        "country": "Libya",
        "country_code": "ly"
      },
      "address": "Al Ḩurshah, Az Zawiya District, Libya"
    },
    {
      "lat": 32.79511131822851,
      "lon": 12.67659142542911,
      "geoinfo": {
        "display_name": "طريق لداخل مصفات الزاوية, Al Hurshah, Az Zawiya District, Libya",
        "road": "طريق لداخل مصفات الزاوية",
        "house_number": null,
        "neighbourhood": null,
        "suburb": null,
        "city_district": null,
        "city": "Al Hurshah",
        "state": "Az Zawiya District",
        "postcode": null,
        "country": "Libya",
        "country_code": "ly"
      },
      "address": "طريق لداخل مصفات الزاوية, Al Ḩurshah, Az Zawiya District, Libya"
    },
    {
      "lat": 32.77172973980162,
      "lon": 12.623986149807228,
      "geoinfo": {
        "display_name": "Al Mutrad, Az Zawiya District, Libya",
        "road": null,
        "house_number": null,
        "neighbourhood": null,
        "suburb": null,
        "city_district": null,
        "city": "Al Mutrad",
        "state": "Az Zawiya District",
        "postcode": null,
        "country": "Libya",
        "country_code": "ly"
      },
      "address": "670, Al Mutrad, 65855 Az Zawiya District, Libya"
    },
    {
      "lat": 32.774534482000384,
      "lon": 12.660379277215613,
      "geoinfo": {
        "display_name": "الطيانية للتسوق, طريق أبناء قجام الترابية, Al Hurshah, Az Zawiya District, Libya",
        "road": "طريق أبناء قجام الترابية",
        "house_number": null,
        "neighbourhood": null,
        "suburb": null,
        "city_district": null,
        "city": "Al Hurshah",
        "state": "Az Zawiya District",
        "postcode": null,
        "country": "Libya",
        "country_code": "ly"
      },
      "address": "667, طريق أبناء قجام الترابية, Al Ḩurshah, 42224 Az Zawiya District, Libya"
    }
  ],
  "updated_at": "2025-10-19T04:11:45.373732+00:00",
  "_kind": "geo_samples"
}