{
  "country_code": "LY",
  "country": "Libya",
  "city": "As Sawānī",
  "geonameid": 2219356,
  "target_addresses": 2,
  "samples": [
    {
      "lat": 32.756711583962876,
      "lon": 13.084165047352696,
      "geoinfo": {
        "display_name": "Al Krimiya, Jafara, Libya",
        "road": null,
        "house_number": null,
        "neighbourhood": null,
        "suburb": null,
        "city_district": null,
        "city": "Al Krimiya",
        "state": "Jafara",
        "postcode": null,
        "country": "Libya",
        "country_code": "ly"
      },
      "address": "As Sawānī, Jafara, Libya"
    },
    {
      "lat": 32.73153366873146,
      "lon": 13.057557517179392,
      "geoinfo": {
        "display_name": "Suwani Bani Adam Rehabilitation Surgery, Assawani -Janzur Road, الرشاح, Al Krimiya, Jafara, Libya",
        "road": "Assawani -Janzur Road",
        "house_number": null,
        "neighbourhood": null,
        "suburb": null,
        "city_district": null,
        "city": "Al Krimiya",
        "state": "Jafara",
        "postcode": null,
        "country": "Libya",
        "country_code": "ly"
      },
      "address": "Assawani -Janzur Road, As Sawānī, Jafara, Libya"
    },
    {
      "lat": 32.69897080198372,
      "lon": 13.070858052862487,
      "geoinfo": {
        "display_name": "Sawani Bin Adam, Jafara, Libya",
        "road": null,
        "house_number": null,
        "neighbourhood": null,
        "suburb": null,
        "city_district": null,
        "city": "Sawani Bin Adam",
        "state": "Jafara",
        "postcode": null,
        "country": "Libya",
        "country_code": "ly"
      },
      "address": "728, Sawani Bin Adam, 69973 Jafara, Libya"
    },
    {
      "lat": 32.73806869668233,
      "lon": 13.086919748486336,
      "geoinfo": {
        "display_name": "Al Krimiya, Jafara, Libya",
        "road": null,
        "house_number": null,
        "neighbourhood": null,
        "suburb": null,
        "city_district": null,
        "city": "Al Krimiya",
        "state": "Jafara",
        "postcode": null,
        "country": "Libya",
        "country_code": "ly"
      },
      "address": "528, Al Krimiya, 82665 Jafara, Libya"
    }
  ],
  "updated_at": "2025-10-19T05:50:32.911156+00:00",
  "_kind": "geo_samples"
}