{
  "country_code": "LY",
  "country": "Libya",
  "city": "Az Zahrā’",
  "geonameid": 2218983,
  "target_addresses": 2,
  "samples": [
    {
      "lat": 32.69187553373382,
      "lon": 12.824594485485003,
      "geoinfo": {
        "display_name": "Al Zawiyah, Az Zawiya District, Libya",
        "road": null,
        "house_number": null,
        "neighbourhood": null,
        "suburb": null,
        "city_district": null,
        "city": "Al Zawiyah",
        "state": "Az Zawiya District",
        "postcode": null,
        "country": "Libya",
        "country_code": "ly"
      },
      "address": "Az Zahrā’, Az Zawiya District, Libya"
    },
    {
      "lat": 32.701435840477565,
      "lon": 12.842025641079278,
      "geoinfo": {
        "display_name": "Jafara, Libya",
        "road": null,
        "house_number": null,
        "neighbourhood": null,
        "suburb": null,
        "city_district": null,
        "city": null,
        "state": "Jafara",
        "postcode": null,
        "country": "Libya",
        "country_code": "ly"
      },
      "address": "Az Zahrā’, Jafara, Libya"
    },
    {
      "lat": 32.679646572093034,
      "lon": 12.854920493383402,
      "geoinfo": {
        "display_name": "Al Zahra -Azzawia Road, Azzahra, Jafara, Libya",
        "road": "Al Zahra -Azzawia Road",
        "house_number": null,
        "neighbourhood": null,
        "suburb": null,
        "city_district": null,
        "city": "Azzahra",
        "state": "Jafara",
        "postcode": null,
        "country": "Libya",
        "country_code": "ly"
      },
      "address": "417, Al Zahra -Azzawia Road, Azzahra, 80906 Jafara, Libya"
    },
    {
      "lat": 32.66917074946094,
      "lon": 12.906233709032737,
      "geoinfo": {
        "display_name": "Az Zahra, Azzahra, Jafara, Libya",
        "road": null,
        "house_number": null,
        "neighbourhood": null,
        "suburb": null,
        "city_district": null,
        "city": "Azzahra",
        "state": "Jafara",
        "postcode": null,
        "country": "Libya",
        "country_code": "ly"
      },
      "address": "555, Az Zahra, Azzahra, 52824 Jafara, Libya"
    }
  ],
  "updated_at": "2025-10-19T03:47:58.648454+00:00",
  "_kind": "geo_samples"
}