{
  "country_code": "LY",
  "country": "Libya",
  "city": "Bani Walid",
  "geonameid": 2218840,
  "target_addresses": 10,
  "samples": [
    {
      "lat": 31.778121212131502,
      "lon": 13.950807912392467,
      "geoinfo": {
        "display_name": "Galabun, Bani Walid, Libya",
        "road": null,
        "house_number": null,
        "neighbourhood": null,
        "suburb": null,
        "city_district": null,
        "city": "Bani Walid",
        "state": "Bani Walid",
        "postcode": null,
        "country": "Libya",
        "country_code": "ly"
      },
      "address": "Bani Walid, Bani Walid, Libya"
    },
    {
      "lat": 31.755940096207233,
      "lon": 13.961079285760295,
      "geoinfo": {
        "display_name": "Al Rozkah, Bani Walid, Libya",
        "road": null,
        "house_number": null,
        "neighbourhood": null,
        "suburb": "Al Rozkah",
        "city_district": null,
        "city": "Bani Walid",
        "state": "Bani Walid",
        "postcode": null,
        "country": "Libya",
        "country_code": "ly"
      },
      "address": "Al Rozkah, Bani Walid, Bani Walid, Libya"
    },
    {
      "lat": 31.742696348158134,
      "lon": 14.016232445990216,
      "geoinfo": {
        "display_name": "Jaber Bin Hayyan Street, Residence Market, El Souq, Bani Walid, Libya",
        "road": "Jaber Bin Hayyan Street",
        "house_number": null,
        "neighbourhood": "Residence Market",
        "suburb": "El Souq",
        "city_district": null,
        "city": "Bani Walid",
        "state": "Bani Walid",
        "postcode": null,
        "country": "Libya",
        "country_code": "ly"
      },
      "address": "Jaber Bin Hayyan Street, Residence Market, El Souq, 55080 Bani Walid, Libya"
    },
    {
      "lat": 31.737361755279125,
      "lon": 13.958769868186,
      "geoinfo": {
        "display_name": "Bani Walid Airport, Airport Highway, Addolol district, Addahra, Bani Walid, LY, Libya",
        "road": "Airport Highway",
        "house_number": null,
        "neighbourhood": "Addolol district",
        "suburb": "Addahra",
        "city_district": null,
        "city": "Bani Walid",
        "state": "Bani Walid",
        "postcode": "LY",
        "country": "Libya",
        "country_code": "ly"
      },
      "address": "288, Bani Walid Airport, Airport Highway, Addolol district, Addahra, Bani Walid, LY LY, Libya"
    },
    {
      "lat": 31.76542542618286,
      "lon": 13.98042118876354,
      "geoinfo": {
        "display_name": "Bani Walid, Libya",
        "road": null,
        "house_number": null,
        "neighbourhood": null,
        "suburb": null,
        "city_district": null,
        "city": "Bani Walid",
        "state": "Bani Walid",
        "postcode": null,
        "country": "Libya",
        "country_code": "ly"
      },
      "address": "728, Bani Walid, 42317 Bani Walid, Libya"
    },
    {
      "lat": 31.756510377102344,
      "lon": 13.956291569156253,
      "geoinfo": {
        "display_name": "Al Noura, Bani Walid, Libya",
        "road": null,
        "house_number": null,
        "neighbourhood": null,
        "suburb": "Al Noura",
        "city_district": null,
        "city": "Bani Walid",
        "state": "Bani Walid",
        "postcode": null,
        "country": "Libya",
        "country_code": "ly"
      },
      "address": "902, Al Noura, 30222 Bani Walid, Libya"
    },
    {
      "lat": 31.730090675781305,
      "lon": 13.955234588648672,
      "geoinfo": {
        "display_name": "Bani Walid Airport, Abdullah Bin Al Moghaffal Street, Airport Road district, Bani Walid, LY, Libya",
        "road": "Abdullah Bin Al Moghaffal Street",
        "house_number": null,
        "neighbourhood": null,
        "suburb": "Airport Road district",
        "city_district": null,
        "city": "Bani Walid",
        "state": "Bani Walid",
        "postcode": "LY",
        "country": "Libya",
        "country_code": "ly"
      },
      "address": "615, Abdullah Bin Al Moghaffal Street, Bani Walid, LY Bani Walid, Libya"
    },
    {
      "lat": 31.769168737985687,
      "lon": 14.006144176590986,
      "geoinfo": {
        "display_name": "Al Helema, Al Manassla, Bani Walid, Libya",
        "road": null,
        "house_number": null,
        "neighbourhood": "Al Helema",
        "suburb": "Al Manassla",
        "city_district": null,
        "city": "Bani Walid",
        "state": "Bani Walid",
        "postcode": null,
        "country": "Libya",
        "country_code": "ly"
      },
      "address": "756, Al Helema, Bani Walid, 47743 Bani Walid, Libya"
    },
    {
      "lat": 31.748719651398076,
      "lon": 13.936089873260025,
      "geoinfo": {
        "display_name": "Bani Walid -Urban Road(Under construction), Galabun, Bani Walid, Libya",
        "road": "Bani Walid -Urban Road(Under construction)",
        "house_number": null,
        "neighbourhood": null,
        "suburb": null,
        "city_district": null,
        "city": "Bani Walid",
        "state": "Bani Walid",
        "postcode": null,
        "country": "Libya",
        "country_code": "ly"
      },
      "address": "728, Bani Walid -Urban Road(Under construction), Galabun, 47933 Bani Walid, Libya"
    },
    {
      "lat": 31.724304681446384,
      "lon": 13.946988059482436,
      "geoinfo": {
        "display_name": "Al Rozkah, Bani Walid, Libya",
        "road": null,
        "house_number": null,
        "neighbourhood": null,
        "suburb": "Al Rozkah",
        "city_district": null,
        "city": "Bani Walid",
        "state": "Bani Walid",
        "postcode": null,
        "country": "Libya",
        "country_code": "ly"
      },
      "address": "581, Al Rozkah, 17010 Bani Walid, Libya"
    }
  ],
  "updated_at": "2025-10-19T05:39:39.686088+00:00",
  "_kind": "geo_samples"
}