{
  "country_code": "LY",
  "country": "Libya",
  "city": "Benghazi",
  "geonameid": 88319,
  "target_addresses": 2,
  "samples": [
    {
      "lat": 32.102847318262015,
      "lon": 20.107010906964504,
      "geoinfo": {
        "display_name": "Hai Alfatih, Benghazi, Libya",
        "road": null,
        "house_number": null,
        "neighbourhood": null,
        "suburb": "Hai Alfatih",
        "city_district": null,
        "city": "Benghazi",
        "state": null,
        "postcode": null,
        "country": "Libya",
        "country_code": "ly"
      },
      "address": "Hai Alfatih, Benghazi, Libya"
    },
    {
      "lat": 32.13390225123629,
      "lon": 20.0661178184837,
      "geoinfo": {
        "display_name": "As-Sabiri, Benghazi, Libya",
        "road": null,
        "house_number": null,
        "neighbourhood": null,
        "suburb": "As-Sabiri",
        "city_district": null,
        "city": "Benghazi",
        "state": null,
        "postcode": null,
        "country": "Libya",
        "country_code": "ly"
      },
      "address": "As-Sabiri, Benghazi, Libya"
    },
    {
      "lat": 32.11121779227598,
      "lon": 20.0549400309642,
      "geoinfo": {
        "display_name": "Algeria Street, Julyana, Benghazi, Libya",
        "road": "Algeria Street",
        "house_number": null,
        "neighbourhood": null,
        "suburb": "Julyana",
        "city_district": null,
        "city": "Benghazi",
        "state": null,
        "postcode": null,
        "country": "Libya",
        "country_code": "ly"
      },
      "address": "495, Algeria Street, Julyana, 99975 Benghazi, Libya"
    },
    {
      "lat": 32.07519081710151,
      "lon": 20.04540835052639,
      "geoinfo": {
        "display_name": "Tabalino, Benghazi, Libya",
        "road": null,
        "house_number": null,
        "neighbourhood": null,
        "suburb": "Tabalino",
        "city_district": null,
        "city": "Benghazi",
        "state": null,
        "postcode": null,
        "country": "Libya",
        "country_code": "ly"
      },
      "address": "879, Tabalino, 91161 Benghazi, Libya"
    }
  ],
  "updated_at": "2025-10-19T05:52:13.671198+00:00",
  "_kind": "geo_samples"
}