{
  "country_code": "LY",
  "country": "Libya",
  "city": "Janzūr",
  "geonameid": 2216349,
  "target_addresses": 2,
  "samples": [
    {
      "lat": 32.84860324604851,
      "lon": 13.041124728755833,
      "geoinfo": {
        "display_name": "Palm City Residence, Coastal Road, Awlad Abu Hamira Al-Daw, Al Zawiyah, Jafara, Libya",
        "road": "Coastal Road",
        "house_number": null,
        "neighbourhood": null,
        "suburb": "Awlad Abu Hamira Al-Daw",
        "city_district": null,
        "city": "Al Zawiyah",
        "state": "Jafara",
        "postcode": null,
        "country": "Libya",
        "country_code": "ly"
      },
      "address": "Coastal Road, Janzūr, Jafara, Libya"
    },
    {
      "lat": 32.819053386312305,
      "lon": 13.050166158974056,
      "geoinfo": {
        "display_name": "Janzur, Jafara, Libya",
        "road": null,
        "house_number": null,
        "neighbourhood": null,
        "suburb": null,
        "city_district": null,
        "city": "Janzur",
        "state": "Jafara",
        "postcode": null,
        "country": "Libya",
        "country_code": "ly"
      },
      "address": "Janzūr, Jafara, Libya"
    },
    {
      "lat": 32.80132051252645,
      "lon": 13.005347703248207,
      "geoinfo": {
        "display_name": "شارع 20 أغسطس, المشاشطة, Jafara, Libya",
        "road": "شارع 20 أغسطس",
        "house_number": null,
        "neighbourhood": null,
        "suburb": null,
        "city_district": null,
        "city": "المشاشطة",
        "state": "Jafara",
        "postcode": null,
        "country": "Libya",
        "country_code": "ly"
      },
      "address": "شارع 20 أغسطس, Janzūr, 18217 Jafara, Libya"
    },
    {
      "lat": 32.849860716529605,
      "lon": 12.994529734387338,
      "geoinfo": {
        "display_name": "Kuwait Suburb, Janzur, Jafara, Libya",
        "road": null,
        "house_number": null,
        "neighbourhood": null,
        "suburb": "Kuwait Suburb",
        "city_district": null,
        "city": "Janzur",
        "state": "Jafara",
        "postcode": null,
        "country": "Libya",
        "country_code": "ly"
      },
      "address": "090, Kuwait Suburb, Janzūr, 50233 Jafara, Libya"
    }
  ],
  "updated_at": "2025-10-19T05:52:24.448978+00:00",
  "_kind": "geo_samples"
}