{
  "country_code": "SY",
  "country": "Syria",
  "city": "Aleppo",
  "geonameid": 170063,
  "target_addresses": 2,
  "samples": [
    {
      "lat": 36.20673273857302,
      "lon": 37.15612596333377,
      "geoinfo": {
        "display_name": "مدرسة الجيل العربي, نزلة دار الياسمين, Al Jdeida, Aleppo, Mount Simeon Subdistrict, Mount Simeon District, Aleppo Governorate, Syria",
        "road": "نزلة دار الياسمين",
        "house_number": null,
        "neighbourhood": "Al Jdeida",
        "suburb": null,
        "city_district": null,
        "city": "Aleppo",
        "state": "Aleppo Governorate",
        "postcode": null,
        "country": "Syria",
        "country_code": "sy"
      },
      "address": "نزلة دار الياسمين, Aleppo, Aleppo Governorate, Syria"
    },
    {
      "lat": 36.18267612162672,
      "lon": 37.21061915469478,
      "geoinfo": {
        "display_name": "5, Al-Myassar Jazmati district, Aleppo, Mount Simeon Subdistrict, Mount Simeon District, Aleppo Governorate, Syria",
        "road": "5",
        "house_number": null,
        "neighbourhood": null,
        "suburb": "Al-Myassar Jazmati district",
        "city_district": null,
        "city": "Aleppo",
        "state": "Aleppo Governorate",
        "postcode": null,
        "country": "Syria",
        "country_code": "sy"
      },
      "address": "5, Aleppo, Aleppo Governorate, Syria"
    },
    {
      "lat": 36.1655217008521,
      "lon": 37.12873050071009,
      "geoinfo": {
        "display_name": "Tal az-Zarazir district, Al-Ramousah district, Aleppo, Mount Simeon Subdistrict, Mount Simeon District, Aleppo Governorate, Syria",
        "road": null,
        "house_number": null,
        "neighbourhood": "Tal az-Zarazir district",
        "suburb": "Al-Ramousah district",
        "city_district": null,
        "city": "Aleppo",
        "state": "Aleppo Governorate",
        "postcode": null,
        "country": "Syria",
        "country_code": "sy"
      },
      "address": "258, Tal az-Zarazir district, Aleppo, 05658 Aleppo Governorate, Syria"
    },
    {
      "lat": 36.21488151441208,
      "lon": 37.17817145008709,
      "geoinfo": {
        "display_name": "Karm al-Jabal district, Sheikh Kheder district, Aleppo, Mount Simeon Subdistrict, Mount Simeon District, Aleppo Governorate, Syria",
        "road": null,
        "house_number": null,
        "neighbourhood": "Karm al-Jabal district",
        "suburb": "Sheikh Kheder district",
        "city_district": null,
        "city": "Aleppo",
        "state": "Aleppo Governorate",
        "postcode": null,
        "country": "Syria",
        "country_code": "sy"
      },
      "address": "219, Karm al-Jabal district, Sheikh Kheder district, Aleppo, Mount Simeon Subdistrict, Mount Simeon District, 39257 Aleppo Governorate, Syria"
    }
  ],
  "updated_at": "2025-10-19T04:58:07.893929+00:00",
  "_kind": "geo_samples"
}