{
  "country_code": "SY",
  "country": "Syria",
  "city": "‘Āmūdā",
  "geonameid": 173230,
  "target_addresses": 2,
  "samples": [
    {
      "lat": 37.1126642089657,
      "lon": 40.952969256296285,
      "geoinfo": {
        "display_name": "Hasde Fawqani, Amouda Subdistrict, Al-Qamishli District, Al-Hasaka Governorate, Syria",
        "road": null,
        "house_number": null,
        "neighbourhood": null,
        "suburb": null,
        "city_district": null,
        "city": "Hasde Fawqani",
        "state": "Al-Hasaka Governorate",
        "postcode": null,
        "country": "Syria",
        "country_code": "sy"
      },
      "address": "‘Āmūdā, Al-Hasaka Governorate, Syria"
    },
    {
      "lat": 37.109806899710414,
      "lon": 40.90605056903992,
      "geoinfo": {
        "display_name": "23, Jauhariye, Amouda Subdistrict, Al-Qamishli District, Al-Hasaka Governorate, Syria",
        "road": "23",
        "house_number": null,
        "neighbourhood": null,
        "suburb": null,
        "city_district": null,
        "city": "Jauhariye",
        "state": "Al-Hasaka Governorate",
        "postcode": null,
        "country": "Syria",
        "country_code": "sy"
      },
      "address": "23, ‘Āmūdā, Al-Hasaka Governorate, Syria"
    },
    {
      "lat": 37.11791124970242,
      "lon": 40.91194871833288,
      "geoinfo": {
        "display_name": "Jauhariye, Amouda Subdistrict, Al-Qamishli District, Al-Hasaka Governorate, Syria",
        "road": null,
        "house_number": null,
        "neighbourhood": null,
        "suburb": null,
        "city_district": null,
        "city": "Jauhariye",
        "state": "Al-Hasaka Governorate",
        "postcode": null,
        "country": "Syria",
        "country_code": "sy"
      },
      "address": "854, ‘Āmūdā, 87481 Al-Hasaka Governorate, Syria"
    },
    {
      "lat": 37.0700053464412,
      "lon": 40.92895379562533,
      "geoinfo": {
        "display_name": "Rayat Khalil, Amouda Subdistrict, Al-Qamishli District, Al-Hasaka Governorate, Syria",
        "road": null,
        "house_number": null,
        "neighbourhood": null,
        "suburb": null,
        "city_district": null,
        "city": "Rayat Khalil",
        "state": "Al-Hasaka Governorate",
        "postcode": null,
        "country": "Syria",
        "country_code": "sy"
      },
      "address": "717, ‘Āmūdā, 91279 Al-Hasaka Governorate, Syria"
    }
  ],
  "updated_at": "2025-10-19T03:46:49.617255+00:00",
  "_kind": "geo_samples"
}