{
  "country_code": "SY",
  "country": "Syria",
  "city": "Ţarţūs",
  "geonameid": 163345,
  "target_addresses": 2,
  "samples": [
    {
      "lat": 34.86218520462064,
      "lon": 35.8543583533753,
      "geoinfo": {
        "display_name": "Arwad, Arwad Subdistrict, Tartus District, Tartus Governorate, Syria",
        "road": null,
        "house_number": null,
        "neighbourhood": null,
        "suburb": null,
        "city_district": null,
        "city": "Arwad",
        "state": "Tartus Governorate",
        "postcode": null,
        "country": "Syria",
        "country_code": "sy"
      },
      "address": "Ţarţūs, Tartus Governorate, Syria"
    },
    {
      "lat": 34.93103071204583,
      "lon": 35.88144831484253,
      "geoinfo": {
        "display_name": "شعبة تجنيد طرطوس, 2, Tartus, Tartus Subdistrict, Tartus District, Tartus Governorate, Syria",
        "road": "2",
        "house_number": null,
        "neighbourhood": null,
        "suburb": null,
        "city_district": null,
        "city": "Tartus",
        "state": "Tartus Governorate",
        "postcode": null,
        "country": "Syria",
        "country_code": "sy"
      },
      "address": "2, Ţarţūs, Tartus Governorate, Syria"
    },
    {
      "lat": 34.858004974882526,
      "lon": 35.873051114824314,
      "geoinfo": {
        "display_name": "Arwad, Arwad Subdistrict, Tartus District, Tartus Governorate, Syria",
        "road": null,
        "house_number": null,
        "neighbourhood": null,
        "suburb": null,
        "city_district": null,
        "city": "Arwad",
        "state": "Tartus Governorate",
        "postcode": null,
        "country": "Syria",
        "country_code": "sy"
      },
      "address": "936, Ţarţūs, 70248 Tartus Governorate, Syria"
    },
    {
      "lat": 34.88159977262783,
      "lon": 35.8884781057263,
      "geoinfo": {
        "display_name": "Tartus, Tartus Subdistrict, Tartus District, Tartus Governorate, Syria",
        "road": null,
        "house_number": null,
        "neighbourhood": null,
        "suburb": null,
        "city_district": null,
        "city": "Tartus",
        "state": "Tartus Governorate",
        "postcode": null,
        "country": "Syria",
        "country_code": "sy"
      },
      "address": "201, Ţarţūs, 99789 Tartus Governorate, Syria"
    }
  ],
  "updated_at": "2025-10-19T07:05:10.541634+00:00",
  "_kind": "geo_samples"
}