{
  "country_code": "LY",
  "country": "Libya",
  "city": "Al Qawāsim",
  "geonameid": 2219736,
  "target_addresses": 2,
  "samples": [
    {
      "lat": 32.222848036648315,
      "lon": 13.042738212909217,
      "geoinfo": {
        "display_name": "Arefa, Al Qawasim, Jabal al Gharbi, Libya",
        "road": null,
        "house_number": null,
        "neighbourhood": null,
        "suburb": "Arefa",
        "city_district": null,
        "city": "Al Qawasim",
        "state": "Jabal al Gharbi",
        "postcode": null,
        "country": "Libya",
        "country_code": "ly"
      },
      "address": "Arefa, Al Qawāsim, Jabal al Gharbi, Libya"
    },
    {
      "lat": 32.222537266707235,
      "lon": 13.05489182550334,
      "geoinfo": {
        "display_name": "Awlad Salim, Al Qawasim, Jabal al Gharbi, Libya",
        "road": null,
        "house_number": null,
        "neighbourhood": null,
        "suburb": "Awlad Salim",
        "city_district": null,
        "city": "Al Qawasim",
        "state": "Jabal al Gharbi",
        "postcode": null,
        "country": "Libya",
        "country_code": "ly"
      },
      "address": "Awlad Salim, Al Qawāsim, Jabal al Gharbi, Libya"
    },
    {
      "lat": 32.182436077276094,
      "lon": 13.019282360418469,
      "geoinfo": {
        "display_name": "Gharyan, Jabal al Gharbi, Libya",
        "road": null,
        "house_number": null,
        "neighbourhood": null,
        "suburb": null,
        "city_district": null,
        "city": "Gharyan",
        "state": "Jabal al Gharbi",
        "postcode": null,
        "country": "Libya",
        "country_code": "ly"
      },
      "address": "401, Gharyan, 65116 Jabal al Gharbi, Libya"
    },
    {
      "lat": 32.194598121018956,
      "lon": 13.034835582382803,
      "geoinfo": {
        "display_name": "An Nakhlayn, Gharyan, Jabal al Gharbi, Libya",
        "road": null,
        "house_number": null,
        "neighbourhood": null,
        "suburb": "An Nakhlayn",
        "city_district": null,
        "city": "Gharyan",
        "state": "Jabal al Gharbi",
        "postcode": null,
        "country": "Libya",
        "country_code": "ly"
      },
      "address": "032, An Nakhlayn, Gharyan, 68911 Jabal al Gharbi, Libya"
    }
  ],
  "updated_at": "2025-10-19T05:50:41.039165+00:00",
  "_kind": "geo_samples"
}