{
  "country_code": "LY",
  "country": "Libya",
  "city": "Tripoli",
  "geonameid": 2210247,
  "target_addresses": 2,
  "samples": [
    {
      "lat": 32.92186207833042,
      "lon": 13.214636780601227,
      "geoinfo": {
        "display_name": "Beach Road, Al Hanshir, Bab Mallaha, Tripoli, Libya",
        "road": "Beach Road",
        "house_number": null,
        "neighbourhood": null,
        "suburb": "Al Hanshir",
        "city_district": null,
        "city": "Tripoli",
        "state": "Tripoli",
        "postcode": null,
        "country": "Libya",
        "country_code": "ly"
      },
      "address": "Beach Road, Tripoli, Tripoli, Libya"
    },
    {
      "lat": 32.84346674501574,
      "lon": 13.183318986181026,
      "geoinfo": {
        "display_name": "Blouse suburb, Al-Hadba Al-Khadra Khaled Ben Al-Waleed, Abu Salim, Tripoli, Libya",
        "road": null,
        "house_number": null,
        "neighbourhood": "Blouse suburb",
        "suburb": "Al-Hadba Al-Khadra Khaled Ben Al-Waleed",
        "city_district": null,
        "city": "Tripoli",
        "state": "Tripoli",
        "postcode": null,
        "country": "Libya",
        "country_code": "ly"
      },
      "address": "Blouse suburb, Tripoli, Tripoli, Libya"
    },
    {
      "lat": 32.89573491738979,
      "lon": 13.14180336063274,
      "geoinfo": {
        "display_name": "Sharie Algharbi, Tripoli, Libya",
        "road": null,
        "house_number": null,
        "neighbourhood": null,
        "suburb": null,
        "city_district": null,
        "city": "Sharie Algharbi",
        "state": "Tripoli",
        "postcode": null,
        "country": "Libya",
        "country_code": "ly"
      },
      "address": "273, Sharie Algharbi, 06296 Tripoli, Libya"
    },
    {
      "lat": 32.86949660538962,
      "lon": 13.223573331300413,
      "geoinfo": {
        "display_name": "Zanatan, SIDI EL MASSRI, Bab Ain Zara, Tripoli, Libya",
        "road": null,
        "house_number": null,
        "neighbourhood": "Zanatan",
        "suburb": "SIDI EL MASSRI",
        "city_district": null,
        "city": "Tripoli",
        "state": "Tripoli",
        "postcode": null,
        "country": "Libya",
        "country_code": "ly"
      },
      "address": "961, Zanatan, Tripoli, 34871 Tripoli, Libya"
    }
  ],
  "updated_at": "2025-10-19T08:06:03.544531+00:00",
  "_kind": "geo_samples"
}