{
  "country_code": "LY",
  "country": "Libya",
  "city": "Tājūrā’",
  "geonameid": 2210394,
  "target_addresses": 2,
  "samples": [
    {
      "lat": 32.899238802172945,
      "lon": 13.391170384989216,
      "geoinfo": {
        "display_name": "Al Hamidiyah, Tripoli, Libya",
        "road": null,
        "house_number": null,
        "neighbourhood": null,
        "suburb": null,
        "city_district": null,
        "city": "Tripoli",
        "state": "Tripoli",
        "postcode": null,
        "country": "Libya",
        "country_code": "ly"
      },
      "address": "Tājūrā’, Tripoli, Libya"
    },
    {
      "lat": 32.89940807476362,
      "lon": 13.314912928444626,
      "geoinfo": {
        "display_name": "Beach Road, Qabilat Awlad Dhiyab, Weryama, Tripoli, Libya",
        "road": "Beach Road",
        "house_number": null,
        "neighbourhood": null,
        "suburb": "Qabilat Awlad Dhiyab",
        "city_district": null,
        "city": "Tripoli",
        "state": "Tripoli",
        "postcode": null,
        "country": "Libya",
        "country_code": "ly"
      },
      "address": "Beach Road, Tājūrā’, Tripoli, Libya"
    },
    {
      "lat": 32.8573461620453,
      "lon": 13.306989551964264,
      "geoinfo": {
        "display_name": "Bir Al-Asta Milad, Tripoli, Libya",
        "road": null,
        "house_number": null,
        "neighbourhood": null,
        "suburb": null,
        "city_district": null,
        "city": "Tripoli",
        "state": "Tripoli",
        "postcode": null,
        "country": "Libya",
        "country_code": "ly"
      },
      "address": "035, Bir Al-Asta Milad, 86290 Tripoli, Libya"
    },
    {
      "lat": 32.8874903826023,
      "lon": 13.382042849660778,
      "geoinfo": {
        "display_name": "Al Hamidiyah, Tripoli, Libya",
        "road": null,
        "house_number": null,
        "neighbourhood": null,
        "suburb": null,
        "city_district": null,
        "city": "Tripoli",
        "state": "Tripoli",
        "postcode": null,
        "country": "Libya",
        "country_code": "ly"
      },
      "address": "635, Al Hamidiyah, 00788 Tripoli, Libya"
    }
  ],
  "updated_at": "2025-10-19T04:11:30.545147+00:00",
  "_kind": "geo_samples"
}