{
  "country_code": "LY",
  "country": "Libya",
  "city": "Şurmān",
  "geonameid": 2210560,
  "target_addresses": 10,
  "samples": [
    {
      "lat": 32.72601239272115,
      "lon": 12.555248078685931,
      "geoinfo": {
        "display_name": "Ḡoumah Al Mahmoudi Street, Al Wehda NBHD, Surman, Baladiyah Surman, Libya",
        "road": "Ḡoumah Al Mahmoudi Street",
        "house_number": null,
        "neighbourhood": null,
        "suburb": "Al Wehda NBHD",
        "city_district": null,
        "city": "Surman",
        "state": null,
        "postcode": null,
        "country": "Libya",
        "country_code": "ly"
      },
      "address": "Ḡoumah Al Mahmoudi Street, Şurmān, Libya"
    },
    {
      "lat": 32.73330310923844,
      "lon": 12.562882860248347,
      "geoinfo": {
        "display_name": "Al Wehda NBHD, Surman, Baladiyah Surman, Libya",
        "road": null,
        "house_number": null,
        "neighbourhood": null,
        "suburb": "Al Wehda NBHD",
        "city_district": null,
        "city": "Surman",
        "state": null,
        "postcode": null,
        "country": "Libya",
        "country_code": "ly"
      },
      "address": "Al Wehda NBHD, Şurmān, Libya"
    },
    {
      "lat": 32.743251969804604,
      "lon": 12.528462429534644,
      "geoinfo": {
        "display_name": "Abi Ar Rish, Surman, Baladiyah Surman, Libya",
        "road": null,
        "house_number": null,
        "neighbourhood": null,
        "suburb": "Abi Ar Rish",
        "city_district": null,
        "city": "Surman",
        "state": null,
        "postcode": null,
        "country": "Libya",
        "country_code": "ly"
      },
      "address": "Abi Ar Rish, Surman, 01598 Baladiyah Surman, Libya"
    },
    {
      "lat": 32.75868199015249,
      "lon": 12.622991306544522,
      "geoinfo": {
        "display_name": "Al Mutrad, Az Zawiya District, Libya",
        "road": null,
        "house_number": null,
        "neighbourhood": null,
        "suburb": null,
        "city_district": null,
        "city": "Al Mutrad",
        "state": "Az Zawiya District",
        "postcode": null,
        "country": "Libya",
        "country_code": "ly"
      },
      "address": "646, Al Mutrad, 27563 Az Zawiya District, Libya"
    },
    {
      "lat": 32.772502890352875,
      "lon": 12.580466450985911,
      "geoinfo": {
        "display_name": "Al Shati’, Surman, Baladiyah Surman, Libya",
        "road": null,
        "house_number": null,
        "neighbourhood": null,
        "suburb": "Al Shati’",
        "city_district": null,
        "city": "Surman",
        "state": null,
        "postcode": null,
        "country": "Libya",
        "country_code": "ly"
      },
      "address": "200, Al Shati’, Surman, 31743 Baladiyah Surman, Libya"
    },
    {
      "lat": 32.72163415983662,
      "lon": 12.55839857650759,
      "geoinfo": {
        "display_name": "Ḡoumah Al Mahmoudi Street, Al Wehda NBHD, Surman, Baladiyah Surman, Libya",
        "road": "Ḡoumah Al Mahmoudi Street",
        "house_number": null,
        "neighbourhood": null,
        "suburb": "Al Wehda NBHD",
        "city_district": null,
        "city": "Surman",
        "state": null,
        "postcode": null,
        "country": "Libya",
        "country_code": "ly"
      },
      "address": "547, Ḡoumah Al Mahmoudi Street, Al Wehda NBHD, Surman, 37323 Baladiyah Surman, Libya"
    },
    {
      "lat": 32.74977060115157,
      "lon": 12.524421774471934,
      "geoinfo": {
        "display_name": "Abi Ar Rish, Surman, Baladiyah Surman, Libya",
        "road": null,
        "house_number": null,
        "neighbourhood": null,
        "suburb": "Abi Ar Rish",
        "city_district": null,
        "city": "Surman",
        "state": null,
        "postcode": null,
        "country": "Libya",
        "country_code": "ly"
      },
      "address": "364, Abi Ar Rish, Surman, 90874 Baladiyah Surman, Libya"
    },
    {
      "lat": 32.76699554096864,
      "lon": 12.552122114371224,
      "geoinfo": {
        "display_name": "الطريق الساحلي, Dahman, Baladiyah Surman, Nuqat al Khams, Libya",
        "road": "الطريق الساحلي",
        "house_number": null,
        "neighbourhood": null,
        "suburb": null,
        "city_district": null,
        "city": "Dahman",
        "state": "Nuqat al Khams",
        "postcode": null,
        "country": "Libya",
        "country_code": "ly"
      },
      "address": "193, الطريق الساحلي, Dahman, Baladiyah Surman, 25356 Nuqat al Khams, Libya"
    },
    {
      "lat": 32.78544049393457,
      "lon": 12.597077230838124,
      "geoinfo": {
        "display_name": "Al Shati’, Surman, Baladiyah Surman, Libya",
        "road": null,
        "house_number": null,
        "neighbourhood": null,
        "suburb": "Al Shati’",
        "city_district": null,
        "city": "Surman",
        "state": null,
        "postcode": null,
        "country": "Libya",
        "country_code": "ly"
      },
      "address": "502, Al Shati’, Surman, 09850 Baladiyah Surman, Libya"
    },
    {
      "lat": 32.75134376039781,
      "lon": 12.592727055317626,
      "geoinfo": {
        "display_name": "Feed Factory Rd, ‘Attaf, Surman, Baladiyah Surman, Libya",
        "road": "Feed Factory Rd",
        "house_number": null,
        "neighbourhood": null,
        "suburb": "‘Attaf",
        "city_district": null,
        "city": "Surman",
        "state": null,
        "postcode": null,
        "country": "Libya",
        "country_code": "ly"
      },
      "address": "092, Feed Factory Rd, 90438 Şurmān, Libya"
    }
  ],
  "updated_at": "2025-10-19T05:38:33.961690+00:00",
  "_kind": "geo_samples"
}