{
  "country_code": "LI",
  "country": "Liechtenstein",
  "city": "Vaduz",
  "geonameid": 3042030,
  "target_addresses": 300,
  "samples": [
    {
      "lat": 47.171414954467544,
      "lon": 9.49189643942014,
      "geoinfo": {
        "display_name": "Zollstrasse, Schaan, Oberland, 9494, Liechtenstein",
        "road": "Zollstrasse",
        "house_number": null,
        "neighbourhood": null,
        "suburb": null,
        "city_district": null,
        "city": "Schaan",
        "state": null,
        "postcode": "9494",
        "country": "Liechtenstein",
        "country_code": "li"
      },
      "address": "Zollstrasse, Vaduz, Liechtenstein"
    },
    {
      "lat": 47.14082809766787,
      "lon": 9.533313758638522,
      "geoinfo": {
        "display_name": "Erbistrasse, Erbi, Rotenboden, Vaduz, Oberland, 9490, Liechtenstein",
        "road": "Erbistrasse",
        "house_number": null,
        "neighbourhood": null,
        "suburb": null,
        "city_district": null,
        "city": "Vaduz",
        "state": null,
        "postcode": "9490",
        "country": "Liechtenstein",
        "country_code": "li"
      },
      "address": "Erbistrasse, Erbi, Rotenboden, Vaduz, Oberland, 9490, Liechtenstein"
    },
    {
      "lat": 47.15308763953793,
      "lon": 9.501039263603124,
      "geoinfo": {
        "display_name": "Rhiau, Mühleholz, Vaduz, Oberland, 9494, Liechtenstein",
        "road": "Rhiau",
        "house_number": null,
        "neighbourhood": null,
        "suburb": null,
        "city_district": null,
        "city": "Vaduz",
        "state": null,
        "postcode": "9494",
        "country": "Liechtenstein",
        "country_code": "li"
      },
      "address": "Rhiau, Mühleholz, Vaduz, Oberland, 9494, Liechtenstein"
    },
    {
      "lat": 47.12489317976415,
      "lon": 9.517597601051733,
      "geoinfo": {
        "display_name": "Werlaweg, Vaduz, Oberland, 9495, Liechtenstein",
        "road": "Werlaweg",
        "house_number": null,
        "neighbourhood": null,
        "suburb": null,
        "city_district": null,
        "city": "Vaduz",
        "state": null,
        "postcode": "9495",
        "country": "Liechtenstein",
        "country_code": "li"
      },
      "address": "Werlaweg, Vaduz, Oberland, 9495, Liechtenstein"
    },
    {
      "lat": 47.156982275866504,
      "lon": 9.531513858554678,
      "geoinfo": {
        "display_name": "Iraggellstrasse, Ebenholz, Vaduz, Oberland, 9490, Liechtenstein",
        "road": "Iraggellstrasse",
        "house_number": null,
        "neighbourhood": null,
        "suburb": null,
        "city_district": null,
        "city": "Vaduz",
        "state": null,
        "postcode": "9490",
        "country": "Liechtenstein",
        "country_code": "li"
      },
      "address": "Iraggellstrasse, Ebenholz, Vaduz, Oberland, 9490, Liechtenstein"
    },
    {
      "lat": 47.152256190674066,
      "lon": 9.504241426327079,
      "geoinfo": {
        "display_name": "Neufeldweg, Ebenholz, Vaduz, Oberland, 9490, Liechtenstein",
        "road": "Neufeldweg",
        "house_number": null,
        "neighbourhood": null,
        "suburb": null,
        "city_district": null,
        "city": "Vaduz",
        "state": null,
        "postcode": "9490",
        "country": "Liechtenstein",
        "country_code": "li"
      },
      "address": "Neufeldweg, Ebenholz, Vaduz, Oberland, 9490, Liechtenstein"
    },
    {
      "lat": 47.17062402351118,
      "lon": 9.521147703619269,
      "geoinfo": {
        "display_name": "28, Planknerstrasse, Schaan, Oberland, 9494, Liechtenstein",
        "road": "Planknerstrasse",
        "house_number": "28",
        "neighbourhood": null,
        "suburb": null,
        "city_district": null,
        "city": "Schaan",
        "state": null,
        "postcode": "9494",
        "country": "Liechtenstein",
        "country_code": "li"
      },
      "address": "28 Planknerstrasse, Vaduz, Liechtenstein"
    },
    {
      "lat": 47.15565750403414,
      "lon": 9.515396328744155,
      "geoinfo": {
        "display_name": "33, Schalunstrasse, Mühleholz, Vaduz, Oberland, 9490, Liechtenstein",
        "road": "Schalunstrasse",
        "house_number": "33",
        "neighbourhood": null,
        "suburb": null,
        "city_district": null,
        "city": "Vaduz",
        "state": null,
        "postcode": "9490",
        "country": "Liechtenstein",
        "country_code": "li"
      },
      "address": "33, Schalunstrasse, Mühleholz, Vaduz, Oberland, 9490, Liechtenstein"
    },
    {
      "lat": 47.1314313652002,
      "lon": 9.515628978148838,
      "geoinfo": {
        "display_name": "Felbaweg, Vaduz, Oberland, 9490, Liechtenstein",
        "road": "Felbaweg",
        "house_number": null,
        "neighbourhood": null,
        "suburb": null,
        "city_district": null,
        "city": "Vaduz",
        "state": null,
        "postcode": "9490",
        "country": "Liechtenstein",
        "country_code": "li"
      },
      "address": "Felbaweg, Vaduz, Oberland, 9490, Liechtenstein"
    },
    {
      "lat": 47.127711573589636,
      "lon": 9.52624012969678,
      "geoinfo": {
        "display_name": "33, Schwefelstrasse, Vaduz, Oberland, 9490, Liechtenstein",
        "road": "Schwefelstrasse",
        "house_number": "33",
        "neighbourhood": null,
        "suburb": null,
        "city_district": null,
        "city": "Vaduz",
        "state": null,
        "postcode": "9490",
        "country": "Liechtenstein",
        "country_code": "li"
      },
      "address": "33, Schwefelstrasse, Vaduz, Oberland, 9490, Liechtenstein"
    },
    {
      "lat": 47.148065525957385,
      "lon": 9.519942139118411,
      "geoinfo": {
        "display_name": "11, Brandiserweg, Ebenholz, Vaduz, Oberland, 9490, Liechtenstein",
        "road": "Brandiserweg",
        "house_number": "11",
        "neighbourhood": null,
        "suburb": null,
        "city_district": null,
        "city": "Vaduz",
        "state": null,
        "postcode": "9490",
        "country": "Liechtenstein",
        "country_code": "li"
      },
      "address": "11, Brandiserweg, Ebenholz, Vaduz, Oberland, 9490, Liechtenstein"
    },
    {
      "lat": 47.124092865857705,
      "lon": 9.527831170465753,
      "geoinfo": {
        "display_name": "6, Floraweg, Vaduz, Oberland, 9490, Liechtenstein",
        "road": "Floraweg",
        "house_number": "6",
        "neighbourhood": null,
        "suburb": null,
        "city_district": null,
        "city": "Vaduz",
        "state": null,
        "postcode": "9490",
        "country": "Liechtenstein",
        "country_code": "li"
      },
      "address": "6, Floraweg, Vaduz, Oberland, 9490, Liechtenstein"
    },
    {
      "lat": 47.15177557506585,
      "lon": 9.543284113888127,
      "geoinfo": {
        "display_name": "Ebenholz, Vaduz, Oberland, 9490, Liechtenstein",
        "road": null,
        "house_number": null,
        "neighbourhood": null,
        "suburb": null,
        "city_district": null,
        "city": "Vaduz",
        "state": null,
        "postcode": "9490",
        "country": "Liechtenstein",
        "country_code": "li"
      },
      "address": "Ebenholz, Vaduz, Oberland, 9490, Liechtenstein"
    },
    {
      "lat": 47.136181664263354,
      "lon": 9.529012767782485,
      "geoinfo": {
        "display_name": "Bergstrasse, Vaduz, Oberland, 9490, Liechtenstein",
        "road": "Bergstrasse",
        "house_number": null,
        "neighbourhood": null,
        "suburb": null,
        "city_district": null,
        "city": "Vaduz",
        "state": null,
        "postcode": "9490",
        "country": "Liechtenstein",
        "country_code": "li"
      },
      "address": "Bergstrasse, Vaduz, Oberland, 9490, Liechtenstein"
    },
    {
      "lat": 47.11977157028566,
      "lon": 9.54320005808944,
      "geoinfo": {
        "display_name": "20, Schlossstrasse, Steinort, Rotenboden, Triesenberg, Oberland, 9497, Liechtenstein",
        "road": "Schlossstrasse",
        "house_number": "20",
        "neighbourhood": null,
        "suburb": null,
        "city_district": null,
        "city": "Rotenboden",
        "state": null,
        "postcode": "9497",
        "country": "Liechtenstein",
        "country_code": "li"
      },
      "address": "20 Schlossstrasse, Vaduz, Liechtenstein"
    },
    {
      "lat": 47.16910998004722,
      "lon": 9.498224586258551,
      "geoinfo": {
        "display_name": "65, Zollstrasse, Schaan, Oberland, 9494, Liechtenstein",
        "road": "Zollstrasse",
        "house_number": "65",
        "neighbourhood": null,
        "suburb": null,
        "city_district": null,
        "city": "Schaan",
        "state": null,
        "postcode": "9494",
        "country": "Liechtenstein",
        "country_code": "li"
      },
      "address": "65 Zollstrasse, Vaduz, Liechtenstein"
    },
    {
      "lat": 47.156860506521525,
      "lon": 9.52556076843926,
      "geoinfo": {
        "display_name": "Quaderröfiweg, Mühleholz, Vaduz, Oberland, 9494, Liechtenstein",
        "road": "Quaderröfiweg",
        "house_number": null,
        "neighbourhood": null,
        "suburb": null,
        "city_district": null,
        "city": "Vaduz",
        "state": null,
        "postcode": "9494",
        "country": "Liechtenstein",
        "country_code": "li"
      },
      "address": "Quaderröfiweg, Mühleholz, Vaduz, Oberland, 9494, Liechtenstein"
    },
    {
      "lat": 47.148942728162694,
      "lon": 9.529057895896157,
      "geoinfo": {
        "display_name": "Wildschlossweg, Ebenholz, Vaduz, Oberland, 9490, Liechtenstein",
        "road": "Wildschlossweg",
        "house_number": null,
        "neighbourhood": null,
        "suburb": null,
        "city_district": null,
        "city": "Vaduz",
        "state": null,
        "postcode": "9490",
        "country": "Liechtenstein",
        "country_code": "li"
      },
      "address": "Wildschlossweg, Ebenholz, Vaduz, Oberland, 9490, Liechtenstein"
    },
    {
      "lat": 47.109122023819396,
      "lon": 9.534140672157474,
      "geoinfo": {
        "display_name": "44, Bergstrasse, Oberdorf, Triesen, Oberland, 9495, Liechtenstein",
        "road": "Bergstrasse",
        "house_number": "44",
        "neighbourhood": "Oberdorf",
        "suburb": null,
        "city_district": null,
        "city": "Triesen",
        "state": null,
        "postcode": "9495",
        "country": "Liechtenstein",
        "country_code": "li"
      },
      "address": "44 Bergstrasse, Vaduz, Liechtenstein"
    },
    {
      "lat": 47.13318576333155,
      "lon": 9.515456796245772,
      "geoinfo": {
        "display_name": "Wäldliweg, Vaduz, Oberland, 9490, Liechtenstein",
        "road": "Wäldliweg",
        "house_number": null,
        "neighbourhood": null,
        "suburb": null,
        "city_district": null,
        "city": "Vaduz",
        "state": null,
        "postcode": "9490",
        "country": "Liechtenstein",
        "country_code": "li"
      },
      "address": "Wäldliweg, Vaduz, Oberland, 9490, Liechtenstein"
    },
    {
      "lat": 47.13240012674944,
      "lon": 9.51530638437431,
      "geoinfo": {
        "display_name": "5, Felbaweg, Vaduz, Oberland, 9490, Liechtenstein",
        "road": "Felbaweg",
        "house_number": "5",
        "neighbourhood": null,
        "suburb": null,
        "city_district": null,
        "city": "Vaduz",
        "state": null,
        "postcode": "9490",
        "country": "Liechtenstein",
        "country_code": "li"
      },
      "address": "5, Felbaweg, Vaduz, Oberland, 9490, Liechtenstein"
    },
    {
      "lat": 47.10816421814865,
      "lon": 9.52379099274041,
      "geoinfo": {
        "display_name": "262, Landstrasse, SonnenPlatz, Triesen, Oberland, 9495, Liechtenstein",
        "road": "Landstrasse",
        "house_number": "262",
        "neighbourhood": null,
        "suburb": null,
        "city_district": null,
        "city": "Triesen",
        "state": null,
        "postcode": "9495",
        "country": "Liechtenstein",
        "country_code": "li"
      },
      "address": "262 Landstrasse, Vaduz, Liechtenstein"
    },
    {
      "lat": 47.12155450792492,
      "lon": 9.523658685623818,
      "geoinfo": {
        "display_name": "Hoval, 2, Landstrasse, Triesen, Oberland, 9495, Liechtenstein",
        "road": "Landstrasse",
        "house_number": "2",
        "neighbourhood": null,
        "suburb": null,
        "city_district": null,
        "city": "Triesen",
        "state": null,
        "postcode": "9495",
        "country": "Liechtenstein",
        "country_code": "li"
      },
      "address": "2 Landstrasse, Vaduz, Liechtenstein"
    },
    {
      "lat": 47.147679133583125,
      "lon": 9.552630866560975,
      "geoinfo": {
        "display_name": "Fürstensteig, Vaduz, Oberland, 9490, Liechtenstein",
        "road": "Fürstensteig",
        "house_number": null,
        "neighbourhood": null,
        "suburb": null,
        "city_district": null,
        "city": "Vaduz",
        "state": null,
        "postcode": "9490",
        "country": "Liechtenstein",
        "country_code": "li"
      },
      "address": "Fürstensteig, Vaduz, Oberland, 9490, Liechtenstein"
    },
    {
      "lat": 47.12466090169362,
      "lon": 9.525029684869816,
      "geoinfo": {
        "display_name": "26, Pflugstrasse, Vaduz, Oberland, 9490, Liechtenstein",
        "road": "Pflugstrasse",
        "house_number": "26",
        "neighbourhood": null,
        "suburb": null,
        "city_district": null,
        "city": "Vaduz",
        "state": null,
        "postcode": "9490",
        "country": "Liechtenstein",
        "country_code": "li"
      },
      "address": "26, Pflugstrasse, Vaduz, Oberland, 9490, Liechtenstein"
    },
    {
      "lat": 47.12312224942944,
      "lon": 9.526270125435255,
      "geoinfo": {
        "display_name": "Galgenweg, Vaduz, Oberland, 9495, Liechtenstein",
        "road": "Galgenweg",
        "house_number": null,
        "neighbourhood": null,
        "suburb": null,
        "city_district": null,
        "city": "Vaduz",
        "state": null,
        "postcode": "9495",
        "country": "Liechtenstein",
        "country_code": "li"
      },
      "address": "Galgenweg, Vaduz, Oberland, 9495, Liechtenstein"
    },
    {
      "lat": 47.13591898205594,
      "lon": 9.586948300273148,
      "geoinfo": {
        "display_name": "8, Valorschstrasse, Triesenberg, Oberland, 9497, Liechtenstein",
        "road": "Valorschstrasse",
        "house_number": "8",
        "neighbourhood": null,
        "suburb": null,
        "city_district": null,
        "city": "Triesenberg",
        "state": null,
        "postcode": "9497",
        "country": "Liechtenstein",
        "country_code": "li"
      },
      "address": "8 Valorschstrasse, Vaduz, Liechtenstein"
    },
    {
      "lat": 47.13266942949923,
      "lon": 9.511678179415206,
      "geoinfo": {
        "display_name": "Old Rhine Bridge Vaduz, Vaduz, Oberland, 9490, Liechtenstein",
        "road": "Old Rhine Bridge Vaduz",
        "house_number": null,
        "neighbourhood": null,
        "suburb": null,
        "city_district": null,
        "city": "Vaduz",
        "state": null,
        "postcode": "9490",
        "country": "Liechtenstein",
        "country_code": "li"
      },
      "address": "Old Rhine Bridge Vaduz, Vaduz, Oberland, 9490, Liechtenstein"
    },
    {
      "lat": 47.17107977156968,
      "lon": 9.523863822802499,
      "geoinfo": {
        "display_name": "Gamanderhof, 39, Planknerstrasse, Schaan, Oberland, 9494, Liechtenstein",
        "road": "Planknerstrasse",
        "house_number": "39",
        "neighbourhood": null,
        "suburb": null,
        "city_district": null,
        "city": "Schaan",
        "state": null,
        "postcode": "9494",
        "country": "Liechtenstein",
        "country_code": "li"
      },
      "address": "39 Planknerstrasse, Vaduz, Liechtenstein"
    },
    {
      "lat": 47.138423796184924,
      "lon": 9.526348968841015,
      "geoinfo": {
        "display_name": "Schlosswald, Bergstrasse, Ebenholz, Vaduz, Oberland, 9490, Liechtenstein",
        "road": "Bergstrasse",
        "house_number": null,
        "neighbourhood": null,
        "suburb": null,
        "city_district": null,
        "city": "Vaduz",
        "state": null,
        "postcode": "9490",
        "country": "Liechtenstein",
        "country_code": "li"
      },
      "address": "Schlosswald, Bergstrasse, Ebenholz, Vaduz, Oberland, 9490, Liechtenstein"
    },
    {
      "lat": 47.14172212500431,
      "lon": 9.524193234790802,
      "geoinfo": {
        "display_name": "Schlossweg, Ebenholz, Vaduz, Oberland, 9490, Liechtenstein",
        "road": "Schlossweg",
        "house_number": null,
        "neighbourhood": null,
        "suburb": null,
        "city_district": null,
        "city": "Vaduz",
        "state": null,
        "postcode": "9490",
        "country": "Liechtenstein",
        "country_code": "li"
      },
      "address": "Schlossweg, Ebenholz, Vaduz, Oberland, 9490, Liechtenstein"
    },
    {
      "lat": 47.147687478426946,
      "lon": 9.512321489516756,
      "geoinfo": {
        "display_name": "71, Landstrasse, Ebenholz, Vaduz, Oberland, 9490, Liechtenstein",
        "road": "Landstrasse",
        "house_number": "71",
        "neighbourhood": null,
        "suburb": null,
        "city_district": null,
        "city": "Vaduz",
        "state": null,
        "postcode": "9490",
        "country": "Liechtenstein",
        "country_code": "li"
      },
      "address": "71, Landstrasse, Ebenholz, Vaduz, Oberland, 9490, Liechtenstein"
    },
    {
      "lat": 47.15525350997748,
      "lon": 9.497281190334046,
      "geoinfo": {
        "display_name": "Rheindamm, Vaduz, Oberland, 9494, Liechtenstein",
        "road": "Rheindamm",
        "house_number": null,
        "neighbourhood": null,
        "suburb": null,
        "city_district": null,
        "city": "Vaduz",
        "state": null,
        "postcode": "9494",
        "country": "Liechtenstein",
        "country_code": "li"
      },
      "address": "Rheindamm, Vaduz, Oberland, 9494, Liechtenstein"
    },
    {
      "lat": 47.12800140907551,
      "lon": 9.516283512279914,
      "geoinfo": {
        "display_name": "Schliassaweg, Vaduz, Oberland, 9490, Liechtenstein",
        "road": "Schliassaweg",
        "house_number": null,
        "neighbourhood": null,
        "suburb": null,
        "city_district": null,
        "city": "Vaduz",
        "state": null,
        "postcode": "9490",
        "country": "Liechtenstein",
        "country_code": "li"
      },
      "address": "Schliassaweg, Vaduz, Oberland, 9490, Liechtenstein"
    },
    {
      "lat": 47.12902770540257,
      "lon": 9.520743158755895,
      "geoinfo": {
        "display_name": "17, Schliassaweg, Vaduz, Oberland, 9490, Liechtenstein",
        "road": "Schliassaweg",
        "house_number": "17",
        "neighbourhood": null,
        "suburb": null,
        "city_district": null,
        "city": "Vaduz",
        "state": null,
        "postcode": "9490",
        "country": "Liechtenstein",
        "country_code": "li"
      },
      "address": "17, Schliassaweg, Vaduz, Oberland, 9490, Liechtenstein"
    },
    {
      "lat": 47.10522380234954,
      "lon": 9.524867131748717,
      "geoinfo": {
        "display_name": "308, Landstrasse, Oberdorf, Triesen, Oberland, 9495, Liechtenstein",
        "road": "Landstrasse",
        "house_number": "308",
        "neighbourhood": "Oberdorf",
        "suburb": null,
        "city_district": null,
        "city": "Triesen",
        "state": null,
        "postcode": "9495",
        "country": "Liechtenstein",
        "country_code": "li"
      },
      "address": "308 Landstrasse, Vaduz, Liechtenstein"
    },
    {
      "lat": 47.140516259935204,
      "lon": 9.518481156394973,
      "geoinfo": {
        "display_name": "Bammiliweg, Ebenholz, Vaduz, Oberland, 9490, Liechtenstein",
        "road": "Bammiliweg",
        "house_number": null,
        "neighbourhood": null,
        "suburb": null,
        "city_district": null,
        "city": "Vaduz",
        "state": null,
        "postcode": "9490",
        "country": "Liechtenstein",
        "country_code": "li"
      },
      "address": "Bammiliweg, Ebenholz, Vaduz, Oberland, 9490, Liechtenstein"
    },
    {
      "lat": 47.13738115151457,
      "lon": 9.52447316857513,
      "geoinfo": {
        "display_name": "Privatplatz des Fürstenhauses, Peter-Kaiser-Platz, Ebenholz, Vaduz, Oberland, 9490, Liechtenstein",
        "road": "Peter-Kaiser-Platz",
        "house_number": null,
        "neighbourhood": null,
        "suburb": null,
        "city_district": null,
        "city": "Vaduz",
        "state": null,
        "postcode": "9490",
        "country": "Liechtenstein",
        "country_code": "li"
      },
      "address": "Privatplatz des Fürstenhauses, Peter-Kaiser-Platz, Ebenholz, Vaduz, Oberland, 9490, Liechtenstein"
    },
    {
      "lat": 47.14757623505896,
      "lon": 9.5177120568486,
      "geoinfo": {
        "display_name": "10, Im Oberfeld, Ebenholz, Vaduz, Oberland, 9490, Liechtenstein",
        "road": "Im Oberfeld",
        "house_number": "10",
        "neighbourhood": null,
        "suburb": null,
        "city_district": null,
        "city": "Vaduz",
        "state": null,
        "postcode": "9490",
        "country": "Liechtenstein",
        "country_code": "li"
      },
      "address": "10, Im Oberfeld, Ebenholz, Vaduz, Oberland, 9490, Liechtenstein"
    },
    {
      "lat": 47.14651952793285,
      "lon": 9.521717286071873,
      "geoinfo": {
        "display_name": "Wingertgasse, Ebenholz, Vaduz, Oberland, 9490, Liechtenstein",
        "road": "Wingertgasse",
        "house_number": null,
        "neighbourhood": null,
        "suburb": null,
        "city_district": null,
        "city": "Vaduz",
        "state": null,
        "postcode": "9490",
        "country": "Liechtenstein",
        "country_code": "li"
      },
      "address": "Wingertgasse, Ebenholz, Vaduz, Oberland, 9490, Liechtenstein"
    },
    {
      "lat": 47.114699443423774,
      "lon": 9.526140110825187,
      "geoinfo": {
        "display_name": "19c, Haldenweg, Triesen, Oberland, 9495, Liechtenstein",
        "road": "Haldenweg",
        "house_number": "19c",
        "neighbourhood": null,
        "suburb": null,
        "city_district": null,
        "city": "Triesen",
        "state": null,
        "postcode": "9495",
        "country": "Liechtenstein",
        "country_code": "li"
      },
      "address": "19c Haldenweg, Vaduz, Liechtenstein"
    },
    {
      "lat": 47.13942433415571,
      "lon": 9.512152049477116,
      "geoinfo": {
        "display_name": "71, Lettstrasse, Ebenholz, Vaduz, Oberland, 9490, Liechtenstein",
        "road": "Lettstrasse",
        "house_number": "71",
        "neighbourhood": null,
        "suburb": null,
        "city_district": null,
        "city": "Vaduz",
        "state": null,
        "postcode": "9490",
        "country": "Liechtenstein",
        "country_code": "li"
      },
      "address": "71, Lettstrasse, Ebenholz, Vaduz, Oberland, 9490, Liechtenstein"
    },
    {
      "lat": 47.151491538089424,
      "lon": 9.519251118520234,
      "geoinfo": {
        "display_name": "Rüfestrasse, Ebenholz, Vaduz, Oberland, 9490, Liechtenstein",
        "road": "Rüfestrasse",
        "house_number": null,
        "neighbourhood": null,
        "suburb": null,
        "city_district": null,
        "city": "Vaduz",
        "state": null,
        "postcode": "9490",
        "country": "Liechtenstein",
        "country_code": "li"
      },
      "address": "Rüfestrasse, Ebenholz, Vaduz, Oberland, 9490, Liechtenstein"
    },
    {
      "lat": 47.13685855994027,
      "lon": 9.510932146795572,
      "geoinfo": {
        "display_name": "Rheinstrasse, Ebenholz, Vaduz, Oberland, 9490, Liechtenstein",
        "road": "Rheinstrasse",
        "house_number": null,
        "neighbourhood": null,
        "suburb": null,
        "city_district": null,
        "city": "Vaduz",
        "state": null,
        "postcode": "9490",
        "country": "Liechtenstein",
        "country_code": "li"
      },
      "address": "Rheinstrasse, Ebenholz, Vaduz, Oberland, 9490, Liechtenstein"
    },
    {
      "lat": 47.135318734536234,
      "lon": 9.514975712166596,
      "geoinfo": {
        "display_name": "9, Am Irkales, Vaduz, Oberland, 9490, Liechtenstein",
        "road": "Am Irkales",
        "house_number": "9",
        "neighbourhood": null,
        "suburb": null,
        "city_district": null,
        "city": "Vaduz",
        "state": null,
        "postcode": "9490",
        "country": "Liechtenstein",
        "country_code": "li"
      },
      "address": "9, Am Irkales, Vaduz, Oberland, 9490, Liechtenstein"
    },
    {
      "lat": 47.15312216766094,
      "lon": 9.508117901099311,
      "geoinfo": {
        "display_name": "Schwimmbad Mühleholz, Im Rehwinkel, Mühleholz, Vaduz, Oberland, 9490, Liechtenstein",
        "road": "Im Rehwinkel",
        "house_number": null,
        "neighbourhood": null,
        "suburb": null,
        "city_district": null,
        "city": "Vaduz",
        "state": null,
        "postcode": "9490",
        "country": "Liechtenstein",
        "country_code": "li"
      },
      "address": "Schwimmbad Mühleholz, Im Rehwinkel, Mühleholz, Vaduz, Oberland, 9490, Liechtenstein"
    },
    {
      "lat": 47.186092917188574,
      "lon": 9.515795467282,
      "geoinfo": {
        "display_name": "Mittlere Länge, Vaduz, Oberland, 9494, Liechtenstein",
        "road": "Mittlere Länge",
        "house_number": null,
        "neighbourhood": null,
        "suburb": null,
        "city_district": null,
        "city": "Vaduz",
        "state": null,
        "postcode": "9494",
        "country": "Liechtenstein",
        "country_code": "li"
      },
      "address": "Mittlere Länge, Vaduz, Oberland, 9494, Liechtenstein"
    },
    {
      "lat": 47.13273541591612,
      "lon": 9.579739112385777,
      "geoinfo": {
        "display_name": "3, Valorschstrasse, Triesenberg, Oberland, 9497, Liechtenstein",
        "road": "Valorschstrasse",
        "house_number": "3",
        "neighbourhood": null,
        "suburb": null,
        "city_district": null,
        "city": "Triesenberg",
        "state": null,
        "postcode": "9497",
        "country": "Liechtenstein",
        "country_code": "li"
      },
      "address": "3 Valorschstrasse, Vaduz, Liechtenstein"
    },
    {
      "lat": 47.1393118134491,
      "lon": 9.524817623358235,
      "geoinfo": {
        "display_name": "Fürst-Franz-Josef-Strasse, Ebenholz, Vaduz, Oberland, 9490, Liechtenstein",
        "road": "Fürst-Franz-Josef-Strasse",
        "house_number": null,
        "neighbourhood": null,
        "suburb": null,
        "city_district": null,
        "city": "Vaduz",
        "state": null,
        "postcode": "9490",
        "country": "Liechtenstein",
        "country_code": "li"
      },
      "address": "Fürst-Franz-Josef-Strasse, Ebenholz, Vaduz, Oberland, 9490, Liechtenstein"
    },
    {
      "lat": 47.12348372779844,
      "lon": 9.521173590522505,
      "geoinfo": {
        "display_name": "Hovalweg, Vaduz, Oberland, 9495, Liechtenstein",
        "road": "Hovalweg",
        "house_number": null,
        "neighbourhood": null,
        "suburb": null,
        "city_district": null,
        "city": "Vaduz",
        "state": null,
        "postcode": "9495",
        "country": "Liechtenstein",
        "country_code": "li"
      },
      "address": "Hovalweg, Vaduz, Oberland, 9495, Liechtenstein"
    },
    {
      "lat": 47.14419648725478,
      "lon": 9.523031445932691,
      "geoinfo": {
        "display_name": "Zum Sankt Johanner, Ebenholz, Vaduz, Oberland, 9490, Liechtenstein",
        "road": "Zum Sankt Johanner",
        "house_number": null,
        "neighbourhood": null,
        "suburb": null,
        "city_district": null,
        "city": "Vaduz",
        "state": null,
        "postcode": "9490",
        "country": "Liechtenstein",
        "country_code": "li"
      },
      "address": "Zum Sankt Johanner, Ebenholz, Vaduz, Oberland, 9490, Liechtenstein"
    },
    {
      "lat": 47.13574889950968,
      "lon": 9.512768166723395,
      "geoinfo": {
        "display_name": "6, Wuhrstrasse, Vaduz, Oberland, 9490, Liechtenstein",
        "road": "Wuhrstrasse",
        "house_number": "6",
        "neighbourhood": null,
        "suburb": null,
        "city_district": null,
        "city": "Vaduz",
        "state": null,
        "postcode": "9490",
        "country": "Liechtenstein",
        "country_code": "li"
      },
      "address": "6, Wuhrstrasse, Vaduz, Oberland, 9490, Liechtenstein"
    },
    {
      "lat": 47.130664434757456,
      "lon": 9.51523237779734,
      "geoinfo": {
        "display_name": "12, Felbaweg, Vaduz, Oberland, 9490, Liechtenstein",
        "road": "Felbaweg",
        "house_number": "12",
        "neighbourhood": null,
        "suburb": null,
        "city_district": null,
        "city": "Vaduz",
        "state": null,
        "postcode": "9490",
        "country": "Liechtenstein",
        "country_code": "li"
      },
      "address": "12, Felbaweg, Vaduz, Oberland, 9490, Liechtenstein"
    },
    {
      "lat": 47.125761239806394,
      "lon": 9.526743639730638,
      "geoinfo": {
        "display_name": "6, Buchenweg, Vaduz, Oberland, 9490, Liechtenstein",
        "road": "Buchenweg",
        "house_number": "6",
        "neighbourhood": null,
        "suburb": null,
        "city_district": null,
        "city": "Vaduz",
        "state": null,
        "postcode": "9490",
        "country": "Liechtenstein",
        "country_code": "li"
      },
      "address": "6, Buchenweg, Vaduz, Oberland, 9490, Liechtenstein"
    },
    {
      "lat": 47.132127232874815,
      "lon": 9.514595837463938,
      "geoinfo": {
        "display_name": "49, Zollstrasse, Vaduz, Oberland, 9490, Liechtenstein",
        "road": "Zollstrasse",
        "house_number": "49",
        "neighbourhood": null,
        "suburb": null,
        "city_district": null,
        "city": "Vaduz",
        "state": null,
        "postcode": "9490",
        "country": "Liechtenstein",
        "country_code": "li"
      },
      "address": "49, Zollstrasse, Vaduz, Oberland, 9490, Liechtenstein"
    },
    {
      "lat": 47.12583065316757,
      "lon": 9.527018091514748,
      "geoinfo": {
        "display_name": "9, Buchenweg, Vaduz, Oberland, 9490, Liechtenstein",
        "road": "Buchenweg",
        "house_number": "9",
        "neighbourhood": null,
        "suburb": null,
        "city_district": null,
        "city": "Vaduz",
        "state": null,
        "postcode": "9490",
        "country": "Liechtenstein",
        "country_code": "li"
      },
      "address": "9, Buchenweg, Vaduz, Oberland, 9490, Liechtenstein"
    },
    {
      "lat": 47.14365780055564,
      "lon": 9.51469089709828,
      "geoinfo": {
        "display_name": "15, Sankt Markusgasse, Ebenholz, Vaduz, Oberland, 9490, Liechtenstein",
        "road": "Sankt Markusgasse",
        "house_number": "15",
        "neighbourhood": null,
        "suburb": null,
        "city_district": null,
        "city": "Vaduz",
        "state": null,
        "postcode": "9490",
        "country": "Liechtenstein",
        "country_code": "li"
      },
      "address": "15, Sankt Markusgasse, Ebenholz, Vaduz, Oberland, 9490, Liechtenstein"
    },
    {
      "lat": 47.15114074965176,
      "lon": 9.536278938092789,
      "geoinfo": {
        "display_name": "Ruine Wildschloss, Wildschlossweg, Ebenholz, Vaduz, Oberland, 9490, Liechtenstein",
        "road": "Wildschlossweg",
        "house_number": null,
        "neighbourhood": null,
        "suburb": null,
        "city_district": null,
        "city": "Vaduz",
        "state": null,
        "postcode": "9490",
        "country": "Liechtenstein",
        "country_code": "li"
      },
      "address": "Ruine Wildschloss, Wildschlossweg, Ebenholz, Vaduz, Oberland, 9490, Liechtenstein"
    },
    {
      "lat": 47.124308446675144,
      "lon": 9.519461170382057,
      "geoinfo": {
        "display_name": "Neurüttiweg, Vaduz, Oberland, 9495, Liechtenstein",
        "road": "Neurüttiweg",
        "house_number": null,
        "neighbourhood": null,
        "suburb": null,
        "city_district": null,
        "city": "Vaduz",
        "state": null,
        "postcode": "9495",
        "country": "Liechtenstein",
        "country_code": "li"
      },
      "address": "Neurüttiweg, Vaduz, Oberland, 9495, Liechtenstein"
    },
    {
      "lat": 47.1282981989599,
      "lon": 9.519349130105628,
      "geoinfo": {
        "display_name": "17, Schliassaweg, Vaduz, Oberland, 9490, Liechtenstein",
        "road": "Schliassaweg",
        "house_number": "17",
        "neighbourhood": null,
        "suburb": null,
        "city_district": null,
        "city": "Vaduz",
        "state": null,
        "postcode": "9490",
        "country": "Liechtenstein",
        "country_code": "li"
      },
      "address": "17 Schliassaweg, Vaduz, Liechtenstein"
    },
    {
      "lat": 47.172588891748525,
      "lon": 9.523065590299005,
      "geoinfo": {
        "display_name": "49, Planknerstrasse, Schaan, Oberland, 9494, Liechtenstein",
        "road": "Planknerstrasse",
        "house_number": "49",
        "neighbourhood": null,
        "suburb": null,
        "city_district": null,
        "city": "Schaan",
        "state": null,
        "postcode": "9494",
        "country": "Liechtenstein",
        "country_code": "li"
      },
      "address": "49 Planknerstrasse, Vaduz, Liechtenstein"
    },
    {
      "lat": 47.145407402944464,
      "lon": 9.507987100588071,
      "geoinfo": {
        "display_name": "Lochgass, Ebenholz, Vaduz, Oberland, 9490, Liechtenstein",
        "road": "Lochgass",
        "house_number": null,
        "neighbourhood": null,
        "suburb": null,
        "city_district": null,
        "city": "Vaduz",
        "state": null,
        "postcode": "9490",
        "country": "Liechtenstein",
        "country_code": "li"
      },
      "address": "Lochgass, Ebenholz, Vaduz, Oberland, 9490, Liechtenstein"
    },
    {
      "lat": 47.16057094613476,
      "lon": 9.516275520465028,
      "geoinfo": {
        "display_name": "14, Sägagass, Schaan, Oberland, 9494, Liechtenstein",
        "road": "Sägagass",
        "house_number": "14",
        "neighbourhood": null,
        "suburb": null,
        "city_district": null,
        "city": "Schaan",
        "state": null,
        "postcode": "9494",
        "country": "Liechtenstein",
        "country_code": "li"
      },
      "address": "14, Sägagass, 9494 Vaduz, Liechtenstein"
    },
    {
      "lat": 47.17260390254837,
      "lon": 9.526351493618396,
      "geoinfo": {
        "display_name": "Planknerstrasse, Schaan, Oberland, 9494, Liechtenstein",
        "road": "Planknerstrasse",
        "house_number": null,
        "neighbourhood": null,
        "suburb": null,
        "city_district": null,
        "city": "Schaan",
        "state": null,
        "postcode": "9494",
        "country": "Liechtenstein",
        "country_code": "li"
      },
      "address": "242, Planknerstrasse, 9494 Vaduz, Liechtenstein"
    },
    {
      "lat": 47.17528012435377,
      "lon": 9.536159731492608,
      "geoinfo": {
        "display_name": "Planknerstrasse, Schaan, Oberland, 9494, Liechtenstein",
        "road": "Planknerstrasse",
        "house_number": null,
        "neighbourhood": null,
        "suburb": null,
        "city_district": null,
        "city": "Schaan",
        "state": null,
        "postcode": "9494",
        "country": "Liechtenstein",
        "country_code": "li"
      },
      "address": "760, Planknerstrasse, 9494 Vaduz, Liechtenstein"
    },
    {
      "lat": 47.17315514590367,
      "lon": 9.53135676979347,
      "geoinfo": {
        "display_name": "Planknerstrasse, Schaan, Oberland, 9494, Liechtenstein",
        "road": "Planknerstrasse",
        "house_number": null,
        "neighbourhood": null,
        "suburb": null,
        "city_district": null,
        "city": "Schaan",
        "state": null,
        "postcode": "9494",
        "country": "Liechtenstein",
        "country_code": "li"
      },
      "address": "011, Planknerstrasse, 9494 Vaduz, Liechtenstein"
    },
    {
      "lat": 47.14985932493376,
      "lon": 9.561097144732766,
      "geoinfo": {
        "display_name": "Fürstensteig, Triesenberg, Oberland, 9498, Liechtenstein",
        "road": "Fürstensteig",
        "house_number": null,
        "neighbourhood": null,
        "suburb": null,
        "city_district": null,
        "city": "Triesenberg",
        "state": null,
        "postcode": "9498",
        "country": "Liechtenstein",
        "country_code": "li"
      },
      "address": "471, Fürstensteig, 9498 Vaduz, Liechtenstein"
    },
    {
      "lat": 47.18494644558416,
      "lon": 9.515252952775734,
      "geoinfo": {
        "display_name": "Mittlere Länge, Vaduz, Oberland, 9494, Liechtenstein",
        "road": "Mittlere Länge",
        "house_number": null,
        "neighbourhood": null,
        "suburb": null,
        "city_district": null,
        "city": "Vaduz",
        "state": null,
        "postcode": "9494",
        "country": "Liechtenstein",
        "country_code": "li"
      },
      "address": "534, Mittlere Länge, Vaduz, Oberland, 9494, Liechtenstein"
    },
    {
      "lat": 47.15452910477912,
      "lon": 9.501495013671914,
      "geoinfo": {
        "display_name": "Neufeldweg, Mühleholz, Vaduz, Oberland, 9494, Liechtenstein",
        "road": "Neufeldweg",
        "house_number": null,
        "neighbourhood": null,
        "suburb": null,
        "city_district": null,
        "city": "Vaduz",
        "state": null,
        "postcode": "9494",
        "country": "Liechtenstein",
        "country_code": "li"
      },
      "address": "916, Neufeldweg, Mühleholz, Vaduz, Oberland, 9494, Liechtenstein"
    },
    {
      "lat": 47.140377751730895,
      "lon": 9.525898160117187,
      "geoinfo": {
        "display_name": "5, Bergstrasse, Ebenholz, Vaduz, Oberland, 9490, Liechtenstein",
        "road": "Bergstrasse",
        "house_number": "5",
        "neighbourhood": null,
        "suburb": null,
        "city_district": null,
        "city": "Vaduz",
        "state": null,
        "postcode": "9490",
        "country": "Liechtenstein",
        "country_code": "li"
      },
      "address": "5, Bergstrasse, Ebenholz, Vaduz, Oberland, 9490, Liechtenstein"
    },
    {
      "lat": 47.156780007819954,
      "lon": 9.526590281784635,
      "geoinfo": {
        "display_name": "Iraggellstrasse, Ebenholz, Vaduz, Oberland, 9490, Liechtenstein",
        "road": "Iraggellstrasse",
        "house_number": null,
        "neighbourhood": null,
        "suburb": null,
        "city_district": null,
        "city": "Vaduz",
        "state": null,
        "postcode": "9490",
        "country": "Liechtenstein",
        "country_code": "li"
      },
      "address": "353, Iraggellstrasse, Ebenholz, Vaduz, Oberland, 9490, Liechtenstein"
    },
    {
      "lat": 47.14718002618971,
      "lon": 9.559347025624886,
      "geoinfo": {
        "display_name": "Fürstensteig, Triesenberg, Oberland, 9498, Liechtenstein",
        "road": "Fürstensteig",
        "house_number": null,
        "neighbourhood": null,
        "suburb": null,
        "city_district": null,
        "city": "Triesenberg",
        "state": null,
        "postcode": "9498",
        "country": "Liechtenstein",
        "country_code": "li"
      },
      "address": "790, Fürstensteig, 9498 Vaduz, Liechtenstein"
    },
    {
      "lat": 47.139475085157535,
      "lon": 9.53115247879001,
      "geoinfo": {
        "display_name": "Erbistrasse, Erbi, Rotenboden, Vaduz, Oberland, 9490, Liechtenstein",
        "road": "Erbistrasse",
        "house_number": null,
        "neighbourhood": null,
        "suburb": null,
        "city_district": null,
        "city": "Vaduz",
        "state": null,
        "postcode": "9490",
        "country": "Liechtenstein",
        "country_code": "li"
      },
      "address": "756, Erbistrasse, Erbi, Rotenboden, Vaduz, Oberland, 9490, Liechtenstein"
    },
    {
      "lat": 47.139911216573765,
      "lon": 9.549745119227396,
      "geoinfo": {
        "display_name": "Fürstensteig, Bärg, Masescha, Triesenberg, Oberland, 9497, Liechtenstein",
        "road": "Fürstensteig",
        "house_number": null,
        "neighbourhood": null,
        "suburb": null,
        "city_district": null,
        "city": "Masescha",
        "state": null,
        "postcode": "9497",
        "country": "Liechtenstein",
        "country_code": "li"
      },
      "address": "928, Fürstensteig, 9497 Vaduz, Liechtenstein"
    },
    {
      "lat": 47.118780730662934,
      "lon": 9.549394485210696,
      "geoinfo": {
        "display_name": "Bergstrasse, Lavadina, Rotenboden, Triesenberg, Oberland, 9497, Liechtenstein",
        "road": "Bergstrasse",
        "house_number": null,
        "neighbourhood": null,
        "suburb": null,
        "city_district": null,
        "city": "Rotenboden",
        "state": null,
        "postcode": "9497",
        "country": "Liechtenstein",
        "country_code": "li"
      },
      "address": "833, Bergstrasse, 9497 Vaduz, Liechtenstein"
    },
    {
      "lat": 47.12757851602275,
      "lon": 9.573495774617575,
      "geoinfo": {
        "display_name": "Valorschstrasse, Triesenberg, Oberland, 9497, Liechtenstein",
        "road": "Valorschstrasse",
        "house_number": null,
        "neighbourhood": null,
        "suburb": null,
        "city_district": null,
        "city": "Triesenberg",
        "state": null,
        "postcode": "9497",
        "country": "Liechtenstein",
        "country_code": "li"
      },
      "address": "261, Valorschstrasse, 9497 Vaduz, Liechtenstein"
    },
    {
      "lat": 47.14429896273169,
      "lon": 9.554008876511572,
      "geoinfo": {
        "display_name": "Fürstensteig, Gaflei, Masescha, Triesenberg, Oberland, 9497, Liechtenstein",
        "road": "Fürstensteig",
        "house_number": null,
        "neighbourhood": null,
        "suburb": null,
        "city_district": null,
        "city": "Masescha",
        "state": null,
        "postcode": "9497",
        "country": "Liechtenstein",
        "country_code": "li"
      },
      "address": "150, Fürstensteig, 9497 Vaduz, Liechtenstein"
    },
    {
      "lat": 47.104874484713065,
      "lon": 9.525767187881197,
      "geoinfo": {
        "display_name": "Weiterführende Schulen Triesen, Landstrasse, Oberdorf, Triesen, Oberland, 9495, Liechtenstein",
        "road": "Landstrasse",
        "house_number": null,
        "neighbourhood": "Oberdorf",
        "suburb": null,
        "city_district": null,
        "city": "Triesen",
        "state": null,
        "postcode": "9495",
        "country": "Liechtenstein",
        "country_code": "li"
      },
      "address": "330, Landstrasse, 9495 Vaduz, Liechtenstein"
    },
    {
      "lat": 47.14217843589276,
      "lon": 9.510675535517503,
      "geoinfo": {
        "display_name": "Binnendamm, Ebenholz, Vaduz, Oberland, 9490, Liechtenstein",
        "road": "Binnendamm",
        "house_number": null,
        "neighbourhood": null,
        "suburb": null,
        "city_district": null,
        "city": "Vaduz",
        "state": null,
        "postcode": "9490",
        "country": "Liechtenstein",
        "country_code": "li"
      },
      "address": "895, Binnendamm, Ebenholz, Vaduz, Oberland, 9490, Liechtenstein"
    },
    {
      "lat": 47.12914345585101,
      "lon": 9.576286738849856,
      "geoinfo": {
        "display_name": "Valorschstrasse, Schaan, Oberland, 9497, Liechtenstein",
        "road": "Valorschstrasse",
        "house_number": null,
        "neighbourhood": null,
        "suburb": null,
        "city_district": null,
        "city": "Schaan",
        "state": null,
        "postcode": "9497",
        "country": "Liechtenstein",
        "country_code": "li"
      },
      "address": "670, Valorschstrasse, 9497 Vaduz, Liechtenstein"
    },
    {
      "lat": 47.148588867785556,
      "lon": 9.565741318349957,
      "geoinfo": {
        "display_name": "Fürstensteig, Triesenberg, Oberland, 9498, Liechtenstein",
        "road": "Fürstensteig",
        "house_number": null,
        "neighbourhood": null,
        "suburb": null,
        "city_district": null,
        "city": "Triesenberg",
        "state": null,
        "postcode": "9498",
        "country": "Liechtenstein",
        "country_code": "li"
      },
      "address": "764, Fürstensteig, 9498 Vaduz, Liechtenstein"
    },
    {
      "lat": 47.14694705688184,
      "lon": 9.530849786803588,
      "geoinfo": {
        "display_name": "Wildschlossweg, Ebenholz, Vaduz, Oberland, 9490, Liechtenstein",
        "road": "Wildschlossweg",
        "house_number": null,
        "neighbourhood": null,
        "suburb": null,
        "city_district": null,
        "city": "Vaduz",
        "state": null,
        "postcode": "9490",
        "country": "Liechtenstein",
        "country_code": "li"
      },
      "address": "951, Wildschlossweg, Ebenholz, Vaduz, Oberland, 9490, Liechtenstein"
    },
    {
      "lat": 47.14921622575523,
      "lon": 9.508100928208398,
      "geoinfo": {
        "display_name": "31, Schaanerstrasse, Ebenholz, Vaduz, Oberland, 9490, Liechtenstein",
        "road": "Schaanerstrasse",
        "house_number": "31",
        "neighbourhood": null,
        "suburb": null,
        "city_district": null,
        "city": "Vaduz",
        "state": null,
        "postcode": "9490",
        "country": "Liechtenstein",
        "country_code": "li"
      },
      "address": "31, Schaanerstrasse, Ebenholz, Vaduz, Oberland, 9490, Liechtenstein"
    },
    {
      "lat": 47.12562853461481,
      "lon": 9.578167975514788,
      "geoinfo": {
        "display_name": "Valorschstrasse, Schaan, Oberland, 9497, Liechtenstein",
        "road": "Valorschstrasse",
        "house_number": null,
        "neighbourhood": null,
        "suburb": null,
        "city_district": null,
        "city": "Schaan",
        "state": null,
        "postcode": "9497",
        "country": "Liechtenstein",
        "country_code": "li"
      },
      "address": "193, Valorschstrasse, 9497 Vaduz, Liechtenstein"
    },
    {
      "lat": 47.12672559272574,
      "lon": 9.53405903241022,
      "geoinfo": {
        "display_name": "Frommahusstrasse, Vaduz, Oberland, 9495, Liechtenstein",
        "road": "Frommahusstrasse",
        "house_number": null,
        "neighbourhood": null,
        "suburb": null,
        "city_district": null,
        "city": "Vaduz",
        "state": null,
        "postcode": "9495",
        "country": "Liechtenstein",
        "country_code": "li"
      },
      "address": "191, Frommahusstrasse, Vaduz, Oberland, 9495, Liechtenstein"
    },
    {
      "lat": 47.16165051367926,
      "lon": 9.53876107885074,
      "geoinfo": {
        "display_name": "Ebenholz, Vaduz, Oberland, 9490, Liechtenstein",
        "road": null,
        "house_number": null,
        "neighbourhood": null,
        "suburb": null,
        "city_district": null,
        "city": "Vaduz",
        "state": null,
        "postcode": "9490",
        "country": "Liechtenstein",
        "country_code": "li"
      },
      "address": "097, Ebenholz, Vaduz, Oberland, 9490, Liechtenstein"
    },
    {
      "lat": 47.1511458895856,
      "lon": 9.53901724956733,
      "geoinfo": {
        "display_name": "Ruine Wildschloss, Wildschlossweg, Ebenholz, Vaduz, Oberland, 9490, Liechtenstein",
        "road": "Wildschlossweg",
        "house_number": null,
        "neighbourhood": null,
        "suburb": null,
        "city_district": null,
        "city": "Vaduz",
        "state": null,
        "postcode": "9490",
        "country": "Liechtenstein",
        "country_code": "li"
      },
      "address": "363, Wildschlossweg, 9490 Vaduz, Liechtenstein"
    },
    {
      "lat": 47.139215854207386,
      "lon": 9.586362818654106,
      "geoinfo": {
        "display_name": "Valorschstrasse, Schaan, Oberland, 9497, Liechtenstein",
        "road": "Valorschstrasse",
        "house_number": null,
        "neighbourhood": null,
        "suburb": null,
        "city_district": null,
        "city": "Schaan",
        "state": null,
        "postcode": "9497",
        "country": "Liechtenstein",
        "country_code": "li"
      },
      "address": "377, Valorschstrasse, 9497 Vaduz, Liechtenstein"
    },
    {
      "lat": 47.12662029712988,
      "lon": 9.514242496122721,
      "geoinfo": {
        "display_name": "Rheindamm, Vaduz, Oberland, 9490, Liechtenstein",
        "road": "Rheindamm",
        "house_number": null,
        "neighbourhood": null,
        "suburb": null,
        "city_district": null,
        "city": "Vaduz",
        "state": null,
        "postcode": "9490",
        "country": "Liechtenstein",
        "country_code": "li"
      },
      "address": "717, Rheindamm, Vaduz, Oberland, 9490, Liechtenstein"
    },
    {
      "lat": 47.14256752427187,
      "lon": 9.552472912688014,
      "geoinfo": {
        "display_name": "Fürstensteig, Gaflei, Masescha, Triesenberg, Oberland, 9497, Liechtenstein",
        "road": "Fürstensteig",
        "house_number": null,
        "neighbourhood": null,
        "suburb": null,
        "city_district": null,
        "city": "Masescha",
        "state": null,
        "postcode": "9497",
        "country": "Liechtenstein",
        "country_code": "li"
      },
      "address": "291, Fürstensteig, 9497 Vaduz, Liechtenstein"
    },
    {
      "lat": 47.12965777678695,
      "lon": 9.574910631999801,
      "geoinfo": {
        "display_name": "Valorschstrasse, Schaan, Oberland, 9497, Liechtenstein",
        "road": "Valorschstrasse",
        "house_number": null,
        "neighbourhood": null,
        "suburb": null,
        "city_district": null,
        "city": "Schaan",
        "state": null,
        "postcode": "9497",
        "country": "Liechtenstein",
        "country_code": "li"
      },
      "address": "419, Valorschstrasse, 9497 Vaduz, Liechtenstein"
    },
    {
      "lat": 47.1322286424338,
      "lon": 9.52593977235298,
      "geoinfo": {
        "display_name": "16, Spaniagasse, Vaduz, Oberland, 9490, Liechtenstein",
        "road": "Spaniagasse",
        "house_number": "16",
        "neighbourhood": null,
        "suburb": null,
        "city_district": null,
        "city": "Vaduz",
        "state": null,
        "postcode": "9490",
        "country": "Liechtenstein",
        "country_code": "li"
      },
      "address": "16, Spaniagasse, Vaduz, Oberland, 9490, Liechtenstein"
    },
    {
      "lat": 47.16666537542044,
      "lon": 9.490166283354284,
      "geoinfo": {
        "display_name": "2, Binnendamm, Schaan, Oberland, 9494, Liechtenstein",
        "road": "Binnendamm",
        "house_number": "2",
        "neighbourhood": null,
        "suburb": null,
        "city_district": null,
        "city": "Schaan",
        "state": null,
        "postcode": "9494",
        "country": "Liechtenstein",
        "country_code": "li"
      },
      "address": "2, Binnendamm, 9494 Vaduz, Liechtenstein"
    },
    {
      "lat": 47.1446746300093,
      "lon": 9.554145635715406,
      "geoinfo": {
        "display_name": "Fürstensteig, Gaflei, Masescha, Triesenberg, Oberland, 9497, Liechtenstein",
        "road": "Fürstensteig",
        "house_number": null,
        "neighbourhood": null,
        "suburb": null,
        "city_district": null,
        "city": "Masescha",
        "state": null,
        "postcode": "9497",
        "country": "Liechtenstein",
        "country_code": "li"
      },
      "address": "729, Fürstensteig, 9497 Vaduz, Liechtenstein"
    },
    {
      "lat": 47.1546962650865,
      "lon": 9.500545235048493,
      "geoinfo": {
        "display_name": "Neufeldweg, Mühleholz, Vaduz, Oberland, 9494, Liechtenstein",
        "road": "Neufeldweg",
        "house_number": null,
        "neighbourhood": null,
        "suburb": null,
        "city_district": null,
        "city": "Vaduz",
        "state": null,
        "postcode": "9494",
        "country": "Liechtenstein",
        "country_code": "li"
      },
      "address": "969, Neufeldweg, Mühleholz, Vaduz, Oberland, 9494, Liechtenstein"
    },
    {
      "lat": 47.12270848847914,
      "lon": 9.5294224065165,
      "geoinfo": {
        "display_name": "5, Megeriweg, Triesen, Oberland, 9490, Liechtenstein",
        "road": "Megeriweg",
        "house_number": "5",
        "neighbourhood": null,
        "suburb": null,
        "city_district": null,
        "city": "Triesen",
        "state": null,
        "postcode": "9490",
        "country": "Liechtenstein",
        "country_code": "li"
      },
      "address": "5, Megeriweg, 9490 Vaduz, Liechtenstein"
    },
    {
      "lat": 47.16496609506758,
      "lon": 9.557356859120711,
      "geoinfo": {
        "display_name": "Fürstensteig, Triesenberg, Oberland, 9498, Liechtenstein",
        "road": "Fürstensteig",
        "house_number": null,
        "neighbourhood": null,
        "suburb": null,
        "city_district": null,
        "city": "Triesenberg",
        "state": null,
        "postcode": "9498",
        "country": "Liechtenstein",
        "country_code": "li"
      },
      "address": "864, Fürstensteig, 9498 Vaduz, Liechtenstein"
    },
    {
      "lat": 47.111938754091014,
      "lon": 9.540717781444515,
      "geoinfo": {
        "display_name": "Bergstrasse, Triesen, Oberland, 9495, Liechtenstein",
        "road": "Bergstrasse",
        "house_number": null,
        "neighbourhood": null,
        "suburb": null,
        "city_district": null,
        "city": "Triesen",
        "state": null,
        "postcode": "9495",
        "country": "Liechtenstein",
        "country_code": "li"
      },
      "address": "923, Bergstrasse, 9495 Vaduz, Liechtenstein"
    },
    {
      "lat": 47.174542901570064,
      "lon": 9.531959336105903,
      "geoinfo": {
        "display_name": "Planknerstrasse, Schaan, Oberland, 9494, Liechtenstein",
        "road": "Planknerstrasse",
        "house_number": null,
        "neighbourhood": null,
        "suburb": null,
        "city_district": null,
        "city": "Schaan",
        "state": null,
        "postcode": "9494",
        "country": "Liechtenstein",
        "country_code": "li"
      },
      "address": "508, Planknerstrasse, 9494 Vaduz, Liechtenstein"
    },
    {
      "lat": 47.13745809115069,
      "lon": 9.525117685087837,
      "geoinfo": {
        "display_name": "Privatplatz des Fürstenhauses, Peter-Kaiser-Platz, Ebenholz, Vaduz, Oberland, 9490, Liechtenstein",
        "road": "Peter-Kaiser-Platz",
        "house_number": null,
        "neighbourhood": null,
        "suburb": null,
        "city_district": null,
        "city": "Vaduz",
        "state": null,
        "postcode": "9490",
        "country": "Liechtenstein",
        "country_code": "li"
      },
      "address": "055, Peter-Kaiser-Platz, 9490 Vaduz, Liechtenstein"
    },
    {
      "lat": 47.130217670793584,
      "lon": 9.520684822177024,
      "geoinfo": {
        "display_name": "Giessenweg, Vaduz, Oberland, 9490, Liechtenstein",
        "road": "Giessenweg",
        "house_number": null,
        "neighbourhood": null,
        "suburb": null,
        "city_district": null,
        "city": "Vaduz",
        "state": null,
        "postcode": "9490",
        "country": "Liechtenstein",
        "country_code": "li"
      },
      "address": "022, Giessenweg, Vaduz, Oberland, 9490, Liechtenstein"
    },
    {
      "lat": 47.14210961528195,
      "lon": 9.530486168907753,
      "geoinfo": {
        "display_name": "Wildschlossweg, Ebenholz, Vaduz, Oberland, 9490, Liechtenstein",
        "road": "Wildschlossweg",
        "house_number": null,
        "neighbourhood": null,
        "suburb": null,
        "city_district": null,
        "city": "Vaduz",
        "state": null,
        "postcode": "9490",
        "country": "Liechtenstein",
        "country_code": "li"
      },
      "address": "791, Wildschlossweg, Ebenholz, Vaduz, Oberland, 9490, Liechtenstein"
    },
    {
      "lat": 47.12994447800728,
      "lon": 9.525702058752996,
      "geoinfo": {
        "display_name": "1b, Schwefelstrasse, Wasserkraftwerk Samina, Vaduz, Oberland, 9490, Liechtenstein",
        "road": "Schwefelstrasse",
        "house_number": "1b",
        "neighbourhood": null,
        "suburb": null,
        "city_district": null,
        "city": "Vaduz",
        "state": null,
        "postcode": "9490",
        "country": "Liechtenstein",
        "country_code": "li"
      },
      "address": "1b, Schwefelstrasse, Wasserkraftwerk Samina, Vaduz, Oberland, 9490, Liechtenstein"
    },
    {
      "lat": 47.11152496743143,
      "lon": 9.533830039695962,
      "geoinfo": {
        "display_name": "67, Bergstrasse, Oberdorf, Triesen, Oberland, 9495, Liechtenstein",
        "road": "Bergstrasse",
        "house_number": "67",
        "neighbourhood": "Oberdorf",
        "suburb": null,
        "city_district": null,
        "city": "Triesen",
        "state": null,
        "postcode": "9495",
        "country": "Liechtenstein",
        "country_code": "li"
      },
      "address": "67, Bergstrasse, 9495 Vaduz, Liechtenstein"
    },
    {
      "lat": 47.146499675755145,
      "lon": 9.582337406373693,
      "geoinfo": {
        "display_name": "Valorschstrasse, Schaan, Oberland, 9497, Liechtenstein",
        "road": "Valorschstrasse",
        "house_number": null,
        "neighbourhood": null,
        "suburb": null,
        "city_district": null,
        "city": "Schaan",
        "state": null,
        "postcode": "9497",
        "country": "Liechtenstein",
        "country_code": "li"
      },
      "address": "542, Valorschstrasse, 9497 Vaduz, Liechtenstein"
    },
    {
      "lat": 47.15025435619123,
      "lon": 9.547498487540723,
      "geoinfo": {
        "display_name": "Fürstensteig, Vaduz, Oberland, 9490, Liechtenstein",
        "road": "Fürstensteig",
        "house_number": null,
        "neighbourhood": null,
        "suburb": null,
        "city_district": null,
        "city": "Vaduz",
        "state": null,
        "postcode": "9490",
        "country": "Liechtenstein",
        "country_code": "li"
      },
      "address": "165, Fürstensteig, Vaduz, Oberland, 9490, Liechtenstein"
    },
    {
      "lat": 47.130575677867014,
      "lon": 9.51399289361988,
      "geoinfo": {
        "display_name": "Rheindamm, Vaduz, Oberland, 9490, Liechtenstein",
        "road": "Rheindamm",
        "house_number": null,
        "neighbourhood": null,
        "suburb": null,
        "city_district": null,
        "city": "Vaduz",
        "state": null,
        "postcode": "9490",
        "country": "Liechtenstein",
        "country_code": "li"
      },
      "address": "713, Rheindamm, Vaduz, Oberland, 9490, Liechtenstein"
    },
    {
      "lat": 47.15200583721951,
      "lon": 9.535004420721604,
      "geoinfo": {
        "display_name": "Wildschlossweg, Ebenholz, Vaduz, Oberland, 9490, Liechtenstein",
        "road": "Wildschlossweg",
        "house_number": null,
        "neighbourhood": null,
        "suburb": null,
        "city_district": null,
        "city": "Vaduz",
        "state": null,
        "postcode": "9490",
        "country": "Liechtenstein",
        "country_code": "li"
      },
      "address": "621, Wildschlossweg, Ebenholz, Vaduz, Oberland, 9490, Liechtenstein"
    },
    {
      "lat": 47.14864578045738,
      "lon": 9.553752970337747,
      "geoinfo": {
        "display_name": "Fürstensteig, Triesenberg, Oberland, 9490, Liechtenstein",
        "road": "Fürstensteig",
        "house_number": null,
        "neighbourhood": null,
        "suburb": null,
        "city_district": null,
        "city": "Triesenberg",
        "state": null,
        "postcode": "9490",
        "country": "Liechtenstein",
        "country_code": "li"
      },
      "address": "669, Fürstensteig, 9490 Vaduz, Liechtenstein"
    },
    {
      "lat": 47.149998981807606,
      "lon": 9.531217650562796,
      "geoinfo": {
        "display_name": "Wildschlossweg, Ebenholz, Vaduz, Oberland, 9490, Liechtenstein",
        "road": "Wildschlossweg",
        "house_number": null,
        "neighbourhood": null,
        "suburb": null,
        "city_district": null,
        "city": "Vaduz",
        "state": null,
        "postcode": "9490",
        "country": "Liechtenstein",
        "country_code": "li"
      },
      "address": "023, Wildschlossweg, Ebenholz, Vaduz, Oberland, 9490, Liechtenstein"
    },
    {
      "lat": 47.135132960804356,
      "lon": 9.517108326794279,
      "geoinfo": {
        "display_name": "59, Auring, Vaduz, Oberland, 9490, Liechtenstein",
        "road": "Auring",
        "house_number": "59",
        "neighbourhood": null,
        "suburb": null,
        "city_district": null,
        "city": "Vaduz",
        "state": null,
        "postcode": "9490",
        "country": "Liechtenstein",
        "country_code": "li"
      },
      "address": "59, Auring, Vaduz, Oberland, 9490, Liechtenstein"
    },
    {
      "lat": 47.14535866736311,
      "lon": 9.521557432094047,
      "geoinfo": {
        "display_name": "3, Mareestrasse, Ebenholz, Vaduz, Oberland, 9490, Liechtenstein",
        "road": "Mareestrasse",
        "house_number": "3",
        "neighbourhood": null,
        "suburb": null,
        "city_district": null,
        "city": "Vaduz",
        "state": null,
        "postcode": "9490",
        "country": "Liechtenstein",
        "country_code": "li"
      },
      "address": "3, Mareestrasse, Ebenholz, Vaduz, Oberland, 9490, Liechtenstein"
    },
    {
      "lat": 47.176463945099464,
      "lon": 9.48917275420155,
      "geoinfo": {
        "display_name": "Binnendamm, Schaan, Oberland, 9494, Liechtenstein",
        "road": "Binnendamm",
        "house_number": null,
        "neighbourhood": null,
        "suburb": null,
        "city_district": null,
        "city": "Schaan",
        "state": null,
        "postcode": "9494",
        "country": "Liechtenstein",
        "country_code": "li"
      },
      "address": "628, Binnendamm, 9494 Vaduz, Liechtenstein"
    },
    {
      "lat": 47.14784448734097,
      "lon": 9.558364769680814,
      "geoinfo": {
        "display_name": "Fürstensteig, Triesenberg, Oberland, 9498, Liechtenstein",
        "road": "Fürstensteig",
        "house_number": null,
        "neighbourhood": null,
        "suburb": null,
        "city_district": null,
        "city": "Triesenberg",
        "state": null,
        "postcode": "9498",
        "country": "Liechtenstein",
        "country_code": "li"
      },
      "address": "168, Fürstensteig, 9498 Vaduz, Liechtenstein"
    },
    {
      "lat": 47.15519606634242,
      "lon": 9.519400519266066,
      "geoinfo": {
        "display_name": "12, Quaderröfiweg, Mühleholz, Vaduz, Oberland, 9490, Liechtenstein",
        "road": "Quaderröfiweg",
        "house_number": "12",
        "neighbourhood": null,
        "suburb": null,
        "city_district": null,
        "city": "Vaduz",
        "state": null,
        "postcode": "9490",
        "country": "Liechtenstein",
        "country_code": "li"
      },
      "address": "12, Quaderröfiweg, Mühleholz, Vaduz, Oberland, 9490, Liechtenstein"
    },
    {
      "lat": 47.12680386770327,
      "lon": 9.517394015900354,
      "geoinfo": {
        "display_name": "Oberau, Vaduz, Oberland, 9490, Liechtenstein",
        "road": "Oberau",
        "house_number": null,
        "neighbourhood": null,
        "suburb": null,
        "city_district": null,
        "city": "Vaduz",
        "state": null,
        "postcode": "9490",
        "country": "Liechtenstein",
        "country_code": "li"
      },
      "address": "345, Oberau, Vaduz, Oberland, 9490, Liechtenstein"
    },
    {
      "lat": 47.14930545507874,
      "lon": 9.538335539992088,
      "geoinfo": {
        "display_name": "Ruine Wildschloss, Wildschlossweg, Ebenholz, Vaduz, Oberland, 9490, Liechtenstein",
        "road": "Wildschlossweg",
        "house_number": null,
        "neighbourhood": null,
        "suburb": null,
        "city_district": null,
        "city": "Vaduz",
        "state": null,
        "postcode": "9490",
        "country": "Liechtenstein",
        "country_code": "li"
      },
      "address": "049, Wildschlossweg, 9490 Vaduz, Liechtenstein"
    },
    {
      "lat": 47.1534592370863,
      "lon": 9.5422890517092,
      "geoinfo": {
        "display_name": "Ebenholz, Vaduz, Oberland, 9490, Liechtenstein",
        "road": null,
        "house_number": null,
        "neighbourhood": null,
        "suburb": null,
        "city_district": null,
        "city": "Vaduz",
        "state": null,
        "postcode": "9490",
        "country": "Liechtenstein",
        "country_code": "li"
      },
      "address": "852, Ebenholz, Vaduz, Oberland, 9490, Liechtenstein"
    },
    {
      "lat": 47.14627252665279,
      "lon": 9.584077632299772,
      "geoinfo": {
        "display_name": "Valorschstrasse, Schaan, Oberland, 9497, Liechtenstein",
        "road": "Valorschstrasse",
        "house_number": null,
        "neighbourhood": null,
        "suburb": null,
        "city_district": null,
        "city": "Schaan",
        "state": null,
        "postcode": "9497",
        "country": "Liechtenstein",
        "country_code": "li"
      },
      "address": "658, Valorschstrasse, 9497 Vaduz, Liechtenstein"
    },
    {
      "lat": 47.155109965261765,
      "lon": 9.556265942265007,
      "geoinfo": {
        "display_name": "Gafleisattel, Fürstensteig, Triesenberg, Oberland, 9498, Liechtenstein",
        "road": "Fürstensteig",
        "house_number": null,
        "neighbourhood": null,
        "suburb": null,
        "city_district": null,
        "city": "Triesenberg",
        "state": null,
        "postcode": "9498",
        "country": "Liechtenstein",
        "country_code": "li"
      },
      "address": "476, Fürstensteig, 9498 Vaduz, Liechtenstein"
    },
    {
      "lat": 47.1575642413389,
      "lon": 9.498599563212357,
      "geoinfo": {
        "display_name": "Under Rüttigass, Schaan, Oberland, 9494, Liechtenstein",
        "road": "Under Rüttigass",
        "house_number": null,
        "neighbourhood": null,
        "suburb": null,
        "city_district": null,
        "city": "Schaan",
        "state": null,
        "postcode": "9494",
        "country": "Liechtenstein",
        "country_code": "li"
      },
      "address": "774, Under Rüttigass, 9494 Vaduz, Liechtenstein"
    },
    {
      "lat": 47.11704727391568,
      "lon": 9.549425924035711,
      "geoinfo": {
        "display_name": "Triesenberg Guferwald, Bergstrasse, Werkhof Guferwald, Lavadina, Rotenboden, Triesenberg, Oberland, 9497, Liechtenstein",
        "road": "Bergstrasse",
        "house_number": null,
        "neighbourhood": null,
        "suburb": null,
        "city_district": null,
        "city": "Rotenboden",
        "state": null,
        "postcode": "9497",
        "country": "Liechtenstein",
        "country_code": "li"
      },
      "address": "369, Bergstrasse, 9497 Vaduz, Liechtenstein"
    },
    {
      "lat": 47.098470010322394,
      "lon": 9.525697582356491,
      "geoinfo": {
        "display_name": "Landstrasse, Oberdorf, Triesen, Oberland, 9495, Liechtenstein",
        "road": "Landstrasse",
        "house_number": null,
        "neighbourhood": "Oberdorf",
        "suburb": null,
        "city_district": null,
        "city": "Triesen",
        "state": null,
        "postcode": "9495",
        "country": "Liechtenstein",
        "country_code": "li"
      },
      "address": "689, Landstrasse, 9495 Vaduz, Liechtenstein"
    },
    {
      "lat": 47.13887087320848,
      "lon": 9.53358307823072,
      "geoinfo": {
        "display_name": "45, Erbistrasse, Erbi, Rotenboden, Triesenberg, Oberland, 9497, Liechtenstein",
        "road": "Erbistrasse",
        "house_number": "45",
        "neighbourhood": null,
        "suburb": null,
        "city_district": null,
        "city": "Rotenboden",
        "state": null,
        "postcode": "9497",
        "country": "Liechtenstein",
        "country_code": "li"
      },
      "address": "45, Erbistrasse, 9497 Vaduz, Liechtenstein"
    },
    {
      "lat": 47.16053876315787,
      "lon": 9.556699174290806,
      "geoinfo": {
        "display_name": "Fürstensteig, Triesenberg, Oberland, 9498, Liechtenstein",
        "road": "Fürstensteig",
        "house_number": null,
        "neighbourhood": null,
        "suburb": null,
        "city_district": null,
        "city": "Triesenberg",
        "state": null,
        "postcode": "9498",
        "country": "Liechtenstein",
        "country_code": "li"
      },
      "address": "694, Fürstensteig, 9498 Vaduz, Liechtenstein"
    },
    {
      "lat": 47.14934213165131,
      "lon": 9.508298349659368,
      "geoinfo": {
        "display_name": "31, Schaanerstrasse, Ebenholz, Vaduz, Oberland, 9490, Liechtenstein",
        "road": "Schaanerstrasse",
        "house_number": "31",
        "neighbourhood": null,
        "suburb": null,
        "city_district": null,
        "city": "Vaduz",
        "state": null,
        "postcode": "9490",
        "country": "Liechtenstein",
        "country_code": "li"
      },
      "address": "31, Schaanerstrasse, 9490 Vaduz, Liechtenstein"
    },
    {
      "lat": 47.144202498975424,
      "lon": 9.5810160390029,
      "geoinfo": {
        "display_name": "Valorschstrasse, Schaan, Oberland, 9497, Liechtenstein",
        "road": "Valorschstrasse",
        "house_number": null,
        "neighbourhood": null,
        "suburb": null,
        "city_district": null,
        "city": "Schaan",
        "state": null,
        "postcode": "9497",
        "country": "Liechtenstein",
        "country_code": "li"
      },
      "address": "224, Valorschstrasse, 9497 Vaduz, Liechtenstein"
    },
    {
      "lat": 47.17095775999555,
      "lon": 9.524541462449903,
      "geoinfo": {
        "display_name": "Planknerstrasse, Schaan, Oberland, 9494, Liechtenstein",
        "road": "Planknerstrasse",
        "house_number": null,
        "neighbourhood": null,
        "suburb": null,
        "city_district": null,
        "city": "Schaan",
        "state": null,
        "postcode": "9494",
        "country": "Liechtenstein",
        "country_code": "li"
      },
      "address": "049, Planknerstrasse, 9494 Vaduz, Liechtenstein"
    },
    {
      "lat": 47.14438769701086,
      "lon": 9.52993279571659,
      "geoinfo": {
        "display_name": "Wildschlossweg, Ebenholz, Vaduz, Oberland, 9490, Liechtenstein",
        "road": "Wildschlossweg",
        "house_number": null,
        "neighbourhood": null,
        "suburb": null,
        "city_district": null,
        "city": "Vaduz",
        "state": null,
        "postcode": "9490",
        "country": "Liechtenstein",
        "country_code": "li"
      },
      "address": "615, Wildschlossweg, Ebenholz, Vaduz, Oberland, 9490, Liechtenstein"
    },
    {
      "lat": 47.17282593031537,
      "lon": 9.488266457640073,
      "geoinfo": {
        "display_name": "Binnendamm, Schaan, Oberland, 9494, Liechtenstein",
        "road": "Binnendamm",
        "house_number": null,
        "neighbourhood": null,
        "suburb": null,
        "city_district": null,
        "city": "Schaan",
        "state": null,
        "postcode": "9494",
        "country": "Liechtenstein",
        "country_code": "li"
      },
      "address": "410, Binnendamm, 9494 Vaduz, Liechtenstein"
    },
    {
      "lat": 47.12345893426176,
      "lon": 9.575417781657052,
      "geoinfo": {
        "display_name": "Valorschstrasse, Triesenberg, Oberland, 9497, Liechtenstein",
        "road": "Valorschstrasse",
        "house_number": null,
        "neighbourhood": null,
        "suburb": null,
        "city_district": null,
        "city": "Triesenberg",
        "state": null,
        "postcode": "9497",
        "country": "Liechtenstein",
        "country_code": "li"
      },
      "address": "300, Valorschstrasse, 9497 Vaduz, Liechtenstein"
    },
    {
      "lat": 47.15038373129654,
      "lon": 9.528812704821952,
      "geoinfo": {
        "display_name": "Wildschlossweg, Ebenholz, Vaduz, Oberland, 9490, Liechtenstein",
        "road": "Wildschlossweg",
        "house_number": null,
        "neighbourhood": null,
        "suburb": null,
        "city_district": null,
        "city": "Vaduz",
        "state": null,
        "postcode": "9490",
        "country": "Liechtenstein",
        "country_code": "li"
      },
      "address": "661, Wildschlossweg, Ebenholz, Vaduz, Oberland, 9490, Liechtenstein"
    },
    {
      "lat": 47.15974803066205,
      "lon": 9.546240997127848,
      "geoinfo": {
        "display_name": "Ebenholz, Vaduz, Oberland, 9490, Liechtenstein",
        "road": null,
        "house_number": null,
        "neighbourhood": null,
        "suburb": null,
        "city_district": null,
        "city": "Vaduz",
        "state": null,
        "postcode": "9490",
        "country": "Liechtenstein",
        "country_code": "li"
      },
      "address": "061, Ebenholz, Vaduz, Oberland, 9490, Liechtenstein"
    },
    {
      "lat": 47.15461940347354,
      "lon": 9.552671657836793,
      "geoinfo": {
        "display_name": "Fürstensteig, Triesenberg, Oberland, 9498, Liechtenstein",
        "road": "Fürstensteig",
        "house_number": null,
        "neighbourhood": null,
        "suburb": null,
        "city_district": null,
        "city": "Triesenberg",
        "state": null,
        "postcode": "9498",
        "country": "Liechtenstein",
        "country_code": "li"
      },
      "address": "082, Fürstensteig, 9498 Vaduz, Liechtenstein"
    },
    {
      "lat": 47.1228741133658,
      "lon": 9.567345170034352,
      "geoinfo": {
        "display_name": "Valorschstrasse, Triesenberg, Oberland, 9497, Liechtenstein",
        "road": "Valorschstrasse",
        "house_number": null,
        "neighbourhood": null,
        "suburb": null,
        "city_district": null,
        "city": "Triesenberg",
        "state": null,
        "postcode": "9497",
        "country": "Liechtenstein",
        "country_code": "li"
      },
      "address": "245, Valorschstrasse, 9497 Vaduz, Liechtenstein"
    },
    {
      "lat": 47.12837800966937,
      "lon": 9.516687457593921,
      "geoinfo": {
        "display_name": "Schliassaweg, Vaduz, Oberland, 9490, Liechtenstein",
        "road": "Schliassaweg",
        "house_number": null,
        "neighbourhood": null,
        "suburb": null,
        "city_district": null,
        "city": "Vaduz",
        "state": null,
        "postcode": "9490",
        "country": "Liechtenstein",
        "country_code": "li"
      },
      "address": "641, Schliassaweg, Vaduz, Oberland, 9490, Liechtenstein"
    },
    {
      "lat": 47.12920886019153,
      "lon": 9.584233673671992,
      "geoinfo": {
        "display_name": "Valorschstrasse, Schaan, Oberland, 9497, Liechtenstein",
        "road": "Valorschstrasse",
        "house_number": null,
        "neighbourhood": null,
        "suburb": null,
        "city_district": null,
        "city": "Schaan",
        "state": null,
        "postcode": "9497",
        "country": "Liechtenstein",
        "country_code": "li"
      },
      "address": "077, Valorschstrasse, 9497 Vaduz, Liechtenstein"
    },
    {
      "lat": 47.14344348186849,
      "lon": 9.530193544858902,
      "geoinfo": {
        "display_name": "Wildschlossweg, Ebenholz, Vaduz, Oberland, 9490, Liechtenstein",
        "road": "Wildschlossweg",
        "house_number": null,
        "neighbourhood": null,
        "suburb": null,
        "city_district": null,
        "city": "Vaduz",
        "state": null,
        "postcode": "9490",
        "country": "Liechtenstein",
        "country_code": "li"
      },
      "address": "233, Wildschlossweg, Ebenholz, Vaduz, Oberland, 9490, Liechtenstein"
    },
    {
      "lat": 47.11217095763146,
      "lon": 9.542028959256449,
      "geoinfo": {
        "display_name": "Bergstrasse, Triesen, Oberland, 9495, Liechtenstein",
        "road": "Bergstrasse",
        "house_number": null,
        "neighbourhood": null,
        "suburb": null,
        "city_district": null,
        "city": "Triesen",
        "state": null,
        "postcode": "9495",
        "country": "Liechtenstein",
        "country_code": "li"
      },
      "address": "149, Bergstrasse, 9495 Vaduz, Liechtenstein"
    },
    {
      "lat": 47.15832523063766,
      "lon": 9.511572358834933,
      "geoinfo": {
        "display_name": "Quaderröfiweg, Schaan, Oberland, 9494, Liechtenstein",
        "road": "Quaderröfiweg",
        "house_number": null,
        "neighbourhood": null,
        "suburb": null,
        "city_district": null,
        "city": "Schaan",
        "state": null,
        "postcode": "9494",
        "country": "Liechtenstein",
        "country_code": "li"
      },
      "address": "336, Quaderröfiweg, 9494 Vaduz, Liechtenstein"
    },
    {
      "lat": 47.14708232129445,
      "lon": 9.549598425144994,
      "geoinfo": {
        "display_name": "Fürstensteig, Vaduz, Oberland, 9490, Liechtenstein",
        "road": "Fürstensteig",
        "house_number": null,
        "neighbourhood": null,
        "suburb": null,
        "city_district": null,
        "city": "Vaduz",
        "state": null,
        "postcode": "9490",
        "country": "Liechtenstein",
        "country_code": "li"
      },
      "address": "085, Fürstensteig, Vaduz, Oberland, 9490, Liechtenstein"
    },
    {
      "lat": 47.1159483962749,
      "lon": 9.549596628981233,
      "geoinfo": {
        "display_name": "Bergstrasse, Werkhof Guferwald, Lavadina, Rotenboden, Triesenberg, Oberland, 9497, Liechtenstein",
        "road": "Bergstrasse",
        "house_number": null,
        "neighbourhood": null,
        "suburb": null,
        "city_district": null,
        "city": "Rotenboden",
        "state": null,
        "postcode": "9497",
        "country": "Liechtenstein",
        "country_code": "li"
      },
      "address": "479, Bergstrasse, 9497 Vaduz, Liechtenstein"
    },
    {
      "lat": 47.167474268235225,
      "lon": 9.496956594634865,
      "geoinfo": {
        "display_name": "Zollstrasse, Schaan, Oberland, 9494, Liechtenstein",
        "road": "Zollstrasse",
        "house_number": null,
        "neighbourhood": null,
        "suburb": null,
        "city_district": null,
        "city": "Schaan",
        "state": null,
        "postcode": "9494",
        "country": "Liechtenstein",
        "country_code": "li"
      },
      "address": "564, Zollstrasse, 9494 Vaduz, Liechtenstein"
    },
    {
      "lat": 47.09706424498771,
      "lon": 9.5242659267092,
      "geoinfo": {
        "display_name": "Landstrasse, Triesen, Oberland, 9495, Liechtenstein",
        "road": "Landstrasse",
        "house_number": null,
        "neighbourhood": null,
        "suburb": null,
        "city_district": null,
        "city": "Triesen",
        "state": null,
        "postcode": "9495",
        "country": "Liechtenstein",
        "country_code": "li"
      },
      "address": "854, Landstrasse, 9495 Vaduz, Liechtenstein"
    },
    {
      "lat": 47.13988015173018,
      "lon": 9.555144272085224,
      "geoinfo": {
        "display_name": "Geografischer Mittelpunkt von Liechtenstein, Fürstensteig, Gaflei, Masescha, Triesenberg, Oberland, 9497, Liechtenstein",
        "road": "Fürstensteig",
        "house_number": null,
        "neighbourhood": null,
        "suburb": null,
        "city_district": null,
        "city": "Masescha",
        "state": null,
        "postcode": "9497",
        "country": "Liechtenstein",
        "country_code": "li"
      },
      "address": "635, Fürstensteig, 9497 Vaduz, Liechtenstein"
    },
    {
      "lat": 47.15133631906829,
      "lon": 9.514569086786741,
      "geoinfo": {
        "display_name": "12, Mühleweg, Ebenholz, Vaduz, Oberland, 9490, Liechtenstein",
        "road": "Mühleweg",
        "house_number": "12",
        "neighbourhood": null,
        "suburb": null,
        "city_district": null,
        "city": "Vaduz",
        "state": null,
        "postcode": "9490",
        "country": "Liechtenstein",
        "country_code": "li"
      },
      "address": "12, Mühleweg, Ebenholz, Vaduz, Oberland, 9490, Liechtenstein"
    },
    {
      "lat": 47.160872313951565,
      "lon": 9.54322936749782,
      "geoinfo": {
        "display_name": "Ebenholz, Vaduz, Oberland, 9490, Liechtenstein",
        "road": null,
        "house_number": null,
        "neighbourhood": null,
        "suburb": null,
        "city_district": null,
        "city": "Vaduz",
        "state": null,
        "postcode": "9490",
        "country": "Liechtenstein",
        "country_code": "li"
      },
      "address": "264, Ebenholz, Vaduz, Oberland, 9490, Liechtenstein"
    },
    {
      "lat": 47.14618361422798,
      "lon": 9.504788044932923,
      "geoinfo": {
        "display_name": "Rheindamm, Ebenholz, Vaduz, Oberland, 9490, Liechtenstein",
        "road": "Rheindamm",
        "house_number": null,
        "neighbourhood": null,
        "suburb": null,
        "city_district": null,
        "city": "Vaduz",
        "state": null,
        "postcode": "9490",
        "country": "Liechtenstein",
        "country_code": "li"
      },
      "address": "632, Rheindamm, Ebenholz, Vaduz, Oberland, 9490, Liechtenstein"
    },
    {
      "lat": 47.12180526994812,
      "lon": 9.515015249460236,
      "geoinfo": {
        "display_name": "Rheindamm, Triesen, Oberland, 9495, Liechtenstein",
        "road": "Rheindamm",
        "house_number": null,
        "neighbourhood": null,
        "suburb": null,
        "city_district": null,
        "city": "Triesen",
        "state": null,
        "postcode": "9495",
        "country": "Liechtenstein",
        "country_code": "li"
      },
      "address": "755, Rheindamm, 9495 Vaduz, Liechtenstein"
    },
    {
      "lat": 47.10711354739866,
      "lon": 9.525722119266202,
      "geoinfo": {
        "display_name": "279, Landstrasse, SonnenPlatz, Triesen, Oberland, 9495, Liechtenstein",
        "road": "Landstrasse",
        "house_number": "279",
        "neighbourhood": null,
        "suburb": null,
        "city_district": null,
        "city": "Triesen",
        "state": null,
        "postcode": "9495",
        "country": "Liechtenstein",
        "country_code": "li"
      },
      "address": "279, Landstrasse, 9495 Vaduz, Liechtenstein"
    },
    {
      "lat": 47.14246708820568,
      "lon": 9.52617807832446,
      "geoinfo": {
        "display_name": "Quadretschaweg, Ebenholz, Vaduz, Oberland, 9490, Liechtenstein",
        "road": "Quadretschaweg",
        "house_number": null,
        "neighbourhood": null,
        "suburb": null,
        "city_district": null,
        "city": "Vaduz",
        "state": null,
        "postcode": "9490",
        "country": "Liechtenstein",
        "country_code": "li"
      },
      "address": "337, Quadretschaweg, Ebenholz, Vaduz, Oberland, 9490, Liechtenstein"
    },
    {
      "lat": 47.155022734541696,
      "lon": 9.516026846813343,
      "geoinfo": {
        "display_name": "39, Im Mühleholz, Mühleholz, Vaduz, Oberland, 9490, Liechtenstein",
        "road": "Im Mühleholz",
        "house_number": "39",
        "neighbourhood": null,
        "suburb": null,
        "city_district": null,
        "city": "Vaduz",
        "state": null,
        "postcode": "9490",
        "country": "Liechtenstein",
        "country_code": "li"
      },
      "address": "39, Im Mühleholz, Mühleholz, Vaduz, Oberland, 9490, Liechtenstein"
    },
    {
      "lat": 47.131438576904294,
      "lon": 9.569053766393544,
      "geoinfo": {
        "display_name": "Valorschstrasse, Triesenberg, Oberland, 9497, Liechtenstein",
        "road": "Valorschstrasse",
        "house_number": null,
        "neighbourhood": null,
        "suburb": null,
        "city_district": null,
        "city": "Triesenberg",
        "state": null,
        "postcode": "9497",
        "country": "Liechtenstein",
        "country_code": "li"
      },
      "address": "688, Valorschstrasse, 9497 Vaduz, Liechtenstein"
    },
    {
      "lat": 47.14080186898443,
      "lon": 9.529118573881929,
      "geoinfo": {
        "display_name": "Wildschlossweg, Ebenholz, Vaduz, Oberland, 9490, Liechtenstein",
        "road": "Wildschlossweg",
        "house_number": null,
        "neighbourhood": null,
        "suburb": null,
        "city_district": null,
        "city": "Vaduz",
        "state": null,
        "postcode": "9490",
        "country": "Liechtenstein",
        "country_code": "li"
      },
      "address": "612, Wildschlossweg, Ebenholz, Vaduz, Oberland, 9490, Liechtenstein"
    },
    {
      "lat": 47.13280756495016,
      "lon": 9.581798458286451,
      "geoinfo": {
        "display_name": "Valorschstrasse, Schaan, Oberland, 9497, Liechtenstein",
        "road": "Valorschstrasse",
        "house_number": null,
        "neighbourhood": null,
        "suburb": null,
        "city_district": null,
        "city": "Schaan",
        "state": null,
        "postcode": "9497",
        "country": "Liechtenstein",
        "country_code": "li"
      },
      "address": "489, Valorschstrasse, 9497 Vaduz, Liechtenstein"
    },
    {
      "lat": 47.133847040469895,
      "lon": 9.528371540098936,
      "geoinfo": {
        "display_name": "Grüschaweg, Vaduz, Oberland, 9490, Liechtenstein",
        "road": "Grüschaweg",
        "house_number": null,
        "neighbourhood": null,
        "suburb": null,
        "city_district": null,
        "city": "Vaduz",
        "state": null,
        "postcode": "9490",
        "country": "Liechtenstein",
        "country_code": "li"
      },
      "address": "382, Grüschaweg, Vaduz, Oberland, 9490, Liechtenstein"
    },
    {
      "lat": 47.16179494861503,
      "lon": 9.533514215693437,
      "geoinfo": {
        "display_name": "Iraggellstrasse, Ebenholz, Vaduz, Oberland, 9490, Liechtenstein",
        "road": "Iraggellstrasse",
        "house_number": null,
        "neighbourhood": null,
        "suburb": null,
        "city_district": null,
        "city": "Vaduz",
        "state": null,
        "postcode": "9490",
        "country": "Liechtenstein",
        "country_code": "li"
      },
      "address": "567, Iraggellstrasse, Ebenholz, Vaduz, Oberland, 9490, Liechtenstein"
    },
    {
      "lat": 47.15496049745128,
      "lon": 9.506514215650885,
      "geoinfo": {
        "display_name": "29, Marianumstrasse, Mühleholz, Vaduz, Oberland, 9490, Liechtenstein",
        "road": "Marianumstrasse",
        "house_number": "29",
        "neighbourhood": null,
        "suburb": null,
        "city_district": null,
        "city": "Vaduz",
        "state": null,
        "postcode": "9490",
        "country": "Liechtenstein",
        "country_code": "li"
      },
      "address": "29, Marianumstrasse, Mühleholz, Vaduz, Oberland, 9490, Liechtenstein"
    },
    {
      "lat": 47.10997888559607,
      "lon": 9.540019368041715,
      "geoinfo": {
        "display_name": "Bergstrasse, Oberdorf, Triesen, Oberland, 9495, Liechtenstein",
        "road": "Bergstrasse",
        "house_number": null,
        "neighbourhood": "Oberdorf",
        "suburb": null,
        "city_district": null,
        "city": "Triesen",
        "state": null,
        "postcode": "9495",
        "country": "Liechtenstein",
        "country_code": "li"
      },
      "address": "622, Bergstrasse, 9495 Vaduz, Liechtenstein"
    },
    {
      "lat": 47.122178134200546,
      "lon": 9.546328980664383,
      "geoinfo": {
        "display_name": "Bergstrasse, Lavadina, Rotenboden, Triesenberg, Oberland, 9497, Liechtenstein",
        "road": "Bergstrasse",
        "house_number": null,
        "neighbourhood": null,
        "suburb": null,
        "city_district": null,
        "city": "Rotenboden",
        "state": null,
        "postcode": "9497",
        "country": "Liechtenstein",
        "country_code": "li"
      },
      "address": "458, Bergstrasse, 9497 Vaduz, Liechtenstein"
    },
    {
      "lat": 47.15310894732568,
      "lon": 9.50213659267676,
      "geoinfo": {
        "display_name": "Obere Rüttigasse, Mühleholz, Vaduz, Oberland, 9494, Liechtenstein",
        "road": "Obere Rüttigasse",
        "house_number": null,
        "neighbourhood": null,
        "suburb": null,
        "city_district": null,
        "city": "Vaduz",
        "state": null,
        "postcode": "9494",
        "country": "Liechtenstein",
        "country_code": "li"
      },
      "address": "134, Obere Rüttigasse, Mühleholz, Vaduz, Oberland, 9494, Liechtenstein"
    },
    {
      "lat": 47.151524332546565,
      "lon": 9.551488366234786,
      "geoinfo": {
        "display_name": "Fürstensteig, Vaduz, Oberland, 9498, Liechtenstein",
        "road": "Fürstensteig",
        "house_number": null,
        "neighbourhood": null,
        "suburb": null,
        "city_district": null,
        "city": "Vaduz",
        "state": null,
        "postcode": "9498",
        "country": "Liechtenstein",
        "country_code": "li"
      },
      "address": "241, Fürstensteig, Vaduz, Oberland, 9498, Liechtenstein"
    },
    {
      "lat": 47.147068267631035,
      "lon": 9.503985570551915,
      "geoinfo": {
        "display_name": "Rheindamm, Ebenholz, Vaduz, Oberland, 9490, Liechtenstein",
        "road": "Rheindamm",
        "house_number": null,
        "neighbourhood": null,
        "suburb": null,
        "city_district": null,
        "city": "Vaduz",
        "state": null,
        "postcode": "9490",
        "country": "Liechtenstein",
        "country_code": "li"
      },
      "address": "577, Rheindamm, Ebenholz, Vaduz, Oberland, 9490, Liechtenstein"
    },
    {
      "lat": 47.154138436512596,
      "lon": 9.551141969085375,
      "geoinfo": {
        "display_name": "Fürstensteig, Triesenberg, Oberland, 9498, Liechtenstein",
        "road": "Fürstensteig",
        "house_number": null,
        "neighbourhood": null,
        "suburb": null,
        "city_district": null,
        "city": "Triesenberg",
        "state": null,
        "postcode": "9498",
        "country": "Liechtenstein",
        "country_code": "li"
      },
      "address": "477, Fürstensteig, 9498 Vaduz, Liechtenstein"
    },
    {
      "lat": 47.14948221652396,
      "lon": 9.529168265798123,
      "geoinfo": {
        "display_name": "Wildschlossweg, Ebenholz, Vaduz, Oberland, 9490, Liechtenstein",
        "road": "Wildschlossweg",
        "house_number": null,
        "neighbourhood": null,
        "suburb": null,
        "city_district": null,
        "city": "Vaduz",
        "state": null,
        "postcode": "9490",
        "country": "Liechtenstein",
        "country_code": "li"
      },
      "address": "588, Wildschlossweg, Ebenholz, Vaduz, Oberland, 9490, Liechtenstein"
    },
    {
      "lat": 47.11246918961367,
      "lon": 9.524554004047511,
      "geoinfo": {
        "display_name": "163, Landstrasse, Oberdorf, Triesen, Oberland, 9495, Liechtenstein",
        "road": "Landstrasse",
        "house_number": "163",
        "neighbourhood": "Oberdorf",
        "suburb": null,
        "city_district": null,
        "city": "Triesen",
        "state": null,
        "postcode": "9495",
        "country": "Liechtenstein",
        "country_code": "li"
      },
      "address": "163, Landstrasse, 9495 Vaduz, Liechtenstein"
    },
    {
      "lat": 47.15013167074862,
      "lon": 9.5268230742331,
      "geoinfo": {
        "display_name": "Iraggellstrasse, Ebenholz, Vaduz, Oberland, 9490, Liechtenstein",
        "road": "Iraggellstrasse",
        "house_number": null,
        "neighbourhood": null,
        "suburb": null,
        "city_district": null,
        "city": "Vaduz",
        "state": null,
        "postcode": "9490",
        "country": "Liechtenstein",
        "country_code": "li"
      },
      "address": "426, Iraggellstrasse, Ebenholz, Vaduz, Oberland, 9490, Liechtenstein"
    },
    {
      "lat": 47.13832466386495,
      "lon": 9.514511929331176,
      "geoinfo": {
        "display_name": "7, Lettgräbli, Ebenholz, Vaduz, Oberland, 9490, Liechtenstein",
        "road": "Lettgräbli",
        "house_number": "7",
        "neighbourhood": null,
        "suburb": null,
        "city_district": null,
        "city": "Vaduz",
        "state": null,
        "postcode": "9490",
        "country": "Liechtenstein",
        "country_code": "li"
      },
      "address": "7, Lettgräbli, Ebenholz, Vaduz, Oberland, 9490, Liechtenstein"
    },
    {
      "lat": 47.1563151451459,
      "lon": 9.551722059617115,
      "geoinfo": {
        "display_name": "Fürstensteig, Triesenberg, Oberland, 9498, Liechtenstein",
        "road": "Fürstensteig",
        "house_number": null,
        "neighbourhood": null,
        "suburb": null,
        "city_district": null,
        "city": "Triesenberg",
        "state": null,
        "postcode": "9498",
        "country": "Liechtenstein",
        "country_code": "li"
      },
      "address": "722, Fürstensteig, 9498 Vaduz, Liechtenstein"
    },
    {
      "lat": 47.14440432375161,
      "lon": 9.549807198155612,
      "geoinfo": {
        "display_name": "Fürstensteig, Gaflei, Masescha, Triesenberg, Oberland, 9497, Liechtenstein",
        "road": "Fürstensteig",
        "house_number": null,
        "neighbourhood": null,
        "suburb": null,
        "city_district": null,
        "city": "Masescha",
        "state": null,
        "postcode": "9497",
        "country": "Liechtenstein",
        "country_code": "li"
      },
      "address": "527, Fürstensteig, 9497 Vaduz, Liechtenstein"
    },
    {
      "lat": 47.160884270558064,
      "lon": 9.556902441022197,
      "geoinfo": {
        "display_name": "Fürstensteig, Triesenberg, Oberland, 9498, Liechtenstein",
        "road": "Fürstensteig",
        "house_number": null,
        "neighbourhood": null,
        "suburb": null,
        "city_district": null,
        "city": "Triesenberg",
        "state": null,
        "postcode": "9498",
        "country": "Liechtenstein",
        "country_code": "li"
      },
      "address": "562, Fürstensteig, 9498 Vaduz, Liechtenstein"
    },
    {
      "lat": 47.14035709749431,
      "lon": 9.525169345537952,
      "geoinfo": {
        "display_name": "Fürst-Franz-Josef-Strasse, Ebenholz, Vaduz, Oberland, 9490, Liechtenstein",
        "road": "Fürst-Franz-Josef-Strasse",
        "house_number": null,
        "neighbourhood": null,
        "suburb": null,
        "city_district": null,
        "city": "Vaduz",
        "state": null,
        "postcode": "9490",
        "country": "Liechtenstein",
        "country_code": "li"
      },
      "address": "172, Fürst-Franz-Josef-Strasse, Ebenholz, Vaduz, Oberland, 9490, Liechtenstein"
    },
    {
      "lat": 47.13651809015665,
      "lon": 9.578461988236647,
      "geoinfo": {
        "display_name": "Valorschstrasse, Schaan, Oberland, 9497, Liechtenstein",
        "road": "Valorschstrasse",
        "house_number": null,
        "neighbourhood": null,
        "suburb": null,
        "city_district": null,
        "city": "Schaan",
        "state": null,
        "postcode": "9497",
        "country": "Liechtenstein",
        "country_code": "li"
      },
      "address": "860, Valorschstrasse, 9497 Vaduz, Liechtenstein"
    },
    {
      "lat": 47.14652713817316,
      "lon": 9.506135638570818,
      "geoinfo": {
        "display_name": "Binnendamm, Ebenholz, Vaduz, Oberland, 9490, Liechtenstein",
        "road": "Binnendamm",
        "house_number": null,
        "neighbourhood": null,
        "suburb": null,
        "city_district": null,
        "city": "Vaduz",
        "state": null,
        "postcode": "9490",
        "country": "Liechtenstein",
        "country_code": "li"
      },
      "address": "444, Binnendamm, Ebenholz, Vaduz, Oberland, 9490, Liechtenstein"
    },
    {
      "lat": 47.16210784406763,
      "lon": 9.532833808247068,
      "geoinfo": {
        "display_name": "Iraggellstrasse, Ebenholz, Vaduz, Oberland, 9490, Liechtenstein",
        "road": "Iraggellstrasse",
        "house_number": null,
        "neighbourhood": null,
        "suburb": null,
        "city_district": null,
        "city": "Vaduz",
        "state": null,
        "postcode": "9490",
        "country": "Liechtenstein",
        "country_code": "li"
      },
      "address": "076, Iraggellstrasse, Ebenholz, Vaduz, Oberland, 9490, Liechtenstein"
    },
    {
      "lat": 47.16111410423154,
      "lon": 9.52714388588887,
      "geoinfo": {
        "display_name": "Iraggellstrasse, Ebenholz, Vaduz, Oberland, 9490, Liechtenstein",
        "road": "Iraggellstrasse",
        "house_number": null,
        "neighbourhood": null,
        "suburb": null,
        "city_district": null,
        "city": "Vaduz",
        "state": null,
        "postcode": "9490",
        "country": "Liechtenstein",
        "country_code": "li"
      },
      "address": "077, Iraggellstrasse, Ebenholz, Vaduz, Oberland, 9490, Liechtenstein"
    }
  ],
  "updated_at": "2025-10-19T05:34:00.689144+00:00",
  "_kind": "geo_samples"
}