{
  "country_code": "GR",
  "country": "Greece",
  "city": "Moskháton",
  "geonameid": 256750,
  "target_addresses": 4,
  "samples": [
    {
      "lat": 37.922073511823164,
      "lon": 23.6640403446734,
      "geoinfo": {
        "display_name": "Palaio Faliro, Municipality of Palaio Faliro, Regional Unit of South Athens, Attica, 175 61, Greece",
        "road": null,
        "house_number": null,
        "neighbourhood": null,
        "suburb": "Palaio Faliro",
        "city_district": null,
        "city": null,
        "state": "Attica",
        "postcode": "175 61",
        "country": "Greece",
        "country_code": "gr"
      },
      "address": "Palaio Faliro, Municipality of Palaio Faliro, Regional Unit of South Athens, Attica, 175 61, Greece"
    },
    {
      "lat": 37.92636432826571,
      "lon": 23.635929156028034,
      "geoinfo": {
        "display_name": "Ακτή Θεμιστοκλέους, Καλλίπολη, 1st District of Piraeus, Piraeus, Municipality of Piraeus, Regional Unit of Piraeus, Attica, 185 39, Greece",
        "road": "Ακτή Θεμιστοκλέους",
        "house_number": null,
        "neighbourhood": "Καλλίπολη",
        "suburb": null,
        "city_district": "1st District of Piraeus",
        "city": "Piraeus",
        "state": "Attica",
        "postcode": "185 39",
        "country": "Greece",
        "country_code": "gr"
      },
      "address": "Ακτή Θεμιστοκλέους, Καλλίπολη, 1st District of Piraeus, Piraeus, Municipality of Piraeus, Regional Unit of Piraeus, Attica, 185 39, Greece"
    },
    {
      "lat": 37.935710811810765,
      "lon": 23.676659351599316,
      "geoinfo": {
        "display_name": "Προβλήτα Α, Τροκαντερό, Palaio Faliro, Municipality of Palaio Faliro, Regional Unit of South Athens, Attica, 175 61, Greece",
        "road": "Προβλήτα Α",
        "house_number": null,
        "neighbourhood": "Τροκαντερό",
        "suburb": "Palaio Faliro",
        "city_district": null,
        "city": null,
        "state": "Attica",
        "postcode": "175 61",
        "country": "Greece",
        "country_code": "gr"
      },
      "address": "Προβλήτα Α, Τροκαντερό, Palaio Faliro, Municipality of Palaio Faliro, Regional Unit of South Athens, Attica, 175 61, Greece"
    },
    {
      "lat": 37.917805360033334,
      "lon": 23.64459156280235,
      "geoinfo": {
        "display_name": "Άγιος Βασίλειος, 1st District of Piraeus, Piraeus, Municipality of Piraeus, Regional Unit of Piraeus, Attica, 185 37, Greece",
        "road": null,
        "house_number": null,
        "neighbourhood": "Άγιος Βασίλειος",
        "suburb": null,
        "city_district": "1st District of Piraeus",
        "city": "Piraeus",
        "state": "Attica",
        "postcode": "185 37",
        "country": "Greece",
        "country_code": "gr"
      },
      "address": "Άγιος Βασίλειος, 1st District of Piraeus, Piraeus, Municipality of Piraeus, Regional Unit of Piraeus, Attica, 185 37, Greece"
    }
  ],
  "updated_at": "2025-10-19T04:37:40.116541+00:00",
  "_kind": "geo_samples"
}