{
  "country_code": "GR",
  "country": "Greece",
  "city": "Orestiáda",
  "geonameid": 734880,
  "target_addresses": 4,
  "samples": [
    {
      "lat": 41.480045200713086,
      "lon": 26.525478416719878,
      "geoinfo": {
        "display_name": "Orestiada, Orestiada Municipality, Evros Regional Unit, Eastern Macedonia and Thrace, Macedonia and Thrace, 682 00, Greece",
        "road": null,
        "house_number": null,
        "neighbourhood": null,
        "suburb": null,
        "city_district": null,
        "city": "Orestiada",
        "state": "Macedonia and Thrace",
        "postcode": "682 00",
        "country": "Greece",
        "country_code": "gr"
      },
      "address": "Orestiáda, Macedonia and Thrace, Greece"
    },
    {
      "lat": 41.49406740632858,
      "lon": 26.47436056161029,
      "geoinfo": {
        "display_name": "Άγιος Γεώργιος, Ποιμενικό - Λεπτή, Αμπελάκια, Lepti, Orestiada Municipality, Evros Regional Unit, Eastern Macedonia and Thrace, Macedonia and Thrace, 682 00, Greece",
        "road": "Ποιμενικό - Λεπτή",
        "house_number": null,
        "neighbourhood": null,
        "suburb": null,
        "city_district": null,
        "city": "Lepti",
        "state": "Macedonia and Thrace",
        "postcode": "682 00",
        "country": "Greece",
        "country_code": "gr"
      },
      "address": "Άγιος Γεώργιος, Ποιμενικό - Λεπτή, Αμπελάκια, Lepti, Orestiada Municipality, Evros Regional Unit, Eastern Macedonia and Thrace, Macedonia and Thrace, 682 00, Greece"
    },
    {
      "lat": 41.52945390319292,
      "lon": 26.534457989754912,
      "geoinfo": {
        "display_name": "Orestiada, Orestiada Municipality, Evros Regional Unit, Eastern Macedonia and Thrace, Macedonia and Thrace, 682 00, Greece",
        "road": null,
        "house_number": null,
        "neighbourhood": null,
        "suburb": null,
        "city_district": null,
        "city": "Orestiada",
        "state": "Macedonia and Thrace",
        "postcode": "682 00",
        "country": "Greece",
        "country_code": "gr"
      },
      "address": "237, Orestiáda, 682 00 Macedonia and Thrace, Greece"
    },
    {
      "lat": 41.48833193406832,
      "lon": 26.578379748704787,
      "geoinfo": {
        "display_name": "Orestiada Municipality, Evros Regional Unit, Eastern Macedonia and Thrace, Macedonia and Thrace, Greece",
        "road": null,
        "house_number": null,
        "neighbourhood": null,
        "suburb": null,
        "city_district": null,
        "city": null,
        "state": "Macedonia and Thrace",
        "postcode": null,
        "country": "Greece",
        "country_code": "gr"
      },
      "address": "565, Orestiada Municipality, Evros Regional Unit, Eastern Macedonia and Thrace, 74458 Macedonia and Thrace, Greece"
    }
  ],
  "updated_at": "2025-10-19T04:38:44.292516+00:00",
  "_kind": "geo_samples"
}