{
  "country_code": "GR",
  "country": "Greece",
  "city": "Sérres",
  "geonameid": 734330,
  "target_addresses": 4,
  "samples": [
    {
      "lat": 41.05894610150365,
      "lon": 23.542268235087807,
      "geoinfo": {
        "display_name": "Serres, Serres Municipality, Serres Regional Unit, Central Macedonia, Macedonia and Thrace, 621 00, Greece",
        "road": null,
        "house_number": null,
        "neighbourhood": null,
        "suburb": null,
        "city_district": null,
        "city": "Serres",
        "state": "Macedonia and Thrace",
        "postcode": "621 00",
        "country": "Greece",
        "country_code": "gr"
      },
      "address": "Sérres, Macedonia and Thrace, Greece"
    },
    {
      "lat": 41.09725125322202,
      "lon": 23.558008542982662,
      "geoinfo": {
        "display_name": "Πινδάρου, Άγιοι Ανάργυροι - Κατακονόζη, Serres, Serres Municipality, Serres Regional Unit, Central Macedonia, Macedonia and Thrace, 621 00, Greece",
        "road": "Πινδάρου",
        "house_number": null,
        "neighbourhood": "Άγιοι Ανάργυροι - Κατακονόζη",
        "suburb": null,
        "city_district": null,
        "city": "Serres",
        "state": "Macedonia and Thrace",
        "postcode": "621 00",
        "country": "Greece",
        "country_code": "gr"
      },
      "address": "Πινδάρου, Άγιοι Ανάργυροι - Κατακονόζη, Serres, Serres Municipality, Serres Regional Unit, Central Macedonia, Macedonia and Thrace, 621 00, Greece"
    },
    {
      "lat": 41.0895484424547,
      "lon": 23.528070764058246,
      "geoinfo": {
        "display_name": "Δημοτικό Στάδιο Σερρών «Γεώργιος Τοπτσής», Thessaloniki - Serres Highway, Ομόνοια - Καλύβια, Serres, Serres Municipality, Serres Regional Unit, Central Macedonia, Macedonia and Thrace, 621 00, Greece",
        "road": "Thessaloniki - Serres Highway",
        "house_number": null,
        "neighbourhood": "Ομόνοια - Καλύβια",
        "suburb": null,
        "city_district": null,
        "city": "Serres",
        "state": "Macedonia and Thrace",
        "postcode": "621 00",
        "country": "Greece",
        "country_code": "gr"
      },
      "address": "Δημοτικό Στάδιο Σερρών «Γεώργιος Τοπτσής», Thessaloniki - Serres Highway, Ομόνοια - Καλύβια, Serres, Serres Municipality, Serres Regional Unit, Central Macedonia, Macedonia and Thrace, 621 00, Greece"
    },
    {
      "lat": 41.05304032286611,
      "lon": 23.510119129684,
      "geoinfo": {
        "display_name": "Σέρρες - Μητρούσι, Lefkonas, Serres Municipality, Serres Regional Unit, Central Macedonia, Macedonia and Thrace, 621 00, Greece",
        "road": "Σέρρες - Μητρούσι",
        "house_number": null,
        "neighbourhood": null,
        "suburb": null,
        "city_district": null,
        "city": "Lefkonas",
        "state": "Macedonia and Thrace",
        "postcode": "621 00",
        "country": "Greece",
        "country_code": "gr"
      },
      "address": "Σέρρες - Μητρούσι, Lefkonas, Serres Municipality, Serres Regional Unit, Central Macedonia, Macedonia and Thrace, 621 00, Greece"
    }
  ],
  "updated_at": "2025-10-19T04:38:36.119441+00:00",
  "_kind": "geo_samples"
}