{
  "country_code": "RW",
  "country": "Rwanda",
  "city": "Busogo",
  "geonameid": 203119,
  "target_addresses": 3,
  "samples": [
    {
      "lat": -1.5845300271420049,
      "lon": 29.577490784138263,
      "geoinfo": {
        "display_name": "DR34, Nkotsi, Kintobo, Nyabihu, Western Province, Rwanda",
        "road": "DR34",
        "house_number": null,
        "neighbourhood": null,
        "suburb": null,
        "city_district": "Nkotsi",
        "city": "Kintobo",
        "state": "Western Province",
        "postcode": null,
        "country": "Rwanda",
        "country_code": "rw"
      },
      "address": "DR34, Busogo, Western Province, Rwanda"
    },
    {
      "lat": -1.5505169457573134,
      "lon": 29.57196907240027,
      "geoinfo": {
        "display_name": "Busogo, Musanze, Northern Province, Rwanda",
        "road": null,
        "house_number": null,
        "neighbourhood": null,
        "suburb": null,
        "city_district": null,
        "city": "Musanze",
        "state": "Northern Province",
        "postcode": null,
        "country": "Rwanda",
        "country_code": "rw"
      },
      "address": "Busogo, Northern Province, Rwanda"
    },
    {
      "lat": -1.552944355573813,
      "lon": 29.50621078721179,
      "geoinfo": {
        "display_name": "Gataraga, Musanze, Northern Province, Rwanda",
        "road": null,
        "house_number": null,
        "neighbourhood": null,
        "suburb": null,
        "city_district": "Gataraga",
        "city": "Musanze",
        "state": "Northern Province",
        "postcode": null,
        "country": "Rwanda",
        "country_code": "rw"
      },
      "address": "512, Gataraga, Musanze, 01142 Northern Province, Rwanda"
    },
    {
      "lat": -1.5766171287159805,
      "lon": 29.508845623195764,
      "geoinfo": {
        "display_name": "Mukamira, Nyabihu, Western Province, Rwanda",
        "road": null,
        "house_number": null,
        "neighbourhood": null,
        "suburb": null,
        "city_district": null,
        "city": "Mukamira",
        "state": "Western Province",
        "postcode": null,
        "country": "Rwanda",
        "country_code": "rw"
      },
      "address": "084, Mukamira, Nyabihu, 29051 Western Province, Rwanda"
    },
    {
      "lat": -1.5629347117245647,
      "lon": 29.51279252372908,
      "geoinfo": {
        "display_name": "Gataraga, Musanze, Northern Province, Rwanda",
        "road": null,
        "house_number": null,
        "neighbourhood": null,
        "suburb": null,
        "city_district": "Gataraga",
        "city": "Musanze",
        "state": "Northern Province",
        "postcode": null,
        "country": "Rwanda",
        "country_code": "rw"
      },
      "address": "744, Gataraga, Musanze, 16475 Northern Province, Rwanda"
    }
  ],
  "updated_at": "2025-10-19T06:56:28.292586+00:00",
  "_kind": "geo_samples"
}