{
  "country_code": "RW",
  "country": "Rwanda",
  "city": "Kibungo",
  "geonameid": 202068,
  "target_addresses": 3,
  "samples": [
    {
      "lat": -2.1420292967992762,
      "lon": 30.516213947432803,
      "geoinfo": {
        "display_name": "Rurenge, Ngoma District, Eastern Province, Rwanda",
        "road": null,
        "house_number": null,
        "neighbourhood": null,
        "suburb": null,
        "city_district": null,
        "city": "Rurenge",
        "state": "Eastern Province",
        "postcode": null,
        "country": "Rwanda",
        "country_code": "rw"
      },
      "address": "Kibungo, Eastern Province, Rwanda"
    },
    {
      "lat": -2.1552481655041364,
      "lon": 30.58171911461358,
      "geoinfo": {
        "display_name": "NR4, Ruramira, Kayonza, Kibungo, Ngoma District, Eastern Province, Rwanda",
        "road": "NR4",
        "house_number": null,
        "neighbourhood": null,
        "suburb": null,
        "city_district": null,
        "city": "Kayonza",
        "state": "Eastern Province",
        "postcode": null,
        "country": "Rwanda",
        "country_code": "rw"
      },
      "address": "NR4, Kibungo, Eastern Province, Rwanda"
    },
    {
      "lat": -2.16970530349985,
      "lon": 30.53748967765611,
      "geoinfo": {
        "display_name": "NR6, Kibungo, Ngoma District, Eastern Province, Rwanda",
        "road": "NR6",
        "house_number": null,
        "neighbourhood": null,
        "suburb": null,
        "city_district": null,
        "city": "Kibungo",
        "state": "Eastern Province",
        "postcode": null,
        "country": "Rwanda",
        "country_code": "rw"
      },
      "address": "NR6, Kibungo, Eastern Province, Rwanda"
    },
    {
      "lat": -2.147262671728508,
      "lon": 30.58385642440916,
      "geoinfo": {
        "display_name": "NR4, Ruramira, Kayonza, Kibungo, Ngoma District, Eastern Province, Rwanda",
        "road": "NR4",
        "house_number": null,
        "neighbourhood": null,
        "suburb": null,
        "city_district": null,
        "city": "Kayonza",
        "state": "Eastern Province",
        "postcode": null,
        "country": "Rwanda",
        "country_code": "rw"
      },
      "address": "NR4, Ruramira, Kayonza, Kibungo, Ngoma District, 24286 Eastern Province, Rwanda"
    },
    {
      "lat": -2.124969791719654,
      "lon": 30.564896967585998,
      "geoinfo": {
        "display_name": "Kibungo, Ngoma District, Eastern Province, Rwanda",
        "road": null,
        "house_number": null,
        "neighbourhood": null,
        "suburb": null,
        "city_district": null,
        "city": "Kibungo",
        "state": "Eastern Province",
        "postcode": null,
        "country": "Rwanda",
        "country_code": "rw"
      },
      "address": "465, Kibungo, Ngoma District, 95808 Eastern Province, Rwanda"
    },
    {
      "lat": -2.172985349136699,
      "lon": 30.584221856210274,
      "geoinfo": {
        "display_name": "Rukira, Ngoma District, Eastern Province, Rwanda",
        "road": null,
        "house_number": null,
        "neighbourhood": null,
        "suburb": null,
        "city_district": null,
        "city": "Rukira",
        "state": "Eastern Province",
        "postcode": null,
        "country": "Rwanda",
        "country_code": "rw"
      },
      "address": "687, Kibungo, 41155 Eastern Province, Rwanda"
    }
  ],
  "updated_at": "2025-10-19T06:30:33.884699+00:00",
  "_kind": "geo_samples"
}