{
  "country_code": "RW",
  "country": "Rwanda",
  "city": "Mahembe",
  "geonameid": 7662813,
  "target_addresses": 3,
  "samples": [
    {
      "lat": -2.264041219221749,
      "lon": 29.325459446226947,
      "geoinfo": {
        "display_name": "Twumba, Karongi, Western Province, Rwanda",
        "road": null,
        "house_number": null,
        "neighbourhood": null,
        "suburb": null,
        "city_district": null,
        "city": "Twumba",
        "state": "Western Province",
        "postcode": null,
        "country": "Rwanda",
        "country_code": "rw"
      },
      "address": "Mahembe, Western Province, Rwanda"
    },
    {
      "lat": -2.2133922540906936,
      "lon": 29.28720809355929,
      "geoinfo": {
        "display_name": "DR10, Mugonero, Mahembe, Nyamasheke, Western Province, Rwanda",
        "road": "DR10",
        "house_number": null,
        "neighbourhood": null,
        "suburb": null,
        "city_district": null,
        "city": "Mahembe",
        "state": "Western Province",
        "postcode": null,
        "country": "Rwanda",
        "country_code": "rw"
      },
      "address": "DR10, Mahembe, Western Province, Rwanda"
    },
    {
      "lat": -2.2084345752493273,
      "lon": 29.29745614600191,
      "geoinfo": {
        "display_name": "Mahembe, Nyamasheke, Western Province, Rwanda",
        "road": null,
        "house_number": null,
        "neighbourhood": null,
        "suburb": null,
        "city_district": null,
        "city": "Mahembe",
        "state": "Western Province",
        "postcode": null,
        "country": "Rwanda",
        "country_code": "rw"
      },
      "address": "150, Mahembe, Nyamasheke, 82621 Western Province, Rwanda"
    },
    {
      "lat": -2.2247861045927557,
      "lon": 29.27426889184283,
      "geoinfo": {
        "display_name": "Mahembe, Nyamasheke, Western Province, Rwanda",
        "road": null,
        "house_number": null,
        "neighbourhood": null,
        "suburb": null,
        "city_district": null,
        "city": "Mahembe",
        "state": "Western Province",
        "postcode": null,
        "country": "Rwanda",
        "country_code": "rw"
      },
      "address": "972, Mahembe, Nyamasheke, 57470 Western Province, Rwanda"
    },
    {
      "lat": -2.2643543786043447,
      "lon": 29.293146658394598,
      "geoinfo": {
        "display_name": "Mahembe, Nyamasheke, Western Province, Rwanda",
        "road": null,
        "house_number": null,
        "neighbourhood": null,
        "suburb": null,
        "city_district": null,
        "city": "Mahembe",
        "state": "Western Province",
        "postcode": null,
        "country": "Rwanda",
        "country_code": "rw"
      },
      "address": "070, Mahembe, Nyamasheke, 45187 Western Province, Rwanda"
    }
  ],
  "updated_at": "2025-10-19T04:37:04.369057+00:00",
  "_kind": "geo_samples"
}