{
  "country_code": "RW",
  "country": "Rwanda",
  "city": "Nyanza",
  "geonameid": 7062967,
  "target_addresses": 3,
  "samples": [
    {
      "lat": -2.3266070352853943,
      "lon": 29.76811065813632,
      "geoinfo": {
        "display_name": "Kigoma, Busasamana, Nyanza, Southern Province, Rwanda",
        "road": null,
        "house_number": null,
        "neighbourhood": null,
        "suburb": null,
        "city_district": null,
        "city": "Busasamana",
        "state": "Southern Province",
        "postcode": null,
        "country": "Rwanda",
        "country_code": "rw"
      },
      "address": "Nyanza, Southern Province, Rwanda"
    },
    {
      "lat": -2.3499521057218176,
      "lon": 29.766921367260714,
      "geoinfo": {
        "display_name": "NR1, Nyarusange, Busasamana, Nyanza, Southern Province, Rwanda",
        "road": "NR1",
        "house_number": null,
        "neighbourhood": null,
        "suburb": null,
        "city_district": null,
        "city": "Busasamana",
        "state": "Southern Province",
        "postcode": null,
        "country": "Rwanda",
        "country_code": "rw"
      },
      "address": "NR1, Nyanza, Southern Province, Rwanda"
    },
    {
      "lat": -2.3296484346774537,
      "lon": 29.778600758831775,
      "geoinfo": {
        "display_name": "NR6, Kigoma, Nyanza, Southern Province, Rwanda",
        "road": "NR6",
        "house_number": null,
        "neighbourhood": null,
        "suburb": null,
        "city_district": null,
        "city": "Kigoma",
        "state": "Southern Province",
        "postcode": null,
        "country": "Rwanda",
        "country_code": "rw"
      },
      "address": "NR6, Nyanza, Southern Province, Rwanda"
    },
    {
      "lat": -2.3196195201903214,
      "lon": 29.740744564485123,
      "geoinfo": {
        "display_name": "Mekingo, Nyanza, Southern Province, Rwanda",
        "road": null,
        "house_number": null,
        "neighbourhood": null,
        "suburb": null,
        "city_district": null,
        "city": "Mekingo",
        "state": "Southern Province",
        "postcode": null,
        "country": "Rwanda",
        "country_code": "rw"
      },
      "address": "738, Mekingo, Nyanza, 62220 Southern Province, Rwanda"
    },
    {
      "lat": -2.392921162806084,
      "lon": 29.760800688330338,
      "geoinfo": {
        "display_name": "Kinazi, Huye, Southern Province, Rwanda",
        "road": null,
        "house_number": null,
        "neighbourhood": null,
        "suburb": null,
        "city_district": null,
        "city": "Kinazi",
        "state": "Southern Province",
        "postcode": null,
        "country": "Rwanda",
        "country_code": "rw"
      },
      "address": "469, Nyanza, 86249 Southern Province, Rwanda"
    },
    {
      "lat": -2.317044479787151,
      "lon": 29.722905310890884,
      "geoinfo": {
        "display_name": "Rwabicuma, Nyanza, Southern Province, Rwanda",
        "road": null,
        "house_number": null,
        "neighbourhood": null,
        "suburb": null,
        "city_district": null,
        "city": "Rwabicuma",
        "state": "Southern Province",
        "postcode": null,
        "country": "Rwanda",
        "country_code": "rw"
      },
      "address": "327, Rwabicuma, Nyanza, 97431 Southern Province, Rwanda"
    }
  ],
  "updated_at": "2025-10-19T09:43:03.238271+00:00",
  "_kind": "geo_samples"
}