{
  "country_code": "RW",
  "country": "Rwanda",
  "city": "Shyorongi",
  "geonameid": 202345,
  "target_addresses": 3,
  "samples": [
    {
      "lat": -1.8644872922360447,
      "lon": 29.93088152109403,
      "geoinfo": {
        "display_name": "DR51, Shyorongi, Rulindo, Northern Province, Rwanda",
        "road": "DR51",
        "house_number": null,
        "neighbourhood": null,
        "suburb": null,
        "city_district": null,
        "city": "Shyorongi",
        "state": "Northern Province",
        "postcode": null,
        "country": "Rwanda",
        "country_code": "rw"
      },
      "address": "DR51, Shyorongi, Northern Province, Rwanda"
    },
    {
      "lat": -1.8671924123213217,
      "lon": 29.97549997230825,
      "geoinfo": {
        "display_name": "Shyorongi, Rulindo, Northern Province, Rwanda",
        "road": null,
        "house_number": null,
        "neighbourhood": null,
        "suburb": null,
        "city_district": null,
        "city": "Shyorongi",
        "state": "Northern Province",
        "postcode": null,
        "country": "Rwanda",
        "country_code": "rw"
      },
      "address": "Shyorongi, Northern Province, Rwanda"
    },
    {
      "lat": -1.843975167997121,
      "lon": 29.959837186397507,
      "geoinfo": {
        "display_name": "NR2, Shyorongi, Rusiga, Rulindo, Northern Province, Rwanda",
        "road": "NR2",
        "house_number": null,
        "neighbourhood": null,
        "suburb": null,
        "city_district": null,
        "city": "Rusiga",
        "state": "Northern Province",
        "postcode": null,
        "country": "Rwanda",
        "country_code": "rw"
      },
      "address": "NR2, Shyorongi, Northern Province, Rwanda"
    },
    {
      "lat": -1.8495760264529333,
      "lon": 29.986450527648834,
      "geoinfo": {
        "display_name": "DR49, Shyorongi, Rulindo, Northern Province, Rwanda",
        "road": "DR49",
        "house_number": null,
        "neighbourhood": null,
        "suburb": null,
        "city_district": null,
        "city": "Shyorongi",
        "state": "Northern Province",
        "postcode": null,
        "country": "Rwanda",
        "country_code": "rw"
      },
      "address": "DR49, Shyorongi, Rulindo, 45415 Northern Province, Rwanda"
    },
    {
      "lat": -1.8441479493669193,
      "lon": 29.962026512906288,
      "geoinfo": {
        "display_name": "NR2, Shyorongi, Rusiga, Rulindo, Northern Province, Rwanda",
        "road": "NR2",
        "house_number": null,
        "neighbourhood": null,
        "suburb": null,
        "city_district": null,
        "city": "Rusiga",
        "state": "Northern Province",
        "postcode": null,
        "country": "Rwanda",
        "country_code": "rw"
      },
      "address": "NR2, Shyorongi, Rusiga, Rulindo, 95727 Northern Province, Rwanda"
    },
    {
      "lat": -1.8466943025426812,
      "lon": 30.001507523120203,
      "geoinfo": {
        "display_name": "Gasabo District, Kigali City, Rwanda",
        "road": null,
        "house_number": null,
        "neighbourhood": null,
        "suburb": null,
        "city_district": null,
        "city": null,
        "state": "Kigali City",
        "postcode": null,
        "country": "Rwanda",
        "country_code": "rw"
      },
      "address": "264, Gasabo District, 15208 Kigali City, Rwanda"
    }
  ],
  "updated_at": "2025-10-19T06:55:46.691473+00:00",
  "_kind": "geo_samples"
}