{
  "country_code": "SE",
  "country": "Sweden",
  "city": "Landskrona",
  "geonameid": 2697720,
  "target_addresses": 3,
  "samples": [
    {
      "lat": 55.84939065742873,
      "lon": 12.811919222914653,
      "geoinfo": {
        "display_name": "Landskrona, Landskrona kommun, Skåne County, 261 31, Sweden",
        "road": null,
        "house_number": null,
        "neighbourhood": null,
        "suburb": null,
        "city_district": null,
        "city": "Landskrona",
        "state": null,
        "postcode": "261 31",
        "country": "Sweden",
        "country_code": "se"
      },
      "address": "Landskrona, Sweden"
    },
    {
      "lat": 55.835473228472644,
      "lon": 12.81796140433599,
      "geoinfo": {
        "display_name": "Landskrona, Landskrona kommun, Skåne County, 261 31, Sweden",
        "road": null,
        "house_number": null,
        "neighbourhood": null,
        "suburb": null,
        "city_district": null,
        "city": "Landskrona",
        "state": null,
        "postcode": "261 31",
        "country": "Sweden",
        "country_code": "se"
      },
      "address": "Landskrona, Landskrona kommun, Skåne County, 261 31, Sweden"
    },
    {
      "lat": 55.9084977868865,
      "lon": 12.82473783160234,
      "geoinfo": {
        "display_name": "Vallåkravägen, Säbyholm, Smörhålan, Landskrona kommun, Skåne County, 261 92, Sweden",
        "road": "Vallåkravägen",
        "house_number": null,
        "neighbourhood": "Säbyholm",
        "suburb": null,
        "city_district": null,
        "city": null,
        "state": null,
        "postcode": "261 92",
        "country": "Sweden",
        "country_code": "se"
      },
      "address": "Vallåkravägen, Säbyholm, Smörhålan, Landskrona kommun, Skåne County, 261 92, Sweden"
    },
    {
      "lat": 55.878343239090825,
      "lon": 12.899972673673915,
      "geoinfo": {
        "display_name": "Eslövsvägen, Råga Hörstad, Landskrona kommun, Skåne County, 261 51, Sweden",
        "road": "Eslövsvägen",
        "house_number": null,
        "neighbourhood": null,
        "suburb": null,
        "city_district": null,
        "city": null,
        "state": null,
        "postcode": "261 51",
        "country": "Sweden",
        "country_code": "se"
      },
      "address": "Eslövsvägen, Råga Hörstad, Landskrona kommun, Skåne County, 261 51, Sweden"
    }
  ],
  "updated_at": "2025-10-19T06:15:14.387137+00:00",
  "_kind": "geo_samples"
}