{
  "country_code": "SE",
  "country": "Sweden",
  "city": "Mölnlycke",
  "geonameid": 2691440,
  "target_addresses": 3,
  "samples": [
    {
      "lat": 57.62160781887919,
      "lon": 12.142423817130174,
      "geoinfo": {
        "display_name": "Kvarnabacken, Greggered, Mölndals kommun, Västra Götaland County, 437 91, Sweden",
        "road": null,
        "house_number": null,
        "neighbourhood": null,
        "suburb": null,
        "city_district": null,
        "city": null,
        "state": null,
        "postcode": "437 91",
        "country": "Sweden",
        "country_code": "se"
      },
      "address": "Mölnlycke, Sweden"
    },
    {
      "lat": 57.63177473489952,
      "lon": 12.144062294970663,
      "geoinfo": {
        "display_name": "9, Västerhyltanvägen, Benareby, Härryda kommun, Västra Götaland County, 435 39, Sweden",
        "road": "Västerhyltanvägen",
        "house_number": "9",
        "neighbourhood": null,
        "suburb": null,
        "city_district": null,
        "city": "Benareby",
        "state": null,
        "postcode": "435 39",
        "country": "Sweden",
        "country_code": "se"
      },
      "address": "9, Västerhyltanvägen, Benareby, Härryda kommun, Västra Götaland County, 435 39, Sweden"
    },
    {
      "lat": 57.65276383440738,
      "lon": 12.074432253387414,
      "geoinfo": {
        "display_name": "Herrgårdsvägen, Pixbo, Mölnlycke, Härryda kommun, Västra Götaland County, 435 32, Sweden",
        "road": "Herrgårdsvägen",
        "house_number": null,
        "neighbourhood": null,
        "suburb": "Pixbo",
        "city_district": null,
        "city": "Mölnlycke",
        "state": null,
        "postcode": "435 32",
        "country": "Sweden",
        "country_code": "se"
      },
      "address": "Herrgårdsvägen, Pixbo, Mölnlycke, Härryda kommun, Västra Götaland County, 435 32, Sweden"
    },
    {
      "lat": 57.684665679757614,
      "lon": 12.16962143119527,
      "geoinfo": {
        "display_name": "Bårhultsvägen, Kärret, Härryda kommun, Västra Götaland County, 438 91, Sweden",
        "road": "Bårhultsvägen",
        "house_number": null,
        "neighbourhood": null,
        "suburb": null,
        "city_district": null,
        "city": null,
        "state": null,
        "postcode": "438 91",
        "country": "Sweden",
        "country_code": "se"
      },
      "address": "Bårhultsvägen, Kärret, Härryda kommun, Västra Götaland County, 438 91, Sweden"
    }
  ],
  "updated_at": "2025-10-19T06:15:08.074587+00:00",
  "_kind": "geo_samples"
}