{
  "country_code": "SE",
  "country": "Sweden",
  "city": "Nyköping",
  "geonameid": 2687700,
  "target_addresses": 3,
  "samples": [
    {
      "lat": 58.7104484033097,
      "lon": 17.00241700942251,
      "geoinfo": {
        "display_name": "Björshultsbanan, Sörmlandsleden, Nyberga, Nyköping, Nyköpings kommun, Södermanland County, 611 45, Sweden",
        "road": "Sörmlandsleden",
        "house_number": null,
        "neighbourhood": null,
        "suburb": null,
        "city_district": null,
        "city": "Nyköping",
        "state": null,
        "postcode": "611 45",
        "country": "Sweden",
        "country_code": "se"
      },
      "address": "Sörmlandsleden, Nyköping, Sweden"
    },
    {
      "lat": 58.71613911584922,
      "lon": 17.01335141832859,
      "geoinfo": {
        "display_name": "Flättnaleden, Stora Björshult, Nyköping, Nyköpings kommun, Södermanland County, 611 45, Sweden",
        "road": "Flättnaleden",
        "house_number": null,
        "neighbourhood": null,
        "suburb": null,
        "city_district": null,
        "city": "Nyköping",
        "state": null,
        "postcode": "611 45",
        "country": "Sweden",
        "country_code": "se"
      },
      "address": "Flättnaleden, Stora Björshult, Nyköping, Nyköpings kommun, Södermanland County, 611 45, Sweden"
    },
    {
      "lat": 58.73713292873704,
      "lon": 17.044217428811514,
      "geoinfo": {
        "display_name": "Strandstuviksvägen, Karlslund, Nyköping, Nyköpings kommun, Södermanland County, 611 64, Sweden",
        "road": "Strandstuviksvägen",
        "house_number": null,
        "neighbourhood": null,
        "suburb": null,
        "city_district": null,
        "city": "Nyköping",
        "state": null,
        "postcode": "611 64",
        "country": "Sweden",
        "country_code": "se"
      },
      "address": "Strandstuviksvägen, Karlslund, Nyköping, Nyköpings kommun, Södermanland County, 611 64, Sweden"
    }
  ],
  "updated_at": "2025-10-19T06:14:55.404460+00:00",
  "_kind": "geo_samples"
}