{
  "country_code": "CY",
  "country": "Cyprus",
  "city": "Káto Lakatámeia",
  "geonameid": 146523,
  "target_addresses": 7,
  "samples": [
    {
      "lat": 35.079412119741576,
      "lon": 33.313869528983936,
      "geoinfo": {
        "display_name": "Tseri, Lakatameia Municipality, Nicosia District, Cyprus, 2480, Cyprus",
        "road": null,
        "house_number": null,
        "neighbourhood": null,
        "suburb": null,
        "city_district": null,
        "city": "Tseri",
        "state": "Cyprus",
        "postcode": "2480",
        "country": "Cyprus",
        "country_code": "cy"
      },
      "address": "Káto Lakatámeia, Cyprus, Cyprus"
    },
    {
      "lat": 35.126370250237635,
      "lon": 33.365922760110855,
      "geoinfo": {
        "display_name": "Meteoron, Shakolas Emporium Park, Apostolos Varnavas & Agios Makarios, Strovolos, Strovolos Municipality, Nicosia District, Cyprus, 2030, Cyprus",
        "road": "Meteoron",
        "house_number": null,
        "neighbourhood": null,
        "suburb": null,
        "city_district": "Apostolos Varnavas & Agios Makarios",
        "city": "Strovolos",
        "state": "Cyprus",
        "postcode": "2030",
        "country": "Cyprus",
        "country_code": "cy"
      },
      "address": "Meteoron, Káto Lakatámeia, Cyprus, Cyprus"
    },
    {
      "lat": 35.14812933388165,
      "lon": 33.32861885555749,
      "geoinfo": {
        "display_name": "10, Christou Foti, Chryseleousa, Strovolos, Strovolos Municipality, Nicosia District, Cyprus, 2057, Cyprus",
        "road": "Christou Foti",
        "house_number": "10",
        "neighbourhood": null,
        "suburb": null,
        "city_district": "Chryseleousa",
        "city": "Strovolos",
        "state": "Cyprus",
        "postcode": "2057",
        "country": "Cyprus",
        "country_code": "cy"
      },
      "address": "10, Christou Foti, Chryseleousa, Strovolos, Strovolos Municipality, Nicosia District, Cyprus, 2057, Cyprus"
    },
    {
      "lat": 35.08982731681448,
      "lon": 33.33411693349576,
      "geoinfo": {
        "display_name": "Tseri, Lakatameia Municipality, Nicosia District, Cyprus, 2326, Cyprus",
        "road": null,
        "house_number": null,
        "neighbourhood": null,
        "suburb": null,
        "city_district": null,
        "city": "Tseri",
        "state": "Cyprus",
        "postcode": "2326",
        "country": "Cyprus",
        "country_code": "cy"
      },
      "address": "806, Tseri, Lakatameia Municipality, Nicosia District, Cyprus, 2326, Cyprus"
    },
    {
      "lat": 35.11130635444087,
      "lon": 33.28405874488566,
      "geoinfo": {
        "display_name": "Anthoupoleos Avenue, Anthoupoli, Archaggelos - Anthoupoli, Lakatameia, Lakatameia Municipality, Nicosia District, Cyprus, 2305, Cyprus",
        "road": "Anthoupoleos Avenue",
        "house_number": null,
        "neighbourhood": null,
        "suburb": "Anthoupoli",
        "city_district": "Archaggelos - Anthoupoli",
        "city": "Lakatameia",
        "state": "Cyprus",
        "postcode": "2305",
        "country": "Cyprus",
        "country_code": "cy"
      },
      "address": "022, Anthoupoleos Avenue, Anthoupoli, Archaggelos - Anthoupoli, Lakatameia, Lakatameia Municipality, Nicosia District, Cyprus, 2305, Cyprus"
    },
    {
      "lat": 35.142156486294525,
      "lon": 33.35814636490065,
      "geoinfo": {
        "display_name": "Δερβενακίων, Apostolos Varnavas & Agios Makarios, Strovolos, Strovolos Municipality, Nicosia District, Cyprus, 2023, Cyprus",
        "road": "Δερβενακίων",
        "house_number": null,
        "neighbourhood": null,
        "suburb": null,
        "city_district": "Apostolos Varnavas & Agios Makarios",
        "city": "Strovolos",
        "state": "Cyprus",
        "postcode": "2023",
        "country": "Cyprus",
        "country_code": "cy"
      },
      "address": "860, Δερβενακίων, Apostolos Varnavas & Agios Makarios, Strovolos, Strovolos Municipality, Nicosia District, Cyprus, 2023, Cyprus"
    },
    {
      "lat": 35.084164330104436,
      "lon": 33.321962899821806,
      "geoinfo": {
        "display_name": "Tseri, Lakatameia Municipality, Nicosia District, Cyprus, 2480, Cyprus",
        "road": null,
        "house_number": null,
        "neighbourhood": null,
        "suburb": null,
        "city_district": null,
        "city": "Tseri",
        "state": "Cyprus",
        "postcode": "2480",
        "country": "Cyprus",
        "country_code": "cy"
      },
      "address": "249, Tseri, Lakatameia Municipality, Nicosia District, Cyprus, 2480, Cyprus"
    },
    {
      "lat": 35.08068582796309,
      "lon": 33.328422449749546,
      "geoinfo": {
        "display_name": "Tseri, Lakatameia Municipality, Nicosia District, Cyprus, 2480, Cyprus",
        "road": null,
        "house_number": null,
        "neighbourhood": null,
        "suburb": null,
        "city_district": null,
        "city": "Tseri",
        "state": "Cyprus",
        "postcode": "2480",
        "country": "Cyprus",
        "country_code": "cy"
      },
      "address": "379, Tseri, Lakatameia Municipality, Nicosia District, Cyprus, 2480, Cyprus"
    },
    {
      "lat": 35.1260881517272,
      "lon": 33.37716617615309,
      "geoinfo": {
        "display_name": "Nicosia General Hospital, 215, Lemesou Avenue, Shakolas Emporium Park, Apostolos Varnavas & Agios Makarios, Strovolos, Strovolos Municipality, Nicosia District, Cyprus, 2029, Cyprus",
        "road": "Lemesou Avenue",
        "house_number": "215",
        "neighbourhood": null,
        "suburb": null,
        "city_district": "Apostolos Varnavas & Agios Makarios",
        "city": "Strovolos",
        "state": "Cyprus",
        "postcode": "2029",
        "country": "Cyprus",
        "country_code": "cy"
      },
      "address": "Nicosia General Hospital, 215, Lemesou Avenue, Shakolas Emporium Park, Apostolos Varnavas & Agios Makarios, Strovolos, Strovolos Municipality, Nicosia District, Cyprus, 2029, Cyprus"
    }
  ],
  "updated_at": "2025-10-19T01:49:50.475972+00:00",
  "_kind": "geo_samples"
}