{
  "country_code": "CY",
  "country": "Cyprus",
  "city": "Káto Polemídia",
  "geonameid": 146516,
  "target_addresses": 7,
  "samples": [
    {
      "lat": 34.73418374525925,
      "lon": 32.96952883199825,
      "geoinfo": {
        "display_name": "Panagia Evangelístria, Kato Polemidia Municipality, Polemidia Municipality, Limassol District, Cyprus, 4156, Cyprus",
        "road": null,
        "house_number": null,
        "neighbourhood": null,
        "suburb": null,
        "city_district": null,
        "city": "Kato Polemidia Municipality",
        "state": "Cyprus",
        "postcode": "4156",
        "country": "Cyprus",
        "country_code": "cy"
      },
      "address": "Káto Polemídia, Cyprus, Cyprus"
    },
    {
      "lat": 34.68544948358211,
      "lon": 33.02552508632199,
      "geoinfo": {
        "display_name": "Nikou kai Despoinas Pattichi, Agios Georgios, Katholiki, Limassol, Limassol Municipality, Limassol District, Cyprus, 3071, Cyprus",
        "road": "Nikou kai Despoinas Pattichi",
        "house_number": null,
        "neighbourhood": null,
        "suburb": "Katholiki",
        "city_district": null,
        "city": "Limassol",
        "state": "Cyprus",
        "postcode": "3071",
        "country": "Cyprus",
        "country_code": "cy"
      },
      "address": "Nikou kai Despoinas Pattichi, Káto Polemídia, Cyprus, Cyprus"
    },
    {
      "lat": 34.67284571256743,
      "lon": 32.99759186030151,
      "geoinfo": {
        "display_name": "Likeio Agiou Spyridona, Athanasiou Skiada, Archangelos Michail, Kato Polemidia Municipality, Polemidia Municipality, Limassol District, Cyprus, 3055, Cyprus",
        "road": "Athanasiou Skiada",
        "house_number": null,
        "neighbourhood": null,
        "suburb": null,
        "city_district": null,
        "city": "Kato Polemidia Municipality",
        "state": "Cyprus",
        "postcode": "3055",
        "country": "Cyprus",
        "country_code": "cy"
      },
      "address": "Athanasiou Skiada, Káto Polemídia, Cyprus, Cyprus"
    },
    {
      "lat": 34.68862189150644,
      "lon": 32.97709717422375,
      "geoinfo": {
        "display_name": "Mersinion, Anthoupoli, Kato Polemidia, Kato Polemidia Municipality, Polemidia Municipality, Limassol District, Cyprus, 4186, Cyprus",
        "road": "Mersinion",
        "house_number": null,
        "neighbourhood": null,
        "suburb": null,
        "city_district": null,
        "city": "Kato Polemidia Municipality",
        "state": "Cyprus",
        "postcode": "4186",
        "country": "Cyprus",
        "country_code": "cy"
      },
      "address": "Mersinion, Káto Polemídia, Cyprus, Cyprus"
    },
    {
      "lat": 34.68039476320786,
      "lon": 33.00925753436706,
      "geoinfo": {
        "display_name": "Omonoias Avenue, Apostolos Varnavas, Kato Polemidia, Kato Polemidia Municipality, Polemidia Municipality, Limassol District, Cyprus, 4153, Cyprus",
        "road": "Omonoias Avenue",
        "house_number": null,
        "neighbourhood": null,
        "suburb": null,
        "city_district": null,
        "city": "Kato Polemidia Municipality",
        "state": "Cyprus",
        "postcode": "4153",
        "country": "Cyprus",
        "country_code": "cy"
      },
      "address": "Omonoias Avenue, Káto Polemídia, Cyprus, Cyprus"
    },
    {
      "lat": 34.688903579954825,
      "lon": 32.98970503581489,
      "geoinfo": {
        "display_name": "Leoforos Nikaias, Agios Nikolaos, Kato Polemidia, Kato Polemidia Municipality, Polemidia Municipality, Limassol District, Cyprus, 4151, Cyprus",
        "road": "Leoforos Nikaias",
        "house_number": null,
        "neighbourhood": null,
        "suburb": null,
        "city_district": null,
        "city": "Kato Polemidia Municipality",
        "state": "Cyprus",
        "postcode": "4151",
        "country": "Cyprus",
        "country_code": "cy"
      },
      "address": "Leoforos Nikaias, Káto Polemídia, Cyprus, Cyprus"
    },
    {
      "lat": 34.69649034588634,
      "lon": 32.99989499516699,
      "geoinfo": {
        "display_name": "Agias Anastasias, Panagia Evangelístria, Kato Polemidia, Kato Polemidia Municipality, Polemidia Municipality, Limassol District, Cyprus, 4156, Cyprus",
        "road": "Agias Anastasias",
        "house_number": null,
        "neighbourhood": null,
        "suburb": null,
        "city_district": null,
        "city": "Kato Polemidia Municipality",
        "state": "Cyprus",
        "postcode": "4156",
        "country": "Cyprus",
        "country_code": "cy"
      },
      "address": "Agias Anastasias, Káto Polemídia, Cyprus, Cyprus"
    },
    {
      "lat": 34.707929957109144,
      "lon": 33.022879768662634,
      "geoinfo": {
        "display_name": "Axiou, Agia Fylaxis, Limassol, Limassol Municipality, Limassol District, Cyprus, 3116, Cyprus",
        "road": "Axiou",
        "house_number": null,
        "neighbourhood": null,
        "suburb": "Agia Fylaxis",
        "city_district": null,
        "city": "Limassol",
        "state": "Cyprus",
        "postcode": "3116",
        "country": "Cyprus",
        "country_code": "cy"
      },
      "address": "954, Axiou, Agia Fylaxis, Limassol, Limassol Municipality, Limassol District, Cyprus, 3116, Cyprus"
    },
    {
      "lat": 34.70377967169641,
      "lon": 33.008239951787296,
      "geoinfo": {
        "display_name": "Ioulianou, Agia Fylaxis, Limassol, Limassol Municipality, Limassol District, Cyprus, 4155, Cyprus",
        "road": "Ioulianou",
        "house_number": null,
        "neighbourhood": null,
        "suburb": "Agia Fylaxis",
        "city_district": null,
        "city": "Limassol",
        "state": "Cyprus",
        "postcode": "4155",
        "country": "Cyprus",
        "country_code": "cy"
      },
      "address": "905, Ioulianou, Agia Fylaxis, Limassol, Limassol Municipality, Limassol District, Cyprus, 4155, Cyprus"
    },
    {
      "lat": 34.68595712127338,
      "lon": 33.00393551440476,
      "geoinfo": {
        "display_name": "Aeropis, Apostolos Varnavas, Kato Polemidia Municipality, Polemidia Municipality, Limassol District, Cyprus, 4156, Cyprus",
        "road": "Aeropis",
        "house_number": null,
        "neighbourhood": null,
        "suburb": null,
        "city_district": null,
        "city": "Kato Polemidia Municipality",
        "state": "Cyprus",
        "postcode": "4156",
        "country": "Cyprus",
        "country_code": "cy"
      },
      "address": "139, Aeropis, Apostolos Varnavas, Kato Polemidia Municipality, Polemidia Municipality, Limassol District, Cyprus, 4156, Cyprus"
    },
    {
      "lat": 34.69755290604997,
      "lon": 32.98597660305131,
      "geoinfo": {
        "display_name": "78th Street, Agios Nikolaos, Kato Polemidia Municipality, Polemidia Municipality, Limassol District, Cyprus, 4131, Cyprus",
        "road": "78th Street",
        "house_number": null,
        "neighbourhood": null,
        "suburb": null,
        "city_district": null,
        "city": "Kato Polemidia Municipality",
        "state": "Cyprus",
        "postcode": "4131",
        "country": "Cyprus",
        "country_code": "cy"
      },
      "address": "78th Street, Agios Nikolaos, Kato Polemidia Municipality, Polemidia Municipality, Limassol District, Cyprus, 4131, Cyprus"
    },
    {
      "lat": 34.65857232363041,
      "lon": 33.01337559991656,
      "geoinfo": {
        "display_name": "Lasithiou, Tsiflikoudia, Limassol, Limassol Municipality, Limassol District, Cyprus, 3010, Cyprus",
        "road": "Lasithiou",
        "house_number": null,
        "neighbourhood": null,
        "suburb": "Tsiflikoudia",
        "city_district": null,
        "city": "Limassol",
        "state": "Cyprus",
        "postcode": "3010",
        "country": "Cyprus",
        "country_code": "cy"
      },
      "address": "648, Lasithiou, Tsiflikoudia, Limassol, Limassol Municipality, Limassol District, Cyprus, 3010, Cyprus"
    },
    {
      "lat": 34.69976059784103,
      "lon": 32.95746508505703,
      "geoinfo": {
        "display_name": "Sofokleous, Ypsonas, Kourio Municipality, Limassol District, Cyprus, 4180, Cyprus",
        "road": "Sofokleous",
        "house_number": null,
        "neighbourhood": null,
        "suburb": null,
        "city_district": null,
        "city": "Ypsonas",
        "state": "Cyprus",
        "postcode": "4180",
        "country": "Cyprus",
        "country_code": "cy"
      },
      "address": "539, Sofokleous, Ypsonas, Kourio Municipality, Limassol District, Cyprus, 4180, Cyprus"
    },
    {
      "lat": 34.70239713064839,
      "lon": 32.950542642953096,
      "geoinfo": {
        "display_name": "Filikis Etaireias, Ypsonas, Kourio Municipality, Limassol District, Cyprus, 4180, Cyprus",
        "road": "Filikis Etaireias",
        "house_number": null,
        "neighbourhood": null,
        "suburb": null,
        "city_district": null,
        "city": "Ypsonas",
        "state": "Cyprus",
        "postcode": "4180",
        "country": "Cyprus",
        "country_code": "cy"
      },
      "address": "487, Filikis Etaireias, Ypsonas, Kourio Municipality, Limassol District, Cyprus, 4180, Cyprus"
    }
  ],
  "updated_at": "2025-10-19T03:36:04.315877+00:00",
  "_kind": "geo_samples"
}