{
  "country_code": "CY",
  "country": "Cyprus",
  "city": "Mórfou",
  "geonameid": 146286,
  "target_addresses": 7,
  "samples": [
    {
      "lat": 35.20319534441588,
      "lon": 32.97344832772255,
      "geoinfo": {
        "display_name": "Fevzi Çakmak Caddesi, Agios Mamas, Morphou, Güzelyurt Belediyesi, Güzelyurt District, Northern Cyprus, 99700, Cyprus",
        "road": "Fevzi Çakmak Caddesi",
        "house_number": null,
        "neighbourhood": null,
        "suburb": null,
        "city_district": null,
        "city": "Morphou",
        "state": null,
        "postcode": "99700",
        "country": "Northern Cyprus",
        "country_code": "cy"
      },
      "address": "Fevzi Çakmak Caddesi, Mórfou, Cyprus"
    },
    {
      "lat": 35.240908769638786,
      "lon": 32.992748031692045,
      "geoinfo": {
        "display_name": "Kondemenos, Agios Georgios, Morphou, Güzelyurt Belediyesi, Güzelyurt District, Northern Cyprus, 99700, Cyprus",
        "road": null,
        "house_number": null,
        "neighbourhood": null,
        "suburb": null,
        "city_district": null,
        "city": "Morphou",
        "state": null,
        "postcode": "99700",
        "country": "Northern Cyprus",
        "country_code": "cy"
      },
      "address": "Mórfou, Cyprus"
    },
    {
      "lat": 35.222128329945996,
      "lon": 33.002267239059854,
      "geoinfo": {
        "display_name": "Toumba tou Skourou, Muhteşem Sokak, Agios Georgios, Morphou, Güzelyurt Belediyesi, Güzelyurt District, Northern Cyprus, 99700, Cyprus",
        "road": "Muhteşem Sokak",
        "house_number": null,
        "neighbourhood": null,
        "suburb": null,
        "city_district": null,
        "city": "Morphou",
        "state": null,
        "postcode": "99700",
        "country": "Northern Cyprus",
        "country_code": "cy"
      },
      "address": "Muhteşem Sokak, Mórfou, Cyprus"
    },
    {
      "lat": 35.18406575675133,
      "lon": 32.9664569308355,
      "geoinfo": {
        "display_name": "Selvili Sokak, Agios Mamas, Morphou, Güzelyurt Belediyesi, Güzelyurt District, Northern Cyprus, 99700, Cyprus",
        "road": "Selvili Sokak",
        "house_number": null,
        "neighbourhood": null,
        "suburb": null,
        "city_district": null,
        "city": "Morphou",
        "state": null,
        "postcode": "99700",
        "country": "Northern Cyprus",
        "country_code": "cy"
      },
      "address": "Selvili Sokak, Mórfou, Cyprus"
    },
    {
      "lat": 35.21903936306426,
      "lon": 32.955196236370845,
      "geoinfo": {
        "display_name": "Narlıdere 17. Sokak, Agios Mamas, Morphou, Güzelyurt Belediyesi, Güzelyurt District, Northern Cyprus, 99700, Cyprus",
        "road": "Narlıdere 17. Sokak",
        "house_number": null,
        "neighbourhood": null,
        "suburb": null,
        "city_district": null,
        "city": "Morphou",
        "state": null,
        "postcode": "99700",
        "country": "Northern Cyprus",
        "country_code": "cy"
      },
      "address": "Narlıdere 17. Sokak, Mórfou, Cyprus"
    },
    {
      "lat": 35.17980138402294,
      "lon": 33.004847537047944,
      "geoinfo": {
        "display_name": "İrfan Nadir Bulvarı, Agia Paraskevi, Guzelyurt, Aşağıbostancı, Güzelyurt Belediyesi, Güzelyurt District, Northern Cyprus, 99700, Cyprus",
        "road": "İrfan Nadir Bulvarı",
        "house_number": null,
        "neighbourhood": null,
        "suburb": null,
        "city_district": null,
        "city": "Aşağıbostancı",
        "state": null,
        "postcode": "99700",
        "country": "Northern Cyprus",
        "country_code": "cy"
      },
      "address": "İrfan Nadir Bulvarı, Mórfou, Cyprus"
    },
    {
      "lat": 35.18920500567649,
      "lon": 32.98056810326924,
      "geoinfo": {
        "display_name": "Karayolları Dairesi Güzelyurt Şubesi, Atatürk Caddesi, Agios Mamas, Guzelyurt, Morphou, Güzelyurt Belediyesi, Güzelyurt District, Northern Cyprus, 99700, Cyprus",
        "road": "Atatürk Caddesi",
        "house_number": null,
        "neighbourhood": null,
        "suburb": null,
        "city_district": null,
        "city": "Guzelyurt",
        "state": null,
        "postcode": "99700",
        "country": "Northern Cyprus",
        "country_code": "cy"
      },
      "address": "Atatürk Caddesi, Mórfou, Cyprus"
    },
    {
      "lat": 35.18375409528395,
      "lon": 32.98492662427938,
      "geoinfo": {
        "display_name": "Dutağacı Sokak, Agios Mamas, Aşağıbostancı, Güzelyurt Belediyesi, Güzelyurt District, Northern Cyprus, 99700, Cyprus",
        "road": "Dutağacı Sokak",
        "house_number": null,
        "neighbourhood": null,
        "suburb": null,
        "city_district": null,
        "city": "Aşağıbostancı",
        "state": null,
        "postcode": "99700",
        "country": "Northern Cyprus",
        "country_code": "cy"
      },
      "address": "942, Dutağacı Sokak, 99700 Mórfou, Cyprus"
    },
    {
      "lat": 35.175936018183,
      "lon": 33.00407790349435,
      "geoinfo": {
        "display_name": "Alpet, İrfan Nadir Bulvarı, Agia Paraskevi, Guzelyurt, Aşağıbostancı, Güzelyurt Belediyesi, Güzelyurt District, Northern Cyprus, 99700, Cyprus",
        "road": "İrfan Nadir Bulvarı",
        "house_number": null,
        "neighbourhood": null,
        "suburb": null,
        "city_district": null,
        "city": "Aşağıbostancı",
        "state": null,
        "postcode": "99700",
        "country": "Northern Cyprus",
        "country_code": "cy"
      },
      "address": "773, İrfan Nadir Bulvarı, 99700 Mórfou, Cyprus"
    },
    {
      "lat": 35.20497786411797,
      "lon": 32.96746952492458,
      "geoinfo": {
        "display_name": "Fevzi Çakmak Caddesi, Agios Mamas, Morphou, Güzelyurt Belediyesi, Güzelyurt District, Northern Cyprus, 99700, Cyprus",
        "road": "Fevzi Çakmak Caddesi",
        "house_number": null,
        "neighbourhood": null,
        "suburb": null,
        "city_district": null,
        "city": "Morphou",
        "state": null,
        "postcode": "99700",
        "country": "Northern Cyprus",
        "country_code": "cy"
      },
      "address": "297, Fevzi Çakmak Caddesi, 99700 Mórfou, Cyprus"
    },
    {
      "lat": 35.18166162089973,
      "lon": 32.97472487797467,
      "geoinfo": {
        "display_name": "Lefka - Morphou Highway, Göçmen Evleri, Agios Mamas, Morphou, Güzelyurt Belediyesi, Güzelyurt District, Northern Cyprus, 99700, Cyprus",
        "road": "Lefka - Morphou Highway",
        "house_number": null,
        "neighbourhood": "Göçmen Evleri",
        "suburb": null,
        "city_district": null,
        "city": "Morphou",
        "state": null,
        "postcode": "99700",
        "country": "Northern Cyprus",
        "country_code": "cy"
      },
      "address": "641, Lefka - Morphou Highway, 99700 Mórfou, Cyprus"
    },
    {
      "lat": 35.194896060311315,
      "lon": 33.032871801855585,
      "geoinfo": {
        "display_name": "Nicosia - Morphou Highway, Agia Paraskevi, Guzelyurt, Argaki, Güzelyurt Belediyesi, Güzelyurt District, Northern Cyprus, 99700, Cyprus",
        "road": "Nicosia - Morphou Highway",
        "house_number": null,
        "neighbourhood": null,
        "suburb": null,
        "city_district": null,
        "city": "Guzelyurt",
        "state": null,
        "postcode": "99700",
        "country": "Northern Cyprus",
        "country_code": "cy"
      },
      "address": "887, Nicosia - Morphou Highway, Agia Paraskevi, Guzelyurt, Argaki, Güzelyurt Belediyesi, Güzelyurt District, Northern Cyprus, 99700, Cyprus"
    }
  ],
  "updated_at": "2025-10-19T03:35:30.284548+00:00",
  "_kind": "geo_samples"
}