{
  "country_code": "CY",
  "country": "Cyprus",
  "city": "Aglantziá",
  "geonameid": 146619,
  "target_addresses": 7,
  "samples": [
    {
      "lat": 35.149065535275035,
      "lon": 33.42436650272494,
      "geoinfo": {
        "display_name": "Cauldron, Aglangia, Nicosia Muncipality, Nicosia District, Cyprus, 2103, Cyprus",
        "road": "Cauldron",
        "house_number": null,
        "neighbourhood": null,
        "suburb": null,
        "city_district": null,
        "city": "Aglangia",
        "state": "Cyprus",
        "postcode": "2103",
        "country": "Cyprus",
        "country_code": "cy"
      },
      "address": "Cauldron, Aglantziá, Cyprus, Cyprus"
    },
    {
      "lat": 35.1443364973031,
      "lon": 33.36221185721746,
      "geoinfo": {
        "display_name": "Athalassis Avenue, Acropolis, Apostolos Varnavas & Agios Makarios, Strovolos, Strovolos Municipality, Nicosia District, Cyprus, 2013, Cyprus",
        "road": "Athalassis Avenue",
        "house_number": null,
        "neighbourhood": null,
        "suburb": null,
        "city_district": "Apostolos Varnavas & Agios Makarios",
        "city": "Strovolos",
        "state": "Cyprus",
        "postcode": "2013",
        "country": "Cyprus",
        "country_code": "cy"
      },
      "address": "Athalassis Avenue, Aglantziá, Cyprus, Cyprus"
    },
    {
      "lat": 35.112959081705625,
      "lon": 33.410069559213355,
      "geoinfo": {
        "display_name": "Yeri, Latsia - Geri Municipality, Nicosia District, Cyprus, 2202, Cyprus",
        "road": null,
        "house_number": null,
        "neighbourhood": null,
        "suburb": null,
        "city_district": null,
        "city": "Yeri",
        "state": "Cyprus",
        "postcode": "2202",
        "country": "Cyprus",
        "country_code": "cy"
      },
      "address": "Aglantziá, Cyprus, Cyprus"
    },
    {
      "lat": 35.12005392569727,
      "lon": 33.415430792007186,
      "geoinfo": {
        "display_name": "Athalassas Avenue, Yeri, Latsia - Geri Municipality, Nicosia District, Cyprus, 2202, Cyprus",
        "road": "Athalassas Avenue",
        "house_number": null,
        "neighbourhood": null,
        "suburb": null,
        "city_district": null,
        "city": "Yeri",
        "state": "Cyprus",
        "postcode": "2202",
        "country": "Cyprus",
        "country_code": "cy"
      },
      "address": "Athalassas Avenue, Aglantziá, Cyprus, Cyprus"
    },
    {
      "lat": 35.129380906231326,
      "lon": 33.39266427629722,
      "geoinfo": {
        "display_name": "Athalasas track, Aglangia, Nicosia Muncipality, Nicosia District, Cyprus, 2123, Cyprus",
        "road": "Athalasas track",
        "house_number": null,
        "neighbourhood": null,
        "suburb": null,
        "city_district": null,
        "city": "Aglangia",
        "state": "Cyprus",
        "postcode": "2123",
        "country": "Cyprus",
        "country_code": "cy"
      },
      "address": "Athalasas track, Aglantziá, Cyprus, Cyprus"
    },
    {
      "lat": 35.19421139805002,
      "lon": 33.392725446605915,
      "geoinfo": {
        "display_name": "Ward, Pontikides, Kaimakli, Nicosia, Nicosia Muncipality, Nicosia District, Cyprus, 1026, Cyprus",
        "road": "Ward",
        "house_number": null,
        "neighbourhood": "Pontikides",
        "suburb": "Kaimakli",
        "city_district": "Kaimakli",
        "city": "Nicosia",
        "state": "Cyprus",
        "postcode": "1026",
        "country": "Cyprus",
        "country_code": "cy"
      },
      "address": "Ward, Aglantziá, Cyprus, Cyprus"
    },
    {
      "lat": 35.148665213101786,
      "lon": 33.40989139153721,
      "geoinfo": {
        "display_name": "Dimitriou Vikela, Aglandjia, Aglangia, Nicosia Muncipality, Nicosia District, Cyprus, 2109, Cyprus",
        "road": "Dimitriou Vikela",
        "house_number": null,
        "neighbourhood": null,
        "suburb": "Aglandjia",
        "city_district": null,
        "city": "Aglangia",
        "state": "Cyprus",
        "postcode": "2109",
        "country": "Cyprus",
        "country_code": "cy"
      },
      "address": "Dimitriou Vikela, Aglantziá, Cyprus, Cyprus"
    },
    {
      "lat": 35.16533773964638,
      "lon": 33.40470427393989,
      "geoinfo": {
        "display_name": "Panayia, Nicosia, Nicosia Muncipality, Nicosia District, Cyprus, 2102, Cyprus",
        "road": null,
        "house_number": null,
        "neighbourhood": null,
        "suburb": null,
        "city_district": "Panayia",
        "city": "Nicosia",
        "state": "Cyprus",
        "postcode": "2102",
        "country": "Cyprus",
        "country_code": "cy"
      },
      "address": "606, Panayia, Nicosia, Nicosia Muncipality, Nicosia District, Cyprus, 2102, Cyprus"
    },
    {
      "lat": 35.12144988520861,
      "lon": 33.37801499514359,
      "geoinfo": {
        "display_name": "Lemesou Avenue, Apostolos Varnavas & Agios Makarios, Strovolos, Strovolos Municipality, Nicosia District, Cyprus, 2221, Cyprus",
        "road": "Lemesou Avenue",
        "house_number": null,
        "neighbourhood": null,
        "suburb": null,
        "city_district": "Apostolos Varnavas & Agios Makarios",
        "city": "Strovolos",
        "state": "Cyprus",
        "postcode": "2221",
        "country": "Cyprus",
        "country_code": "cy"
      },
      "address": "482, Lemesou Avenue, Apostolos Varnavas & Agios Makarios, Strovolos, Strovolos Municipality, Nicosia District, Cyprus, 2221, Cyprus"
    },
    {
      "lat": 35.15487758105429,
      "lon": 33.36339724876977,
      "geoinfo": {
        "display_name": "Arsinois, Agios Dimitrios, Strovolos, Strovolos Municipality, Nicosia District, Cyprus, 2006, Cyprus",
        "road": "Arsinois",
        "house_number": null,
        "neighbourhood": null,
        "suburb": null,
        "city_district": "Agios Dimitrios",
        "city": "Strovolos",
        "state": "Cyprus",
        "postcode": "2006",
        "country": "Cyprus",
        "country_code": "cy"
      },
      "address": "462, Arsinois, Agios Dimitrios, Strovolos, Strovolos Municipality, Nicosia District, Cyprus, 2006, Cyprus"
    },
    {
      "lat": 35.16216114483274,
      "lon": 33.3488824255981,
      "geoinfo": {
        "display_name": "11, Ιωάννη Κονδυλάκη, Agioi Omologites, Nicosia, Nicosia Muncipality, Nicosia District, Cyprus, 1090, Cyprus",
        "road": "Ιωάννη Κονδυλάκη",
        "house_number": "11",
        "neighbourhood": null,
        "suburb": "Agioi Omologites",
        "city_district": "Agioi Omologites",
        "city": "Nicosia",
        "state": "Cyprus",
        "postcode": "1090",
        "country": "Cyprus",
        "country_code": "cy"
      },
      "address": "11, Ιωάννη Κονδυλάκη, Agioi Omologites, Nicosia, Nicosia Muncipality, Nicosia District, Cyprus, 1090, Cyprus"
    },
    {
      "lat": 35.17227278070506,
      "lon": 33.38935098716444,
      "geoinfo": {
        "display_name": "John Kennedy Avenue, Sopaz, Panayia, Nicosia, Nicosia Muncipality, Nicosia District, Cyprus, 1041, Cyprus",
        "road": "John Kennedy Avenue",
        "house_number": null,
        "neighbourhood": null,
        "suburb": null,
        "city_district": "Panayia",
        "city": "Nicosia",
        "state": "Cyprus",
        "postcode": "1041",
        "country": "Cyprus",
        "country_code": "cy"
      },
      "address": "270, John Kennedy Avenue, Sopaz, Panayia, Nicosia, Nicosia Muncipality, Nicosia District, Cyprus, 1041, Cyprus"
    },
    {
      "lat": 35.18644723853081,
      "lon": 33.38736556681682,
      "geoinfo": {
        "display_name": "Plapouta, Bubulines Hill, Kaimakli, Nicosia, Nicosia Muncipality, Nicosia District, Cyprus, 1026, Cyprus",
        "road": "Plapouta",
        "house_number": null,
        "neighbourhood": "Bubulines Hill",
        "suburb": "Kaimakli",
        "city_district": "Kaimakli",
        "city": "Nicosia",
        "state": "Cyprus",
        "postcode": "1026",
        "country": "Cyprus",
        "country_code": "cy"
      },
      "address": "570, Plapouta, Bubulines Hill, Kaimakli, Nicosia, Nicosia Muncipality, Nicosia District, Cyprus, 1026, Cyprus"
    },
    {
      "lat": 35.141526193265605,
      "lon": 33.34802599697489,
      "geoinfo": {
        "display_name": "22, Parthenonos, Chryseleousa, Strovolos, Strovolos Municipality, Nicosia District, Cyprus, 2020, Cyprus",
        "road": "Parthenonos",
        "house_number": "22",
        "neighbourhood": null,
        "suburb": null,
        "city_district": "Chryseleousa",
        "city": "Strovolos",
        "state": "Cyprus",
        "postcode": "2020",
        "country": "Cyprus",
        "country_code": "cy"
      },
      "address": "22, Parthenonos, Chryseleousa, Strovolos, Strovolos Municipality, Nicosia District, Cyprus, 2020, Cyprus"
    }
  ],
  "updated_at": "2025-10-19T03:46:18.617577+00:00",
  "_kind": "geo_samples"
}