{
  "country_code": "CY",
  "country": "Cyprus",
  "city": "Famagusta",
  "geonameid": 146617,
  "target_addresses": 7,
  "samples": [
    {
      "lat": 35.115215748639635,
      "lon": 33.93799322867749,
      "geoinfo": {
        "display_name": "Soylu Sokak, Agios Ioannis, Namık Kemal Mahallesi, Famagusta, Gazimağusa Belediyesi, Gazimağusa District, Northern Cyprus, 99450, Cyprus",
        "road": "Soylu Sokak",
        "house_number": null,
        "neighbourhood": null,
        "suburb": null,
        "city_district": "Namık Kemal Mahallesi",
        "city": "Famagusta",
        "state": null,
        "postcode": "99450",
        "country": "Northern Cyprus",
        "country_code": "cy"
      },
      "address": "Soylu Sokak, Famagusta, Cyprus"
    },
    {
      "lat": 35.11915029734999,
      "lon": 33.95063208754339,
      "geoinfo": {
        "display_name": "Ayiou Ioannou, Agios Ioannis, Namık Kemal Mahallesi, Famagusta, Gazimağusa Belediyesi, Gazimağusa District, Northern Cyprus, 99450, Cyprus",
        "road": "Ayiou Ioannou",
        "house_number": null,
        "neighbourhood": null,
        "suburb": null,
        "city_district": "Namık Kemal Mahallesi",
        "city": "Famagusta",
        "state": null,
        "postcode": "99450",
        "country": "Northern Cyprus",
        "country_code": "cy"
      },
      "address": "Ayiou Ioannou, Famagusta, Cyprus"
    },
    {
      "lat": 35.12323385516978,
      "lon": 33.90808346313881,
      "geoinfo": {
        "display_name": "Çanakkale Mahallesi, Famagusta, Gazimağusa Belediyesi, Gazimağusa District, Northern Cyprus, 99450, Cyprus",
        "road": null,
        "house_number": null,
        "neighbourhood": null,
        "suburb": null,
        "city_district": "Çanakkale Mahallesi",
        "city": "Famagusta",
        "state": null,
        "postcode": "99450",
        "country": "Northern Cyprus",
        "country_code": "cy"
      },
      "address": "Çanakkale Mahallesi, Famagusta, Cyprus"
    },
    {
      "lat": 35.1541719047078,
      "lon": 33.98211379233855,
      "geoinfo": {
        "display_name": "Northern Cyprus, Cyprus",
        "road": null,
        "house_number": null,
        "neighbourhood": null,
        "suburb": null,
        "city_district": null,
        "city": null,
        "state": null,
        "postcode": null,
        "country": "Northern Cyprus",
        "country_code": "cy"
      },
      "address": "Famagusta, Cyprus"
    },
    {
      "lat": 35.1453244429496,
      "lon": 33.92926696961096,
      "geoinfo": {
        "display_name": "Salamis, Karakol Mahallesi, Famagusta, Gazimağusa Belediyesi, Gazimağusa District, Northern Cyprus, 99450, Cyprus",
        "road": null,
        "house_number": null,
        "neighbourhood": null,
        "suburb": "Salamis",
        "city_district": "Karakol Mahallesi",
        "city": "Famagusta",
        "state": null,
        "postcode": "99450",
        "country": "Northern Cyprus",
        "country_code": "cy"
      },
      "address": "Salamis, Famagusta, Cyprus"
    },
    {
      "lat": 35.13896390556732,
      "lon": 33.96195436004983,
      "geoinfo": {
        "display_name": "Famagusta Within the Walls, Suriçi Mahallesi, Famagusta, Gazimağusa Belediyesi, Gazimağusa District, Northern Cyprus, 99450, Cyprus",
        "road": null,
        "house_number": null,
        "neighbourhood": null,
        "suburb": "Famagusta Within the Walls",
        "city_district": "Suriçi Mahallesi",
        "city": "Famagusta",
        "state": null,
        "postcode": "99450",
        "country": "Northern Cyprus",
        "country_code": "cy"
      },
      "address": "Famagusta Within the Walls, Famagusta, Cyprus"
    },
    {
      "lat": 35.096129259913475,
      "lon": 33.92575274464721,
      "geoinfo": {
        "display_name": "Zafer Mahallesi, Famagusta, Gazimağusa Belediyesi, Gazimağusa District, Northern Cyprus, 99450, Cyprus",
        "road": null,
        "house_number": null,
        "neighbourhood": null,
        "suburb": null,
        "city_district": "Zafer Mahallesi",
        "city": "Famagusta",
        "state": null,
        "postcode": "99450",
        "country": "Northern Cyprus",
        "country_code": "cy"
      },
      "address": "Zafer Mahallesi, Famagusta, Cyprus"
    },
    {
      "lat": 35.12716694149859,
      "lon": 33.929115169369894,
      "geoinfo": {
        "display_name": "Alasya İlkokulu, Şevkat Hepşen Sokak, Dumlupınar, Dumlupınar Mahallesi, Famagusta, Gazimağusa Belediyesi, Gazimağusa District, Northern Cyprus, 99450, Cyprus",
        "road": "Şevkat Hepşen Sokak",
        "house_number": null,
        "neighbourhood": null,
        "suburb": null,
        "city_district": "Dumlupınar Mahallesi",
        "city": "Famagusta",
        "state": null,
        "postcode": "99450",
        "country": "Northern Cyprus",
        "country_code": "cy"
      },
      "address": "318, Şevkat Hepşen Sokak, 99450 Famagusta, Cyprus"
    },
    {
      "lat": 35.12954126135716,
      "lon": 33.960869086701024,
      "geoinfo": {
        "display_name": "Agios Nikolaos, Varosha, Aynikola, Famagusta, Gazimağusa Belediyesi, Gazimağusa District, Northern Cyprus, 99450, Cyprus",
        "road": null,
        "house_number": null,
        "neighbourhood": null,
        "suburb": "Varosha",
        "city_district": "Aynikola",
        "city": "Famagusta",
        "state": null,
        "postcode": "99450",
        "country": "Northern Cyprus",
        "country_code": "cy"
      },
      "address": "549, Agios Nikolaos, Varosha, Aynikola, Famagusta, Gazimağusa Belediyesi, Gazimağusa District, Northern Cyprus, 99450, Cyprus"
    },
    {
      "lat": 35.10647056415651,
      "lon": 33.899390714820484,
      "geoinfo": {
        "display_name": "Çanakkale Mahallesi, Famagusta, Gazimağusa Belediyesi, Gazimağusa District, Northern Cyprus, 99450, Cyprus",
        "road": null,
        "house_number": null,
        "neighbourhood": null,
        "suburb": null,
        "city_district": "Çanakkale Mahallesi",
        "city": "Famagusta",
        "state": null,
        "postcode": "99450",
        "country": "Northern Cyprus",
        "country_code": "cy"
      },
      "address": "434, Çanakkale Mahallesi, Famagusta, Gazimağusa Belediyesi, Gazimağusa District, Northern Cyprus, 99450, Cyprus"
    },
    {
      "lat": 35.14334464585056,
      "lon": 33.958915036618,
      "geoinfo": {
        "display_name": "Famagusta Within the Walls, Suriçi Mahallesi, Famagusta, Gazimağusa Belediyesi, Gazimağusa District, Northern Cyprus, 99450, Cyprus",
        "road": null,
        "house_number": null,
        "neighbourhood": null,
        "suburb": "Famagusta Within the Walls",
        "city_district": "Suriçi Mahallesi",
        "city": "Famagusta",
        "state": null,
        "postcode": "99450",
        "country": "Northern Cyprus",
        "country_code": "cy"
      },
      "address": "678, Famagusta Within the Walls, Suriçi Mahallesi, Famagusta, Gazimağusa Belediyesi, Gazimağusa District, Northern Cyprus, 99450, Cyprus"
    },
    {
      "lat": 35.15703614288723,
      "lon": 33.92817883312811,
      "geoinfo": {
        "display_name": "Karaolos, Karakol Mahallesi, Famagusta, Gazimağusa Belediyesi, Gazimağusa District, Northern Cyprus, 99450, Cyprus",
        "road": null,
        "house_number": null,
        "neighbourhood": null,
        "suburb": null,
        "city_district": "Karakol Mahallesi",
        "city": "Famagusta",
        "state": null,
        "postcode": "99450",
        "country": "Northern Cyprus",
        "country_code": "cy"
      },
      "address": "033, Karakol Mahallesi, 99450 Famagusta, Cyprus"
    },
    {
      "lat": 35.10776002646352,
      "lon": 33.97039914342008,
      "geoinfo": {
        "display_name": "Chrysi Akti, Famagusta, Gazimağusa Belediyesi, Gazimağusa District, Northern Cyprus, 99450, Cyprus",
        "road": null,
        "house_number": null,
        "neighbourhood": null,
        "suburb": null,
        "city_district": "Chrysi Akti",
        "city": "Famagusta",
        "state": null,
        "postcode": "99450",
        "country": "Northern Cyprus",
        "country_code": "cy"
      },
      "address": "334, Chrysi Akti, Famagusta, Gazimağusa Belediyesi, Gazimağusa District, Northern Cyprus, 99450, Cyprus"
    },
    {
      "lat": 35.11688334483232,
      "lon": 33.940463829253815,
      "geoinfo": {
        "display_name": "Agios Ioannis, Namık Kemal Mahallesi, Famagusta, Gazimağusa Belediyesi, Gazimağusa District, Northern Cyprus, 99450, Cyprus",
        "road": null,
        "house_number": null,
        "neighbourhood": null,
        "suburb": null,
        "city_district": "Namık Kemal Mahallesi",
        "city": "Famagusta",
        "state": null,
        "postcode": "99450",
        "country": "Northern Cyprus",
        "country_code": "cy"
      },
      "address": "857, Namık Kemal Mahallesi, 99450 Famagusta, Cyprus"
    }
  ],
  "updated_at": "2025-10-19T04:14:36.253601+00:00",
  "_kind": "geo_samples"
}