{
  "country_code": "CY",
  "country": "Cyprus",
  "city": "Germasógeia",
  "geonameid": 145963,
  "target_addresses": 7,
  "samples": [
    {
      "lat": 34.68869810140904,
      "lon": 33.07447930378674,
      "geoinfo": {
        "display_name": "Παραλιακό Γήπεδο Πετόσφαιρας Παραλίας Columbia, Limassol Coastal Road Cycling Lane, Potamos Germasogeias, Neapoli, Germasogeia, East Limassol Municiplaity, Limassol District, Cyprus, 3108, Cyprus",
        "road": "Limassol Coastal Road Cycling Lane",
        "house_number": null,
        "neighbourhood": null,
        "suburb": "Neapoli",
        "city_district": null,
        "city": "Germasogeia",
        "state": "Cyprus",
        "postcode": "3108",
        "country": "Cyprus",
        "country_code": "cy"
      },
      "address": "Limassol Coastal Road Cycling Lane, Germasógeia, Cyprus, Cyprus"
    },
    {
      "lat": 34.71847650168951,
      "lon": 33.082182939177066,
      "geoinfo": {
        "display_name": "2, Ioanni Polemi, Agia Paraskevi, Germasogeia, East Limassol Municiplaity, Limassol District, Cyprus, 4044, Cyprus",
        "road": "Ioanni Polemi",
        "house_number": "2",
        "neighbourhood": null,
        "suburb": null,
        "city_district": null,
        "city": "Germasogeia",
        "state": "Cyprus",
        "postcode": "4044",
        "country": "Cyprus",
        "country_code": "cy"
      },
      "address": "2 Ioanni Polemi, Germasógeia, Cyprus, Cyprus"
    },
    {
      "lat": 34.754312540005195,
      "lon": 33.0789857797139,
      "geoinfo": {
        "display_name": "Akrounda, Akrounta, East Limassol Municiplaity, Limassol District, Cyprus, 4044, Cyprus",
        "road": null,
        "house_number": null,
        "neighbourhood": null,
        "suburb": null,
        "city_district": null,
        "city": "Akrounta",
        "state": "Cyprus",
        "postcode": "4044",
        "country": "Cyprus",
        "country_code": "cy"
      },
      "address": "Germasógeia, Cyprus, Cyprus"
    },
    {
      "lat": 34.736351912289784,
      "lon": 33.06973995357345,
      "geoinfo": {
        "display_name": "Charalambou Evagorou, Agios Athanasios, East Limassol Municiplaity, Limassol District, Cyprus, 4108, Cyprus",
        "road": "Charalambou Evagorou",
        "house_number": null,
        "neighbourhood": null,
        "suburb": null,
        "city_district": null,
        "city": "Agios Athanasios",
        "state": "Cyprus",
        "postcode": "4108",
        "country": "Cyprus",
        "country_code": "cy"
      },
      "address": "Charalambou Evagorou, Germasógeia, Cyprus, Cyprus"
    },
    {
      "lat": 34.729864662120406,
      "lon": 33.13583159553503,
      "geoinfo": {
        "display_name": "Dimokritou, Agios Tychonas, Agios Tychonos, East Limassol Municiplaity, Limassol District, Cyprus, 4521, Cyprus",
        "road": "Dimokritou",
        "house_number": null,
        "neighbourhood": null,
        "suburb": null,
        "city_district": null,
        "city": "Agios Tychonos",
        "state": "Cyprus",
        "postcode": "4521",
        "country": "Cyprus",
        "country_code": "cy"
      },
      "address": "Dimokritou, Germasógeia, Cyprus, Cyprus"
    },
    {
      "lat": 34.70328575055214,
      "lon": 33.1019827954018,
      "geoinfo": {
        "display_name": "City Skate Park, Aktaiou, Potamos Germasogeias, Germasogeia, East Limassol Municiplaity, Limassol District, Cyprus, 4046, Cyprus",
        "road": "Aktaiou",
        "house_number": null,
        "neighbourhood": null,
        "suburb": null,
        "city_district": null,
        "city": "Germasogeia",
        "state": "Cyprus",
        "postcode": "4046",
        "country": "Cyprus",
        "country_code": "cy"
      },
      "address": "Aktaiou, Germasógeia, Cyprus, Cyprus"
    },
    {
      "lat": 34.742426868148144,
      "lon": 33.0852847272874,
      "geoinfo": {
        "display_name": "Potamias, Agia Paraskevi, Germasogeia, East Limassol Municiplaity, Limassol District, Cyprus, 4044, Cyprus",
        "road": "Potamias",
        "house_number": null,
        "neighbourhood": null,
        "suburb": null,
        "city_district": null,
        "city": "Germasogeia",
        "state": "Cyprus",
        "postcode": "4044",
        "country": "Cyprus",
        "country_code": "cy"
      },
      "address": "Potamias, Germasógeia, Cyprus, Cyprus"
    },
    {
      "lat": 34.69598982819774,
      "lon": 33.065268381902335,
      "geoinfo": {
        "display_name": "Leoforos Agiou Athanasiou, Agios Stylianos, Agios Athanasios, East Limassol Municiplaity, Limassol District, Cyprus, 3101, Cyprus",
        "road": "Leoforos Agiou Athanasiou",
        "house_number": null,
        "neighbourhood": null,
        "suburb": "Agios Stylianos",
        "city_district": null,
        "city": "Agios Athanasios",
        "state": "Cyprus",
        "postcode": "3101",
        "country": "Cyprus",
        "country_code": "cy"
      },
      "address": "478, Leoforos Agiou Athanasiou, Agios Stylianos, Agios Athanasios, East Limassol Municiplaity, Limassol District, Cyprus, 3101, Cyprus"
    },
    {
      "lat": 34.678720867972615,
      "lon": 33.08032186569683,
      "geoinfo": {
        "display_name": "Kato Polemidia, Kato Polemidia Municipality, Polemidia Municipality, Limassol District, Cyprus, 4156, Cyprus",
        "road": null,
        "house_number": null,
        "neighbourhood": null,
        "suburb": null,
        "city_district": null,
        "city": "Kato Polemidia Municipality",
        "state": "Cyprus",
        "postcode": "4156",
        "country": "Cyprus",
        "country_code": "cy"
      },
      "address": "163, Kato Polemidia, Kato Polemidia Municipality, Polemidia Municipality, Limassol District, Cyprus, 4156, Cyprus"
    },
    {
      "lat": 34.68241143738812,
      "lon": 33.11057453464096,
      "geoinfo": {
        "display_name": "Mouttagiaka, Mouttayiaka, East Limassol Municiplaity, Limassol District, Cyprus, 4001, Cyprus",
        "road": null,
        "house_number": null,
        "neighbourhood": null,
        "suburb": null,
        "city_district": null,
        "city": "Mouttayiaka",
        "state": "Cyprus",
        "postcode": "4001",
        "country": "Cyprus",
        "country_code": "cy"
      },
      "address": "648, Germasógeia, 4001 Cyprus, Cyprus"
    },
    {
      "lat": 34.74498577266159,
      "lon": 33.066411373878,
      "geoinfo": {
        "display_name": "Charalambou Evagorou, Agia Paraskevi, Agios Athanasios, East Limassol Municiplaity, Limassol District, Cyprus, 4108, Cyprus",
        "road": "Charalambou Evagorou",
        "house_number": null,
        "neighbourhood": null,
        "suburb": null,
        "city_district": null,
        "city": "Agios Athanasios",
        "state": "Cyprus",
        "postcode": "4108",
        "country": "Cyprus",
        "country_code": "cy"
      },
      "address": "154, Charalambou Evagorou, Agia Paraskevi, Agios Athanasios, East Limassol Municiplaity, Limassol District, Cyprus, 4108, Cyprus"
    },
    {
      "lat": 34.72100084396326,
      "lon": 33.11618813942644,
      "geoinfo": {
        "display_name": "Mouttagiaka, Mouttayiaka, East Limassol Municiplaity, Limassol District, Cyprus, 4527, Cyprus",
        "road": null,
        "house_number": null,
        "neighbourhood": null,
        "suburb": null,
        "city_district": null,
        "city": "Mouttayiaka",
        "state": "Cyprus",
        "postcode": "4527",
        "country": "Cyprus",
        "country_code": "cy"
      },
      "address": "819, Germasógeia, 4527 Cyprus, Cyprus"
    },
    {
      "lat": 34.7512222266737,
      "lon": 33.07029107652951,
      "geoinfo": {
        "display_name": "Akrounda, Akrounta, East Limassol Municiplaity, Limassol District, Cyprus, 4108, Cyprus",
        "road": null,
        "house_number": null,
        "neighbourhood": null,
        "suburb": null,
        "city_district": null,
        "city": "Akrounta",
        "state": "Cyprus",
        "postcode": "4108",
        "country": "Cyprus",
        "country_code": "cy"
      },
      "address": "857, Germasógeia, 4108 Cyprus, Cyprus"
    },
    {
      "lat": 34.6987427289439,
      "lon": 33.073362436130736,
      "geoinfo": {
        "display_name": "Κολωνακίου, Agios Georgios Fragkoudi, Agios Athanasios, East Limassol Municiplaity, Limassol District, Cyprus, 4102, Cyprus",
        "road": "Κολωνακίου",
        "house_number": null,
        "neighbourhood": null,
        "suburb": null,
        "city_district": null,
        "city": "Agios Athanasios",
        "state": "Cyprus",
        "postcode": "4102",
        "country": "Cyprus",
        "country_code": "cy"
      },
      "address": "980, Κολωνακίου, Agios Georgios Fragkoudi, Agios Athanasios, East Limassol Municiplaity, Limassol District, Cyprus, 4102, Cyprus"
    }
  ],
  "updated_at": "2025-10-19T01:49:31.784936+00:00",
  "_kind": "geo_samples"
}