{
  "country_code": "CY",
  "country": "Cyprus",
  "city": "Nicosia",
  "geonameid": 146268,
  "target_addresses": 7,
  "samples": [
    {
      "lat": 35.19059921204821,
      "lon": 33.30758623017584,
      "geoinfo": {
        "display_name": "Kermia, Metehan, Aydemet, Lefkoşa Türk Belediyesi, Lefkoşa District, Northern Cyprus, 99010, Cyprus",
        "road": null,
        "house_number": null,
        "neighbourhood": null,
        "suburb": "Kermia",
        "city_district": "Metehan",
        "city": "Aydemet",
        "state": null,
        "postcode": "99010",
        "country": "Northern Cyprus",
        "country_code": "cy"
      },
      "address": "Kermia, Nicosia, Cyprus"
    },
    {
      "lat": 35.15473362699561,
      "lon": 33.37849176148869,
      "geoinfo": {
        "display_name": "Filoxenia Conference Center, Aglantzias Avenue, Aglangia, Nicosia Muncipality, Nicosia District, Cyprus, 2112, Cyprus",
        "road": "Aglantzias Avenue",
        "house_number": null,
        "neighbourhood": null,
        "suburb": null,
        "city_district": null,
        "city": "Aglangia",
        "state": "Cyprus",
        "postcode": "2112",
        "country": "Cyprus",
        "country_code": "cy"
      },
      "address": "Aglantzias Avenue, Nicosia, Cyprus, Cyprus"
    },
    {
      "lat": 35.15451190425739,
      "lon": 33.39428235015213,
      "geoinfo": {
        "display_name": "Karpathou, Aglandjia, Aglangia, Nicosia Muncipality, Nicosia District, Cyprus, 2108, Cyprus",
        "road": "Karpathou",
        "house_number": null,
        "neighbourhood": null,
        "suburb": "Aglandjia",
        "city_district": null,
        "city": "Aglangia",
        "state": "Cyprus",
        "postcode": "2108",
        "country": "Cyprus",
        "country_code": "cy"
      },
      "address": "Karpathou, Nicosia, Cyprus, Cyprus"
    },
    {
      "lat": 35.13160005751877,
      "lon": 33.34924153804946,
      "geoinfo": {
        "display_name": "Nikomideias, Strovolos II, Agios Vasileios, Strovolos, Strovolos Municipality, Nicosia District, Cyprus, 2039, Cyprus",
        "road": "Nikomideias",
        "house_number": null,
        "neighbourhood": null,
        "suburb": null,
        "city_district": "Agios Vasileios",
        "city": "Strovolos",
        "state": "Cyprus",
        "postcode": "2039",
        "country": "Cyprus",
        "country_code": "cy"
      },
      "address": "Nikomideias, Nicosia, Cyprus, Cyprus"
    },
    {
      "lat": 35.205450550244244,
      "lon": 33.320505531419165,
      "geoinfo": {
        "display_name": "Şelale Sokak, Yenikent, Yenikent Mahallesi, Gonyeli, Gönyeli-Alayköy Belediyesi, Lefkoşa District, Northern Cyprus, 99150, Cyprus",
        "road": "Şelale Sokak",
        "house_number": null,
        "neighbourhood": null,
        "suburb": "Yenikent",
        "city_district": "Yenikent Mahallesi",
        "city": "Gonyeli",
        "state": null,
        "postcode": "99150",
        "country": "Northern Cyprus",
        "country_code": "cy"
      },
      "address": "Şelale Sokak, Nicosia, Cyprus, Cyprus"
    },
    {
      "lat": 35.19913469272204,
      "lon": 33.36111391889859,
      "geoinfo": {
        "display_name": "Filiz Sokak, Omorfita, Kızılay Mahallesi, Nicosia, Lefkoşa Türk Belediyesi, Lefkoşa District, Northern Cyprus, 99010, Cyprus",
        "road": "Filiz Sokak",
        "house_number": null,
        "neighbourhood": null,
        "suburb": "Omorfita",
        "city_district": "Kızılay Mahallesi",
        "city": "Nicosia",
        "state": null,
        "postcode": "99010",
        "country": "Northern Cyprus",
        "country_code": "cy"
      },
      "address": "Filiz Sokak, Nicosia, Cyprus, Cyprus"
    },
    {
      "lat": 35.19327886791816,
      "lon": 33.33631227456299,
      "geoinfo": {
        "display_name": "Küçükkent, Ortaköy, Ortaköy Mahallesi, Nicosia, Lefkoşa Türk Belediyesi, Lefkoşa District, Northern Cyprus, 99010, Cyprus",
        "road": null,
        "house_number": null,
        "neighbourhood": "Küçükkent",
        "suburb": "Ortaköy",
        "city_district": "Ortaköy Mahallesi",
        "city": "Nicosia",
        "state": null,
        "postcode": "99010",
        "country": "Northern Cyprus",
        "country_code": "cy"
      },
      "address": "Küçükkent, Nicosia, Cyprus, Cyprus"
    },
    {
      "lat": 35.16476061876889,
      "lon": 33.31048749355092,
      "geoinfo": {
        "display_name": "UNPA, Engomi, Yerolakkos, Nicosia Muncipality, Nicosia District, Cyprus, 2416, Cyprus",
        "road": "UNPA",
        "house_number": null,
        "neighbourhood": null,
        "suburb": "Engomi",
        "city_district": null,
        "city": "Yerolakkos",
        "state": "Cyprus",
        "postcode": "2416",
        "country": "Cyprus",
        "country_code": "cy"
      },
      "address": "077, UNPA, Engomi, Yerolakkos, Nicosia Muncipality, Nicosia District, Cyprus, 2416, Cyprus"
    },
    {
      "lat": 35.18353765352477,
      "lon": 33.386421608431604,
      "geoinfo": {
        "display_name": "Artemidos, Αρχαγγέλου, Kaimakli, Nicosia, Nicosia Muncipality, Nicosia District, Cyprus, 1037, Cyprus",
        "road": "Artemidos",
        "house_number": null,
        "neighbourhood": "Αρχαγγέλου",
        "suburb": "Kaimakli",
        "city_district": "Kaimakli",
        "city": "Nicosia",
        "state": "Cyprus",
        "postcode": "1037",
        "country": "Cyprus",
        "country_code": "cy"
      },
      "address": "462, Artemidos, Αρχαγγέλου, Kaimakli, Nicosia, Nicosia Muncipality, Nicosia District, Cyprus, 1037, Cyprus"
    },
    {
      "lat": 35.181373150091396,
      "lon": 33.40607847765748,
      "geoinfo": {
        "display_name": "Butcher, Kaimakli, Nicosia, Nicosia Muncipality, Nicosia District, Cyprus, 1026, Cyprus",
        "road": "Butcher",
        "house_number": null,
        "neighbourhood": null,
        "suburb": null,
        "city_district": "Kaimakli",
        "city": "Nicosia",
        "state": "Cyprus",
        "postcode": "1026",
        "country": "Cyprus",
        "country_code": "cy"
      },
      "address": "549, Butcher, Kaimakli, Nicosia, Nicosia Muncipality, Nicosia District, Cyprus, 1026, Cyprus"
    },
    {
      "lat": 35.133262690939944,
      "lon": 33.37076148355974,
      "geoinfo": {
        "display_name": "Isidorou, Shakolas Emporium Park, Apostolos Varnavas & Agios Makarios, Strovolos, Strovolos Municipality, Nicosia District, Cyprus, 2029, Cyprus",
        "road": "Isidorou",
        "house_number": null,
        "neighbourhood": null,
        "suburb": null,
        "city_district": "Apostolos Varnavas & Agios Makarios",
        "city": "Strovolos",
        "state": "Cyprus",
        "postcode": "2029",
        "country": "Cyprus",
        "country_code": "cy"
      },
      "address": "227, Isidorou, Shakolas Emporium Park, Apostolos Varnavas & Agios Makarios, Strovolos, Strovolos Municipality, Nicosia District, Cyprus, 2029, Cyprus"
    },
    {
      "lat": 35.18873219812295,
      "lon": 33.39898324766394,
      "geoinfo": {
        "display_name": "Corunna, Maroulenas, Kaimakli, Nicosia, Nicosia Muncipality, Nicosia District, Cyprus, 1026, Cyprus",
        "road": "Corunna",
        "house_number": null,
        "neighbourhood": "Maroulenas",
        "suburb": null,
        "city_district": "Kaimakli",
        "city": "Nicosia",
        "state": "Cyprus",
        "postcode": "1026",
        "country": "Cyprus",
        "country_code": "cy"
      },
      "address": "029, Corunna, Maroulenas, Kaimakli, Nicosia, Nicosia Muncipality, Nicosia District, Cyprus, 1026, Cyprus"
    },
    {
      "lat": 35.13180217166889,
      "lon": 33.370872873322135,
      "geoinfo": {
        "display_name": "Limassol - Nicosia Motorway, Shakolas Emporium Park, Apostolos Varnavas & Agios Makarios, Strovolos, Strovolos Municipality, Nicosia District, Cyprus, 2030, Cyprus",
        "road": "Limassol - Nicosia Motorway",
        "house_number": null,
        "neighbourhood": null,
        "suburb": null,
        "city_district": "Apostolos Varnavas & Agios Makarios",
        "city": "Strovolos",
        "state": "Cyprus",
        "postcode": "2030",
        "country": "Cyprus",
        "country_code": "cy"
      },
      "address": "952, Limassol - Nicosia Motorway, Shakolas Emporium Park, Apostolos Varnavas & Agios Makarios, Strovolos, Strovolos Municipality, Nicosia District, Cyprus, 2030, Cyprus"
    },
    {
      "lat": 35.20867391861928,
      "lon": 33.34886518969215,
      "geoinfo": {
        "display_name": "Temel 21 Apt., Timur Fahri Sokak, Taşkınköy, Taşkınköy Mahallesi, Nicosia, Lefkoşa Türk Belediyesi, Lefkoşa District, Northern Cyprus, 99010, Cyprus",
        "road": "Timur Fahri Sokak",
        "house_number": null,
        "neighbourhood": "Taşkınköy",
        "suburb": "Taşkınköy Mahallesi",
        "city_district": null,
        "city": "Nicosia",
        "state": null,
        "postcode": "99010",
        "country": "Northern Cyprus",
        "country_code": "cy"
      },
      "address": "Temel 21 Apt., Timur Fahri Sokak, Taşkınköy, Taşkınköy Mahallesi, Nicosia, Lefkoşa Türk Belediyesi, Lefkoşa District, Northern Cyprus, 99010, Cyprus"
    }
  ],
  "updated_at": "2025-10-19T03:31:09.098970+00:00",
  "_kind": "geo_samples"
}