{
  "country_code": "CY",
  "country": "Cyprus",
  "city": "Paphos",
  "geonameid": 146214,
  "target_addresses": 7,
  "samples": [
    {
      "lat": 34.79244434309512,
      "lon": 32.38505375014885,
      "geoinfo": {
        "display_name": "MV Demetrios II, Lighthouse coastal broadwalk, Chloraka, Hlorakas, Paphos District, Cyprus, 8220, Cyprus",
        "road": "Lighthouse coastal broadwalk",
        "house_number": null,
        "neighbourhood": null,
        "suburb": null,
        "city_district": null,
        "city": "Hlorakas",
        "state": "Cyprus",
        "postcode": "8220",
        "country": "Cyprus",
        "country_code": "cy"
      },
      "address": "Lighthouse coastal broadwalk, Paphos, Cyprus, Cyprus"
    },
    {
      "lat": 34.76269797950434,
      "lon": 32.447905375095,
      "geoinfo": {
        "display_name": "Costa Partasidi, Acropolis, Yeroskipou (quarter), Yeroskipou, East Paphos Municipality, Paphos District, Cyprus, 8300, Cyprus",
        "road": "Costa Partasidi",
        "house_number": null,
        "neighbourhood": null,
        "suburb": null,
        "city_district": "Yeroskipou (quarter)",
        "city": "Yeroskipou",
        "state": "Cyprus",
        "postcode": "8300",
        "country": "Cyprus",
        "country_code": "cy"
      },
      "address": "Costa Partasidi, Paphos, Cyprus, Cyprus"
    },
    {
      "lat": 34.75308594090566,
      "lon": 32.46189694032727,
      "geoinfo": {
        "display_name": "Kantarenas, Yeroskipou (quarter), Yeroskipou, East Paphos Municipality, Paphos District, Cyprus, 8201, Cyprus",
        "road": "Kantarenas",
        "house_number": null,
        "neighbourhood": null,
        "suburb": null,
        "city_district": "Yeroskipou (quarter)",
        "city": "Yeroskipou",
        "state": "Cyprus",
        "postcode": "8201",
        "country": "Cyprus",
        "country_code": "cy"
      },
      "address": "Kantarenas, Paphos, Cyprus, Cyprus"
    },
    {
      "lat": 34.78292515801883,
      "lon": 32.37104755613471,
      "geoinfo": {
        "display_name": "Chloraka, Hlorakas, Paphos District, Cyprus, 8220, Cyprus",
        "road": null,
        "house_number": null,
        "neighbourhood": null,
        "suburb": null,
        "city_district": null,
        "city": "Hlorakas",
        "state": "Cyprus",
        "postcode": "8220",
        "country": "Cyprus",
        "country_code": "cy"
      },
      "address": "Paphos, Cyprus, Cyprus"
    },
    {
      "lat": 34.770731893279354,
      "lon": 32.42639959716692,
      "geoinfo": {
        "display_name": "Exo Vrysis, Ekso Vrisi, Agios Theodoros, Paphos Municipality, Paphos District, Cyprus, 8011, Cyprus",
        "road": "Exo Vrysis",
        "house_number": null,
        "neighbourhood": null,
        "suburb": null,
        "city_district": "Agios Theodoros",
        "city": "Paphos Municipality",
        "state": "Cyprus",
        "postcode": "8011",
        "country": "Cyprus",
        "country_code": "cy"
      },
      "address": "Exo Vrysis, Paphos, Cyprus, Cyprus"
    },
    {
      "lat": 34.755991097463685,
      "lon": 32.40879901855278,
      "geoinfo": {
        "display_name": "Apostolou Pavlou, Kato Paphos, Paphos Municipality, Paphos District, Cyprus, 8040, Cyprus",
        "road": "Apostolou Pavlou",
        "house_number": null,
        "neighbourhood": null,
        "suburb": "Kato Paphos",
        "city_district": "Kato Paphos",
        "city": "Paphos Municipality",
        "state": "Cyprus",
        "postcode": "8040",
        "country": "Cyprus",
        "country_code": "cy"
      },
      "address": "Apostolou Pavlou, Paphos, Cyprus, Cyprus"
    },
    {
      "lat": 34.76803660153285,
      "lon": 32.384754828544445,
      "geoinfo": {
        "display_name": "Kato Paphos, Paphos Municipality, Paphos District, Cyprus, 8040, Cyprus",
        "road": null,
        "house_number": null,
        "neighbourhood": null,
        "suburb": "Kato Paphos",
        "city_district": "Kato Paphos",
        "city": "Paphos Municipality",
        "state": "Cyprus",
        "postcode": "8040",
        "country": "Cyprus",
        "country_code": "cy"
      },
      "address": "Kato Paphos, Paphos, Cyprus, Cyprus"
    },
    {
      "lat": 34.80316412727055,
      "lon": 32.39103014476325,
      "geoinfo": {
        "display_name": "EOKA Memorial, Paraka, Chloraka, Hlorakas, Paphos District, Cyprus, 8222, Cyprus",
        "road": "Paraka",
        "house_number": null,
        "neighbourhood": null,
        "suburb": null,
        "city_district": null,
        "city": "Hlorakas",
        "state": "Cyprus",
        "postcode": "8222",
        "country": "Cyprus",
        "country_code": "cy"
      },
      "address": "541, Paraka, Paphos, 8222 Cyprus, Cyprus"
    },
    {
      "lat": 34.73663612739946,
      "lon": 32.415098207308105,
      "geoinfo": {
        "display_name": "Kato Paphos, Paphos Municipality, Paphos District, Cyprus, 8040, Cyprus",
        "road": null,
        "house_number": null,
        "neighbourhood": null,
        "suburb": "Kato Paphos",
        "city_district": "Kato Paphos",
        "city": "Paphos Municipality",
        "state": "Cyprus",
        "postcode": "8040",
        "country": "Cyprus",
        "country_code": "cy"
      },
      "address": "535, Kato Paphos, Paphos Municipality, Paphos District, Cyprus, 8040, Cyprus"
    },
    {
      "lat": 34.79958113507091,
      "lon": 32.39080514016271,
      "geoinfo": {
        "display_name": "Agiou Georgiou, Chloraka, Hlorakas, Paphos District, Cyprus, 8222, Cyprus",
        "road": "Agiou Georgiou",
        "house_number": null,
        "neighbourhood": null,
        "suburb": null,
        "city_district": null,
        "city": "Hlorakas",
        "state": "Cyprus",
        "postcode": "8222",
        "country": "Cyprus",
        "country_code": "cy"
      },
      "address": "800, Agiou Georgiou, Chloraka, Hlorakas, Paphos District, Cyprus, 8222, Cyprus"
    },
    {
      "lat": 34.77750034361861,
      "lon": 32.446807449366894,
      "geoinfo": {
        "display_name": "Konia, East Paphos Municipality, Paphos District, Cyprus, 8028, Cyprus",
        "road": null,
        "house_number": null,
        "neighbourhood": null,
        "suburb": null,
        "city_district": null,
        "city": "Konia",
        "state": "Cyprus",
        "postcode": "8028",
        "country": "Cyprus",
        "country_code": "cy"
      },
      "address": "580, Konia, East Paphos Municipality, Paphos District, Cyprus, 8028, Cyprus"
    },
    {
      "lat": 34.77037721008614,
      "lon": 32.395451547567674,
      "geoinfo": {
        "display_name": "Fabrica Hill, Kato Paphos, Paphos Municipality, Paphos District, Cyprus, 8040, Cyprus",
        "road": null,
        "house_number": null,
        "neighbourhood": null,
        "suburb": "Kato Paphos",
        "city_district": "Kato Paphos",
        "city": "Paphos Municipality",
        "state": "Cyprus",
        "postcode": "8040",
        "country": "Cyprus",
        "country_code": "cy"
      },
      "address": "194, Fabrica Hill, Kato Paphos, Paphos Municipality, Paphos District, Cyprus, 8040, Cyprus"
    },
    {
      "lat": 34.78549251607951,
      "lon": 32.42942236671763,
      "geoinfo": {
        "display_name": "Manis, Agios Pavlos, Paphos Municipality, Paphos District, Cyprus, 8021, Cyprus",
        "road": "Manis",
        "house_number": null,
        "neighbourhood": null,
        "suburb": null,
        "city_district": "Agios Pavlos",
        "city": "Paphos Municipality",
        "state": "Cyprus",
        "postcode": "8021",
        "country": "Cyprus",
        "country_code": "cy"
      },
      "address": "822, Manis, Agios Pavlos, Paphos Municipality, Paphos District, Cyprus, 8021, Cyprus"
    },
    {
      "lat": 34.80369623209705,
      "lon": 32.40895834121395,
      "geoinfo": {
        "display_name": "Papakosta Leonida, Chloraka, Hlorakas, Paphos District, Cyprus, 8260, Cyprus",
        "road": "Papakosta Leonida",
        "house_number": null,
        "neighbourhood": null,
        "suburb": null,
        "city_district": null,
        "city": "Hlorakas",
        "state": "Cyprus",
        "postcode": "8260",
        "country": "Cyprus",
        "country_code": "cy"
      },
      "address": "495, Papakosta Leonida, Chloraka, Hlorakas, Paphos District, Cyprus, 8260, Cyprus"
    }
  ],
  "updated_at": "2025-10-19T02:06:48.005532+00:00",
  "_kind": "geo_samples"
}