{
  "country_code": "CY",
  "country": "Cyprus",
  "city": "Protaras",
  "geonameid": 18918,
  "target_addresses": 7,
  "samples": [
    {
      "lat": 35.03874752277274,
      "lon": 34.042717741404424,
      "geoinfo": {
        "display_name": "Protaras, Paralimni, Paralimni - Deyneia Municipality, Famagusta District, Cyprus, 5318, Cyprus",
        "road": null,
        "house_number": null,
        "neighbourhood": null,
        "suburb": null,
        "city_district": null,
        "city": "Protaras",
        "state": "Cyprus",
        "postcode": "5318",
        "country": "Cyprus",
        "country_code": "cy"
      },
      "address": "Protaras, Cyprus, Cyprus"
    },
    {
      "lat": 35.044043898845736,
      "lon": 34.027743710253645,
      "geoinfo": {
        "display_name": "rainbow digital print, Vrysoudion, Premiere Pearl Villas, Kapparis, Paralimni, Paralimni - Deyneia Municipality, Famagusta District, Cyprus, 5295, Cyprus",
        "road": "Vrysoudion",
        "house_number": null,
        "neighbourhood": null,
        "suburb": null,
        "city_district": null,
        "city": "Paralimni",
        "state": "Cyprus",
        "postcode": "5295",
        "country": "Cyprus",
        "country_code": "cy"
      },
      "address": "Vrysoudion, Protaras, Cyprus, Cyprus"
    },
    {
      "lat": 35.036047831446545,
      "lon": 34.04450958654421,
      "geoinfo": {
        "display_name": "Ifaistou, Protaras, Paralimni, Paralimni - Deyneia Municipality, Famagusta District, Cyprus, 5310, Cyprus",
        "road": "Ifaistou",
        "house_number": null,
        "neighbourhood": null,
        "suburb": null,
        "city_district": null,
        "city": "Protaras",
        "state": "Cyprus",
        "postcode": "5310",
        "country": "Cyprus",
        "country_code": "cy"
      },
      "address": "Ifaistou, Protaras, Cyprus, Cyprus"
    },
    {
      "lat": 34.972651708900734,
      "lon": 34.052775599551275,
      "geoinfo": {
        "display_name": "Leforos Kavo Gkrekon, Ayia Napa, Agia Napa Municipality, Famagusta District, Cyprus, 5330, Cyprus",
        "road": "Leforos Kavo Gkrekon",
        "house_number": null,
        "neighbourhood": null,
        "suburb": null,
        "city_district": null,
        "city": "Ayia Napa",
        "state": "Cyprus",
        "postcode": "5330",
        "country": "Cyprus",
        "country_code": "cy"
      },
      "address": "Leforos Kavo Gkrekon, Protaras, Cyprus, Cyprus"
    },
    {
      "lat": 35.020701668059395,
      "lon": 34.0098405768808,
      "geoinfo": {
        "display_name": "Agios Pantelemonas Church, Akefalou, Protaras, Paralimni, Paralimni - Deyneia Municipality, Famagusta District, Cyprus, 5318, Cyprus",
        "road": "Akefalou",
        "house_number": null,
        "neighbourhood": null,
        "suburb": null,
        "city_district": null,
        "city": "Protaras",
        "state": "Cyprus",
        "postcode": "5318",
        "country": "Cyprus",
        "country_code": "cy"
      },
      "address": "Akefalou, Protaras, Cyprus, Cyprus"
    },
    {
      "lat": 35.01751194864373,
      "lon": 34.06370784747331,
      "geoinfo": {
        "display_name": "Naxou, Protaras, Paralimni, Paralimni - Deyneia Municipality, Famagusta District, Cyprus, 5297, Cyprus",
        "road": "Naxou",
        "house_number": null,
        "neighbourhood": null,
        "suburb": null,
        "city_district": null,
        "city": "Protaras",
        "state": "Cyprus",
        "postcode": "5297",
        "country": "Cyprus",
        "country_code": "cy"
      },
      "address": "Naxou, Protaras, Cyprus, Cyprus"
    },
    {
      "lat": 34.98500618162067,
      "lon": 34.03285265695139,
      "geoinfo": {
        "display_name": "Ayia Napa, Agia Napa Municipality, Cyprus, 5330, Cyprus",
        "road": null,
        "house_number": null,
        "neighbourhood": null,
        "suburb": null,
        "city_district": null,
        "city": "Ayia Napa",
        "state": "Cyprus",
        "postcode": "5330",
        "country": "Cyprus",
        "country_code": "cy"
      },
      "address": "179, Protaras, 5330 Cyprus, Cyprus"
    },
    {
      "lat": 35.04165446934232,
      "lon": 34.06666257707853,
      "geoinfo": {
        "display_name": "Protaras, Cyprus, 5297, Cyprus",
        "road": null,
        "house_number": null,
        "neighbourhood": null,
        "suburb": null,
        "city_district": null,
        "city": "Protaras",
        "state": "Cyprus",
        "postcode": "5297",
        "country": "Cyprus",
        "country_code": "cy"
      },
      "address": "933, Protaras, Cyprus, 5297, Cyprus"
    },
    {
      "lat": 35.03078930217839,
      "lon": 34.10356858490755,
      "geoinfo": {
        "display_name": "Protaras, Cyprus, 5297, Cyprus",
        "road": null,
        "house_number": null,
        "neighbourhood": null,
        "suburb": null,
        "city_district": null,
        "city": "Protaras",
        "state": "Cyprus",
        "postcode": "5297",
        "country": "Cyprus",
        "country_code": "cy"
      },
      "address": "668, Protaras, Cyprus, 5297, Cyprus"
    },
    {
      "lat": 34.98890705588384,
      "lon": 34.07081736493417,
      "geoinfo": {
        "display_name": "Kafkaros Tavern, 65, Konnou Avenue, Protaras, Cyprus, 5297, Cyprus",
        "road": "Konnou Avenue",
        "house_number": "65",
        "neighbourhood": null,
        "suburb": null,
        "city_district": null,
        "city": "Protaras",
        "state": "Cyprus",
        "postcode": "5297",
        "country": "Cyprus",
        "country_code": "cy"
      },
      "address": "Kafkaros Tavern, 65, Konnou Avenue, Protaras, Cyprus, 5297, Cyprus"
    },
    {
      "lat": 35.025359474439995,
      "lon": 34.10876549939554,
      "geoinfo": {
        "display_name": "Protaras, Cyprus, 5297, Cyprus",
        "road": null,
        "house_number": null,
        "neighbourhood": null,
        "suburb": null,
        "city_district": null,
        "city": "Protaras",
        "state": "Cyprus",
        "postcode": "5297",
        "country": "Cyprus",
        "country_code": "cy"
      },
      "address": "478, Protaras, Cyprus, 5297, Cyprus"
    },
    {
      "lat": 35.041025169870544,
      "lon": 34.09304649343629,
      "geoinfo": {
        "display_name": "Protaras, Cyprus, 5297, Cyprus",
        "road": null,
        "house_number": null,
        "neighbourhood": null,
        "suburb": null,
        "city_district": null,
        "city": "Protaras",
        "state": "Cyprus",
        "postcode": "5297",
        "country": "Cyprus",
        "country_code": "cy"
      },
      "address": "365, Protaras, Cyprus, 5297, Cyprus"
    },
    {
      "lat": 34.99179856252517,
      "lon": 34.10015495022281,
      "geoinfo": {
        "display_name": "Protaras, Cyprus, 5297, Cyprus",
        "road": null,
        "house_number": null,
        "neighbourhood": null,
        "suburb": null,
        "city_district": null,
        "city": "Protaras",
        "state": "Cyprus",
        "postcode": "5297",
        "country": "Cyprus",
        "country_code": "cy"
      },
      "address": "407, Protaras, Cyprus, 5297, Cyprus"
    }
  ],
  "updated_at": "2025-10-19T03:30:42.819460+00:00",
  "_kind": "geo_samples"
}