{
  "country_code": "CY",
  "country": "Cyprus",
  "city": "Stróvolos",
  "geonameid": 146054,
  "target_addresses": 7,
  "samples": [
    {
      "lat": 35.10568902829266,
      "lon": 33.32256780541231,
      "geoinfo": {
        "display_name": "Lakatamia Airfield, Θεμιστοκλέους, Agia Paraskevi, Lakatameia, Lakatameia Municipality, Nicosia District, Cyprus, 2326, Cyprus",
        "road": "Θεμιστοκλέους",
        "house_number": null,
        "neighbourhood": null,
        "suburb": null,
        "city_district": "Agia Paraskevi",
        "city": "Lakatameia",
        "state": "Cyprus",
        "postcode": "2326",
        "country": "Cyprus",
        "country_code": "cy"
      },
      "address": "Θεμιστοκλέους, Stróvolos, Cyprus, Cyprus"
    },
    {
      "lat": 35.15893796963922,
      "lon": 33.38605021444578,
      "geoinfo": {
        "display_name": "Dimitras, Aglandjia, Aglangia, Nicosia Muncipality, Nicosia District, Cyprus, 2101, Cyprus",
        "road": "Dimitras",
        "house_number": null,
        "neighbourhood": null,
        "suburb": "Aglandjia",
        "city_district": null,
        "city": "Aglangia",
        "state": "Cyprus",
        "postcode": "2101",
        "country": "Cyprus",
        "country_code": "cy"
      },
      "address": "Dimitras, Stróvolos, Cyprus, Cyprus"
    },
    {
      "lat": 35.159145703682036,
      "lon": 33.28359004460005,
      "geoinfo": {
        "display_name": "Yerolakkos, Nicosia District, Cyprus, 2416, Cyprus",
        "road": null,
        "house_number": null,
        "neighbourhood": null,
        "suburb": null,
        "city_district": null,
        "city": "Yerolakkos",
        "state": "Cyprus",
        "postcode": "2416",
        "country": "Cyprus",
        "country_code": "cy"
      },
      "address": "Stróvolos, Cyprus, Cyprus"
    },
    {
      "lat": 35.13105538845058,
      "lon": 33.37327387012163,
      "geoinfo": {
        "display_name": "Verginas, Shakolas Emporium Park, Apostolos Varnavas & Agios Makarios, Strovolos, Strovolos Municipality, Nicosia District, Cyprus, 2030, Cyprus",
        "road": "Verginas",
        "house_number": null,
        "neighbourhood": null,
        "suburb": null,
        "city_district": "Apostolos Varnavas & Agios Makarios",
        "city": "Strovolos",
        "state": "Cyprus",
        "postcode": "2030",
        "country": "Cyprus",
        "country_code": "cy"
      },
      "address": "Verginas, Stróvolos, Cyprus, Cyprus"
    },
    {
      "lat": 35.12820884442876,
      "lon": 33.357885410755195,
      "geoinfo": {
        "display_name": "Spyrou Kyprianou Avenue, Apostolos Varnavas & Agios Makarios, Strovolos, Strovolos Municipality, Nicosia District, Cyprus, 2034, Cyprus",
        "road": "Spyrou Kyprianou Avenue",
        "house_number": null,
        "neighbourhood": null,
        "suburb": null,
        "city_district": "Apostolos Varnavas & Agios Makarios",
        "city": "Strovolos",
        "state": "Cyprus",
        "postcode": "2034",
        "country": "Cyprus",
        "country_code": "cy"
      },
      "address": "Spyrou Kyprianou Avenue, Stróvolos, Cyprus, Cyprus"
    },
    {
      "lat": 35.16034184921963,
      "lon": 33.297517759020025,
      "geoinfo": {
        "display_name": "Engomi, Nicosia Muncipality, Nicosia District, Cyprus, 2416, Cyprus",
        "road": null,
        "house_number": null,
        "neighbourhood": null,
        "suburb": "Engomi",
        "city_district": null,
        "city": null,
        "state": "Cyprus",
        "postcode": "2416",
        "country": "Cyprus",
        "country_code": "cy"
      },
      "address": "Engomi, Stróvolos, Cyprus, Cyprus"
    },
    {
      "lat": 35.135008527647585,
      "lon": 33.346718235042346,
      "geoinfo": {
        "display_name": "21, Trikoupi, Agios Vasileios, Strovolos, Strovolos Municipality, Nicosia District, Cyprus, 2039, Cyprus",
        "road": "Trikoupi",
        "house_number": "21",
        "neighbourhood": null,
        "suburb": null,
        "city_district": "Agios Vasileios",
        "city": "Strovolos",
        "state": "Cyprus",
        "postcode": "2039",
        "country": "Cyprus",
        "country_code": "cy"
      },
      "address": "21 Trikoupi, Stróvolos, Cyprus, Cyprus"
    },
    {
      "lat": 35.138766081935756,
      "lon": 33.370163985804055,
      "geoinfo": {
        "display_name": "Andrea Georgiou, Apostolos Varnavas & Agios Makarios, Strovolos, Strovolos Municipality, Nicosia District, Cyprus, 2025, Cyprus",
        "road": "Andrea Georgiou",
        "house_number": null,
        "neighbourhood": null,
        "suburb": null,
        "city_district": "Apostolos Varnavas & Agios Makarios",
        "city": "Strovolos",
        "state": "Cyprus",
        "postcode": "2025",
        "country": "Cyprus",
        "country_code": "cy"
      },
      "address": "808, Andrea Georgiou, Apostolos Varnavas & Agios Makarios, Strovolos, Strovolos Municipality, Nicosia District, Cyprus, 2025, Cyprus"
    },
    {
      "lat": 35.1424739212572,
      "lon": 33.296594936482535,
      "geoinfo": {
        "display_name": "Xanthippou, Archangelos, Archaggelos - Anthoupoli, Lakatameia, Lakatameia Municipality, Nicosia District, Cyprus, 2335, Cyprus",
        "road": "Xanthippou",
        "house_number": null,
        "neighbourhood": null,
        "suburb": "Archangelos",
        "city_district": "Archaggelos - Anthoupoli",
        "city": "Lakatameia",
        "state": "Cyprus",
        "postcode": "2335",
        "country": "Cyprus",
        "country_code": "cy"
      },
      "address": "538, Xanthippou, Archangelos, Archaggelos - Anthoupoli, Lakatameia, Lakatameia Municipality, Nicosia District, Cyprus, 2335, Cyprus"
    },
    {
      "lat": 35.109273012078376,
      "lon": 33.35717709090083,
      "geoinfo": {
        "display_name": "Filippou Theodorou, Apostolos Varnavas & Agios Makarios, Strovolos, Strovolos Municipality, Nicosia District, Cyprus, 2237, Cyprus",
        "road": "Filippou Theodorou",
        "house_number": null,
        "neighbourhood": null,
        "suburb": null,
        "city_district": "Apostolos Varnavas & Agios Makarios",
        "city": "Strovolos",
        "state": "Cyprus",
        "postcode": "2237",
        "country": "Cyprus",
        "country_code": "cy"
      },
      "address": "870, Filippou Theodorou, Apostolos Varnavas & Agios Makarios, Strovolos, Strovolos Municipality, Nicosia District, Cyprus, 2237, Cyprus"
    },
    {
      "lat": 35.11623792709117,
      "lon": 33.344254545273756,
      "geoinfo": {
        "display_name": "Konstantinoupoleos Avenue, Agios Vasileios, Strovolos, Strovolos Municipality, Nicosia District, Cyprus, 2047, Cyprus",
        "road": "Konstantinoupoleos Avenue",
        "house_number": null,
        "neighbourhood": null,
        "suburb": null,
        "city_district": "Agios Vasileios",
        "city": "Strovolos",
        "state": "Cyprus",
        "postcode": "2047",
        "country": "Cyprus",
        "country_code": "cy"
      },
      "address": "548, Konstantinoupoleos Avenue, Agios Vasileios, Strovolos, Strovolos Municipality, Nicosia District, Cyprus, 2047, Cyprus"
    },
    {
      "lat": 35.12434169479534,
      "lon": 33.29412401223835,
      "geoinfo": {
        "display_name": "Porou, Anthoupoli, Archaggelos - Anthoupoli, Lakatameia, Lakatameia Municipality, Nicosia District, Cyprus, 2302, Cyprus",
        "road": "Porou",
        "house_number": null,
        "neighbourhood": null,
        "suburb": "Anthoupoli",
        "city_district": "Archaggelos - Anthoupoli",
        "city": "Lakatameia",
        "state": "Cyprus",
        "postcode": "2302",
        "country": "Cyprus",
        "country_code": "cy"
      },
      "address": "683, Porou, Anthoupoli, Archaggelos - Anthoupoli, Lakatameia, Lakatameia Municipality, Nicosia District, Cyprus, 2302, Cyprus"
    },
    {
      "lat": 35.16480977351025,
      "lon": 33.366721433071596,
      "geoinfo": {
        "display_name": "Digeni Akrita Avenue, Lykavitos, Agios Antonios, Nicosia, Nicosia Muncipality, Nicosia District, Cyprus, 1061, Cyprus",
        "road": "Digeni Akrita Avenue",
        "house_number": null,
        "neighbourhood": null,
        "suburb": "Lykavitos",
        "city_district": "Agios Antonios",
        "city": "Nicosia",
        "state": "Cyprus",
        "postcode": "1061",
        "country": "Cyprus",
        "country_code": "cy"
      },
      "address": "452, Digeni Akrita Avenue, Lykavitos, Agios Antonios, Nicosia, Nicosia Muncipality, Nicosia District, Cyprus, 1061, Cyprus"
    },
    {
      "lat": 35.11026259855051,
      "lon": 33.30778997306435,
      "geoinfo": {
        "display_name": "AlphaMega, 16, Spyridonos Trikouppi, Agia Paraskevi, Lakatameia, Lakatameia Municipality, Nicosia District, Cyprus, 2311, Cyprus",
        "road": "Spyridonos Trikouppi",
        "house_number": "16",
        "neighbourhood": null,
        "suburb": null,
        "city_district": "Agia Paraskevi",
        "city": "Lakatameia",
        "state": "Cyprus",
        "postcode": "2311",
        "country": "Cyprus",
        "country_code": "cy"
      },
      "address": "AlphaMega, 16, Spyridonos Trikouppi, Agia Paraskevi, Lakatameia, Lakatameia Municipality, Nicosia District, Cyprus, 2311, Cyprus"
    }
  ],
  "updated_at": "2025-10-19T02:06:11.487023+00:00",
  "_kind": "geo_samples"
}