{
  "country_code": "PA",
  "country": "Panama",
  "city": "Arraiján",
  "geonameid": 3714637,
  "target_addresses": 4,
  "samples": [
    {
      "lat": 8.948792961343496,
      "lon": -79.60388718798998,
      "geoinfo": {
        "display_name": "Bulevar de las Américas, Veracruz, Arraiján, Panamá Oeste, 1001, Panama",
        "road": "Bulevar de las Américas",
        "house_number": null,
        "neighbourhood": null,
        "suburb": null,
        "city_district": null,
        "city": "Veracruz",
        "state": "Panamá Oeste",
        "postcode": "1001",
        "country": "Panama",
        "country_code": "pa"
      },
      "address": "Bulevar de las Américas, Arraiján, Panamá Oeste, Panama"
    },
    {
      "lat": 8.924358340115832,
      "lon": -79.64128455621855,
      "geoinfo": {
        "display_name": "11 de Octubre, Arraiján, Panamá Oeste, 1001, Panama",
        "road": null,
        "house_number": null,
        "neighbourhood": "11 de Octubre",
        "suburb": null,
        "city_district": null,
        "city": "Arraiján",
        "state": "Panamá Oeste",
        "postcode": "1001",
        "country": "Panama",
        "country_code": "pa"
      },
      "address": "11 de Octubre, Arraiján, Panamá Oeste, Panama"
    },
    {
      "lat": 8.899478280736762,
      "lon": -79.625442385228,
      "geoinfo": {
        "display_name": "Cerro Cabra, Veracruz, Arraiján, Panamá Oeste, Panama",
        "road": null,
        "house_number": null,
        "neighbourhood": "Cerro Cabra",
        "suburb": null,
        "city_district": null,
        "city": "Veracruz",
        "state": "Panamá Oeste",
        "postcode": null,
        "country": "Panama",
        "country_code": "pa"
      },
      "address": "Cerro Cabra, Arraiján, Panamá Oeste, Panama"
    },
    {
      "lat": 8.963779936411076,
      "lon": -79.66724818846743,
      "geoinfo": {
        "display_name": "Burunga, Arraiján, Panamá Oeste, 1001, Panama",
        "road": null,
        "house_number": null,
        "neighbourhood": null,
        "suburb": null,
        "city_district": null,
        "city": "Burunga",
        "state": "Panamá Oeste",
        "postcode": "1001",
        "country": "Panama",
        "country_code": "pa"
      },
      "address": "Arraiján, Panamá Oeste, Panama"
    },
    {
      "lat": 8.944503107523143,
      "lon": -79.62667525406387,
      "geoinfo": {
        "display_name": "Sector 6, Arraiján, Panamá Oeste, 1001, Panama",
        "road": null,
        "house_number": null,
        "neighbourhood": "Sector 6",
        "suburb": null,
        "city_district": null,
        "city": "Arraiján",
        "state": "Panamá Oeste",
        "postcode": "1001",
        "country": "Panama",
        "country_code": "pa"
      },
      "address": "Sector 6, Arraiján, Panamá Oeste, 1001, Panama"
    },
    {
      "lat": 8.923054178046208,
      "lon": -79.63860107749748,
      "geoinfo": {
        "display_name": "Vía Valle del Sol, Alto Bonito, Arraiján, Panamá Oeste, 1001, Panama",
        "road": "Vía Valle del Sol",
        "house_number": null,
        "neighbourhood": "Alto Bonito",
        "suburb": null,
        "city_district": null,
        "city": "Arraiján",
        "state": "Panamá Oeste",
        "postcode": "1001",
        "country": "Panama",
        "country_code": "pa"
      },
      "address": "767, Vía Valle del Sol, Alto Bonito, Arraiján, Panamá Oeste, 1001, Panama"
    },
    {
      "lat": 8.936121070982212,
      "lon": -79.5960746371137,
      "geoinfo": {
        "display_name": "UTP Escuela de Aviación y Logística, Avenida Panamá Pacífico, International Business Park, Panama Pacifico, Veracruz, Arraiján, Panamá Oeste, Panama",
        "road": "Avenida Panamá Pacífico",
        "house_number": null,
        "neighbourhood": null,
        "suburb": null,
        "city_district": null,
        "city": "Veracruz",
        "state": "Panamá Oeste",
        "postcode": null,
        "country": "Panama",
        "country_code": "pa"
      },
      "address": "772, Avenida Panamá Pacífico, Arraiján, 80997 Panamá Oeste, Panama"
    },
    {
      "lat": 8.982211236981923,
      "lon": -79.63357458550567,
      "geoinfo": {
        "display_name": "Arraiján, Panamá Oeste, 1001, Panama",
        "road": null,
        "house_number": null,
        "neighbourhood": null,
        "suburb": null,
        "city_district": null,
        "city": "Arraiján",
        "state": "Panamá Oeste",
        "postcode": "1001",
        "country": "Panama",
        "country_code": "pa"
      },
      "address": "374, Arraiján, Panamá Oeste, 1001, Panama"
    }
  ],
  "updated_at": "2025-10-19T08:58:01.541837+00:00",
  "_kind": "geo_samples"
}