{
  "country_code": "PA",
  "country": "Panama",
  "city": "Chilibre",
  "geonameid": 3712455,
  "target_addresses": 4,
  "samples": [
    {
      "lat": 9.117494860617704,
      "lon": -79.61647550197095,
      "geoinfo": {
        "display_name": "Autopista Panamá–Colón, Ancón, Distrito de Panamá, Panamá Province, Panama",
        "road": "Autopista Panamá–Colón",
        "house_number": null,
        "neighbourhood": null,
        "suburb": null,
        "city_district": null,
        "city": "Ancón",
        "state": "Panamá Province",
        "postcode": null,
        "country": "Panama",
        "country_code": "pa"
      },
      "address": "Autopista Panamá–Colón, Chilibre, Panamá Province, Panama"
    },
    {
      "lat": 9.182549088082286,
      "lon": -79.62757932494547,
      "geoinfo": {
        "display_name": "Villa Unida, Chilibre, Distrito de Panamá, Panamá Province, Panama",
        "road": null,
        "house_number": null,
        "neighbourhood": null,
        "suburb": null,
        "city_district": null,
        "city": "Villa Unida",
        "state": "Panamá Province",
        "postcode": null,
        "country": "Panama",
        "country_code": "pa"
      },
      "address": "Chilibre, Panamá Province, Panama"
    },
    {
      "lat": 9.174366641543987,
      "lon": -79.65990826536408,
      "geoinfo": {
        "display_name": "Cristóbal, Colón, Panama",
        "road": null,
        "house_number": null,
        "neighbourhood": null,
        "suburb": null,
        "city_district": null,
        "city": "Cristóbal",
        "state": "Colón",
        "postcode": null,
        "country": "Panama",
        "country_code": "pa"
      },
      "address": "Chilibre, Colón, Panama"
    },
    {
      "lat": 9.165295985159892,
      "lon": -79.58285423592517,
      "geoinfo": {
        "display_name": "Calle del IDAAN, Las Albinas, Caimitillo, Distrito de Panamá, Panamá Province, Panama",
        "road": "Calle del IDAAN",
        "house_number": null,
        "neighbourhood": null,
        "suburb": null,
        "city_district": null,
        "city": "Caimitillo",
        "state": "Panamá Province",
        "postcode": null,
        "country": "Panama",
        "country_code": "pa"
      },
      "address": "Calle del IDAAN, Chilibre, Panamá Province, Panama"
    },
    {
      "lat": 9.17042154850977,
      "lon": -79.61149518306833,
      "geoinfo": {
        "display_name": "Avenida Madden, Buenos Aires, Villa Unida, Chilibre, Distrito de Panamá, Panamá Province, Panama",
        "road": "Avenida Madden",
        "house_number": null,
        "neighbourhood": null,
        "suburb": null,
        "city_district": null,
        "city": "Villa Unida",
        "state": "Panamá Province",
        "postcode": null,
        "country": "Panama",
        "country_code": "pa"
      },
      "address": "008, Avenida Madden, Buenos Aires, Villa Unida, Chilibre, Distrito de Panamá, 29855 Panamá Province, Panama"
    },
    {
      "lat": 9.197652607611554,
      "lon": -79.62410204784061,
      "geoinfo": {
        "display_name": "Villa Unida, Chilibre, Distrito de Panamá, Panamá Province, Panama",
        "road": null,
        "house_number": null,
        "neighbourhood": null,
        "suburb": null,
        "city_district": null,
        "city": "Villa Unida",
        "state": "Panamá Province",
        "postcode": null,
        "country": "Panama",
        "country_code": "pa"
      },
      "address": "144, Villa Unida, Chilibre, Distrito de Panamá, 84462 Panamá Province, Panama"
    },
    {
      "lat": 9.151154576336129,
      "lon": -79.5874457692655,
      "geoinfo": {
        "display_name": "El Ñajú, Chilibre, Distrito de Panamá, Panamá Province, Panama",
        "road": null,
        "house_number": null,
        "neighbourhood": null,
        "suburb": null,
        "city_district": null,
        "city": "Chilibre",
        "state": "Panamá Province",
        "postcode": null,
        "country": "Panama",
        "country_code": "pa"
      },
      "address": "059, El Ñajú, Chilibre, Distrito de Panamá, 10480 Panamá Province, Panama"
    },
    {
      "lat": 9.154776846296693,
      "lon": -79.62342353854368,
      "geoinfo": {
        "display_name": "Villa Unida, Chilibre, Distrito de Panamá, Panamá Province, Panama",
        "road": null,
        "house_number": null,
        "neighbourhood": null,
        "suburb": null,
        "city_district": null,
        "city": "Villa Unida",
        "state": "Panamá Province",
        "postcode": null,
        "country": "Panama",
        "country_code": "pa"
      },
      "address": "042, Villa Unida, Chilibre, Distrito de Panamá, 96465 Panamá Province, Panama"
    }
  ],
  "updated_at": "2025-10-19T06:25:57.185491+00:00",
  "_kind": "geo_samples"
}