{
  "country_code": "PA",
  "country": "Panama",
  "city": "Curundú",
  "geonameid": 3711699,
  "target_addresses": 4,
  "samples": [
    {
      "lat": 9.008645245847255,
      "lon": -79.53073870028106,
      "geoinfo": {
        "display_name": "Calle 3a, Betania, Bethania, Distrito de Panamá, Panamá Province, 0818, Panama",
        "road": "Calle 3a",
        "house_number": null,
        "neighbourhood": null,
        "suburb": "Betania",
        "city_district": null,
        "city": "Bethania",
        "state": "Panamá Province",
        "postcode": "0818",
        "country": "Panama",
        "country_code": "pa"
      },
      "address": "Calle 3a, Curundú, Panamá Province, Panama"
    },
    {
      "lat": 8.969472866674636,
      "lon": -79.5321797639747,
      "geoinfo": {
        "display_name": "Panama City, Calidonia, Distrito de Panamá, Panamá Province, 0843, Panama",
        "road": null,
        "house_number": null,
        "neighbourhood": null,
        "suburb": null,
        "city_district": null,
        "city": "Panama City",
        "state": "Panamá Province",
        "postcode": "0843",
        "country": "Panama",
        "country_code": "pa"
      },
      "address": "Curundú, Panamá Province, Panama"
    },
    {
      "lat": 8.976966620190442,
      "lon": -79.53401034839698,
      "geoinfo": {
        "display_name": "Avenida Martín Sosa, La Cresta, Bella Vista, Distrito de Panamá, Panamá Province, 0843, Panama",
        "road": "Avenida Martín Sosa",
        "house_number": null,
        "neighbourhood": "La Cresta",
        "suburb": "Bella Vista",
        "city_district": null,
        "city": "Bella Vista",
        "state": "Panamá Province",
        "postcode": "0843",
        "country": "Panama",
        "country_code": "pa"
      },
      "address": "Avenida Martín Sosa, Curundú, Panamá Province, Panama"
    },
    {
      "lat": 8.976492874191429,
      "lon": -79.54014017715731,
      "geoinfo": {
        "display_name": "Grupo Primavera, S.A., Avenida Luis Clement, Curundú, Distrito de Panamá, Panamá Province, 0843, Panama",
        "road": "Avenida Luis Clement",
        "house_number": null,
        "neighbourhood": "Curundú",
        "suburb": null,
        "city_district": null,
        "city": "Curundú",
        "state": "Panamá Province",
        "postcode": "0843",
        "country": "Panama",
        "country_code": "pa"
      },
      "address": "Avenida Luis Clement, Curundú, Panamá Province, Panama"
    },
    {
      "lat": 9.002598337288314,
      "lon": -79.55169670010791,
      "geoinfo": {
        "display_name": "Avenida de la Amistad, Ancón, Distrito de Panamá, Panamá Province, 0843, Panama",
        "road": "Avenida de la Amistad",
        "house_number": null,
        "neighbourhood": null,
        "suburb": null,
        "city_district": null,
        "city": "Ancón",
        "state": "Panamá Province",
        "postcode": "0843",
        "country": "Panama",
        "country_code": "pa"
      },
      "address": "476, Avenida de la Amistad, Ancón, Distrito de Panamá, Panamá Province, 0843, Panama"
    },
    {
      "lat": 9.00584342494958,
      "lon": -79.56991299019754,
      "geoinfo": {
        "display_name": "Calle Agramente, Ancón, Distrito de Panamá, Panamá Province, 0843, Panama",
        "road": "Calle Agramente",
        "house_number": null,
        "neighbourhood": null,
        "suburb": null,
        "city_district": null,
        "city": "Ancón",
        "state": "Panamá Province",
        "postcode": "0843",
        "country": "Panama",
        "country_code": "pa"
      },
      "address": "659, Calle Agramente, Ancón, Distrito de Panamá, Panamá Province, 0843, Panama"
    },
    {
      "lat": 8.950615591400005,
      "lon": -79.51598153458926,
      "geoinfo": {
        "display_name": "Bella Vista, Distrito de Panamá, Panamá Province, 0807, Panama",
        "road": null,
        "house_number": null,
        "neighbourhood": null,
        "suburb": "Bella Vista",
        "city_district": null,
        "city": "Bella Vista",
        "state": "Panamá Province",
        "postcode": "0807",
        "country": "Panama",
        "country_code": "pa"
      },
      "address": "772, Bella Vista, Distrito de Panamá, Panamá Province, 0807, Panama"
    },
    {
      "lat": 8.969882384691639,
      "lon": -79.58101135381997,
      "geoinfo": {
        "display_name": "Arraiján, Panamá Oeste, 1001, Panama",
        "road": null,
        "house_number": null,
        "neighbourhood": null,
        "suburb": null,
        "city_district": null,
        "city": "Arraiján",
        "state": "Panamá Oeste",
        "postcode": "1001",
        "country": "Panama",
        "country_code": "pa"
      },
      "address": "847, Arraiján, Panamá Oeste, 1001, Panama"
    }
  ],
  "updated_at": "2025-10-19T06:29:43.862333+00:00",
  "_kind": "geo_samples"
}