{
  "country_code": "PA",
  "country": "Panama",
  "city": "Penonomé",
  "geonameid": 3703068,
  "target_addresses": 4,
  "samples": [
    {
      "lat": 8.548923743294814,
      "lon": -80.35654795079257,
      "geoinfo": {
        "display_name": "Penonomé, Coclé, Panama",
        "road": null,
        "house_number": null,
        "neighbourhood": null,
        "suburb": null,
        "city_district": null,
        "city": "Penonomé",
        "state": "Coclé",
        "postcode": null,
        "country": "Panama",
        "country_code": "pa"
      },
      "address": "Penonomé, Coclé, Panama"
    },
    {
      "lat": 8.531050505201359,
      "lon": -80.39910442399055,
      "geoinfo": {
        "display_name": "Vía La Pintada, Cañaveral, Penonomé, Coclé, Panama",
        "road": "Vía La Pintada",
        "house_number": null,
        "neighbourhood": null,
        "suburb": null,
        "city_district": null,
        "city": "Cañaveral",
        "state": "Coclé",
        "postcode": null,
        "country": "Panama",
        "country_code": "pa"
      },
      "address": "Vía La Pintada, Penonomé, Coclé, Panama"
    },
    {
      "lat": 8.490036802340617,
      "lon": -80.37043670000007,
      "geoinfo": {
        "display_name": "Calle Las Lajas, Penonomé, Coclé, Panama",
        "road": "Calle Las Lajas",
        "house_number": null,
        "neighbourhood": null,
        "suburb": null,
        "city_district": null,
        "city": "Penonomé",
        "state": "Coclé",
        "postcode": null,
        "country": "Panama",
        "country_code": "pa"
      },
      "address": "Calle Las Lajas, Penonomé, Coclé, Panama"
    },
    {
      "lat": 8.486914290497674,
      "lon": -80.37322050818925,
      "geoinfo": {
        "display_name": "Terpel, Pan-American Highway, Penonomé, Coclé, Panama",
        "road": "Pan-American Highway",
        "house_number": null,
        "neighbourhood": null,
        "suburb": null,
        "city_district": null,
        "city": "Penonomé",
        "state": "Coclé",
        "postcode": null,
        "country": "Panama",
        "country_code": "pa"
      },
      "address": "Pan-American Highway, Penonomé, Coclé, Panama"
    },
    {
      "lat": 8.542933642331752,
      "lon": -80.39527078289609,
      "geoinfo": {
        "display_name": "Cañaveral, Penonomé, Coclé, Panama",
        "road": null,
        "house_number": null,
        "neighbourhood": null,
        "suburb": null,
        "city_district": null,
        "city": "Cañaveral",
        "state": "Coclé",
        "postcode": null,
        "country": "Panama",
        "country_code": "pa"
      },
      "address": "037, Cañaveral, Penonomé, 90439 Coclé, Panama"
    },
    {
      "lat": 8.551819568191751,
      "lon": -80.38091909227461,
      "geoinfo": {
        "display_name": "Tulú, Penonomé, Coclé, Panama",
        "road": null,
        "house_number": null,
        "neighbourhood": null,
        "suburb": null,
        "city_district": null,
        "city": "Tulú",
        "state": "Coclé",
        "postcode": null,
        "country": "Panama",
        "country_code": "pa"
      },
      "address": "775, Tulú, Penonomé, 89982 Coclé, Panama"
    },
    {
      "lat": 8.497333264193557,
      "lon": -80.36083158964786,
      "geoinfo": {
        "display_name": "Aeródromo de Penonomé, Calle Las Lajas, Penonomé, Coclé, Panama",
        "road": "Calle Las Lajas",
        "house_number": null,
        "neighbourhood": null,
        "suburb": null,
        "city_district": null,
        "city": "Penonomé",
        "state": "Coclé",
        "postcode": null,
        "country": "Panama",
        "country_code": "pa"
      },
      "address": "936, Calle Las Lajas, Penonomé, 87348 Coclé, Panama"
    },
    {
      "lat": 8.546761097237617,
      "lon": -80.37588443345933,
      "geoinfo": {
        "display_name": "Tulú, Penonomé, Coclé, Panama",
        "road": null,
        "house_number": null,
        "neighbourhood": null,
        "suburb": null,
        "city_district": null,
        "city": "Tulú",
        "state": "Coclé",
        "postcode": null,
        "country": "Panama",
        "country_code": "pa"
      },
      "address": "676, Tulú, Penonomé, 07538 Coclé, Panama"
    }
  ],
  "updated_at": "2025-10-19T06:02:50.898906+00:00",
  "_kind": "geo_samples"
}