{
  "country_code": "PA",
  "country": "Panama",
  "city": "San Miguelito",
  "geonameid": 3701329,
  "target_addresses": 4,
  "samples": [
    {
      "lat": 9.04260689429407,
      "lon": -79.47373054280189,
      "geoinfo": {
        "display_name": "Avenida Domingo Díaz, Villa Lucre, José Domingo Espinar, San Miguelito, Panama City, Panamá Province, Panama",
        "road": "Avenida Domingo Díaz",
        "house_number": null,
        "neighbourhood": "Villa Lucre",
        "suburb": "San Miguelito",
        "city_district": null,
        "city": "Panama City",
        "state": "Panamá Province",
        "postcode": null,
        "country": "Panama",
        "country_code": "pa"
      },
      "address": "Avenida Domingo Díaz, San Miguelito, Panamá Province, Panama"
    },
    {
      "lat": 9.078635903604958,
      "lon": -79.50484056901851,
      "geoinfo": {
        "display_name": "Calle Circunvalación, Santa Librada, Ernesto Córdoba Campos, Distrito de Panamá, Panamá Province, Panama",
        "road": "Calle Circunvalación",
        "house_number": null,
        "neighbourhood": "Santa Librada",
        "suburb": null,
        "city_district": null,
        "city": "Ernesto Córdoba Campos",
        "state": "Panamá Province",
        "postcode": null,
        "country": "Panama",
        "country_code": "pa"
      },
      "address": "Calle Circunvalación, San Miguelito, Panamá Province, Panama"
    },
    {
      "lat": 9.074622060431453,
      "lon": -79.50448959846572,
      "geoinfo": {
        "display_name": "Calle Las Peras, Santa Librada, Omar Torrijos, San Miguelito, Panamá Province, Panama",
        "road": "Calle Las Peras",
        "house_number": null,
        "neighbourhood": "Santa Librada",
        "suburb": "San Miguelito",
        "city_district": null,
        "city": null,
        "state": "Panamá Province",
        "postcode": null,
        "country": "Panama",
        "country_code": "pa"
      },
      "address": "Calle Las Peras, San Miguelito, Panamá Province, Panama"
    },
    {
      "lat": 9.053349166042615,
      "lon": -79.50577089164379,
      "geoinfo": {
        "display_name": "Ojo de Agua, Belisario Porras, San Miguelito, Panama City, Panamá Province, 0818, Panama",
        "road": null,
        "house_number": null,
        "neighbourhood": "Ojo de Agua",
        "suburb": "San Miguelito",
        "city_district": null,
        "city": "Panama City",
        "state": "Panamá Province",
        "postcode": "0818",
        "country": "Panama",
        "country_code": "pa"
      },
      "address": "Ojo de Agua, San Miguelito, Panamá Province, Panama"
    },
    {
      "lat": 9.047712771109762,
      "lon": -79.49221817689062,
      "geoinfo": {
        "display_name": "Samaria, Belisario Porras, San Miguelito, Panama City, Panamá Province, Panama",
        "road": null,
        "house_number": null,
        "neighbourhood": "Samaria",
        "suburb": "San Miguelito",
        "city_district": null,
        "city": "Panama City",
        "state": "Panamá Province",
        "postcode": null,
        "country": "Panama",
        "country_code": "pa"
      },
      "address": "901, Samaria, San Miguelito, 60358 Panamá Province, Panama"
    },
    {
      "lat": 9.046522964470684,
      "lon": -79.50267172135085,
      "geoinfo": {
        "display_name": "Calle Y, Pan de Azúcar, Amelia Denis de Icaza, San Miguelito, Panama City, Panamá Province, 0818, Panama",
        "road": "Calle Y",
        "house_number": null,
        "neighbourhood": "Pan de Azúcar",
        "suburb": "San Miguelito",
        "city_district": null,
        "city": "Panama City",
        "state": "Panamá Province",
        "postcode": "0818",
        "country": "Panama",
        "country_code": "pa"
      },
      "address": "672, Calle Y, Pan de Azúcar, Amelia Denis de Icaza, San Miguelito, Panama City, Panamá Province, 0818, Panama"
    },
    {
      "lat": 9.060976710985548,
      "lon": -79.47872030991078,
      "geoinfo": {
        "display_name": "Avenida Rafael E. Alemán, El Futuro, Arnulfo Arias, San Miguelito, Panama City, Panamá Province, Panama",
        "road": "Avenida Rafael E. Alemán",
        "house_number": null,
        "neighbourhood": "El Futuro",
        "suburb": "San Miguelito",
        "city_district": null,
        "city": "Panama City",
        "state": "Panamá Province",
        "postcode": null,
        "country": "Panama",
        "country_code": "pa"
      },
      "address": "537, Avenida Rafael E. Alemán, San Miguelito, 35540 Panamá Province, Panama"
    },
    {
      "lat": 9.022231090251676,
      "lon": -79.49696931803156,
      "geoinfo": {
        "display_name": "Calle 14, Río Abajo, Distrito de Panamá, Panamá Province, 0801, Panama",
        "road": "Calle 14",
        "house_number": null,
        "neighbourhood": null,
        "suburb": "Río Abajo",
        "city_district": null,
        "city": "Río Abajo",
        "state": "Panamá Province",
        "postcode": "0801",
        "country": "Panama",
        "country_code": "pa"
      },
      "address": "Calle 14, Río Abajo, Distrito de Panamá, Panamá Province, 0801, Panama"
    }
  ],
  "updated_at": "2025-10-19T06:28:52.023267+00:00",
  "_kind": "geo_samples"
}