{
  "country_code": "PA",
  "country": "Panama",
  "city": "Santiago de Veraguas",
  "geonameid": 3701117,
  "target_addresses": 4,
  "samples": [
    {
      "lat": 8.129199327789392,
      "lon": -80.96827037432536,
      "geoinfo": {
        "display_name": "Santa Librada, barriada santa librada, Canto del Llano, Santiago, Veraguas, 0924, Panama",
        "road": null,
        "house_number": null,
        "neighbourhood": "Santa Librada",
        "suburb": "barriada santa librada",
        "city_district": null,
        "city": "Canto del Llano",
        "state": "Veraguas",
        "postcode": "0924",
        "country": "Panama",
        "country_code": "pa"
      },
      "address": "Santa Librada, Santiago de Veraguas, Veraguas, Panama"
    },
    {
      "lat": 8.089146186510394,
      "lon": -81.0197308888792,
      "geoinfo": {
        "display_name": "Loa Barriales, El Carrasco, Los Algarrobos, Santiago, Veraguas, Panama",
        "road": null,
        "house_number": null,
        "neighbourhood": "Loa Barriales",
        "suburb": null,
        "city_district": null,
        "city": "Los Algarrobos",
        "state": "Veraguas",
        "postcode": null,
        "country": "Panama",
        "country_code": "pa"
      },
      "address": "Loa Barriales, Santiago de Veraguas, Veraguas, Panama"
    },
    {
      "lat": 8.139689033054538,
      "lon": -80.96480337142499,
      "geoinfo": {
        "display_name": "La Pita, Cañacillas Arriba, Canto del Llano, Santiago, Veraguas, 0924, Panama",
        "road": "La Pita",
        "house_number": null,
        "neighbourhood": "La Pita",
        "suburb": null,
        "city_district": null,
        "city": "Cañacillas Arriba",
        "state": "Veraguas",
        "postcode": "0924",
        "country": "Panama",
        "country_code": "pa"
      },
      "address": "La Pita, Santiago de Veraguas, Veraguas, Panama"
    },
    {
      "lat": 8.09705639004124,
      "lon": -80.99366053785113,
      "geoinfo": {
        "display_name": "Rio Escondido #2, barriada rio escondido 2, Santiago, Veraguas, 0924, Panama",
        "road": null,
        "house_number": null,
        "neighbourhood": "Rio Escondido #2",
        "suburb": "barriada rio escondido 2",
        "city_district": null,
        "city": "Santiago",
        "state": "Veraguas",
        "postcode": "0924",
        "country": "Panama",
        "country_code": "pa"
      },
      "address": "Rio Escondido #2, Santiago de Veraguas, Veraguas, Panama"
    },
    {
      "lat": 8.094472552957054,
      "lon": -81.00835071772522,
      "geoinfo": {
        "display_name": "El Porvenir, Los Algarrobos, Santiago, Veraguas, 0924, Panama",
        "road": null,
        "house_number": null,
        "neighbourhood": null,
        "suburb": null,
        "city_district": null,
        "city": "Los Algarrobos",
        "state": "Veraguas",
        "postcode": "0924",
        "country": "Panama",
        "country_code": "pa"
      },
      "address": "226, El Porvenir, Los Algarrobos, Santiago, Veraguas, 0924, Panama"
    },
    {
      "lat": 8.0797601365554,
      "lon": -80.9556578166844,
      "geoinfo": {
        "display_name": "La Florecita, la florecita, Santiago, Veraguas, 0924, Panama",
        "road": "La Florecita",
        "house_number": null,
        "neighbourhood": null,
        "suburb": "la florecita",
        "city_district": null,
        "city": "Santiago",
        "state": "Veraguas",
        "postcode": "0924",
        "country": "Panama",
        "country_code": "pa"
      },
      "address": "856, La Florecita, la florecita, Santiago, Veraguas, 0924, Panama"
    },
    {
      "lat": 8.083943222591612,
      "lon": -81.01642483141664,
      "geoinfo": {
        "display_name": "El Carrasco, Los Algarrobos, Santiago, Veraguas, Panama",
        "road": null,
        "house_number": null,
        "neighbourhood": null,
        "suburb": null,
        "city_district": null,
        "city": "Los Algarrobos",
        "state": "Veraguas",
        "postcode": null,
        "country": "Panama",
        "country_code": "pa"
      },
      "address": "695, El Carrasco, Los Algarrobos, Santiago, 93501 Veraguas, Panama"
    },
    {
      "lat": 8.13344651148898,
      "lon": -80.9614798245644,
      "geoinfo": {
        "display_name": "La Pita, Cañacillas Arriba, Canto del Llano, Santiago, Veraguas, 0924, Panama",
        "road": "La Pita",
        "house_number": null,
        "neighbourhood": "La Pita",
        "suburb": null,
        "city_district": null,
        "city": "Cañacillas Arriba",
        "state": "Veraguas",
        "postcode": "0924",
        "country": "Panama",
        "country_code": "pa"
      },
      "address": "962, La Pita, Cañacillas Arriba, Canto del Llano, Santiago, Veraguas, 0924, Panama"
    }
  ],
  "updated_at": "2025-10-19T08:56:03.347453+00:00",
  "_kind": "geo_samples"
}