{
  "country_code": "PA",
  "country": "Panama",
  "city": "Veracruz",
  "geonameid": 3700164,
  "target_addresses": 4,
  "samples": [
    {
      "lat": 8.890619287655555,
      "lon": -79.61196886119995,
      "geoinfo": {
        "display_name": "Vía Veracruz, Veracruz, Arraiján, Panamá Oeste, Panama",
        "road": "Vía Veracruz",
        "house_number": null,
        "neighbourhood": null,
        "suburb": null,
        "city_district": null,
        "city": "Veracruz",
        "state": "Panamá Oeste",
        "postcode": null,
        "country": "Panama",
        "country_code": "pa"
      },
      "address": "Vía Veracruz, Veracruz, Panamá Oeste, Panama"
    },
    {
      "lat": 8.885163777884154,
      "lon": -79.58647142675336,
      "geoinfo": {
        "display_name": "Playa Bonita Village, Veracruz, Arraiján, Panamá Oeste, Panama",
        "road": null,
        "house_number": null,
        "neighbourhood": null,
        "suburb": null,
        "city_district": null,
        "city": "Veracruz",
        "state": "Panamá Oeste",
        "postcode": null,
        "country": "Panama",
        "country_code": "pa"
      },
      "address": "Veracruz, Panamá Oeste, Panama"
    },
    {
      "lat": 8.908154842600492,
      "lon": -79.60511756932922,
      "geoinfo": {
        "display_name": "Bulevar de las Américas, Panamerica Corporate Center, Veracruz, Arraiján, Panamá Oeste, Panama",
        "road": "Bulevar de las Américas",
        "house_number": null,
        "neighbourhood": null,
        "suburb": null,
        "city_district": null,
        "city": "Veracruz",
        "state": "Panamá Oeste",
        "postcode": null,
        "country": "Panama",
        "country_code": "pa"
      },
      "address": "Bulevar de las Américas, Veracruz, Panamá Oeste, Panama"
    },
    {
      "lat": 8.931797551819093,
      "lon": -79.6462687057847,
      "geoinfo": {
        "display_name": "Calle 1a, 11 de Octubre, Arraiján, Panamá Oeste, 1001, Panama",
        "road": "Calle 1a",
        "house_number": null,
        "neighbourhood": "11 de Octubre",
        "suburb": null,
        "city_district": null,
        "city": "Arraiján",
        "state": "Panamá Oeste",
        "postcode": "1001",
        "country": "Panama",
        "country_code": "pa"
      },
      "address": "Calle 1a, Veracruz, Panamá Oeste, Panama"
    },
    {
      "lat": 8.882998008915328,
      "lon": -79.60364651250113,
      "geoinfo": {
        "display_name": "Panamá Oeste, Panama",
        "road": null,
        "house_number": null,
        "neighbourhood": null,
        "suburb": null,
        "city_district": null,
        "city": null,
        "state": "Panamá Oeste",
        "postcode": null,
        "country": "Panama",
        "country_code": "pa"
      },
      "address": "178, Veracruz, 59128 Panamá Oeste, Panama"
    },
    {
      "lat": 8.927114063419523,
      "lon": -79.64497761700933,
      "geoinfo": {
        "display_name": "La Cantera, Arraiján, Panamá Oeste, 1001, Panama",
        "road": null,
        "house_number": null,
        "neighbourhood": "La Cantera",
        "suburb": null,
        "city_district": null,
        "city": "Arraiján",
        "state": "Panamá Oeste",
        "postcode": "1001",
        "country": "Panama",
        "country_code": "pa"
      },
      "address": "712, La Cantera, Arraiján, Panamá Oeste, 1001, Panama"
    },
    {
      "lat": 8.931639742027674,
      "lon": -79.63307386678807,
      "geoinfo": {
        "display_name": "Las Nubes, Arraiján, Panamá Oeste, 1001, Panama",
        "road": null,
        "house_number": null,
        "neighbourhood": "Las Nubes",
        "suburb": null,
        "city_district": null,
        "city": "Arraiján",
        "state": "Panamá Oeste",
        "postcode": "1001",
        "country": "Panama",
        "country_code": "pa"
      },
      "address": "010, Las Nubes, Arraiján, Panamá Oeste, 1001, Panama"
    },
    {
      "lat": 8.88832820544502,
      "lon": -79.58057936283123,
      "geoinfo": {
        "display_name": "Playa Bonita Village, Veracruz, Arraiján, Panamá Oeste, Panama",
        "road": null,
        "house_number": null,
        "neighbourhood": null,
        "suburb": null,
        "city_district": null,
        "city": "Veracruz",
        "state": "Panamá Oeste",
        "postcode": null,
        "country": "Panama",
        "country_code": "pa"
      },
      "address": "106, Playa Bonita Village, Veracruz, Arraiján, 37834 Panamá Oeste, Panama"
    }
  ],
  "updated_at": "2025-10-19T04:58:47.171728+00:00",
  "_kind": "geo_samples"
}