{
  "country_code": "TV",
  "country": "Tuvalu",
  "city": "Funafuti",
  "geonameid": 2110394,
  "target_addresses": 100,
  "samples": [
    {
      "lat": -8.533746953791713,
      "lon": 179.15570908209614,
      "geoinfo": {
        "display_name": "Vaiaku, Funafuti, Tuvalu",
        "road": null,
        "house_number": null,
        "neighbourhood": null,
        "suburb": null,
        "city_district": null,
        "city": "Funafuti",
        "state": null,
        "postcode": null,
        "country": "Tuvalu",
        "country_code": "tv"
      },
      "address": "Funafuti, Tuvalu"
    },
    {
      "lat": -8.539715803796684,
      "lon": 179.1706695862123,
      "geoinfo": {
        "display_name": "Te Auala O Valaku, Vaiaku, Funafuti, Tuvalu",
        "road": "Te Auala O Valaku",
        "house_number": null,
        "neighbourhood": null,
        "suburb": null,
        "city_district": null,
        "city": "Funafuti",
        "state": null,
        "postcode": null,
        "country": "Tuvalu",
        "country_code": "tv"
      },
      "address": "Te Auala O Valaku, Funafuti, Tuvalu"
    },
    {
      "lat": -8.48217372067348,
      "lon": 179.19459213950717,
      "geoinfo": {
        "display_name": "Te Auala O Tuvalu, Funafuti, Tuvalu",
        "road": "Te Auala O Tuvalu",
        "house_number": null,
        "neighbourhood": null,
        "suburb": null,
        "city_district": null,
        "city": "Funafuti",
        "state": null,
        "postcode": null,
        "country": "Tuvalu",
        "country_code": "tv"
      },
      "address": "Te Auala O Tuvalu, Funafuti, Tuvalu"
    },
    {
      "lat": -8.522742755004147,
      "lon": 179.19066179886522,
      "geoinfo": {
        "display_name": "Tomasi Puapua Covention Center, Namo Road, Vaiaku, Funafuti, Tuvalu",
        "road": "Namo Road",
        "house_number": null,
        "neighbourhood": null,
        "suburb": null,
        "city_district": null,
        "city": "Funafuti",
        "state": null,
        "postcode": null,
        "country": "Tuvalu",
        "country_code": "tv"
      },
      "address": "Namo Road, Funafuti, Tuvalu"
    },
    {
      "lat": -8.519912606031635,
      "lon": 179.19496273727734,
      "geoinfo": {
        "display_name": "Sueâ€™s Kitchen, Fongafale Road, Alapi, Funafuti, Tuvalu",
        "road": "Fongafale Road",
        "house_number": null,
        "neighbourhood": null,
        "suburb": null,
        "city_district": null,
        "city": "Funafuti",
        "state": null,
        "postcode": null,
        "country": "Tuvalu",
        "country_code": "tv"
      },
      "address": "Fongafale Road, Funafuti, Tuvalu"
    },
    {
      "lat": -8.517722470509579,
      "lon": 179.20437346571404,
      "geoinfo": {
        "display_name": "Nui Community Hall, Malae Road, Tokotu, Funafuti, Tuvalu",
        "road": "Malae Road",
        "house_number": null,
        "neighbourhood": null,
        "suburb": null,
        "city_district": null,
        "city": "Funafuti",
        "state": null,
        "postcode": null,
        "country": "Tuvalu",
        "country_code": "tv"
      },
      "address": "Malae Road, Funafuti, Tuvalu"
    },
    {
      "lat": -8.518599322677392,
      "lon": 179.20264214292962,
      "geoinfo": {
        "display_name": "Funafuti International Airport, Alofa Road, Vaiaku, Funafuti, Tuvalu",
        "road": "Alofa Road",
        "house_number": null,
        "neighbourhood": null,
        "suburb": null,
        "city_district": null,
        "city": "Funafuti",
        "state": null,
        "postcode": null,
        "country": "Tuvalu",
        "country_code": "tv"
      },
      "address": "Alofa Road, Funafuti, Tuvalu"
    },
    {
      "lat": -8.496589043336312,
      "lon": 179.17435503018416,
      "geoinfo": {
        "display_name": "Senala, Funafuti, Tuvalu",
        "road": null,
        "house_number": null,
        "neighbourhood": null,
        "suburb": null,
        "city_district": null,
        "city": "Funafuti",
        "state": null,
        "postcode": null,
        "country": "Tuvalu",
        "country_code": "tv"
      },
      "address": "809, Senala, 74189 Funafuti, Tuvalu"
    },
    {
      "lat": -8.505246585066145,
      "lon": 179.20447108500994,
      "geoinfo": {
        "display_name": "Fakaifou, Funafuti, Tuvalu",
        "road": null,
        "house_number": null,
        "neighbourhood": null,
        "suburb": null,
        "city_district": null,
        "city": "Funafuti",
        "state": null,
        "postcode": null,
        "country": "Tuvalu",
        "country_code": "tv"
      },
      "address": "566, Fakaifou, 77735 Funafuti, Tuvalu"
    },
    {
      "lat": -8.522952289727048,
      "lon": 179.22635997860704,
      "geoinfo": {
        "display_name": "Fakaifou, Funafuti, Tuvalu",
        "road": null,
        "house_number": null,
        "neighbourhood": null,
        "suburb": null,
        "city_district": null,
        "city": "Funafuti",
        "state": null,
        "postcode": null,
        "country": "Tuvalu",
        "country_code": "tv"
      },
      "address": "704, Fakaifou, 83185 Funafuti, Tuvalu"
    },
    {
      "lat": -8.487848267027307,
      "lon": 179.21124554058977,
      "geoinfo": {
        "display_name": "Fakaifou, Funafuti, Tuvalu",
        "road": null,
        "house_number": null,
        "neighbourhood": null,
        "suburb": null,
        "city_district": null,
        "city": "Funafuti",
        "state": null,
        "postcode": null,
        "country": "Tuvalu",
        "country_code": "tv"
      },
      "address": "636, Fakaifou, 94043 Funafuti, Tuvalu"
    },
    {
      "lat": -8.499698332032372,
      "lon": 179.22708855849285,
      "geoinfo": {
        "display_name": "Fakaifou, Funafuti, Tuvalu",
        "road": null,
        "house_number": null,
        "neighbourhood": null,
        "suburb": null,
        "city_district": null,
        "city": "Funafuti",
        "state": null,
        "postcode": null,
        "country": "Tuvalu",
        "country_code": "tv"
      },
      "address": "811, Fakaifou, 36393 Funafuti, Tuvalu"
    },
    {
      "lat": -8.543255468620682,
      "lon": 179.219877824303,
      "geoinfo": {
        "display_name": "Tokotu, Funafuti, Tuvalu",
        "road": null,
        "house_number": null,
        "neighbourhood": null,
        "suburb": null,
        "city_district": null,
        "city": "Funafuti",
        "state": null,
        "postcode": null,
        "country": "Tuvalu",
        "country_code": "tv"
      },
      "address": "962, Tokotu, 51350 Funafuti, Tuvalu"
    },
    {
      "lat": -8.507986799358227,
      "lon": 179.21742735409546,
      "geoinfo": {
        "display_name": "Fakaifou, Funafuti, Tuvalu",
        "road": null,
        "house_number": null,
        "neighbourhood": null,
        "suburb": null,
        "city_district": null,
        "city": "Funafuti",
        "state": null,
        "postcode": null,
        "country": "Tuvalu",
        "country_code": "tv"
      },
      "address": "154, Fakaifou, 12803 Funafuti, Tuvalu"
    },
    {
      "lat": -8.52287804396046,
      "lon": 179.21070447268238,
      "geoinfo": {
        "display_name": "Fakaifou, Funafuti, Tuvalu",
        "road": null,
        "house_number": null,
        "neighbourhood": null,
        "suburb": null,
        "city_district": null,
        "city": "Funafuti",
        "state": null,
        "postcode": null,
        "country": "Tuvalu",
        "country_code": "tv"
      },
      "address": "463, Fakaifou, 30278 Funafuti, Tuvalu"
    },
    {
      "lat": -8.561201535009909,
      "lon": 179.21159634215746,
      "geoinfo": {
        "display_name": "Vaiaku, Funafuti, Tuvalu",
        "road": null,
        "house_number": null,
        "neighbourhood": null,
        "suburb": null,
        "city_district": null,
        "city": "Funafuti",
        "state": null,
        "postcode": null,
        "country": "Tuvalu",
        "country_code": "tv"
      },
      "address": "020, Vaiaku, 12638 Funafuti, Tuvalu"
    },
    {
      "lat": -8.482102301260461,
      "lon": 179.19342392209984,
      "geoinfo": {
        "display_name": "Te Auala O Tuvalu, Funafuti, Tuvalu",
        "road": "Te Auala O Tuvalu",
        "house_number": null,
        "neighbourhood": null,
        "suburb": null,
        "city_district": null,
        "city": "Funafuti",
        "state": null,
        "postcode": null,
        "country": "Tuvalu",
        "country_code": "tv"
      },
      "address": "888, Te Auala O Tuvalu, 21746 Funafuti, Tuvalu"
    },
    {
      "lat": -8.517553749745435,
      "lon": 179.2225152993873,
      "geoinfo": {
        "display_name": "Fakaifou, Funafuti, Tuvalu",
        "road": null,
        "house_number": null,
        "neighbourhood": null,
        "suburb": null,
        "city_district": null,
        "city": "Funafuti",
        "state": null,
        "postcode": null,
        "country": "Tuvalu",
        "country_code": "tv"
      },
      "address": "605, Fakaifou, 45152 Funafuti, Tuvalu"
    },
    {
      "lat": -8.530903445307128,
      "lon": 179.16140317082056,
      "geoinfo": {
        "display_name": "Vaiaku, Funafuti, Tuvalu",
        "road": null,
        "house_number": null,
        "neighbourhood": null,
        "suburb": null,
        "city_district": null,
        "city": "Funafuti",
        "state": null,
        "postcode": null,
        "country": "Tuvalu",
        "country_code": "tv"
      },
      "address": "737, Vaiaku, 05536 Funafuti, Tuvalu"
    },
    {
      "lat": -8.502114781952228,
      "lon": 179.20126568595498,
      "geoinfo": {
        "display_name": "Te Auala O Tuvalu, Tokotu, Funafuti, Tuvalu",
        "road": "Te Auala O Tuvalu",
        "house_number": null,
        "neighbourhood": null,
        "suburb": null,
        "city_district": null,
        "city": "Funafuti",
        "state": null,
        "postcode": null,
        "country": "Tuvalu",
        "country_code": "tv"
      },
      "address": "890, Te Auala O Tuvalu, Tokotu, 72269 Funafuti, Tuvalu"
    },
    {
      "lat": -8.560230441806313,
      "lon": 179.21079065662204,
      "geoinfo": {
        "display_name": "Vaiaku, Funafuti, Tuvalu",
        "road": null,
        "house_number": null,
        "neighbourhood": null,
        "suburb": null,
        "city_district": null,
        "city": "Funafuti",
        "state": null,
        "postcode": null,
        "country": "Tuvalu",
        "country_code": "tv"
      },
      "address": "175, Vaiaku, 00851 Funafuti, Tuvalu"
    },
    {
      "lat": -8.55248002193556,
      "lon": 179.1999199600384,
      "geoinfo": {
        "display_name": "Vaiaku, Funafuti, Tuvalu",
        "road": null,
        "house_number": null,
        "neighbourhood": null,
        "suburb": null,
        "city_district": null,
        "city": "Funafuti",
        "state": null,
        "postcode": null,
        "country": "Tuvalu",
        "country_code": "tv"
      },
      "address": "925, Vaiaku, 86214 Funafuti, Tuvalu"
    },
    {
      "lat": -8.557074723468988,
      "lon": 179.21718401688588,
      "geoinfo": {
        "display_name": "Vaiaku, Funafuti, Tuvalu",
        "road": null,
        "house_number": null,
        "neighbourhood": null,
        "suburb": null,
        "city_district": null,
        "city": "Funafuti",
        "state": null,
        "postcode": null,
        "country": "Tuvalu",
        "country_code": "tv"
      },
      "address": "905, Vaiaku, 63829 Funafuti, Tuvalu"
    },
    {
      "lat": -8.51047832725215,
      "lon": 179.2193594911542,
      "geoinfo": {
        "display_name": "Fakaifou, Funafuti, Tuvalu",
        "road": null,
        "house_number": null,
        "neighbourhood": null,
        "suburb": null,
        "city_district": null,
        "city": "Funafuti",
        "state": null,
        "postcode": null,
        "country": "Tuvalu",
        "country_code": "tv"
      },
      "address": "632, Fakaifou, 95793 Funafuti, Tuvalu"
    },
    {
      "lat": -8.528346519865623,
      "lon": 179.16201940847915,
      "geoinfo": {
        "display_name": "Vaiaku, Funafuti, Tuvalu",
        "road": null,
        "house_number": null,
        "neighbourhood": null,
        "suburb": null,
        "city_district": null,
        "city": "Funafuti",
        "state": null,
        "postcode": null,
        "country": "Tuvalu",
        "country_code": "tv"
      },
      "address": "613, Vaiaku, 57294 Funafuti, Tuvalu"
    },
    {
      "lat": -8.5529734198497,
      "lon": 179.19227992578055,
      "geoinfo": {
        "display_name": "Vaiaku, Funafuti, Tuvalu",
        "road": null,
        "house_number": null,
        "neighbourhood": null,
        "suburb": null,
        "city_district": null,
        "city": "Funafuti",
        "state": null,
        "postcode": null,
        "country": "Tuvalu",
        "country_code": "tv"
      },
      "address": "025, Vaiaku, 32406 Funafuti, Tuvalu"
    },
    {
      "lat": -8.516184977629353,
      "lon": 179.2371954980584,
      "geoinfo": {
        "display_name": "Fakaifou, Funafuti, Tuvalu",
        "road": null,
        "house_number": null,
        "neighbourhood": null,
        "suburb": null,
        "city_district": null,
        "city": "Funafuti",
        "state": null,
        "postcode": null,
        "country": "Tuvalu",
        "country_code": "tv"
      },
      "address": "348, Fakaifou, 30763 Funafuti, Tuvalu"
    },
    {
      "lat": -8.548044453337784,
      "lon": 179.2264009715273,
      "geoinfo": {
        "display_name": "Tokotu, Funafuti, Tuvalu",
        "road": null,
        "house_number": null,
        "neighbourhood": null,
        "suburb": null,
        "city_district": null,
        "city": "Funafuti",
        "state": null,
        "postcode": null,
        "country": "Tuvalu",
        "country_code": "tv"
      },
      "address": "233, Tokotu, 38793 Funafuti, Tuvalu"
    },
    {
      "lat": -8.50555136231336,
      "lon": 179.22421179209667,
      "geoinfo": {
        "display_name": "Fakaifou, Funafuti, Tuvalu",
        "road": null,
        "house_number": null,
        "neighbourhood": null,
        "suburb": null,
        "city_district": null,
        "city": "Funafuti",
        "state": null,
        "postcode": null,
        "country": "Tuvalu",
        "country_code": "tv"
      },
      "address": "150, Fakaifou, 93254 Funafuti, Tuvalu"
    },
    {
      "lat": -8.538863241087792,
      "lon": 179.20498923516226,
      "geoinfo": {
        "display_name": "Vaiaku, Funafuti, Tuvalu",
        "road": null,
        "house_number": null,
        "neighbourhood": null,
        "suburb": null,
        "city_district": null,
        "city": "Funafuti",
        "state": null,
        "postcode": null,
        "country": "Tuvalu",
        "country_code": "tv"
      },
      "address": "012, Vaiaku, 75295 Funafuti, Tuvalu"
    },
    {
      "lat": -8.532841663725762,
      "lon": 179.1728600234095,
      "geoinfo": {
        "display_name": "Vaiaku, Funafuti, Tuvalu",
        "road": null,
        "house_number": null,
        "neighbourhood": null,
        "suburb": null,
        "city_district": null,
        "city": "Funafuti",
        "state": null,
        "postcode": null,
        "country": "Tuvalu",
        "country_code": "tv"
      },
      "address": "608, Vaiaku, 19930 Funafuti, Tuvalu"
    },
    {
      "lat": -8.499467167601372,
      "lon": 179.19547049049734,
      "geoinfo": {
        "display_name": "Te Auala O Tuvalu, Funafuti, Tuvalu",
        "road": "Te Auala O Tuvalu",
        "house_number": null,
        "neighbourhood": null,
        "suburb": null,
        "city_district": null,
        "city": "Funafuti",
        "state": null,
        "postcode": null,
        "country": "Tuvalu",
        "country_code": "tv"
      },
      "address": "919, Te Auala O Tuvalu, 77764 Funafuti, Tuvalu"
    },
    {
      "lat": -8.516618798977406,
      "lon": 179.2286034984363,
      "geoinfo": {
        "display_name": "Fakaifou, Funafuti, Tuvalu",
        "road": null,
        "house_number": null,
        "neighbourhood": null,
        "suburb": null,
        "city_district": null,
        "city": "Funafuti",
        "state": null,
        "postcode": null,
        "country": "Tuvalu",
        "country_code": "tv"
      },
      "address": "937, Fakaifou, 45055 Funafuti, Tuvalu"
    },
    {
      "lat": -8.517523221039433,
      "lon": 179.20265695827922,
      "geoinfo": {
        "display_name": "Nui Community Hall, Malae Road, Tokotu, Funafuti, Tuvalu",
        "road": "Malae Road",
        "house_number": null,
        "neighbourhood": null,
        "suburb": null,
        "city_district": null,
        "city": "Funafuti",
        "state": null,
        "postcode": null,
        "country": "Tuvalu",
        "country_code": "tv"
      },
      "address": "369, Malae Road, 53695 Funafuti, Tuvalu"
    },
    {
      "lat": -8.492251010953176,
      "lon": 179.17928111185833,
      "geoinfo": {
        "display_name": "Senala, Funafuti, Tuvalu",
        "road": null,
        "house_number": null,
        "neighbourhood": null,
        "suburb": null,
        "city_district": null,
        "city": "Funafuti",
        "state": null,
        "postcode": null,
        "country": "Tuvalu",
        "country_code": "tv"
      },
      "address": "708, Senala, 25650 Funafuti, Tuvalu"
    },
    {
      "lat": -8.543032784788991,
      "lon": 179.22601781907034,
      "geoinfo": {
        "display_name": "Tokotu, Funafuti, Tuvalu",
        "road": null,
        "house_number": null,
        "neighbourhood": null,
        "suburb": null,
        "city_district": null,
        "city": "Funafuti",
        "state": null,
        "postcode": null,
        "country": "Tuvalu",
        "country_code": "tv"
      },
      "address": "557, Tokotu, 64926 Funafuti, Tuvalu"
    },
    {
      "lat": -8.49592631381617,
      "lon": 179.2126793031944,
      "geoinfo": {
        "display_name": "Fakaifou, Funafuti, Tuvalu",
        "road": null,
        "house_number": null,
        "neighbourhood": null,
        "suburb": null,
        "city_district": null,
        "city": "Funafuti",
        "state": null,
        "postcode": null,
        "country": "Tuvalu",
        "country_code": "tv"
      },
      "address": "662, Fakaifou, 64414 Funafuti, Tuvalu"
    },
    {
      "lat": -8.501724221274078,
      "lon": 179.18951660902243,
      "geoinfo": {
        "display_name": "Te Auala O Tuvalu, Tokotu, Funafuti, Tuvalu",
        "road": "Te Auala O Tuvalu",
        "house_number": null,
        "neighbourhood": null,
        "suburb": null,
        "city_district": null,
        "city": "Funafuti",
        "state": null,
        "postcode": null,
        "country": "Tuvalu",
        "country_code": "tv"
      },
      "address": "282, Te Auala O Tuvalu, Tokotu, 24912 Funafuti, Tuvalu"
    },
    {
      "lat": -8.557890659092283,
      "lon": 179.2083761228378,
      "geoinfo": {
        "display_name": "Vaiaku, Funafuti, Tuvalu",
        "road": null,
        "house_number": null,
        "neighbourhood": null,
        "suburb": null,
        "city_district": null,
        "city": "Funafuti",
        "state": null,
        "postcode": null,
        "country": "Tuvalu",
        "country_code": "tv"
      },
      "address": "523, Vaiaku, 49714 Funafuti, Tuvalu"
    },
    {
      "lat": -8.523213503684905,
      "lon": 179.18554185287806,
      "geoinfo": {
        "display_name": "Vaiaku, Funafuti, Tuvalu",
        "road": null,
        "house_number": null,
        "neighbourhood": null,
        "suburb": null,
        "city_district": null,
        "city": "Funafuti",
        "state": null,
        "postcode": null,
        "country": "Tuvalu",
        "country_code": "tv"
      },
      "address": "803, Vaiaku, 23647 Funafuti, Tuvalu"
    },
    {
      "lat": -8.55555488304948,
      "lon": 179.17802142837178,
      "geoinfo": {
        "display_name": "Vaiaku, Funafuti, Tuvalu",
        "road": null,
        "house_number": null,
        "neighbourhood": null,
        "suburb": null,
        "city_district": null,
        "city": "Funafuti",
        "state": null,
        "postcode": null,
        "country": "Tuvalu",
        "country_code": "tv"
      },
      "address": "538, Vaiaku, 05041 Funafuti, Tuvalu"
    },
    {
      "lat": -8.54739581610893,
      "lon": 179.1618896116,
      "geoinfo": {
        "display_name": "Vaiaku, Funafuti, Tuvalu",
        "road": null,
        "house_number": null,
        "neighbourhood": null,
        "suburb": null,
        "city_district": null,
        "city": "Funafuti",
        "state": null,
        "postcode": null,
        "country": "Tuvalu",
        "country_code": "tv"
      },
      "address": "129, Vaiaku, 73168 Funafuti, Tuvalu"
    },
    {
      "lat": -8.547053011035263,
      "lon": 179.21707775887052,
      "geoinfo": {
        "display_name": "Vaiaku, Funafuti, Tuvalu",
        "road": null,
        "house_number": null,
        "neighbourhood": null,
        "suburb": null,
        "city_district": null,
        "city": "Funafuti",
        "state": null,
        "postcode": null,
        "country": "Tuvalu",
        "country_code": "tv"
      },
      "address": "084, Vaiaku, 05511 Funafuti, Tuvalu"
    },
    {
      "lat": -8.536398505630308,
      "lon": 179.22826939098323,
      "geoinfo": {
        "display_name": "Fakaifou, Funafuti, Tuvalu",
        "road": null,
        "house_number": null,
        "neighbourhood": null,
        "suburb": null,
        "city_district": null,
        "city": "Funafuti",
        "state": null,
        "postcode": null,
        "country": "Tuvalu",
        "country_code": "tv"
      },
      "address": "441, Fakaifou, 80490 Funafuti, Tuvalu"
    },
    {
      "lat": -8.502297833875089,
      "lon": 179.19584472369655,
      "geoinfo": {
        "display_name": "Te Auala O Tuvalu, Tokotu, Funafuti, Tuvalu",
        "road": "Te Auala O Tuvalu",
        "house_number": null,
        "neighbourhood": null,
        "suburb": null,
        "city_district": null,
        "city": "Funafuti",
        "state": null,
        "postcode": null,
        "country": "Tuvalu",
        "country_code": "tv"
      },
      "address": "972, Te Auala O Tuvalu, Tokotu, 62885 Funafuti, Tuvalu"
    },
    {
      "lat": -8.542866129013763,
      "lon": 179.1993342645531,
      "geoinfo": {
        "display_name": "Vaiaku, Funafuti, Tuvalu",
        "road": null,
        "house_number": null,
        "neighbourhood": null,
        "suburb": null,
        "city_district": null,
        "city": "Funafuti",
        "state": null,
        "postcode": null,
        "country": "Tuvalu",
        "country_code": "tv"
      },
      "address": "475, Vaiaku, 63054 Funafuti, Tuvalu"
    },
    {
      "lat": -8.53863011242645,
      "lon": 179.20756192390397,
      "geoinfo": {
        "display_name": "Vaiaku, Funafuti, Tuvalu",
        "road": null,
        "house_number": null,
        "neighbourhood": null,
        "suburb": null,
        "city_district": null,
        "city": "Funafuti",
        "state": null,
        "postcode": null,
        "country": "Tuvalu",
        "country_code": "tv"
      },
      "address": "351, Vaiaku, 49552 Funafuti, Tuvalu"
    },
    {
      "lat": -8.480545930106858,
      "lon": 179.18440307591166,
      "geoinfo": {
        "display_name": "Senala, Funafuti, Tuvalu",
        "road": null,
        "house_number": null,
        "neighbourhood": null,
        "suburb": null,
        "city_district": null,
        "city": "Funafuti",
        "state": null,
        "postcode": null,
        "country": "Tuvalu",
        "country_code": "tv"
      },
      "address": "457, Senala, 23595 Funafuti, Tuvalu"
    },
    {
      "lat": -8.525570749374552,
      "lon": 179.20607817625188,
      "geoinfo": {
        "display_name": "Tokotu, Funafuti, Tuvalu",
        "road": null,
        "house_number": null,
        "neighbourhood": null,
        "suburb": null,
        "city_district": null,
        "city": "Funafuti",
        "state": null,
        "postcode": null,
        "country": "Tuvalu",
        "country_code": "tv"
      },
      "address": "702, Tokotu, 42119 Funafuti, Tuvalu"
    },
    {
      "lat": -8.516403924553149,
      "lon": 179.23164799808663,
      "geoinfo": {
        "display_name": "Fakaifou, Funafuti, Tuvalu",
        "road": null,
        "house_number": null,
        "neighbourhood": null,
        "suburb": null,
        "city_district": null,
        "city": "Funafuti",
        "state": null,
        "postcode": null,
        "country": "Tuvalu",
        "country_code": "tv"
      },
      "address": "578, Fakaifou, 39412 Funafuti, Tuvalu"
    },
    {
      "lat": -8.511004099342802,
      "lon": 179.20449213692518,
      "geoinfo": {
        "display_name": "Senala, Funafuti, Tuvalu",
        "road": null,
        "house_number": null,
        "neighbourhood": null,
        "suburb": null,
        "city_district": null,
        "city": "Funafuti",
        "state": null,
        "postcode": null,
        "country": "Tuvalu",
        "country_code": "tv"
      },
      "address": "452, Senala, 05677 Funafuti, Tuvalu"
    },
    {
      "lat": -8.526180945167305,
      "lon": 179.1575705763594,
      "geoinfo": {
        "display_name": "Vaiaku, Funafuti, Tuvalu",
        "road": null,
        "house_number": null,
        "neighbourhood": null,
        "suburb": null,
        "city_district": null,
        "city": "Funafuti",
        "state": null,
        "postcode": null,
        "country": "Tuvalu",
        "country_code": "tv"
      },
      "address": "998, Vaiaku, 81133 Funafuti, Tuvalu"
    },
    {
      "lat": -8.529754861808092,
      "lon": 179.19291695925628,
      "geoinfo": {
        "display_name": "Te Auala O Valaku, Vaiaku, Funafuti, Tuvalu",
        "road": "Te Auala O Valaku",
        "house_number": null,
        "neighbourhood": null,
        "suburb": null,
        "city_district": null,
        "city": "Funafuti",
        "state": null,
        "postcode": null,
        "country": "Tuvalu",
        "country_code": "tv"
      },
      "address": "604, Te Auala O Valaku, Vaiaku, 25061 Funafuti, Tuvalu"
    },
    {
      "lat": -8.548679061077479,
      "lon": 179.19861276382562,
      "geoinfo": {
        "display_name": "Vaiaku, Funafuti, Tuvalu",
        "road": null,
        "house_number": null,
        "neighbourhood": null,
        "suburb": null,
        "city_district": null,
        "city": "Funafuti",
        "state": null,
        "postcode": null,
        "country": "Tuvalu",
        "country_code": "tv"
      },
      "address": "989, Vaiaku, 74060 Funafuti, Tuvalu"
    },
    {
      "lat": -8.532704014783281,
      "lon": 179.20090413768696,
      "geoinfo": {
        "display_name": "Vaiaku, Funafuti, Tuvalu",
        "road": null,
        "house_number": null,
        "neighbourhood": null,
        "suburb": null,
        "city_district": null,
        "city": "Funafuti",
        "state": null,
        "postcode": null,
        "country": "Tuvalu",
        "country_code": "tv"
      },
      "address": "351, Vaiaku, 03631 Funafuti, Tuvalu"
    },
    {
      "lat": -8.556285195536038,
      "lon": 179.18445058016906,
      "geoinfo": {
        "display_name": "Vaiaku, Funafuti, Tuvalu",
        "road": null,
        "house_number": null,
        "neighbourhood": null,
        "suburb": null,
        "city_district": null,
        "city": "Funafuti",
        "state": null,
        "postcode": null,
        "country": "Tuvalu",
        "country_code": "tv"
      },
      "address": "564, Vaiaku, 24852 Funafuti, Tuvalu"
    },
    {
      "lat": -8.496784169055392,
      "lon": 179.2188365886903,
      "geoinfo": {
        "display_name": "Fakaifou, Funafuti, Tuvalu",
        "road": null,
        "house_number": null,
        "neighbourhood": null,
        "suburb": null,
        "city_district": null,
        "city": "Funafuti",
        "state": null,
        "postcode": null,
        "country": "Tuvalu",
        "country_code": "tv"
      },
      "address": "064, Fakaifou, 49665 Funafuti, Tuvalu"
    },
    {
      "lat": -8.486272260545933,
      "lon": 179.18868885830773,
      "geoinfo": {
        "display_name": "Te Auala O Tuvalu, Funafuti, Tuvalu",
        "road": "Te Auala O Tuvalu",
        "house_number": null,
        "neighbourhood": null,
        "suburb": null,
        "city_district": null,
        "city": "Funafuti",
        "state": null,
        "postcode": null,
        "country": "Tuvalu",
        "country_code": "tv"
      },
      "address": "081, Te Auala O Tuvalu, 58098 Funafuti, Tuvalu"
    },
    {
      "lat": -8.502829084966532,
      "lon": 179.21457282074934,
      "geoinfo": {
        "display_name": "Fakaifou, Funafuti, Tuvalu",
        "road": null,
        "house_number": null,
        "neighbourhood": null,
        "suburb": null,
        "city_district": null,
        "city": "Funafuti",
        "state": null,
        "postcode": null,
        "country": "Tuvalu",
        "country_code": "tv"
      },
      "address": "257, Fakaifou, 66539 Funafuti, Tuvalu"
    },
    {
      "lat": -8.525436401137767,
      "lon": 179.21552165296956,
      "geoinfo": {
        "display_name": "Fakaifou, Funafuti, Tuvalu",
        "road": null,
        "house_number": null,
        "neighbourhood": null,
        "suburb": null,
        "city_district": null,
        "city": "Funafuti",
        "state": null,
        "postcode": null,
        "country": "Tuvalu",
        "country_code": "tv"
      },
      "address": "975, Fakaifou, 50268 Funafuti, Tuvalu"
    },
    {
      "lat": -8.502152361601343,
      "lon": 179.2056073159779,
      "geoinfo": {
        "display_name": "Fakaifou, Funafuti, Tuvalu",
        "road": null,
        "house_number": null,
        "neighbourhood": null,
        "suburb": null,
        "city_district": null,
        "city": "Funafuti",
        "state": null,
        "postcode": null,
        "country": "Tuvalu",
        "country_code": "tv"
      },
      "address": "940, Fakaifou, 62548 Funafuti, Tuvalu"
    },
    {
      "lat": -8.560824573795369,
      "lon": 179.2096829651584,
      "geoinfo": {
        "display_name": "Vaiaku, Funafuti, Tuvalu",
        "road": null,
        "house_number": null,
        "neighbourhood": null,
        "suburb": null,
        "city_district": null,
        "city": "Funafuti",
        "state": null,
        "postcode": null,
        "country": "Tuvalu",
        "country_code": "tv"
      },
      "address": "314, Vaiaku, 06200 Funafuti, Tuvalu"
    },
    {
      "lat": -8.519137928063765,
      "lon": 179.22567139125428,
      "geoinfo": {
        "display_name": "Fakaifou, Funafuti, Tuvalu",
        "road": null,
        "house_number": null,
        "neighbourhood": null,
        "suburb": null,
        "city_district": null,
        "city": "Funafuti",
        "state": null,
        "postcode": null,
        "country": "Tuvalu",
        "country_code": "tv"
      },
      "address": "821, Fakaifou, 68923 Funafuti, Tuvalu"
    },
    {
      "lat": -8.538875163607075,
      "lon": 179.1696008556214,
      "geoinfo": {
        "display_name": "Te Auala O Valaku, Vaiaku, Funafuti, Tuvalu",
        "road": "Te Auala O Valaku",
        "house_number": null,
        "neighbourhood": null,
        "suburb": null,
        "city_district": null,
        "city": "Funafuti",
        "state": null,
        "postcode": null,
        "country": "Tuvalu",
        "country_code": "tv"
      },
      "address": "680, Te Auala O Valaku, Vaiaku, 84882 Funafuti, Tuvalu"
    },
    {
      "lat": -8.559890791904017,
      "lon": 179.20103540480412,
      "geoinfo": {
        "display_name": "Vaiaku, Funafuti, Tuvalu",
        "road": null,
        "house_number": null,
        "neighbourhood": null,
        "suburb": null,
        "city_district": null,
        "city": "Funafuti",
        "state": null,
        "postcode": null,
        "country": "Tuvalu",
        "country_code": "tv"
      },
      "address": "245, Vaiaku, 52119 Funafuti, Tuvalu"
    },
    {
      "lat": -8.518612852026706,
      "lon": 179.20269343787663,
      "geoinfo": {
        "display_name": "Funafuti International Airport, Te Auala O Tuvalu, Tokotu, Funafuti, Tuvalu",
        "road": "Te Auala O Tuvalu",
        "house_number": null,
        "neighbourhood": null,
        "suburb": null,
        "city_district": null,
        "city": "Funafuti",
        "state": null,
        "postcode": null,
        "country": "Tuvalu",
        "country_code": "tv"
      },
      "address": "732, Te Auala O Tuvalu, 39402 Funafuti, Tuvalu"
    },
    {
      "lat": -8.51442636838219,
      "lon": 179.21604844103382,
      "geoinfo": {
        "display_name": "Fakaifou, Funafuti, Tuvalu",
        "road": null,
        "house_number": null,
        "neighbourhood": null,
        "suburb": null,
        "city_district": null,
        "city": "Funafuti",
        "state": null,
        "postcode": null,
        "country": "Tuvalu",
        "country_code": "tv"
      },
      "address": "647, Fakaifou, 84697 Funafuti, Tuvalu"
    },
    {
      "lat": -8.547413641077297,
      "lon": 179.1679012581038,
      "geoinfo": {
        "display_name": "Vaiaku, Funafuti, Tuvalu",
        "road": null,
        "house_number": null,
        "neighbourhood": null,
        "suburb": null,
        "city_district": null,
        "city": "Funafuti",
        "state": null,
        "postcode": null,
        "country": "Tuvalu",
        "country_code": "tv"
      },
      "address": "818, Vaiaku, 62093 Funafuti, Tuvalu"
    },
    {
      "lat": -8.513138400356429,
      "lon": 179.21145075714915,
      "geoinfo": {
        "display_name": "Fakaifou, Funafuti, Tuvalu",
        "road": null,
        "house_number": null,
        "neighbourhood": null,
        "suburb": null,
        "city_district": null,
        "city": "Funafuti",
        "state": null,
        "postcode": null,
        "country": "Tuvalu",
        "country_code": "tv"
      },
      "address": "973, Fakaifou, 41883 Funafuti, Tuvalu"
    },
    {
      "lat": -8.525134021595658,
      "lon": 179.19278485653822,
      "geoinfo": {
        "display_name": "Namo Road, Vaiaku, Funafuti, Tuvalu",
        "road": "Namo Road",
        "house_number": null,
        "neighbourhood": null,
        "suburb": null,
        "city_district": null,
        "city": "Funafuti",
        "state": null,
        "postcode": null,
        "country": "Tuvalu",
        "country_code": "tv"
      },
      "address": "672, Namo Road, Vaiaku, 99201 Funafuti, Tuvalu"
    },
    {
      "lat": -8.484938219027072,
      "lon": 179.18453911683963,
      "geoinfo": {
        "display_name": "Senala, Funafuti, Tuvalu",
        "road": null,
        "house_number": null,
        "neighbourhood": null,
        "suburb": null,
        "city_district": null,
        "city": "Funafuti",
        "state": null,
        "postcode": null,
        "country": "Tuvalu",
        "country_code": "tv"
      },
      "address": "607, Senala, 05078 Funafuti, Tuvalu"
    },
    {
      "lat": -8.481661602813055,
      "lon": 179.19292605323037,
      "geoinfo": {
        "display_name": "Te Auala O Tuvalu, Funafuti, Tuvalu",
        "road": "Te Auala O Tuvalu",
        "house_number": null,
        "neighbourhood": null,
        "suburb": null,
        "city_district": null,
        "city": "Funafuti",
        "state": null,
        "postcode": null,
        "country": "Tuvalu",
        "country_code": "tv"
      },
      "address": "693, Te Auala O Tuvalu, 33965 Funafuti, Tuvalu"
    },
    {
      "lat": -8.554172577010359,
      "lon": 179.19964500624909,
      "geoinfo": {
        "display_name": "Vaiaku, Funafuti, Tuvalu",
        "road": null,
        "house_number": null,
        "neighbourhood": null,
        "suburb": null,
        "city_district": null,
        "city": "Funafuti",
        "state": null,
        "postcode": null,
        "country": "Tuvalu",
        "country_code": "tv"
      },
      "address": "176, Vaiaku, 74074 Funafuti, Tuvalu"
    },
    {
      "lat": -8.542509073640703,
      "lon": 179.22949643956719,
      "geoinfo": {
        "display_name": "Fakaifou, Funafuti, Tuvalu",
        "road": null,
        "house_number": null,
        "neighbourhood": null,
        "suburb": null,
        "city_district": null,
        "city": "Funafuti",
        "state": null,
        "postcode": null,
        "country": "Tuvalu",
        "country_code": "tv"
      },
      "address": "549, Fakaifou, 33154 Funafuti, Tuvalu"
    },
    {
      "lat": -8.531852083511835,
      "lon": 179.1814208085955,
      "geoinfo": {
        "display_name": "Te Auala O Valaku, Vaiaku, Funafuti, Tuvalu",
        "road": "Te Auala O Valaku",
        "house_number": null,
        "neighbourhood": null,
        "suburb": null,
        "city_district": null,
        "city": "Funafuti",
        "state": null,
        "postcode": null,
        "country": "Tuvalu",
        "country_code": "tv"
      },
      "address": "279, Te Auala O Valaku, Vaiaku, 74844 Funafuti, Tuvalu"
    },
    {
      "lat": -8.483440475451957,
      "lon": 179.20363642441524,
      "geoinfo": {
        "display_name": "Fakaifou, Funafuti, Tuvalu",
        "road": null,
        "house_number": null,
        "neighbourhood": null,
        "suburb": null,
        "city_district": null,
        "city": "Funafuti",
        "state": null,
        "postcode": null,
        "country": "Tuvalu",
        "country_code": "tv"
      },
      "address": "007, Fakaifou, 02584 Funafuti, Tuvalu"
    },
    {
      "lat": -8.494882637694332,
      "lon": 179.20835725780856,
      "geoinfo": {
        "display_name": "Fakaifou, Funafuti, Tuvalu",
        "road": null,
        "house_number": null,
        "neighbourhood": null,
        "suburb": null,
        "city_district": null,
        "city": "Funafuti",
        "state": null,
        "postcode": null,
        "country": "Tuvalu",
        "country_code": "tv"
      },
      "address": "805, Fakaifou, 50514 Funafuti, Tuvalu"
    },
    {
      "lat": -8.540603992335571,
      "lon": 179.2013084452635,
      "geoinfo": {
        "display_name": "Vaiaku, Funafuti, Tuvalu",
        "road": null,
        "house_number": null,
        "neighbourhood": null,
        "suburb": null,
        "city_district": null,
        "city": "Funafuti",
        "state": null,
        "postcode": null,
        "country": "Tuvalu",
        "country_code": "tv"
      },
      "address": "119, Vaiaku, 98091 Funafuti, Tuvalu"
    },
    {
      "lat": -8.521639792672877,
      "lon": 179.20795253137416,
      "geoinfo": {
        "display_name": "Fakaifou, Funafuti, Tuvalu",
        "road": null,
        "house_number": null,
        "neighbourhood": null,
        "suburb": null,
        "city_district": null,
        "city": "Funafuti",
        "state": null,
        "postcode": null,
        "country": "Tuvalu",
        "country_code": "tv"
      },
      "address": "925, Fakaifou, 81999 Funafuti, Tuvalu"
    },
    {
      "lat": -8.538666736962208,
      "lon": 179.16080474265584,
      "geoinfo": {
        "display_name": "Vaiaku, Funafuti, Tuvalu",
        "road": null,
        "house_number": null,
        "neighbourhood": null,
        "suburb": null,
        "city_district": null,
        "city": "Funafuti",
        "state": null,
        "postcode": null,
        "country": "Tuvalu",
        "country_code": "tv"
      },
      "address": "726, Vaiaku, 14694 Funafuti, Tuvalu"
    },
    {
      "lat": -8.513132766078371,
      "lon": 179.19666062055188,
      "geoinfo": {
        "display_name": "Te Auala O Tuvalu, Tokotu, Funafuti, Tuvalu",
        "road": "Te Auala O Tuvalu",
        "house_number": null,
        "neighbourhood": null,
        "suburb": null,
        "city_district": null,
        "city": "Funafuti",
        "state": null,
        "postcode": null,
        "country": "Tuvalu",
        "country_code": "tv"
      },
      "address": "749, Te Auala O Tuvalu, Tokotu, 95211 Funafuti, Tuvalu"
    },
    {
      "lat": -8.492541269730987,
      "lon": 179.20234509783972,
      "geoinfo": {
        "display_name": "Fakaifou, Funafuti, Tuvalu",
        "road": null,
        "house_number": null,
        "neighbourhood": null,
        "suburb": null,
        "city_district": null,
        "city": "Funafuti",
        "state": null,
        "postcode": null,
        "country": "Tuvalu",
        "country_code": "tv"
      },
      "address": "665, Fakaifou, 35886 Funafuti, Tuvalu"
    },
    {
      "lat": -8.482104650748765,
      "lon": 179.2008222701223,
      "geoinfo": {
        "display_name": "Fakaifou, Funafuti, Tuvalu",
        "road": null,
        "house_number": null,
        "neighbourhood": null,
        "suburb": null,
        "city_district": null,
        "city": "Funafuti",
        "state": null,
        "postcode": null,
        "country": "Tuvalu",
        "country_code": "tv"
      },
      "address": "832, Fakaifou, 81945 Funafuti, Tuvalu"
    },
    {
      "lat": -8.554595633941016,
      "lon": 179.17088293265738,
      "geoinfo": {
        "display_name": "Vaiaku, Funafuti, Tuvalu",
        "road": null,
        "house_number": null,
        "neighbourhood": null,
        "suburb": null,
        "city_district": null,
        "city": "Funafuti",
        "state": null,
        "postcode": null,
        "country": "Tuvalu",
        "country_code": "tv"
      },
      "address": "868, Vaiaku, 13355 Funafuti, Tuvalu"
    },
    {
      "lat": -8.543582516947534,
      "lon": 179.18821725393468,
      "geoinfo": {
        "display_name": "Vaiaku, Funafuti, Tuvalu",
        "road": null,
        "house_number": null,
        "neighbourhood": null,
        "suburb": null,
        "city_district": null,
        "city": "Funafuti",
        "state": null,
        "postcode": null,
        "country": "Tuvalu",
        "country_code": "tv"
      },
      "address": "759, Vaiaku, 14096 Funafuti, Tuvalu"
    },
    {
      "lat": -8.543710213289122,
      "lon": 179.20527495753748,
      "geoinfo": {
        "display_name": "Vaiaku, Funafuti, Tuvalu",
        "road": null,
        "house_number": null,
        "neighbourhood": null,
        "suburb": null,
        "city_district": null,
        "city": "Funafuti",
        "state": null,
        "postcode": null,
        "country": "Tuvalu",
        "country_code": "tv"
      },
      "address": "334, Vaiaku, 90506 Funafuti, Tuvalu"
    },
    {
      "lat": -8.536854950442914,
      "lon": 179.20564092167854,
      "geoinfo": {
        "display_name": "Vaiaku, Funafuti, Tuvalu",
        "road": null,
        "house_number": null,
        "neighbourhood": null,
        "suburb": null,
        "city_district": null,
        "city": "Funafuti",
        "state": null,
        "postcode": null,
        "country": "Tuvalu",
        "country_code": "tv"
      },
      "address": "385, Vaiaku, 45137 Funafuti, Tuvalu"
    },
    {
      "lat": -8.529065337270191,
      "lon": 179.15925060549338,
      "geoinfo": {
        "display_name": "Vaiaku, Funafuti, Tuvalu",
        "road": null,
        "house_number": null,
        "neighbourhood": null,
        "suburb": null,
        "city_district": null,
        "city": "Funafuti",
        "state": null,
        "postcode": null,
        "country": "Tuvalu",
        "country_code": "tv"
      },
      "address": "834, Vaiaku, 93842 Funafuti, Tuvalu"
    },
    {
      "lat": -8.50165176051811,
      "lon": 179.18742702093624,
      "geoinfo": {
        "display_name": "Senala, Funafuti, Tuvalu",
        "road": null,
        "house_number": null,
        "neighbourhood": null,
        "suburb": null,
        "city_district": null,
        "city": "Funafuti",
        "state": null,
        "postcode": null,
        "country": "Tuvalu",
        "country_code": "tv"
      },
      "address": "503, Senala, 80761 Funafuti, Tuvalu"
    }
  ],
  "updated_at": "2025-10-19T05:58:23.425612+00:00",
  "_kind": "geo_samples"
}