{
  "country_code": "NI",
  "country": "Nicaragua",
  "city": "Boaco",
  "geonameid": 3620674,
  "target_addresses": 3,
  "samples": [
    {
      "lat": 12.458188122748643,
      "lon": -85.68883670495367,
      "geoinfo": {
        "display_name": "Ciatepe, Santa Lucía, Boaco, 52200, Nicaragua",
        "road": null,
        "house_number": null,
        "neighbourhood": null,
        "suburb": null,
        "city_district": null,
        "city": "Santa Lucía",
        "state": "Boaco",
        "postcode": "52200",
        "country": "Nicaragua",
        "country_code": "ni"
      },
      "address": "Boaco, Boaco, Nicaragua"
    },
    {
      "lat": 12.482089462735818,
      "lon": -85.64254704089494,
      "geoinfo": {
        "display_name": "NIC-9, Las Cañas, Boaco, 51000, Nicaragua",
        "road": "NIC-9",
        "house_number": null,
        "neighbourhood": null,
        "suburb": null,
        "city_district": null,
        "city": "Boaco",
        "state": "Boaco",
        "postcode": "51000",
        "country": "Nicaragua",
        "country_code": "ni"
      },
      "address": "NIC-9, Boaco, Boaco, Nicaragua"
    },
    {
      "lat": 12.47822226036962,
      "lon": -85.6556980208494,
      "geoinfo": {
        "display_name": "NN-83, Gaspar García Laviana, Boaco, 51000, Nicaragua",
        "road": "NN-83",
        "house_number": null,
        "neighbourhood": null,
        "suburb": "Gaspar García Laviana",
        "city_district": null,
        "city": "Boaco",
        "state": "Boaco",
        "postcode": "51000",
        "country": "Nicaragua",
        "country_code": "ni"
      },
      "address": "NN-83, Boaco, Boaco, Nicaragua"
    },
    {
      "lat": 12.459954071672623,
      "lon": -85.62573980830568,
      "geoinfo": {
        "display_name": "Cerro Lago, Boaco, 51000, Nicaragua",
        "road": null,
        "house_number": null,
        "neighbourhood": null,
        "suburb": null,
        "city_district": null,
        "city": null,
        "state": "Boaco",
        "postcode": "51000",
        "country": "Nicaragua",
        "country_code": "ni"
      },
      "address": "494, Cerro Lago, Boaco, 51000, Nicaragua"
    },
    {
      "lat": 12.446790561133653,
      "lon": -85.65293006758007,
      "geoinfo": {
        "display_name": "NN-102, Boaco, 51000, Nicaragua",
        "road": "NN-102",
        "house_number": null,
        "neighbourhood": null,
        "suburb": null,
        "city_district": null,
        "city": "Boaco",
        "state": "Boaco",
        "postcode": "51000",
        "country": "Nicaragua",
        "country_code": "ni"
      },
      "address": "NN-102, Boaco, 51000 Boaco, Nicaragua"
    },
    {
      "lat": 12.50281488983453,
      "lon": -85.63221484842391,
      "geoinfo": {
        "display_name": "El Tabacano, Boaco, 51000, Nicaragua",
        "road": null,
        "house_number": null,
        "neighbourhood": null,
        "suburb": null,
        "city_district": null,
        "city": null,
        "state": "Boaco",
        "postcode": "51000",
        "country": "Nicaragua",
        "country_code": "ni"
      },
      "address": "553, El Tabacano, Boaco, 51000, Nicaragua"
    }
  ],
  "updated_at": "2025-10-19T04:48:21.245171+00:00",
  "_kind": "geo_samples"
}