{
  "country_code": "NI",
  "country": "Nicaragua",
  "city": "El Crucero",
  "geonameid": 3619853,
  "target_addresses": 3,
  "samples": [
    {
      "lat": 11.963189824338205,
      "lon": -86.29085230158475,
      "geoinfo": {
        "display_name": "La Socredad, El Crucero, Managua, 16100, Nicaragua",
        "road": null,
        "house_number": null,
        "neighbourhood": null,
        "suburb": null,
        "city_district": null,
        "city": null,
        "state": "Managua",
        "postcode": "16100",
        "country": "Nicaragua",
        "country_code": "ni"
      },
      "address": "El Crucero, Managua, Nicaragua"
    },
    {
      "lat": 11.959316468836885,
      "lon": -86.31332305036422,
      "geoinfo": {
        "display_name": "Carretera Las Conchitas - Pochomil, Barba del Tigre, El Crucero, Managua, 16700, Nicaragua",
        "road": "Carretera Las Conchitas - Pochomil",
        "house_number": null,
        "neighbourhood": null,
        "suburb": null,
        "city_district": null,
        "city": "Barba del Tigre",
        "state": "Managua",
        "postcode": "16700",
        "country": "Nicaragua",
        "country_code": "ni"
      },
      "address": "Carretera Las Conchitas - Pochomil, El Crucero, Managua, Nicaragua"
    },
    {
      "lat": 11.971591424895806,
      "lon": -86.27801746382136,
      "geoinfo": {
        "display_name": "Isabel Grande, La Concepción, Masaya, 42300, Nicaragua",
        "road": null,
        "house_number": null,
        "neighbourhood": null,
        "suburb": null,
        "city_district": null,
        "city": null,
        "state": "Masaya",
        "postcode": "42300",
        "country": "Nicaragua",
        "country_code": "ni"
      },
      "address": "El Crucero, Masaya, Nicaragua"
    },
    {
      "lat": 12.017322708414135,
      "lon": -86.28111604338922,
      "geoinfo": {
        "display_name": "El Crucero, Managua, 16100, Nicaragua",
        "road": null,
        "house_number": null,
        "neighbourhood": null,
        "suburb": null,
        "city_district": null,
        "city": null,
        "state": "Managua",
        "postcode": "16100",
        "country": "Nicaragua",
        "country_code": "ni"
      },
      "address": "239, El Crucero, Managua, 16100, Nicaragua"
    },
    {
      "lat": 11.952378080619463,
      "lon": -86.312367821377,
      "geoinfo": {
        "display_name": "Juan Dávila, El Crucero, Managua, 16100, Nicaragua",
        "road": null,
        "house_number": null,
        "neighbourhood": null,
        "suburb": null,
        "city_district": null,
        "city": "Juan Dávila",
        "state": "Managua",
        "postcode": "16100",
        "country": "Nicaragua",
        "country_code": "ni"
      },
      "address": "314, Juan Dávila, El Crucero, Managua, 16100, Nicaragua"
    },
    {
      "lat": 11.97319975849003,
      "lon": -86.26778732374797,
      "geoinfo": {
        "display_name": "El Chocoyero, La Concepción, Masaya, 42300, Nicaragua",
        "road": null,
        "house_number": null,
        "neighbourhood": null,
        "suburb": null,
        "city_district": null,
        "city": null,
        "state": "Masaya",
        "postcode": "42300",
        "country": "Nicaragua",
        "country_code": "ni"
      },
      "address": "453, El Chocoyero, La Concepción, Masaya, 42300, Nicaragua"
    }
  ],
  "updated_at": "2025-10-19T04:07:45.571276+00:00",
  "_kind": "geo_samples"
}