{
  "country_code": "NI",
  "country": "Nicaragua",
  "city": "Estelí",
  "geonameid": 3619194,
  "target_addresses": 3,
  "samples": [
    {
      "lat": 13.093246507664638,
      "lon": -86.31340689526583,
      "geoinfo": {
        "display_name": "Villa Vieja, Esteli, Estelí, 35000, Nicaragua",
        "road": null,
        "house_number": null,
        "neighbourhood": null,
        "suburb": null,
        "city_district": null,
        "city": "Esteli",
        "state": "Estelí",
        "postcode": "35000",
        "country": "Nicaragua",
        "country_code": "ni"
      },
      "address": "Estelí, Estelí, Nicaragua"
    },
    {
      "lat": 13.098500058723321,
      "lon": -86.37792612287615,
      "geoinfo": {
        "display_name": "Ex Combatientes del 18 de Mayo, Esteli, Estelí, 35000, Nicaragua",
        "road": null,
        "house_number": null,
        "neighbourhood": "Ex Combatientes del 18 de Mayo",
        "suburb": null,
        "city_district": null,
        "city": "Esteli",
        "state": "Estelí",
        "postcode": "35000",
        "country": "Nicaragua",
        "country_code": "ni"
      },
      "address": "Ex Combatientes del 18 de Mayo, Estelí, Estelí, Nicaragua"
    },
    {
      "lat": 13.106960559445595,
      "lon": -86.32964291244333,
      "geoinfo": {
        "display_name": "Carretera La Concordia - Estelí, Villa Vieja, San Pedro, Esteli, Estelí, 35000, Nicaragua",
        "road": "Carretera La Concordia - Estelí",
        "house_number": null,
        "neighbourhood": null,
        "suburb": null,
        "city_district": null,
        "city": "Esteli",
        "state": "Estelí",
        "postcode": "35000",
        "country": "Nicaragua",
        "country_code": "ni"
      },
      "address": "Carretera La Concordia - Estelí, Estelí, Estelí, Nicaragua"
    },
    {
      "lat": 13.073631661639627,
      "lon": -86.35778901597948,
      "geoinfo": {
        "display_name": "Alfredo Lazo, Esteli, Estelí, 35000, Nicaragua",
        "road": null,
        "house_number": null,
        "neighbourhood": "Alfredo Lazo",
        "suburb": null,
        "city_district": null,
        "city": "Esteli",
        "state": "Estelí",
        "postcode": "35000",
        "country": "Nicaragua",
        "country_code": "ni"
      },
      "address": "928, Alfredo Lazo, Esteli, Estelí, 35000, Nicaragua"
    },
    {
      "lat": 13.08904579886776,
      "lon": -86.37055423319278,
      "geoinfo": {
        "display_name": "29 de Octubre, Esteli, Estelí, 35000, Nicaragua",
        "road": null,
        "house_number": null,
        "neighbourhood": null,
        "suburb": "29 de Octubre",
        "city_district": null,
        "city": "Esteli",
        "state": "Estelí",
        "postcode": "35000",
        "country": "Nicaragua",
        "country_code": "ni"
      },
      "address": "29 de Octubre, Esteli, Estelí, 35000, Nicaragua"
    },
    {
      "lat": 13.12912675401757,
      "lon": -86.36352177027015,
      "geoinfo": {
        "display_name": "Pan-American Highway, La Thompson, La Virgen, Esteli, Estelí, 35000, Nicaragua",
        "road": "Pan-American Highway",
        "house_number": null,
        "neighbourhood": null,
        "suburb": null,
        "city_district": null,
        "city": "Esteli",
        "state": "Estelí",
        "postcode": "35000",
        "country": "Nicaragua",
        "country_code": "ni"
      },
      "address": "971, Pan-American Highway, La Thompson, La Virgen, Esteli, Estelí, 35000, Nicaragua"
    }
  ],
  "updated_at": "2025-10-19T04:47:59.335809+00:00",
  "_kind": "geo_samples"
}