{
  "country_code": "NI",
  "country": "Nicaragua",
  "city": "Managua",
  "geonameid": 3617763,
  "target_addresses": 3,
  "samples": [
    {
      "lat": 12.16527229091303,
      "lon": -86.23076312906616,
      "geoinfo": {
        "display_name": "Domitila Lugo, 44a Avenida N.E., Santa Clara 2 (Costa del Lago), Domitila Lugo 1 (Santa Clara), Distrito IV, Managua, 11011, Nicaragua",
        "road": "44a Avenida N.E.",
        "house_number": null,
        "neighbourhood": "Santa Clara 2 (Costa del Lago)",
        "suburb": "Domitila Lugo 1 (Santa Clara)",
        "city_district": null,
        "city": "Managua",
        "state": "Managua",
        "postcode": "11011",
        "country": "Nicaragua",
        "country_code": "ni"
      },
      "address": "44a Avenida N.E., Managua, Managua, Nicaragua"
    },
    {
      "lat": 12.123894047105956,
      "lon": -86.2246765749355,
      "geoinfo": {
        "display_name": "Colonia Primero de Mayo, Distrito VII, Managua, 14059, Nicaragua",
        "road": null,
        "house_number": null,
        "neighbourhood": null,
        "suburb": "Colonia Primero de Mayo",
        "city_district": null,
        "city": "Managua",
        "state": "Managua",
        "postcode": "14059",
        "country": "Nicaragua",
        "country_code": "ni"
      },
      "address": "Colonia Primero de Mayo, Managua, Managua, Nicaragua"
    },
    {
      "lat": 12.157247629198459,
      "lon": -86.2676009126438,
      "geoinfo": {
        "display_name": "Pista de Patinaje (Paseo Xolotlán), Paseo Xolotlán, Sector Antigua Estacion del Ferrocarril, Centro Histórico Sur, District I, Managua, 11002, Nicaragua",
        "road": "Paseo Xolotlán",
        "house_number": null,
        "neighbourhood": "Sector Antigua Estacion del Ferrocarril",
        "suburb": null,
        "city_district": null,
        "city": "Managua",
        "state": "Managua",
        "postcode": "11002",
        "country": "Nicaragua",
        "country_code": "ni"
      },
      "address": "Paseo Xolotlán, Managua, Managua, Nicaragua"
    },
    {
      "lat": 12.105848574729201,
      "lon": -86.22447055665015,
      "geoinfo": {
        "display_name": "Reparto Che Guevara, Reparto Schick, Distrito V, Managua, 11147, Nicaragua",
        "road": null,
        "house_number": null,
        "neighbourhood": "Reparto Che Guevara",
        "suburb": "Reparto Schick",
        "city_district": null,
        "city": "Managua",
        "state": "Managua",
        "postcode": "11147",
        "country": "Nicaragua",
        "country_code": "ni"
      },
      "address": "034, Reparto Che Guevara, Reparto Schick, Distrito V, Managua, 11147, Nicaragua"
    },
    {
      "lat": 12.162579821993521,
      "lon": -86.22330412220226,
      "geoinfo": {
        "display_name": "Pista de la Resistencia, Sector Oeste Portezuelo, Anexo Barrio La Primavera, Distrito IV, Managua, 11015, Nicaragua",
        "road": "Pista de la Resistencia",
        "house_number": null,
        "neighbourhood": "Sector Oeste Portezuelo",
        "suburb": "Anexo Barrio La Primavera",
        "city_district": null,
        "city": "Managua",
        "state": "Managua",
        "postcode": "11015",
        "country": "Nicaragua",
        "country_code": "ni"
      },
      "address": "632, Pista de la Resistencia, Sector Oeste Portezuelo, Anexo Barrio La Primavera, Distrito IV, Managua, 11015, Nicaragua"
    },
    {
      "lat": 12.115481833559718,
      "lon": -86.27396643128411,
      "geoinfo": {
        "display_name": "Lomas de Monserrat, Colinas del Memorial Sandino, District I, Managua, 13043, Nicaragua",
        "road": null,
        "house_number": null,
        "neighbourhood": "Lomas de Monserrat",
        "suburb": "Colinas del Memorial Sandino",
        "city_district": null,
        "city": "Managua",
        "state": "Managua",
        "postcode": "13043",
        "country": "Nicaragua",
        "country_code": "ni"
      },
      "address": "623, Lomas de Monserrat, Colinas del Memorial Sandino, District I, Managua, 13043, Nicaragua"
    }
  ],
  "updated_at": "2025-10-19T04:07:34.464170+00:00",
  "_kind": "geo_samples"
}