{
  "country_code": "NI",
  "country": "Nicaragua",
  "city": "Somotillo",
  "geonameid": 3616234,
  "target_addresses": 3,
  "samples": [
    {
      "lat": 13.054866656252536,
      "lon": -86.9215879042583,
      "geoinfo": {
        "display_name": "Carretera Chinandega - Guasaule, El Guasaule, Somotillo, Chinandega, 26800, Nicaragua",
        "road": "Carretera Chinandega - Guasaule",
        "house_number": null,
        "neighbourhood": null,
        "suburb": null,
        "city_district": null,
        "city": "El Guasaule",
        "state": "Chinandega",
        "postcode": "26800",
        "country": "Nicaragua",
        "country_code": "ni"
      },
      "address": "Carretera Chinandega - Guasaule, Somotillo, Chinandega, Nicaragua"
    },
    {
      "lat": 13.05056968823019,
      "lon": -86.93208096836938,
      "geoinfo": {
        "display_name": "Quesera San Jos√©, Somotillo, Chinandega, 26800, Nicaragua",
        "road": null,
        "house_number": null,
        "neighbourhood": null,
        "suburb": null,
        "city_district": null,
        "city": null,
        "state": "Chinandega",
        "postcode": "26800",
        "country": "Nicaragua",
        "country_code": "ni"
      },
      "address": "Somotillo, Chinandega, Nicaragua"
    },
    {
      "lat": 13.031287581148478,
      "lon": -86.88683726201448,
      "geoinfo": {
        "display_name": "La Barrera, Somotillo, Chinandega, 26800, Nicaragua",
        "road": null,
        "house_number": null,
        "neighbourhood": "La Barrera",
        "suburb": null,
        "city_district": null,
        "city": "Somotillo",
        "state": "Chinandega",
        "postcode": "26800",
        "country": "Nicaragua",
        "country_code": "ni"
      },
      "address": "La Barrera, Somotillo, Chinandega, Nicaragua"
    },
    {
      "lat": 13.068331005792974,
      "lon": -86.90472520456277,
      "geoinfo": {
        "display_name": "Llano El Matear, Somotillo, Chinandega, 26800, Nicaragua",
        "road": null,
        "house_number": null,
        "neighbourhood": null,
        "suburb": null,
        "city_district": null,
        "city": null,
        "state": "Chinandega",
        "postcode": "26800",
        "country": "Nicaragua",
        "country_code": "ni"
      },
      "address": "153, Llano El Matear, Somotillo, Chinandega, 26800, Nicaragua"
    },
    {
      "lat": 13.064242970742725,
      "lon": -86.91254488608443,
      "geoinfo": {
        "display_name": "San Luis, Somotillo, Chinandega, 26800, Nicaragua",
        "road": null,
        "house_number": null,
        "neighbourhood": "San Luis",
        "suburb": null,
        "city_district": null,
        "city": null,
        "state": "Chinandega",
        "postcode": "26800",
        "country": "Nicaragua",
        "country_code": "ni"
      },
      "address": "354, San Luis, Somotillo, Chinandega, 26800, Nicaragua"
    },
    {
      "lat": 13.082795692164794,
      "lon": -86.90442945138759,
      "geoinfo": {
        "display_name": "Llano La Eneida, Somotillo, Chinandega, 26800, Nicaragua",
        "road": null,
        "house_number": null,
        "neighbourhood": null,
        "suburb": null,
        "city_district": null,
        "city": null,
        "state": "Chinandega",
        "postcode": "26800",
        "country": "Nicaragua",
        "country_code": "ni"
      },
      "address": "538, Llano La Eneida, Somotillo, Chinandega, 26800, Nicaragua"
    }
  ],
  "updated_at": "2025-10-19T04:47:15.520624+00:00",
  "_kind": "geo_samples"
}