{
  "country_code": "PS",
  "country": "Palestinian Territory",
  "city": "As Samū‘",
  "geonameid": 284583,
  "target_addresses": 3,
  "samples": [
    {
      "lat": 31.378969244978126,
      "lon": 35.07566953023744,
      "geoinfo": {
        "display_name": "الولي - أصفي, As Samu', Area B, West Bank, 797, Palestinian Territories",
        "road": "الولي - أصفي",
        "house_number": null,
        "neighbourhood": null,
        "suburb": null,
        "city_district": null,
        "city": "As Samu'",
        "state": null,
        "postcode": "797",
        "country": "Palestinian Territories",
        "country_code": "ps"
      },
      "address": "الولي - أصفي, As Samū‘, Palestinian Territory"
    },
    {
      "lat": 31.419631245785695,
      "lon": 35.10517353494951,
      "geoinfo": {
        "display_name": "Yatta, Area A, West Bank, 797, Palestinian Territories",
        "road": null,
        "house_number": null,
        "neighbourhood": null,
        "suburb": null,
        "city_district": null,
        "city": "Yatta",
        "state": null,
        "postcode": "797",
        "country": "Palestinian Territories",
        "country_code": "ps"
      },
      "address": "As Samū‘, Palestinian Territory"
    },
    {
      "lat": 31.3794829106287,
      "lon": 35.03886684508701,
      "geoinfo": {
        "display_name": "317, Imneizil, Area C, Judea and Samaria, 797, Palestinian Territories",
        "road": "317",
        "house_number": null,
        "neighbourhood": null,
        "suburb": null,
        "city_district": null,
        "city": "Imneizil",
        "state": "Judea and Samaria",
        "postcode": "797",
        "country": "Palestinian Territories",
        "country_code": "ps"
      },
      "address": "317, As Samū‘, Judea and Samaria, Palestinian Territory"
    },
    {
      "lat": 31.395605469222122,
      "lon": 35.01647484387127,
      "geoinfo": {
        "display_name": "Eshtamoa, Area C, Judea and Samaria, Palestinian Territories",
        "road": null,
        "house_number": null,
        "neighbourhood": null,
        "suburb": null,
        "city_district": null,
        "city": null,
        "state": "Judea and Samaria",
        "postcode": null,
        "country": "Palestinian Territories",
        "country_code": "ps"
      },
      "address": "611, As Samū‘, 65889 Judea and Samaria, Palestinian Territory"
    },
    {
      "lat": 31.37200336216403,
      "lon": 35.08173207497731,
      "geoinfo": {
        "display_name": "Area C, Judea and Samaria, 797, Palestinian Territories",
        "road": null,
        "house_number": null,
        "neighbourhood": null,
        "suburb": null,
        "city_district": null,
        "city": null,
        "state": "Judea and Samaria",
        "postcode": "797",
        "country": "Palestinian Territories",
        "country_code": "ps"
      },
      "address": "818, As Samū‘, 797 Judea and Samaria, Palestinian Territory"
    },
    {
      "lat": 31.371441243605698,
      "lon": 35.097455383222595,
      "geoinfo": {
        "display_name": "Khirbet al Kharaba, Imneizil, Area C, Judea and Samaria, 797, Palestinian Territories",
        "road": null,
        "house_number": null,
        "neighbourhood": null,
        "suburb": null,
        "city_district": null,
        "city": "Imneizil",
        "state": "Judea and Samaria",
        "postcode": "797",
        "country": "Palestinian Territories",
        "country_code": "ps"
      },
      "address": "595, As Samū‘, 797 Judea and Samaria, Palestinian Territory"
    }
  ],
  "updated_at": "2025-10-19T04:25:18.024674+00:00",
  "_kind": "geo_samples"
}