{
  "country_code": "PS",
  "country": "Palestinian Territory",
  "city": "Balāţah",
  "geonameid": 284446,
  "target_addresses": 3,
  "samples": [
    {
      "lat": 32.20281695540513,
      "lon": 35.27312777066708,
      "geoinfo": {
        "display_name": "Kiryat Luza, Area C, Judea and Samaria, 803, Palestinian Territories",
        "road": null,
        "house_number": null,
        "neighbourhood": null,
        "suburb": null,
        "city_district": null,
        "city": null,
        "state": "Judea and Samaria",
        "postcode": "803",
        "country": "Palestinian Territories",
        "country_code": "ps"
      },
      "address": "Balāţah, Judea and Samaria, Palestinian Territory"
    },
    {
      "lat": 32.1753307191386,
      "lon": 35.30464914280458,
      "geoinfo": {
        "display_name": "555, Sne Yaakov, Area C, Judea and Samaria, 803, Palestinian Territories",
        "road": "555",
        "house_number": null,
        "neighbourhood": null,
        "suburb": null,
        "city_district": null,
        "city": "Sne Yaakov",
        "state": "Judea and Samaria",
        "postcode": "803",
        "country": "Palestinian Territories",
        "country_code": "ps"
      },
      "address": "555, Balāţah, Judea and Samaria, Palestinian Territory"
    },
    {
      "lat": 32.23946681336554,
      "lon": 35.25998004294352,
      "geoinfo": {
        "display_name": "5575, Area C, Judea and Samaria, Palestinian Territories",
        "road": "5575",
        "house_number": null,
        "neighbourhood": null,
        "suburb": null,
        "city_district": null,
        "city": null,
        "state": "Judea and Samaria",
        "postcode": null,
        "country": "Palestinian Territories",
        "country_code": "ps"
      },
      "address": "5575, Balāţah, Judea and Samaria, Palestinian Territory"
    },
    {
      "lat": 32.23319711215118,
      "lon": 35.28499402640991,
      "geoinfo": {
        "display_name": "Area C, Judea and Samaria, 803, Palestinian Territories",
        "road": null,
        "house_number": null,
        "neighbourhood": null,
        "suburb": null,
        "city_district": null,
        "city": null,
        "state": "Judea and Samaria",
        "postcode": "803",
        "country": "Palestinian Territories",
        "country_code": "ps"
      },
      "address": "076, Balāţah, 803 Judea and Samaria, Palestinian Territory"
    },
    {
      "lat": 32.19959545812175,
      "lon": 35.2488765363941,
      "geoinfo": {
        "display_name": "Area C, Judea and Samaria, 803, Palestinian Territories",
        "road": null,
        "house_number": null,
        "neighbourhood": null,
        "suburb": null,
        "city_district": null,
        "city": null,
        "state": "Judea and Samaria",
        "postcode": "803",
        "country": "Palestinian Territories",
        "country_code": "ps"
      },
      "address": "185, Balāţah, 803 Judea and Samaria, Palestinian Territory"
    },
    {
      "lat": 32.23786054675816,
      "lon": 35.256009604764024,
      "geoinfo": {
        "display_name": "5575, Area C, Judea and Samaria, Palestinian Territories",
        "road": "5575",
        "house_number": null,
        "neighbourhood": null,
        "suburb": null,
        "city_district": null,
        "city": null,
        "state": "Judea and Samaria",
        "postcode": null,
        "country": "Palestinian Territories",
        "country_code": "ps"
      },
      "address": "5575, Balāţah, 24182 Judea and Samaria, Palestinian Territory"
    }
  ],
  "updated_at": "2025-10-19T06:37:39.249055+00:00",
  "_kind": "geo_samples"
}