{
  "country_code": "PS",
  "country": "Palestinian Territory",
  "city": "Dūrā",
  "geonameid": 284011,
  "target_addresses": 3,
  "samples": [
    {
      "lat": 31.48131256256884,
      "lon": 35.024305328770744,
      "geoinfo": {
        "display_name": "Tarama, Area B, West Bank, Palestinian Territories",
        "road": null,
        "house_number": null,
        "neighbourhood": null,
        "suburb": null,
        "city_district": null,
        "city": "Tarama",
        "state": null,
        "postcode": null,
        "country": "Palestinian Territories",
        "country_code": "ps"
      },
      "address": "Dūrā, Palestinian Territory"
    },
    {
      "lat": 31.51769410956038,
      "lon": 34.98210191207886,
      "geoinfo": {
        "display_name": "Tarusa, Area C, Judea and Samaria, 766, Palestinian Territories",
        "road": null,
        "house_number": null,
        "neighbourhood": null,
        "suburb": null,
        "city_district": null,
        "city": null,
        "state": "Judea and Samaria",
        "postcode": "766",
        "country": "Palestinian Territories",
        "country_code": "ps"
      },
      "address": "Dūrā, Judea and Samaria, Palestinian Territory"
    },
    {
      "lat": 31.478153954266674,
      "lon": 35.04165405428181,
      "geoinfo": {
        "display_name": "60, אפקה, Area C, Judea and Samaria, Palestinian Territories",
        "road": "60",
        "house_number": null,
        "neighbourhood": null,
        "suburb": null,
        "city_district": null,
        "city": null,
        "state": "Judea and Samaria",
        "postcode": null,
        "country": "Palestinian Territories",
        "country_code": "ps"
      },
      "address": "60, Dūrā, Judea and Samaria, Palestinian Territory"
    }
  ],
  "updated_at": "2025-10-16T21:17:48.984814+00:00",
  "_kind": "geo_samples"
}