{
  "country_code": "PS",
  "country": "Palestinian Territory",
  "city": "Jericho",
  "geonameid": 284899,
  "target_addresses": 3,
  "samples": [
    {
      "lat": 31.869945409130448,
      "lon": 35.46714910819768,
      "geoinfo": {
        "display_name": "Qaser Hisham, Jericho, Area A, West Bank, Palestinian Territories",
        "road": null,
        "house_number": null,
        "neighbourhood": null,
        "suburb": "Qaser Hisham",
        "city_district": null,
        "city": "Jericho",
        "state": null,
        "postcode": null,
        "country": "Palestinian Territories",
        "country_code": "ps"
      },
      "address": "Qaser Hisham, Jericho, Palestinian Territory"
    },
    {
      "lat": 31.852912885523704,
      "lon": 35.46526775073661,
      "geoinfo": {
        "display_name": "Al Biader, Jericho, Area A, West Bank, Palestinian Territories",
        "road": null,
        "house_number": null,
        "neighbourhood": null,
        "suburb": "Al Biader",
        "city_district": null,
        "city": "Jericho",
        "state": null,
        "postcode": null,
        "country": "Palestinian Territories",
        "country_code": "ps"
      },
      "address": "Al Biader, Jericho, Palestinian Territory"
    },
    {
      "lat": 31.871117279198096,
      "lon": 35.440281937922286,
      "geoinfo": {
        "display_name": "Ein ad-Duyuk at-Tahta, Ain Al Soltan, Ein Alsultan Refugee Camp, Jericho, Area A, West Bank, Palestinian Territories",
        "road": null,
        "house_number": null,
        "neighbourhood": "Ein ad-Duyuk at-Tahta",
        "suburb": "Ain Al Soltan",
        "city_district": null,
        "city": "Jericho",
        "state": null,
        "postcode": null,
        "country": "Palestinian Territories",
        "country_code": "ps"
      },
      "address": "Ein ad-Duyuk at-Tahta, Jericho, Palestinian Territory"
    },
    {
      "lat": 31.86799134908056,
      "lon": 35.46318817237722,
      "geoinfo": {
        "display_name": "Musa bin Nusair, Alshiakh Sabah, Jericho, Area A, West Bank, Palestinian Territories",
        "road": "Musa bin Nusair",
        "house_number": null,
        "neighbourhood": null,
        "suburb": "Alshiakh Sabah",
        "city_district": null,
        "city": "Jericho",
        "state": null,
        "postcode": null,
        "country": "Palestinian Territories",
        "country_code": "ps"
      },
      "address": "458, Musa bin Nusair, 63240 Jericho, Palestinian Territory"
    },
    {
      "lat": 31.86995278030821,
      "lon": 35.436008169027026,
      "geoinfo": {
        "display_name": "emran samarat house, Alnakheel, Ein ad-Duyuk at-Tahta, Aldyok, Ein Alsultan Refugee Camp, Jericho, Area A, West Bank, Palestinian Territories",
        "road": "Alnakheel",
        "house_number": null,
        "neighbourhood": "Ein ad-Duyuk at-Tahta",
        "suburb": "Aldyok",
        "city_district": null,
        "city": "Jericho",
        "state": null,
        "postcode": null,
        "country": "Palestinian Territories",
        "country_code": "ps"
      },
      "address": "050, Alnakheel, 10959 Jericho, Palestinian Territory"
    },
    {
      "lat": 31.892653037331378,
      "lon": 35.48802259609232,
      "geoinfo": {
        "display_name": "Area C, Judea and Samaria, 113, Palestinian Territories",
        "road": null,
        "house_number": null,
        "neighbourhood": null,
        "suburb": null,
        "city_district": null,
        "city": null,
        "state": "Judea and Samaria",
        "postcode": "113",
        "country": "Palestinian Territories",
        "country_code": "ps"
      },
      "address": "608, Jericho, 113 Judea and Samaria, Palestinian Territory"
    }
  ],
  "updated_at": "2025-10-19T06:42:40.024885+00:00",
  "_kind": "geo_samples"
}