{
  "country_code": "PS",
  "country": "Palestinian Territory",
  "city": "Khān Yūnis",
  "geonameid": 281124,
  "target_addresses": 3,
  "samples": [
    {
      "lat": 31.34953129813898,
      "lon": 34.285356678773745,
      "geoinfo": {
        "display_name": "Khan Yunis Camp, Khan Yunis, Khan Yunis Governorate, Gaza Strip, Palestinian Territories",
        "road": null,
        "house_number": null,
        "neighbourhood": null,
        "suburb": "Khan Yunis Camp",
        "city_district": null,
        "city": "Khan Yunis",
        "state": null,
        "postcode": null,
        "country": "Palestinian Territories",
        "country_code": "ps"
      },
      "address": "Khan Yunis Camp, Khān Yūnis, Palestinian Territory"
    },
    {
      "lat": 31.32910711049026,
      "lon": 34.311731859500256,
      "geoinfo": {
        "display_name": "حي الشيخ ناصر, Khan Yunis, Khan Yunis Governorate, Gaza Strip, Palestinian Territories",
        "road": null,
        "house_number": null,
        "neighbourhood": null,
        "suburb": "حي الشيخ ناصر",
        "city_district": null,
        "city": "Khan Yunis",
        "state": null,
        "postcode": null,
        "country": "Palestinian Territories",
        "country_code": "ps"
      },
      "address": "حي الشيخ ناصر, Khān Yūnis, Palestinian Territory"
    },
    {
      "lat": 31.314835405138137,
      "lon": 34.30526894841451,
      "geoinfo": {
        "display_name": "Khan Yunis, Khan Yunis Governorate, Gaza Strip, 980, Palestinian Territories",
        "road": null,
        "house_number": null,
        "neighbourhood": null,
        "suburb": null,
        "city_district": null,
        "city": "Khan Yunis",
        "state": null,
        "postcode": "980",
        "country": "Palestinian Territories",
        "country_code": "ps"
      },
      "address": "Khān Yūnis, Palestinian Territory"
    },
    {
      "lat": 31.377074051273482,
      "lon": 34.29937190091077,
      "geoinfo": {
        "display_name": "Gush Katif, Khan Yunis, Khan Yunis Governorate, Gaza Strip, Palestinian Territories",
        "road": "Gush Katif",
        "house_number": null,
        "neighbourhood": null,
        "suburb": null,
        "city_district": null,
        "city": "Khan Yunis",
        "state": null,
        "postcode": null,
        "country": "Palestinian Territories",
        "country_code": "ps"
      },
      "address": "160, Gush Katif, 08461 Khān Yūnis, Palestinian Territory"
    },
    {
      "lat": 31.362900731371017,
      "lon": 34.273452721461325,
      "geoinfo": {
        "display_name": "Sharia Al-Bahr, Al-Mawasi",
        "road": "Sharia Al-Bahr",
        "house_number": null,
        "neighbourhood": null,
        "suburb": null,
        "city_district": null,
        "city": "Al-Mawasi",
        "state": null,
        "postcode": null,
        "country": null,
        "country_code": null
      },
      "address": "127, Sharia Al-Bahr, 56076 Khān Yūnis, Palestinian Territory"
    },
    {
      "lat": 31.35070142003557,
      "lon": 34.29912904161012,
      "geoinfo": {
        "display_name": "سوبر ماركت عزيز, Ash Shari' Al 'Aam, Khan Yunis Camp, Khan Yunis, Khan Yunis Governorate, Gaza Strip, Palestinian Territories",
        "road": "Ash Shari' Al 'Aam",
        "house_number": null,
        "neighbourhood": null,
        "suburb": "Khan Yunis Camp",
        "city_district": null,
        "city": "Khan Yunis",
        "state": null,
        "postcode": null,
        "country": "Palestinian Territories",
        "country_code": "ps"
      },
      "address": "785, Ash Shari' Al 'Aam, 35474 Khān Yūnis, Palestinian Territory"
    }
  ],
  "updated_at": "2025-10-19T05:14:21.100943+00:00",
  "_kind": "geo_samples"
}