{
  "country_code": "PS",
  "country": "Palestinian Territory",
  "city": "Ḩalḩūl",
  "geonameid": 283806,
  "target_addresses": 3,
  "samples": [
    {
      "lat": 31.574063308142808,
      "lon": 35.11462164832704,
      "geoinfo": {
        "display_name": "Halhul, Area A, West Bank, Palestinian Territories",
        "road": null,
        "house_number": null,
        "neighbourhood": null,
        "suburb": null,
        "city_district": null,
        "city": "Halhul",
        "state": null,
        "postcode": null,
        "country": "Palestinian Territories",
        "country_code": "ps"
      },
      "address": "Ḩalḩūl, Judea and Samaria, Palestinian Territory"
    },
    {
      "lat": 31.55476889244426,
      "lon": 35.13233098106817,
      "geoinfo": {
        "display_name": "60, Nofei Mamre, Area C, Judea and Samaria, 150, Palestinian Territories",
        "road": "60",
        "house_number": null,
        "neighbourhood": null,
        "suburb": "Nofei Mamre",
        "city_district": null,
        "city": null,
        "state": "Judea and Samaria",
        "postcode": "150",
        "country": "Palestinian Territories",
        "country_code": "ps"
      },
      "address": "60, Ḩalḩūl, Judea and Samaria, Palestinian Territory"
    },
    {
      "lat": 31.58950839984138,
      "lon": 35.09396265130559,
      "geoinfo": {
        "display_name": "Khirbet Tubeiqa, Surif - Hebron, בקר, Area B, West Bank, Palestinian Territories",
        "road": "Surif - Hebron",
        "house_number": null,
        "neighbourhood": null,
        "suburb": null,
        "city_district": null,
        "city": "בקר",
        "state": null,
        "postcode": null,
        "country": "Palestinian Territories",
        "country_code": "ps"
      },
      "address": "975, Surif - Hebron, 41132 Ḩalḩūl, Palestinian Territory"
    },
    {
      "lat": 31.588405063359403,
      "lon": 35.14291403529788,
      "geoinfo": {
        "display_name": "Halhoul - Sa'ir road, Sa'eer, Area B, West Bank, Palestinian Territories",
        "road": "Halhoul - Sa'ir road",
        "house_number": null,
        "neighbourhood": null,
        "suburb": null,
        "city_district": null,
        "city": "Sa'eer",
        "state": null,
        "postcode": null,
        "country": "Palestinian Territories",
        "country_code": "ps"
      },
      "address": "568, Halhoul - Sa'ir road, 95925 Ḩalḩūl, Palestinian Territory"
    },
    {
      "lat": 31.61275517387866,
      "lon": 35.097146832831406,
      "geoinfo": {
        "display_name": "Area C, Judea and Samaria, Palestinian Territories",
        "road": null,
        "house_number": null,
        "neighbourhood": null,
        "suburb": null,
        "city_district": null,
        "city": null,
        "state": "Judea and Samaria",
        "postcode": null,
        "country": "Palestinian Territories",
        "country_code": "ps"
      },
      "address": "331, Ḩalḩūl, 34785 Judea and Samaria, Palestinian Territory"
    }
  ],
  "updated_at": "2025-10-19T06:37:09.226054+00:00",
  "_kind": "geo_samples"
}