{
  "country_code": "ML",
  "country": "Mali",
  "city": "Bafoulabé",
  "geonameid": 2460755,
  "target_addresses": 2,
  "samples": [
    {
      "lat": 13.835714610313444,
      "lon": -10.838371301837771,
      "geoinfo": {
        "display_name": "Djatarako, Bafoulabe, Bafoulabé Cercle, Kayes, Mali",
        "road": null,
        "house_number": null,
        "neighbourhood": null,
        "suburb": null,
        "city_district": null,
        "city": "Bafoulabe",
        "state": "Kayes",
        "postcode": null,
        "country": "Mali",
        "country_code": "ml"
      },
      "address": "Bafoulabé, Kayes, Mali"
    },
    {
      "lat": 13.802464188249296,
      "lon": -10.839399604838587,
      "geoinfo": {
        "display_name": "Kamankole, Bafoulabe, Bafoulabé Cercle, Kayes, Mali",
        "road": null,
        "house_number": null,
        "neighbourhood": null,
        "suburb": "Kamankole",
        "city_district": null,
        "city": "Bafoulabe",
        "state": "Kayes",
        "postcode": null,
        "country": "Mali",
        "country_code": "ml"
      },
      "address": "Kamankole, Bafoulabé, Kayes, Mali"
    },
    {
      "lat": 13.813396617621443,
      "lon": -10.809593867027148,
      "geoinfo": {
        "display_name": "RR4, Babaroto, Tintila, Bafoulabé Cercle, Kayes, Mali",
        "road": "RR4",
        "house_number": null,
        "neighbourhood": null,
        "suburb": null,
        "city_district": null,
        "city": "Tintila",
        "state": "Kayes",
        "postcode": null,
        "country": "Mali",
        "country_code": "ml"
      },
      "address": "RR4, Babaroto, Tintila, Bafoulabé Cercle, 20310 Kayes, Mali"
    },
    {
      "lat": 13.808550801689977,
      "lon": -10.819494374411624,
      "geoinfo": {
        "display_name": "RR3, Babaroto, Bafoulabe, Bafoulabé Cercle, Kayes, Mali",
        "road": "RR3",
        "house_number": null,
        "neighbourhood": null,
        "suburb": null,
        "city_district": null,
        "city": "Bafoulabe",
        "state": "Kayes",
        "postcode": null,
        "country": "Mali",
        "country_code": "ml"
      },
      "address": "RR3, Babaroto, Bafoulabe, Bafoulabé Cercle, 09809 Kayes, Mali"
    }
  ],
  "updated_at": "2025-10-19T05:59:17.283687+00:00",
  "_kind": "geo_samples"
}