{
  "country_code": "ML",
  "country": "Mali",
  "city": "Dougabougou",
  "geonameid": 2458359,
  "target_addresses": 2,
  "samples": [
    {
      "lat": 13.845918642207124,
      "lon": -6.109763586169674,
      "geoinfo": {
        "display_name": "Dougabougou, Ségou Cercle, Ségou Region, Mali",
        "road": null,
        "house_number": null,
        "neighbourhood": null,
        "suburb": null,
        "city_district": null,
        "city": "Dougabougou",
        "state": "Ségou Region",
        "postcode": null,
        "country": "Mali",
        "country_code": "ml"
      },
      "address": "Dougabougou, Ségou Region, Mali"
    },
    {
      "lat": 13.818096152507396,
      "lon": -6.164971904351263,
      "geoinfo": {
        "display_name": "L517, Dougaba, Dougabougou, Ségou Cercle, Ségou Region, Mali",
        "road": "L517",
        "house_number": null,
        "neighbourhood": null,
        "suburb": null,
        "city_district": null,
        "city": "Dougabougou",
        "state": "Ségou Region",
        "postcode": null,
        "country": "Mali",
        "country_code": "ml"
      },
      "address": "L517, Dougabougou, Ségou Region, Mali"
    },
    {
      "lat": 13.823906684909764,
      "lon": -6.1015192303642305,
      "geoinfo": {
        "display_name": "Bolibana, Dougabougou, Ségou Cercle, Ségou Region, Mali",
        "road": null,
        "house_number": null,
        "neighbourhood": null,
        "suburb": null,
        "city_district": null,
        "city": "Dougabougou",
        "state": "Ségou Region",
        "postcode": null,
        "country": "Mali",
        "country_code": "ml"
      },
      "address": "604, Bolibana, Dougabougou, Ségou Cercle, 56952 Ségou Region, Mali"
    },
    {
      "lat": 13.798252749640064,
      "lon": -6.087546930290196,
      "geoinfo": {
        "display_name": "RN33, Bourama Were, Point A, Ségou Cercle, Ségou Region, Mali",
        "road": "RN33",
        "house_number": null,
        "neighbourhood": null,
        "suburb": null,
        "city_district": null,
        "city": "Point A",
        "state": "Ségou Region",
        "postcode": null,
        "country": "Mali",
        "country_code": "ml"
      },
      "address": "RN33, Bourama Were, Point A, Ségou Cercle, 04590 Ségou Region, Mali"
    }
  ],
  "updated_at": "2025-10-19T06:02:41.110032+00:00",
  "_kind": "geo_samples"
}