{
  "country_code": "ML",
  "country": "Mali",
  "city": "Kabala",
  "geonameid": 2456018,
  "target_addresses": 2,
  "samples": [
    {
      "lat": 12.51645172260628,
      "lon": -8.080546408536014,
      "geoinfo": {
        "display_name": "Somapp, Kati Cercle, Koulikoro, Mali",
        "road": null,
        "house_number": null,
        "neighbourhood": null,
        "suburb": null,
        "city_district": null,
        "city": "Somapp",
        "state": "Koulikoro",
        "postcode": null,
        "country": "Mali",
        "country_code": "ml"
      },
      "address": "Kabala, Koulikoro, Mali"
    },
    {
      "lat": 12.555080454698428,
      "lon": -8.032034815187808,
      "geoinfo": {
        "display_name": "Kalaban Coro Shicoro, Tiébani, Kalaban Coro, Kati Cercle, Koulikoro, Mali",
        "road": null,
        "house_number": null,
        "neighbourhood": null,
        "suburb": "Tiébani",
        "city_district": null,
        "city": "Kalaban Coro",
        "state": "Koulikoro",
        "postcode": null,
        "country": "Mali",
        "country_code": "ml"
      },
      "address": "Tiébani, Kabala, Koulikoro, Mali"
    },
    {
      "lat": 12.528625766019902,
      "lon": -8.074287590473487,
      "geoinfo": {
        "display_name": "Ouenzzindougou, Kati Cercle, Koulikoro, Mali",
        "road": null,
        "house_number": null,
        "neighbourhood": null,
        "suburb": null,
        "city_district": null,
        "city": "Ouenzzindougou",
        "state": "Koulikoro",
        "postcode": null,
        "country": "Mali",
        "country_code": "ml"
      },
      "address": "993, Ouenzzindougou, Kati Cercle, 80349 Koulikoro, Mali"
    },
    {
      "lat": 12.495371289150004,
      "lon": -8.005558787438591,
      "geoinfo": {
        "display_name": "Kati Cercle, Koulikoro, Mali",
        "road": null,
        "house_number": null,
        "neighbourhood": null,
        "suburb": null,
        "city_district": null,
        "city": null,
        "state": "Koulikoro",
        "postcode": null,
        "country": "Mali",
        "country_code": "ml"
      },
      "address": "616, Kati Cercle, 66036 Koulikoro, Mali"
    }
  ],
  "updated_at": "2025-10-19T05:38:13.766876+00:00",
  "_kind": "geo_samples"
}