{
  "country_code": "ML",
  "country": "Mali",
  "city": "Ké-Macina",
  "geonameid": 2455465,
  "target_addresses": 2,
  "samples": [
    {
      "lat": 13.942225367756444,
      "lon": -5.350523900018727,
      "geoinfo": {
        "display_name": "Dioumandiela, Macina Cercle, Ségou Region, Mali",
        "road": null,
        "house_number": null,
        "neighbourhood": null,
        "suburb": null,
        "city_district": null,
        "city": "Dioumandiela",
        "state": "Ségou Region",
        "postcode": null,
        "country": "Mali",
        "country_code": "ml"
      },
      "address": "Ké-Macina, Ségou Region, Mali"
    },
    {
      "lat": 13.9938995077942,
      "lon": -5.373620060721435,
      "geoinfo": {
        "display_name": "RR22, Kadiatou Kawere, Sidi Yaya Kawere, Macina Cercle, Ségou Region, Mali",
        "road": "RR22",
        "house_number": null,
        "neighbourhood": null,
        "suburb": null,
        "city_district": null,
        "city": "Sidi Yaya Kawere",
        "state": "Ségou Region",
        "postcode": null,
        "country": "Mali",
        "country_code": "ml"
      },
      "address": "RR22, Ké-Macina, Ségou Region, Mali"
    },
    {
      "lat": 13.922743648752327,
      "lon": -5.346221050145675,
      "geoinfo": {
        "display_name": "RR23, Tielan, Macina Cercle, Ségou Region, Mali",
        "road": "RR23",
        "house_number": null,
        "neighbourhood": null,
        "suburb": null,
        "city_district": null,
        "city": "Tielan",
        "state": "Ségou Region",
        "postcode": null,
        "country": "Mali",
        "country_code": "ml"
      },
      "address": "RR23, Tielan, Macina Cercle, 20897 Ségou Region, Mali"
    },
    {
      "lat": 13.971287425142124,
      "lon": -5.384846950533161,
      "geoinfo": {
        "display_name": "Dadou-Daga, Macina Cercle, Ségou Region, Mali",
        "road": null,
        "house_number": null,
        "neighbourhood": null,
        "suburb": null,
        "city_district": null,
        "city": "Dadou-Daga",
        "state": "Ségou Region",
        "postcode": null,
        "country": "Mali",
        "country_code": "ml"
      },
      "address": "992, Dadou-Daga, Macina Cercle, 34328 Ségou Region, Mali"
    }
  ],
  "updated_at": "2025-10-19T05:58:55.377575+00:00",
  "_kind": "geo_samples"
}