{
  "country_code": "ML",
  "country": "Mali",
  "city": "Pèlèngana",
  "geonameid": 2457410,
  "target_addresses": 9,
  "samples": [
    {
      "lat": 13.452244121459502,
      "lon": -6.228734630503013,
      "geoinfo": {
        "display_name": "Ségou, Ségou Cercle, Ségou Region, Mali",
        "road": null,
        "house_number": null,
        "neighbourhood": null,
        "suburb": null,
        "city_district": null,
        "city": "Ségou",
        "state": "Ségou Region",
        "postcode": null,
        "country": "Mali",
        "country_code": "ml"
      },
      "address": "Pèlèngana, Ségou Region, Mali"
    },
    {
      "lat": 13.401141099008473,
      "lon": -6.204260129214482,
      "geoinfo": {
        "display_name": "Pelengana-Were, Dougadougou, Ségou Cercle, Ségou Region, Mali",
        "road": null,
        "house_number": null,
        "neighbourhood": null,
        "suburb": "Pelengana-Were",
        "city_district": null,
        "city": "Dougadougou",
        "state": "Ségou Region",
        "postcode": null,
        "country": "Mali",
        "country_code": "ml"
      },
      "address": "Pelengana-Were, Pèlèngana, Ségou Region, Mali"
    },
    {
      "lat": 13.401436911806144,
      "lon": -6.215654328838539,
      "geoinfo": {
        "display_name": "Pelengana-Were, Dougadougou, Ségou Cercle, Ségou Region, Mali",
        "road": null,
        "house_number": null,
        "neighbourhood": null,
        "suburb": "Pelengana-Were",
        "city_district": null,
        "city": "Dougadougou",
        "state": "Ségou Region",
        "postcode": null,
        "country": "Mali",
        "country_code": "ml"
      },
      "address": "Pelengana-Were, Dougadougou, Ségou Cercle, 14064 Ségou Region, Mali"
    },
    {
      "lat": 13.463416703251054,
      "lon": -6.195483015884348,
      "geoinfo": {
        "display_name": "L538, Djigo, Ségou Cercle, Ségou Region, Mali",
        "road": "L538",
        "house_number": null,
        "neighbourhood": null,
        "suburb": null,
        "city_district": null,
        "city": "Djigo",
        "state": "Ségou Region",
        "postcode": null,
        "country": "Mali",
        "country_code": "ml"
      },
      "address": "L538, Djigo, Ségou Cercle, 81857 Ségou Region, Mali"
    },
    {
      "lat": 13.457670710442354,
      "lon": -6.2311310577642605,
      "geoinfo": {
        "display_name": "Comatex, Ségou, Ségou Cercle, Ségou Region, Mali",
        "road": null,
        "house_number": null,
        "neighbourhood": null,
        "suburb": null,
        "city_district": null,
        "city": "Ségou",
        "state": "Ségou Region",
        "postcode": null,
        "country": "Mali",
        "country_code": "ml"
      },
      "address": "460, Comatex, Ségou, Ségou Cercle, 79138 Ségou Region, Mali"
    },
    {
      "lat": 13.419444564963667,
      "lon": -6.193443232664447,
      "geoinfo": {
        "display_name": "Semembougou-Diawando, Ségou Cercle, Ségou Region, Mali",
        "road": null,
        "house_number": null,
        "neighbourhood": null,
        "suburb": null,
        "city_district": null,
        "city": "Semembougou-Diawando",
        "state": "Ségou Region",
        "postcode": null,
        "country": "Mali",
        "country_code": "ml"
      },
      "address": "497, Semembougou-Diawando, Ségou Cercle, 65452 Ségou Region, Mali"
    },
    {
      "lat": 13.409705818747915,
      "lon": -6.249313973984908,
      "geoinfo": {
        "display_name": "Sirakoro, Ségou Cercle, Ségou Region, Mali",
        "road": null,
        "house_number": null,
        "neighbourhood": null,
        "suburb": null,
        "city_district": null,
        "city": "Sirakoro",
        "state": "Ségou Region",
        "postcode": null,
        "country": "Mali",
        "country_code": "ml"
      },
      "address": "950, Sirakoro, Ségou Cercle, 12649 Ségou Region, Mali"
    },
    {
      "lat": 13.40479864713827,
      "lon": -6.205217832840525,
      "geoinfo": {
        "display_name": "Ségou, Ségou Cercle, Ségou Region, Mali",
        "road": null,
        "house_number": null,
        "neighbourhood": null,
        "suburb": null,
        "city_district": null,
        "city": "Ségou",
        "state": "Ségou Region",
        "postcode": null,
        "country": "Mali",
        "country_code": "ml"
      },
      "address": "136, Ségou, Ségou Cercle, 04547 Ségou Region, Mali"
    },
    {
      "lat": 13.402752648240725,
      "lon": -6.194651848359287,
      "geoinfo": {
        "display_name": "Serebougoufie, Dougadougou, Ségou Cercle, Ségou Region, Mali",
        "road": null,
        "house_number": null,
        "neighbourhood": null,
        "suburb": null,
        "city_district": null,
        "city": "Dougadougou",
        "state": "Ségou Region",
        "postcode": null,
        "country": "Mali",
        "country_code": "ml"
      },
      "address": "981, Serebougoufie, Dougadougou, Ségou Cercle, 28857 Ségou Region, Mali"
    },
    {
      "lat": 13.406424925597689,
      "lon": -6.188441317930546,
      "geoinfo": {
        "display_name": "RN6, Serebougoufie, Dougadougou-Nord, Ségou Cercle, Ségou Region, Mali",
        "road": "RN6",
        "house_number": null,
        "neighbourhood": null,
        "suburb": null,
        "city_district": null,
        "city": "Dougadougou-Nord",
        "state": "Ségou Region",
        "postcode": null,
        "country": "Mali",
        "country_code": "ml"
      },
      "address": "RN6, Serebougoufie, Dougadougou-Nord, Ségou Cercle, 14062 Ségou Region, Mali"
    },
    {
      "lat": 13.398402219423838,
      "lon": -6.192034215358002,
      "geoinfo": {
        "display_name": "Serebougoufie, Dougadougou, Ségou Cercle, Ségou Region, Mali",
        "road": null,
        "house_number": null,
        "neighbourhood": null,
        "suburb": null,
        "city_district": null,
        "city": "Dougadougou",
        "state": "Ségou Region",
        "postcode": null,
        "country": "Mali",
        "country_code": "ml"
      },
      "address": "012, Serebougoufie, Dougadougou, Ségou Cercle, 61812 Ségou Region, Mali"
    }
  ],
  "updated_at": "2025-10-19T05:44:58.478968+00:00",
  "_kind": "geo_samples"
}