{
  "country_code": "EG",
  "country": "Egypt",
  "city": "Al Fayyum",
  "geonameid": 361320,
  "target_addresses": 2,
  "samples": [
    {
      "lat": 29.302230892831485,
      "lon": 30.883571408242283,
      "geoinfo": {
        "display_name": "Faiyum, 63513, Egypt",
        "road": null,
        "house_number": null,
        "neighbourhood": null,
        "suburb": null,
        "city_district": null,
        "city": "Faiyum",
        "state": "Faiyum",
        "postcode": "63513",
        "country": "Egypt",
        "country_code": "eg"
      },
      "address": "Al Fayyum, Faiyum, Egypt"
    },
    {
      "lat": 29.32523272254291,
      "lon": 30.859009403922197,
      "geoinfo": {
        "display_name": "Gammal Abd Al Naser Street, First Al Nagarin, Faiyum, 63513, Egypt",
        "road": "Gammal Abd Al Naser Street",
        "house_number": null,
        "neighbourhood": null,
        "suburb": null,
        "city_district": null,
        "city": "First Al Nagarin",
        "state": "Faiyum",
        "postcode": "63513",
        "country": "Egypt",
        "country_code": "eg"
      },
      "address": "448, Gammal Abd Al Naser Street, First Al Nagarin, Faiyum, 63513, Egypt"
    },
    {
      "lat": 29.31978419032727,
      "lon": 30.83448851731919,
      "geoinfo": {
        "display_name": "Fayoum University, Ashry Street, Second Darb Al Tabakhin, Faiyum, 63514, Egypt",
        "road": "Ashry Street",
        "house_number": null,
        "neighbourhood": null,
        "suburb": null,
        "city_district": null,
        "city": "Second Darb Al Tabakhin",
        "state": "Faiyum",
        "postcode": "63514",
        "country": "Egypt",
        "country_code": "eg"
      },
      "address": "528, Ashry Street, Al Fayyum, 63514 Faiyum, Egypt"
    }
  ],
  "updated_at": "2025-10-19T04:21:06.311525+00:00",
  "_kind": "geo_samples"
}