{
  "country_code": "TM",
  "country": "Turkmenistan",
  "city": "Abadan",
  "geonameid": 162099,
  "target_addresses": 4,
  "samples": [
    {
      "lat": 38.05477760629861,
      "lon": 58.17915686389589,
      "geoinfo": {
        "display_name": "M37, Ashgabat City, Buzmeyin District, Buzmeyin, Ashgabat City, 745220, Turkmenistan",
        "road": "M37",
        "house_number": null,
        "neighbourhood": "Buzmeyin District",
        "suburb": "Buzmeyin",
        "city_district": null,
        "city": "Ashgabat City",
        "state": null,
        "postcode": "745220",
        "country": "Turkmenistan",
        "country_code": "tm"
      },
      "address": "M37, Abadan, Turkmenistan"
    },
    {
      "lat": 38.061479817451364,
      "lon": 58.18305905220011,
      "geoinfo": {
        "display_name": "Seýdi köçesi, Ashgabat City, Garadasayak, Bagtyyarlyk District, Ashgabat City, 745220, Turkmenistan",
        "road": "Seýdi köçesi",
        "house_number": null,
        "neighbourhood": null,
        "suburb": "Garadasayak",
        "city_district": null,
        "city": "Ashgabat City",
        "state": null,
        "postcode": "745220",
        "country": "Turkmenistan",
        "country_code": "tm"
      },
      "address": "Seýdi köçesi, Abadan, Turkmenistan"
    },
    {
      "lat": 38.06120591799806,
      "lon": 58.15927915194803,
      "geoinfo": {
        "display_name": "Спортивная площадка, Altyn Nesil, Ashgabat City, Buzmeyin District, Buzmeyin, Ashgabat City, 745220, Turkmenistan",
        "road": "Altyn Nesil",
        "house_number": null,
        "neighbourhood": "Buzmeyin District",
        "suburb": "Buzmeyin",
        "city_district": null,
        "city": "Ashgabat City",
        "state": null,
        "postcode": "745220",
        "country": "Turkmenistan",
        "country_code": "tm"
      },
      "address": "Altyn Nesil, Abadan, Turkmenistan"
    },
    {
      "lat": 38.01873757711981,
      "lon": 58.20837398022073,
      "geoinfo": {
        "display_name": "Görogly (2009) köçesi, Ashgabat City, Buzmeyin District, Ashgabat City, Turkmenistan",
        "road": "Görogly (2009) köçesi",
        "house_number": null,
        "neighbourhood": "Buzmeyin District",
        "suburb": null,
        "city_district": null,
        "city": "Ashgabat City",
        "state": null,
        "postcode": null,
        "country": "Turkmenistan",
        "country_code": "tm"
      },
      "address": "Görogly (2009) köçesi, Abadan, Turkmenistan"
    },
    {
      "lat": 38.030778677090986,
      "lon": 58.18627655042347,
      "geoinfo": {
        "display_name": "Zelenaýa köçesi, Ashgabat City, Buzmeyin District, Ashgabat City, 745220, Turkmenistan",
        "road": "Zelenaýa köçesi",
        "house_number": null,
        "neighbourhood": "Buzmeyin District",
        "suburb": null,
        "city_district": null,
        "city": "Ashgabat City",
        "state": null,
        "postcode": "745220",
        "country": "Turkmenistan",
        "country_code": "tm"
      },
      "address": "019, Zelenaýa köçesi, Ashgabat City, Buzmeyin District, Ashgabat City, 745220, Turkmenistan"
    },
    {
      "lat": 38.06197351119494,
      "lon": 58.175121466734545,
      "geoinfo": {
        "display_name": "Jepbar Hansähedow köçesi, Ashgabat City, Garadasayak, Bagtyyarlyk District, Ashgabat City, 745220, Turkmenistan",
        "road": "Jepbar Hansähedow köçesi",
        "house_number": null,
        "neighbourhood": null,
        "suburb": "Garadasayak",
        "city_district": null,
        "city": "Ashgabat City",
        "state": null,
        "postcode": "745220",
        "country": "Turkmenistan",
        "country_code": "tm"
      },
      "address": "919, Jepbar Hansähedow köçesi, Ashgabat City, Garadasayak, Bagtyyarlyk District, Ashgabat City, 745220, Turkmenistan"
    },
    {
      "lat": 38.08761486911294,
      "lon": 58.20918826628932,
      "geoinfo": {
        "display_name": "Kulyýew (2127) köçesi, Ashgabat City, Bagtyyarlyk District, Ashgabat City, Turkmenistan",
        "road": "Kulyýew (2127) köçesi",
        "house_number": null,
        "neighbourhood": null,
        "suburb": null,
        "city_district": null,
        "city": "Ashgabat City",
        "state": null,
        "postcode": null,
        "country": "Turkmenistan",
        "country_code": "tm"
      },
      "address": "Kulyýew (2127) köçesi, Ashgabat City, Bagtyyarlyk District, 99139 Ashgabat City, Turkmenistan"
    },
    {
      "lat": 38.05152959982883,
      "lon": 58.19844854697387,
      "geoinfo": {
        "display_name": "11, Guwanç Orazow köçesi, Ashgabat City, Yasmansalyk, Bagtyyarlyk District, Ashgabat City, 745220, Turkmenistan",
        "road": "Guwanç Orazow köçesi",
        "house_number": "11",
        "neighbourhood": null,
        "suburb": "Yasmansalyk",
        "city_district": null,
        "city": "Ashgabat City",
        "state": null,
        "postcode": "745220",
        "country": "Turkmenistan",
        "country_code": "tm"
      },
      "address": "11, Guwanç Orazow köçesi, Ashgabat City, Yasmansalyk, Bagtyyarlyk District, Ashgabat City, 745220, Turkmenistan"
    }
  ],
  "updated_at": "2025-10-19T07:14:48.296290+00:00",
  "_kind": "geo_samples"
}