{
  "country_code": "TM",
  "country": "Turkmenistan",
  "city": "Balkanabat",
  "geonameid": 161616,
  "target_addresses": 4,
  "samples": [
    {
      "lat": 39.52824214878303,
      "lon": 54.365385052564996,
      "geoinfo": {
        "display_name": "saglyk yol, Квартал 212, Balkanabat City, Balkan Region, Turkmenistan",
        "road": "saglyk yol",
        "house_number": null,
        "neighbourhood": null,
        "suburb": null,
        "city_district": null,
        "city": "Balkanabat City",
        "state": "Balkan Region",
        "postcode": null,
        "country": "Turkmenistan",
        "country_code": "tm"
      },
      "address": "saglyk yol, Balkanabat, Balkan Region, Turkmenistan"
    },
    {
      "lat": 39.498332935527564,
      "lon": 54.379596191649846,
      "geoinfo": {
        "display_name": "Magtymguly şaýoly, Квартал 153, ŸJT “Arlan”, Balkanabat City, Balkan Region, Turkmenistan",
        "road": "Magtymguly şaýoly",
        "house_number": null,
        "neighbourhood": null,
        "suburb": "ŸJT “Arlan”",
        "city_district": null,
        "city": "Balkanabat City",
        "state": "Balkan Region",
        "postcode": null,
        "country": "Turkmenistan",
        "country_code": "tm"
      },
      "address": "Magtymguly şaýoly, Balkanabat, Balkan Region, Turkmenistan"
    },
    {
      "lat": 39.48577617470953,
      "lon": 54.37481984205479,
      "geoinfo": {
        "display_name": "Balkanabat City, Balkan Region, Turkmenistan",
        "road": null,
        "house_number": null,
        "neighbourhood": null,
        "suburb": null,
        "city_district": null,
        "city": "Balkanabat City",
        "state": "Balkan Region",
        "postcode": null,
        "country": "Turkmenistan",
        "country_code": "tm"
      },
      "address": "Balkanabat, Balkan Region, Turkmenistan"
    },
    {
      "lat": 39.5076301859104,
      "lon": 54.33418338340977,
      "geoinfo": {
        "display_name": "За городом, ŸJT “Arlan”, Balkanabat City, Balkan Region, Turkmenistan",
        "road": "За городом",
        "house_number": null,
        "neighbourhood": null,
        "suburb": "ŸJT “Arlan”",
        "city_district": null,
        "city": "Balkanabat City",
        "state": "Balkan Region",
        "postcode": null,
        "country": "Turkmenistan",
        "country_code": "tm"
      },
      "address": "За городом, Balkanabat, Balkan Region, Turkmenistan"
    },
    {
      "lat": 39.551991349916186,
      "lon": 54.38634971363125,
      "geoinfo": {
        "display_name": "Balkanabat City, Balkan Region, Turkmenistan",
        "road": null,
        "house_number": null,
        "neighbourhood": null,
        "suburb": null,
        "city_district": null,
        "city": "Balkanabat City",
        "state": "Balkan Region",
        "postcode": null,
        "country": "Turkmenistan",
        "country_code": "tm"
      },
      "address": "388, Balkanabat City, 02992 Balkan Region, Turkmenistan"
    },
    {
      "lat": 39.543030865956396,
      "lon": 54.385391344740505,
      "geoinfo": {
        "display_name": "A.W. Danow gowagy /hyyal guyji, saglyk yol, Квартал 212, Balkanabat City, Balkan Region, Turkmenistan",
        "road": "saglyk yol",
        "house_number": null,
        "neighbourhood": null,
        "suburb": null,
        "city_district": null,
        "city": "Balkanabat City",
        "state": "Balkan Region",
        "postcode": null,
        "country": "Turkmenistan",
        "country_code": "tm"
      },
      "address": "792, saglyk yol, Balkanabat, 46980 Balkan Region, Turkmenistan"
    },
    {
      "lat": 39.49030229673359,
      "lon": 54.32616224498759,
      "geoinfo": {
        "display_name": "Balkanabat City, Balkan Region, Turkmenistan",
        "road": null,
        "house_number": null,
        "neighbourhood": null,
        "suburb": null,
        "city_district": null,
        "city": "Balkanabat City",
        "state": "Balkan Region",
        "postcode": null,
        "country": "Turkmenistan",
        "country_code": "tm"
      },
      "address": "804, Balkanabat City, 22566 Balkan Region, Turkmenistan"
    },
    {
      "lat": 39.526511670654294,
      "lon": 54.366267380806924,
      "geoinfo": {
        "display_name": "Квартал 184, Balkanabat City, Balkan Region, Turkmenistan",
        "road": null,
        "house_number": null,
        "neighbourhood": null,
        "suburb": null,
        "city_district": null,
        "city": "Balkanabat City",
        "state": "Balkan Region",
        "postcode": null,
        "country": "Turkmenistan",
        "country_code": "tm"
      },
      "address": "Квартал 184, Balkanabat City, 69087 Balkan Region, Turkmenistan"
    }
  ],
  "updated_at": "2025-10-19T07:11:26.290662+00:00",
  "_kind": "geo_samples"
}