{
  "country_code": "YT",
  "country": "Mayotte",
  "city": "Dzaoudzi",
  "geonameid": 921900,
  "target_addresses": 50,
  "samples": [
    {
      "lat": -12.756532505727378,
      "lon": 45.24123468567045,
      "geoinfo": {
        "display_name": "Les 4 Frères (Zissoua Ziné), Kawéni, Mayotte, 97690, France",
        "road": null,
        "house_number": null,
        "neighbourhood": null,
        "suburb": null,
        "city_district": null,
        "city": "Kawéni",
        "state": "Mayotte",
        "postcode": "97690",
        "country": "France",
        "country_code": "fr"
      },
      "address": "Dzaoudzi, Mayotte, Mayotte"
    },
    {
      "lat": -12.79152469658063,
      "lon": 45.29374243182153,
      "geoinfo": {
        "display_name": "Rue du Mirador, Bandrahani, Pamandzi, Mayotte, 97510, France",
        "road": "Rue du Mirador",
        "house_number": null,
        "neighbourhood": null,
        "suburb": null,
        "city_district": null,
        "city": "Pamandzi",
        "state": "Mayotte",
        "postcode": "97510",
        "country": "France",
        "country_code": "fr"
      },
      "address": "Rue du Mirador, Dzaoudzi, Mayotte, Mayotte"
    },
    {
      "lat": -12.766887266999198,
      "lon": 45.28102371064092,
      "geoinfo": {
        "display_name": "188, Route des Badamiers, Les Badamiers, Dzaoudzi, Mayotte, 97615, France",
        "road": "Route des Badamiers",
        "house_number": "188",
        "neighbourhood": "Les Badamiers",
        "suburb": null,
        "city_district": null,
        "city": "Dzaoudzi",
        "state": "Mayotte",
        "postcode": "97615",
        "country": "France",
        "country_code": "fr"
      },
      "address": "188 Route des Badamiers, Dzaoudzi, Mayotte, Mayotte"
    },
    {
      "lat": -12.758815418805836,
      "lon": 45.2828037067747,
      "geoinfo": {
        "display_name": "Route des Badamiers, Les Badamiers, Dzaoudzi, Mayotte, 97610, France",
        "road": "Route des Badamiers",
        "house_number": null,
        "neighbourhood": "Les Badamiers",
        "suburb": null,
        "city_district": null,
        "city": "Dzaoudzi",
        "state": "Mayotte",
        "postcode": "97610",
        "country": "France",
        "country_code": "fr"
      },
      "address": "Route des Badamiers, Dzaoudzi, Mayotte, Mayotte"
    },
    {
      "lat": -12.772540412736038,
      "lon": 45.27448939406623,
      "geoinfo": {
        "display_name": "Rue Behava, La Pompe, La Vigie, Labattoir, Dzaoudzi, Mayotte, 97615, France",
        "road": "Rue Behava",
        "house_number": null,
        "neighbourhood": null,
        "suburb": "La Vigie",
        "city_district": null,
        "city": "Dzaoudzi",
        "state": "Mayotte",
        "postcode": "97615",
        "country": "France",
        "country_code": "fr"
      },
      "address": "Rue Behava, Dzaoudzi, Mayotte, Mayotte"
    },
    {
      "lat": -12.767793436908404,
      "lon": 45.29474414697989,
      "geoinfo": {
        "display_name": "Sentier Cratère Dziani, Toutourcha, La Vigie, Labattoir, Dzaoudzi, Mayotte, 97615, France",
        "road": "Sentier Cratère Dziani",
        "house_number": null,
        "neighbourhood": null,
        "suburb": "La Vigie",
        "city_district": null,
        "city": "Dzaoudzi",
        "state": "Mayotte",
        "postcode": "97615",
        "country": "France",
        "country_code": "fr"
      },
      "address": "Sentier Cratère Dziani, Dzaoudzi, Mayotte, Mayotte"
    },
    {
      "lat": -12.750595897350907,
      "lon": 45.23080843143871,
      "geoinfo": {
        "display_name": "N 1, Quartier Machaka, Majicavo-Lamir, Koungou, Mayotte, 97600, France",
        "road": "N 1",
        "house_number": null,
        "neighbourhood": null,
        "suburb": "Quartier Machaka",
        "city_district": null,
        "city": "Koungou",
        "state": "Mayotte",
        "postcode": "97600",
        "country": "France",
        "country_code": "fr"
      },
      "address": "N 1, Dzaoudzi, Mayotte, Mayotte"
    },
    {
      "lat": -12.7789119595996,
      "lon": 45.26025476985929,
      "geoinfo": {
        "display_name": "Quai Issoufali, Jetée Issoufali, Foungoujou, Dzaoudzi, Mayotte, 97615, France",
        "road": "Jetée Issoufali",
        "house_number": null,
        "neighbourhood": null,
        "suburb": null,
        "city_district": null,
        "city": "Dzaoudzi",
        "state": "Mayotte",
        "postcode": "97615",
        "country": "France",
        "country_code": "fr"
      },
      "address": "Jetée Issoufali, Dzaoudzi, Mayotte, Mayotte"
    },
    {
      "lat": -12.765841650785415,
      "lon": 45.277401788393334,
      "geoinfo": {
        "display_name": "999, Route des Badamiers, Dépôt pétrolier des Badamiers, Dzaoudzi, Mayotte, 97615, France",
        "road": "Route des Badamiers",
        "house_number": "999",
        "neighbourhood": null,
        "suburb": null,
        "city_district": null,
        "city": "Dzaoudzi",
        "state": "Mayotte",
        "postcode": "97615",
        "country": "France",
        "country_code": "fr"
      },
      "address": "999 Route des Badamiers, Dzaoudzi, Mayotte, Mayotte"
    },
    {
      "lat": -12.785368129518147,
      "lon": 45.252390248457495,
      "geoinfo": {
        "display_name": "Quai Ballou, Avenue de la Préfecture, Dzaoudzi, Mayotte, 97610, France",
        "road": "Avenue de la Préfecture",
        "house_number": null,
        "neighbourhood": null,
        "suburb": null,
        "city_district": null,
        "city": "Dzaoudzi",
        "state": "Mayotte",
        "postcode": "97610",
        "country": "France",
        "country_code": "fr"
      },
      "address": "Avenue de la Préfecture, Dzaoudzi, Mayotte, Mayotte"
    },
    {
      "lat": -12.786956463616832,
      "lon": 45.29844288514476,
      "geoinfo": {
        "display_name": "Sentier Moya, Dzaoudzi, Mayotte, 97510, France",
        "road": "Sentier Moya",
        "house_number": null,
        "neighbourhood": null,
        "suburb": null,
        "city_district": null,
        "city": "Dzaoudzi",
        "state": "Mayotte",
        "postcode": "97510",
        "country": "France",
        "country_code": "fr"
      },
      "address": "Sentier Moya, Dzaoudzi, Mayotte, Mayotte"
    },
    {
      "lat": -12.772537804059413,
      "lon": 45.27456527900232,
      "geoinfo": {
        "display_name": "Champ de tir, Ruelle de la Mosquée de Pole, Toutourcha, Dzaoudzi, Mayotte, 97615, France",
        "road": "Ruelle de la Mosquée de Pole",
        "house_number": null,
        "neighbourhood": null,
        "suburb": null,
        "city_district": null,
        "city": "Dzaoudzi",
        "state": "Mayotte",
        "postcode": "97615",
        "country": "France",
        "country_code": "fr"
      },
      "address": "Ruelle de la Mosquée de Pole, Dzaoudzi, Mayotte, Mayotte"
    },
    {
      "lat": -12.79482347259504,
      "lon": 45.27980548732474,
      "geoinfo": {
        "display_name": "Stade de Pamandzi, Rue du Stade, Les Décasés, Pamandzi, Mayotte, 97615, France",
        "road": "Rue du Stade",
        "house_number": null,
        "neighbourhood": null,
        "suburb": null,
        "city_district": null,
        "city": "Pamandzi",
        "state": "Mayotte",
        "postcode": "97615",
        "country": "France",
        "country_code": "fr"
      },
      "address": "Rue du Stade, Dzaoudzi, Mayotte, Mayotte"
    },
    {
      "lat": -12.766973294742757,
      "lon": 45.27430264246574,
      "geoinfo": {
        "display_name": "Les Badamiers, Dzaoudzi, Mayotte, 97610, France",
        "road": null,
        "house_number": null,
        "neighbourhood": "Les Badamiers",
        "suburb": null,
        "city_district": null,
        "city": "Dzaoudzi",
        "state": "Mayotte",
        "postcode": "97610",
        "country": "France",
        "country_code": "fr"
      },
      "address": "Les Badamiers, Dzaoudzi, Mayotte, Mayotte"
    },
    {
      "lat": -12.779337163370625,
      "lon": 45.255766197863444,
      "geoinfo": {
        "display_name": "Ecole élémentaire Dzaoudzi Les Colibris, 4, Boulevard des Crabes, Foungoujou, Dzaoudzi, Mayotte, 97615, France",
        "road": "Boulevard des Crabes",
        "house_number": "4",
        "neighbourhood": null,
        "suburb": null,
        "city_district": null,
        "city": "Dzaoudzi",
        "state": "Mayotte",
        "postcode": "97615",
        "country": "France",
        "country_code": "fr"
      },
      "address": "4 Boulevard des Crabes, Dzaoudzi, Mayotte, Mayotte"
    },
    {
      "lat": -12.774091286649332,
      "lon": 45.279805726619315,
      "geoinfo": {
        "display_name": "16, Ruelle de la Mosquée de Pole, Toutourcha, Dzaoudzi, Mayotte, 97615, France",
        "road": "Ruelle de la Mosquée de Pole",
        "house_number": "16",
        "neighbourhood": null,
        "suburb": null,
        "city_district": null,
        "city": "Dzaoudzi",
        "state": "Mayotte",
        "postcode": "97615",
        "country": "France",
        "country_code": "fr"
      },
      "address": "16 Ruelle de la Mosquée de Pole, Dzaoudzi, Mayotte, Mayotte"
    },
    {
      "lat": -12.784996106170702,
      "lon": 45.260873102956765,
      "geoinfo": {
        "display_name": "Chemin découverte Vasière des Badamiers, Foungoujou, Labattoir, Dzaoudzi, Mayotte, 97615, France",
        "road": "Chemin découverte Vasière des Badamiers",
        "house_number": null,
        "neighbourhood": null,
        "suburb": null,
        "city_district": null,
        "city": "Dzaoudzi",
        "state": "Mayotte",
        "postcode": "97615",
        "country": "France",
        "country_code": "fr"
      },
      "address": "Chemin découverte Vasière des Badamiers, Dzaoudzi, Mayotte, Mayotte"
    },
    {
      "lat": -12.75256851169344,
      "lon": 45.26086060067784,
      "geoinfo": {
        "display_name": "Le Taureau (Chissioua Gnombé N'Droumé), Dzaoudzi, Mayotte, 97610, France",
        "road": null,
        "house_number": null,
        "neighbourhood": null,
        "suburb": null,
        "city_district": null,
        "city": "Dzaoudzi",
        "state": "Mayotte",
        "postcode": "97610",
        "country": "France",
        "country_code": "fr"
      },
      "address": "055, Dzaoudzi, 97610 Mayotte, Mayotte"
    },
    {
      "lat": -12.795214128441819,
      "lon": 45.27644050968721,
      "geoinfo": {
        "display_name": "11, Rue du Jardin, Bandrabassi, Vitalémengou, Pamandzi, Mayotte, 97615, France",
        "road": "Rue du Jardin",
        "house_number": "11",
        "neighbourhood": null,
        "suburb": null,
        "city_district": null,
        "city": "Pamandzi",
        "state": "Mayotte",
        "postcode": "97615",
        "country": "France",
        "country_code": "fr"
      },
      "address": "11, Rue du Jardin, Dzaoudzi, 97615 Mayotte, Mayotte"
    },
    {
      "lat": -12.759824714227241,
      "lon": 45.2910943356741,
      "geoinfo": {
        "display_name": "Piscines de Papani, Mayotte, 97510, France",
        "road": null,
        "house_number": null,
        "neighbourhood": null,
        "suburb": null,
        "city_district": null,
        "city": null,
        "state": "Mayotte",
        "postcode": "97510",
        "country": "France",
        "country_code": "fr"
      },
      "address": "560, Dzaoudzi, 97510 Mayotte, Mayotte"
    },
    {
      "lat": -12.764914215741586,
      "lon": 45.274052410193605,
      "geoinfo": {
        "display_name": "Route des Badamiers, Dépôt pétrolier des Badamiers, Dzaoudzi, Mayotte, 97610, France",
        "road": "Route des Badamiers",
        "house_number": null,
        "neighbourhood": null,
        "suburb": null,
        "city_district": null,
        "city": "Dzaoudzi",
        "state": "Mayotte",
        "postcode": "97610",
        "country": "France",
        "country_code": "fr"
      },
      "address": "335, Route des Badamiers, Dzaoudzi, 97610 Mayotte, Mayotte"
    },
    {
      "lat": -12.795133555292331,
      "lon": 45.25286303712096,
      "geoinfo": {
        "display_name": "Foungoujou, Labattoir, Dzaoudzi, Mayotte, 97615, France",
        "road": null,
        "house_number": null,
        "neighbourhood": null,
        "suburb": null,
        "city_district": null,
        "city": "Dzaoudzi",
        "state": "Mayotte",
        "postcode": "97615",
        "country": "France",
        "country_code": "fr"
      },
      "address": "079, Dzaoudzi, 97615 Mayotte, Mayotte"
    },
    {
      "lat": -12.806157619186509,
      "lon": 45.24873148940344,
      "geoinfo": {
        "display_name": "Labattoir, Dzaoudzi, Mayotte, 97615, France",
        "road": null,
        "house_number": null,
        "neighbourhood": null,
        "suburb": null,
        "city_district": null,
        "city": "Dzaoudzi",
        "state": "Mayotte",
        "postcode": "97615",
        "country": "France",
        "country_code": "fr"
      },
      "address": "889, Dzaoudzi, 97615 Mayotte, Mayotte"
    },
    {
      "lat": -12.81525177157521,
      "lon": 45.257890086706325,
      "geoinfo": {
        "display_name": "Labattoir, Dzaoudzi, Mayotte, 97615, France",
        "road": null,
        "house_number": null,
        "neighbourhood": null,
        "suburb": null,
        "city_district": null,
        "city": "Dzaoudzi",
        "state": "Mayotte",
        "postcode": "97615",
        "country": "France",
        "country_code": "fr"
      },
      "address": "844, Dzaoudzi, 97615 Mayotte, Mayotte"
    },
    {
      "lat": -12.774298290156999,
      "lon": 45.28074068573835,
      "geoinfo": {
        "display_name": "83, Route des Badamiers, Toutouroucha, La Vigie, Labattoir, Dzaoudzi, Mayotte, 97615, France",
        "road": "Route des Badamiers",
        "house_number": "83",
        "neighbourhood": null,
        "suburb": "La Vigie",
        "city_district": null,
        "city": "Dzaoudzi",
        "state": "Mayotte",
        "postcode": "97615",
        "country": "France",
        "country_code": "fr"
      },
      "address": "83, Route des Badamiers, Dzaoudzi, 97615 Mayotte, Mayotte"
    },
    {
      "lat": -12.759827962543808,
      "lon": 45.2825873489683,
      "geoinfo": {
        "display_name": "Route des Badamiers, Les Badamiers, Dzaoudzi, Mayotte, 97610, France",
        "road": "Route des Badamiers",
        "house_number": null,
        "neighbourhood": "Les Badamiers",
        "suburb": null,
        "city_district": null,
        "city": "Dzaoudzi",
        "state": "Mayotte",
        "postcode": "97610",
        "country": "France",
        "country_code": "fr"
      },
      "address": "458, Route des Badamiers, Dzaoudzi, 97610 Mayotte, Mayotte"
    },
    {
      "lat": -12.81712270287412,
      "lon": 45.251979563660626,
      "geoinfo": {
        "display_name": "Labattoir, Dzaoudzi, Mayotte, 97615, France",
        "road": null,
        "house_number": null,
        "neighbourhood": null,
        "suburb": null,
        "city_district": null,
        "city": "Dzaoudzi",
        "state": "Mayotte",
        "postcode": "97615",
        "country": "France",
        "country_code": "fr"
      },
      "address": "752, Dzaoudzi, 97615 Mayotte, Mayotte"
    },
    {
      "lat": -12.77651988292484,
      "lon": 45.29662877715134,
      "geoinfo": {
        "display_name": "Sentier Moya, La Vigie, Dzaoudzi, Mayotte, 97615, France",
        "road": "Sentier Moya",
        "house_number": null,
        "neighbourhood": null,
        "suburb": "La Vigie",
        "city_district": null,
        "city": "Dzaoudzi",
        "state": "Mayotte",
        "postcode": "97615",
        "country": "France",
        "country_code": "fr"
      },
      "address": "510, Sentier Moya, Dzaoudzi, 97615 Mayotte, Mayotte"
    },
    {
      "lat": -12.746541045544413,
      "lon": 45.270726205829575,
      "geoinfo": {
        "display_name": "Le Taureau (Chissioua Gnombé N'Droumé), Dzaoudzi, Mayotte, 97610, France",
        "road": null,
        "house_number": null,
        "neighbourhood": null,
        "suburb": null,
        "city_district": null,
        "city": "Dzaoudzi",
        "state": "Mayotte",
        "postcode": "97610",
        "country": "France",
        "country_code": "fr"
      },
      "address": "132, Dzaoudzi, 97610 Mayotte, Mayotte"
    },
    {
      "lat": -12.777157436455514,
      "lon": 45.29927319256045,
      "geoinfo": {
        "display_name": "Sentier Moya, La Vigie, Dzaoudzi, Mayotte, 97615, France",
        "road": "Sentier Moya",
        "house_number": null,
        "neighbourhood": null,
        "suburb": "La Vigie",
        "city_district": null,
        "city": "Dzaoudzi",
        "state": "Mayotte",
        "postcode": "97615",
        "country": "France",
        "country_code": "fr"
      },
      "address": "682, Sentier Moya, Dzaoudzi, 97615 Mayotte, Mayotte"
    },
    {
      "lat": -12.798467452276592,
      "lon": 45.286217624616356,
      "geoinfo": {
        "display_name": "Bandrahani, Pamandzi, Mayotte, 97615, France",
        "road": null,
        "house_number": null,
        "neighbourhood": null,
        "suburb": null,
        "city_district": null,
        "city": "Pamandzi",
        "state": "Mayotte",
        "postcode": "97615",
        "country": "France",
        "country_code": "fr"
      },
      "address": "995, Dzaoudzi, 97615 Mayotte, Mayotte"
    },
    {
      "lat": -12.766456337895546,
      "lon": 45.24071583509385,
      "geoinfo": {
        "display_name": "Kawéni, Mamoudzou, Mayotte, 97690, France",
        "road": null,
        "house_number": null,
        "neighbourhood": null,
        "suburb": null,
        "city_district": null,
        "city": "Kawéni",
        "state": "Mayotte",
        "postcode": "97690",
        "country": "France",
        "country_code": "fr"
      },
      "address": "117, Dzaoudzi, 97690 Mayotte, Mayotte"
    },
    {
      "lat": -12.796453174666471,
      "lon": 45.26477376782834,
      "geoinfo": {
        "display_name": "Vitalémengou, Pamandzi, Mayotte, 97510, France",
        "road": null,
        "house_number": null,
        "neighbourhood": null,
        "suburb": null,
        "city_district": null,
        "city": "Pamandzi",
        "state": "Mayotte",
        "postcode": "97510",
        "country": "France",
        "country_code": "fr"
      },
      "address": "029, Dzaoudzi, 97510 Mayotte, Mayotte"
    },
    {
      "lat": -12.770107702069495,
      "lon": 45.27456331313908,
      "geoinfo": {
        "display_name": "Champ de tir, Ruelle de la Mosquée de Pole, Toutourcha, Dzaoudzi, Mayotte, 97615, France",
        "road": "Ruelle de la Mosquée de Pole",
        "house_number": null,
        "neighbourhood": null,
        "suburb": null,
        "city_district": null,
        "city": "Dzaoudzi",
        "state": "Mayotte",
        "postcode": "97615",
        "country": "France",
        "country_code": "fr"
      },
      "address": "142, Ruelle de la Mosquée de Pole, Dzaoudzi, 97615 Mayotte, Mayotte"
    },
    {
      "lat": -12.769427607188891,
      "lon": 45.28044598702333,
      "geoinfo": {
        "display_name": "168, Route des Badamiers, Les Badamiers, Dzaoudzi, Mayotte, 97615, France",
        "road": "Route des Badamiers",
        "house_number": "168",
        "neighbourhood": "Les Badamiers",
        "suburb": null,
        "city_district": null,
        "city": "Dzaoudzi",
        "state": "Mayotte",
        "postcode": "97615",
        "country": "France",
        "country_code": "fr"
      },
      "address": "168, Route des Badamiers, Dzaoudzi, 97615 Mayotte, Mayotte"
    },
    {
      "lat": -12.760846547245334,
      "lon": 45.255235385377695,
      "geoinfo": {
        "display_name": "Les 4 Frères (Zissoua Ziné), Kawéni, Mayotte, 97690, France",
        "road": null,
        "house_number": null,
        "neighbourhood": null,
        "suburb": null,
        "city_district": null,
        "city": "Kawéni",
        "state": "Mayotte",
        "postcode": "97690",
        "country": "France",
        "country_code": "fr"
      },
      "address": "383, Dzaoudzi, 97690 Mayotte, Mayotte"
    },
    {
      "lat": -12.758579142378345,
      "lon": 45.26298059245319,
      "geoinfo": {
        "display_name": "Le Taureau (Chissioua Gnombé N'Droumé), Dzaoudzi, Mayotte, 97610, France",
        "road": null,
        "house_number": null,
        "neighbourhood": null,
        "suburb": null,
        "city_district": null,
        "city": "Dzaoudzi",
        "state": "Mayotte",
        "postcode": "97610",
        "country": "France",
        "country_code": "fr"
      },
      "address": "200, Dzaoudzi, 97610 Mayotte, Mayotte"
    },
    {
      "lat": -12.818603440776041,
      "lon": 45.23165409998763,
      "geoinfo": {
        "display_name": "Doujani, Mamoudzou, Mayotte, 97600, France",
        "road": null,
        "house_number": null,
        "neighbourhood": null,
        "suburb": null,
        "city_district": null,
        "city": "Mamoudzou",
        "state": "Mayotte",
        "postcode": "97600",
        "country": "France",
        "country_code": "fr"
      },
      "address": "942, Dzaoudzi, 97600 Mayotte, Mayotte"
    },
    {
      "lat": -12.808132722246302,
      "lon": 45.26485552540078,
      "geoinfo": {
        "display_name": "Bandrabassi, Pamandzi, Mayotte, 97615, France",
        "road": null,
        "house_number": null,
        "neighbourhood": null,
        "suburb": null,
        "city_district": null,
        "city": "Pamandzi",
        "state": "Mayotte",
        "postcode": "97615",
        "country": "France",
        "country_code": "fr"
      },
      "address": "762, Dzaoudzi, 97615 Mayotte, Mayotte"
    },
    {
      "lat": -12.77544733377365,
      "lon": 45.24817158797028,
      "geoinfo": {
        "display_name": "Les 4 Frères (Zissoua Ziné), Kawéni, Mayotte, 97690, France",
        "road": null,
        "house_number": null,
        "neighbourhood": null,
        "suburb": null,
        "city_district": null,
        "city": "Kawéni",
        "state": "Mayotte",
        "postcode": "97690",
        "country": "France",
        "country_code": "fr"
      },
      "address": "152, Dzaoudzi, 97690 Mayotte, Mayotte"
    },
    {
      "lat": -12.808142193432998,
      "lon": 45.25651849795654,
      "geoinfo": {
        "display_name": "Sandravouangué, Pamandzi, Mayotte, 97615, France",
        "road": null,
        "house_number": null,
        "neighbourhood": null,
        "suburb": null,
        "city_district": null,
        "city": "Pamandzi",
        "state": "Mayotte",
        "postcode": "97615",
        "country": "France",
        "country_code": "fr"
      },
      "address": "897, Dzaoudzi, 97615 Mayotte, Mayotte"
    },
    {
      "lat": -12.772521645895736,
      "lon": 45.24264846053634,
      "geoinfo": {
        "display_name": "Les 4 Frères (Zissoua Ziné), Kawéni, Mayotte, 97690, France",
        "road": null,
        "house_number": null,
        "neighbourhood": null,
        "suburb": null,
        "city_district": null,
        "city": "Kawéni",
        "state": "Mayotte",
        "postcode": "97690",
        "country": "France",
        "country_code": "fr"
      },
      "address": "055, Dzaoudzi, 97690 Mayotte, Mayotte"
    },
    {
      "lat": -12.758384219497149,
      "lon": 45.28060950978243,
      "geoinfo": {
        "display_name": "Le Taureau (Chissioua Gnombé N'Droumé), Dzaoudzi, Mayotte, 97610, France",
        "road": null,
        "house_number": null,
        "neighbourhood": null,
        "suburb": null,
        "city_district": null,
        "city": "Dzaoudzi",
        "state": "Mayotte",
        "postcode": "97610",
        "country": "France",
        "country_code": "fr"
      },
      "address": "103, Dzaoudzi, 97610 Mayotte, Mayotte"
    },
    {
      "lat": -12.810599902357346,
      "lon": 45.23515909790534,
      "geoinfo": {
        "display_name": "Doujani, Mamoudzou, Mayotte, 97600, France",
        "road": null,
        "house_number": null,
        "neighbourhood": null,
        "suburb": null,
        "city_district": null,
        "city": "Mamoudzou",
        "state": "Mayotte",
        "postcode": "97600",
        "country": "France",
        "country_code": "fr"
      },
      "address": "411, Dzaoudzi, 97600 Mayotte, Mayotte"
    },
    {
      "lat": -12.754627949736633,
      "lon": 45.26958590932036,
      "geoinfo": {
        "display_name": "Le Taureau (Chissioua Gnombé N'Droumé), Dzaoudzi, Mayotte, 97610, France",
        "road": null,
        "house_number": null,
        "neighbourhood": null,
        "suburb": null,
        "city_district": null,
        "city": "Dzaoudzi",
        "state": "Mayotte",
        "postcode": "97610",
        "country": "France",
        "country_code": "fr"
      },
      "address": "628, Dzaoudzi, 97610 Mayotte, Mayotte"
    },
    {
      "lat": -12.739978044899276,
      "lon": 45.24773118449237,
      "geoinfo": {
        "display_name": "Les 4 Frères (Zissoua Ziné), Kawéni, Mayotte, 97690, France",
        "road": null,
        "house_number": null,
        "neighbourhood": null,
        "suburb": null,
        "city_district": null,
        "city": "Kawéni",
        "state": "Mayotte",
        "postcode": "97690",
        "country": "France",
        "country_code": "fr"
      },
      "address": "898, Dzaoudzi, 97690 Mayotte, Mayotte"
    },
    {
      "lat": -12.784023460054865,
      "lon": 45.26489500225314,
      "geoinfo": {
        "display_name": "Chemin découverte Vasière des Badamiers, Foungoujou, Labattoir, Dzaoudzi, Mayotte, 97615, France",
        "road": "Chemin découverte Vasière des Badamiers",
        "house_number": null,
        "neighbourhood": null,
        "suburb": null,
        "city_district": null,
        "city": "Dzaoudzi",
        "state": "Mayotte",
        "postcode": "97615",
        "country": "France",
        "country_code": "fr"
      },
      "address": "360, Chemin découverte Vasière des Badamiers, Dzaoudzi, 97615 Mayotte, Mayotte"
    },
    {
      "lat": -12.751997157068862,
      "lon": 45.250570194834985,
      "geoinfo": {
        "display_name": "Les 4 Frères (Zissoua Ziné), Kawéni, Mayotte, 97690, France",
        "road": null,
        "house_number": null,
        "neighbourhood": null,
        "suburb": null,
        "city_district": null,
        "city": "Kawéni",
        "state": "Mayotte",
        "postcode": "97690",
        "country": "France",
        "country_code": "fr"
      },
      "address": "080, Dzaoudzi, 97690 Mayotte, Mayotte"
    },
    {
      "lat": -12.771367684624948,
      "lon": 45.275214150101455,
      "geoinfo": {
        "display_name": "Champ de tir, Ruelle de la Mosquée de Pole, Toutourcha, Dzaoudzi, Mayotte, 97615, France",
        "road": "Ruelle de la Mosquée de Pole",
        "house_number": null,
        "neighbourhood": null,
        "suburb": null,
        "city_district": null,
        "city": "Dzaoudzi",
        "state": "Mayotte",
        "postcode": "97615",
        "country": "France",
        "country_code": "fr"
      },
      "address": "977, Ruelle de la Mosquée de Pole, Dzaoudzi, 97615 Mayotte, Mayotte"
    },
    {
      "lat": -12.78252646114547,
      "lon": 45.301255739857,
      "geoinfo": {
        "display_name": "Sentier Moya, Dzaoudzi, Mayotte, 97510, France",
        "road": "Sentier Moya",
        "house_number": null,
        "neighbourhood": null,
        "suburb": null,
        "city_district": null,
        "city": "Dzaoudzi",
        "state": "Mayotte",
        "postcode": "97510",
        "country": "France",
        "country_code": "fr"
      },
      "address": "696, Sentier Moya, Dzaoudzi, 97510 Mayotte, Mayotte"
    }
  ],
  "updated_at": "2025-10-19T06:37:39.883815+00:00",
  "_kind": "geo_samples"
}