{
  "country_code": "YT",
  "country": "Mayotte",
  "city": "Koungou",
  "geonameid": 1090225,
  "target_addresses": 17,
  "samples": [
    {
      "lat": -12.754411752821555,
      "lon": 45.2333370548338,
      "geoinfo": {
        "display_name": "3012, Route Nationale 1, Kawéni, Mamoudzou, Mayotte, 97600, France",
        "road": "Route Nationale 1",
        "house_number": "3012",
        "neighbourhood": null,
        "suburb": null,
        "city_district": null,
        "city": "Kawéni",
        "state": "Mayotte",
        "postcode": "97600",
        "country": "France",
        "country_code": "fr"
      },
      "address": "3012 Route Nationale 1, Koungou, Mayotte, Mayotte"
    },
    {
      "lat": -12.761620440611463,
      "lon": 45.20306376030403,
      "geoinfo": {
        "display_name": "Bandrajou, Majicavo-Koropa, Koungou, Mayotte, 97600, France",
        "road": null,
        "house_number": null,
        "neighbourhood": null,
        "suburb": "Bandrajou",
        "city_district": null,
        "city": "Majicavo-Koropa",
        "state": "Mayotte",
        "postcode": "97600",
        "country": "France",
        "country_code": "fr"
      },
      "address": "Bandrajou, Koungou, Mayotte, Mayotte"
    },
    {
      "lat": -12.703331301256899,
      "lon": 45.18825726099096,
      "geoinfo": {
        "display_name": "Kangani, Koungou, Mayotte, 97600, France",
        "road": null,
        "house_number": null,
        "neighbourhood": null,
        "suburb": null,
        "city_district": null,
        "city": "Koungou",
        "state": "Mayotte",
        "postcode": "97600",
        "country": "France",
        "country_code": "fr"
      },
      "address": "Koungou, Mayotte, Mayotte"
    },
    {
      "lat": -12.727366918035834,
      "lon": 45.19063259925624,
      "geoinfo": {
        "display_name": "N 1, Quartier Belle Vue, Kangani, Koungou, Mayotte, 97600, France",
        "road": "N 1",
        "house_number": null,
        "neighbourhood": null,
        "suburb": null,
        "city_district": null,
        "city": "Koungou",
        "state": "Mayotte",
        "postcode": "97600",
        "country": "France",
        "country_code": "fr"
      },
      "address": "N 1, Koungou, Mayotte, Mayotte"
    },
    {
      "lat": -12.720284102288655,
      "lon": 45.20309487558751,
      "geoinfo": {
        "display_name": "Pointe de Koungou, Bandrajou, Majicavo-Koropa, Koungou, Mayotte, 97600, France",
        "road": null,
        "house_number": null,
        "neighbourhood": "Pointe de Koungou",
        "suburb": "Bandrajou",
        "city_district": null,
        "city": "Majicavo-Koropa",
        "state": "Mayotte",
        "postcode": "97600",
        "country": "France",
        "country_code": "fr"
      },
      "address": "Pointe de Koungou, Koungou, Mayotte, Mayotte"
    },
    {
      "lat": -12.73197482295515,
      "lon": 45.217354979936765,
      "geoinfo": {
        "display_name": "Rue du Belvédère, Pointe de Koungou, Bandrajou, Majicavo-Koropa, Koungou, Mayotte, 97600, France",
        "road": "Rue du Belvédère",
        "house_number": null,
        "neighbourhood": "Pointe de Koungou",
        "suburb": "Bandrajou",
        "city_district": null,
        "city": "Majicavo-Koropa",
        "state": "Mayotte",
        "postcode": "97600",
        "country": "France",
        "country_code": "fr"
      },
      "address": "Rue du Belvédère, Koungou, Mayotte, Mayotte"
    },
    {
      "lat": -12.73736671930703,
      "lon": 45.16474943079888,
      "geoinfo": {
        "display_name": "Rue Mangaréfa, Longoni, Koungou, Mayotte, 97600, France",
        "road": "Rue Mangaréfa",
        "house_number": null,
        "neighbourhood": null,
        "suburb": null,
        "city_district": null,
        "city": "Koungou",
        "state": "Mayotte",
        "postcode": "97600",
        "country": "France",
        "country_code": "fr"
      },
      "address": "Rue Mangaréfa, Koungou, Mayotte, Mayotte"
    },
    {
      "lat": -12.722773518332959,
      "lon": 45.23121411820484,
      "geoinfo": {
        "display_name": "Quartier Machaka, Majicavo-Koropa, Koungou, Mayotte, 97600, France",
        "road": null,
        "house_number": null,
        "neighbourhood": null,
        "suburb": "Quartier Machaka",
        "city_district": null,
        "city": "Majicavo-Koropa",
        "state": "Mayotte",
        "postcode": "97600",
        "country": "France",
        "country_code": "fr"
      },
      "address": "Quartier Machaka, Koungou, Mayotte, Mayotte"
    },
    {
      "lat": -12.748286640894245,
      "lon": 45.21105956236353,
      "geoinfo": {
        "display_name": "Allée Limousin, Quartier Makalafoubani, Bandrajou, Majicavo-Koropa, Koungou, Mayotte, 97600, France",
        "road": "Allée Limousin",
        "house_number": null,
        "neighbourhood": null,
        "suburb": "Bandrajou",
        "city_district": null,
        "city": "Majicavo-Koropa",
        "state": "Mayotte",
        "postcode": "97600",
        "country": "France",
        "country_code": "fr"
      },
      "address": "Allée Limousin, Koungou, Mayotte, Mayotte"
    },
    {
      "lat": -12.71668890096224,
      "lon": 45.16658434174818,
      "geoinfo": {
        "display_name": "D 19, Port de Longoni, Longoni, Koungou, Mayotte, 97600, France",
        "road": "D 19",
        "house_number": null,
        "neighbourhood": null,
        "suburb": null,
        "city_district": null,
        "city": "Koungou",
        "state": "Mayotte",
        "postcode": "97600",
        "country": "France",
        "country_code": "fr"
      },
      "address": "D 19, Koungou, Mayotte, Mayotte"
    },
    {
      "lat": -12.731868364887418,
      "lon": 45.19874712118524,
      "geoinfo": {
        "display_name": "Boulevard Tsivère, Trévani, Koungou, Mayotte, 97600, France",
        "road": "Boulevard Tsivère",
        "house_number": null,
        "neighbourhood": null,
        "suburb": null,
        "city_district": null,
        "city": "Koungou",
        "state": "Mayotte",
        "postcode": "97600",
        "country": "France",
        "country_code": "fr"
      },
      "address": "Boulevard Tsivère, Koungou, Mayotte, Mayotte"
    },
    {
      "lat": -12.742311081140231,
      "lon": 45.20467000719535,
      "geoinfo": {
        "display_name": "54, Rue de la Carrière, Trévani, Koungou, Mayotte, 97600, France",
        "road": "Rue de la Carrière",
        "house_number": "54",
        "neighbourhood": null,
        "suburb": null,
        "city_district": null,
        "city": "Koungou",
        "state": "Mayotte",
        "postcode": "97600",
        "country": "France",
        "country_code": "fr"
      },
      "address": "54 Rue de la Carrière, Koungou, Mayotte, Mayotte"
    },
    {
      "lat": -12.73468570347171,
      "lon": 45.2110368237211,
      "geoinfo": {
        "display_name": "Rue de la Pointe Koungou, Pointe de Koungou, Bandrajou, Majicavo-Koropa, Koungou, Mayotte, 97600, France",
        "road": "Rue de la Pointe Koungou",
        "house_number": null,
        "neighbourhood": "Pointe de Koungou",
        "suburb": "Bandrajou",
        "city_district": null,
        "city": "Majicavo-Koropa",
        "state": "Mayotte",
        "postcode": "97600",
        "country": "France",
        "country_code": "fr"
      },
      "address": "Rue de la Pointe Koungou, Koungou, Mayotte, Mayotte"
    },
    {
      "lat": -12.751312170928765,
      "lon": 45.20913761461417,
      "geoinfo": {
        "display_name": "Faret, Côte de Bugna, Val Fleuri, Les Hauts Vallons, Majicavo-Lamir, Koungou, Mayotte, 97600, France",
        "road": "Côte de Bugna",
        "house_number": null,
        "neighbourhood": null,
        "suburb": "Les Hauts Vallons",
        "city_district": null,
        "city": "Koungou",
        "state": "Mayotte",
        "postcode": "97600",
        "country": "France",
        "country_code": "fr"
      },
      "address": "Côte de Bugna, Koungou, Mayotte, Mayotte"
    },
    {
      "lat": -12.741266187577956,
      "lon": 45.2013761166792,
      "geoinfo": {
        "display_name": "Rue Mavazani Koungou, Trévani, Koungou, Mayotte, 97600, France",
        "road": "Rue Mavazani Koungou",
        "house_number": null,
        "neighbourhood": null,
        "suburb": null,
        "city_district": null,
        "city": "Koungou",
        "state": "Mayotte",
        "postcode": "97600",
        "country": "France",
        "country_code": "fr"
      },
      "address": "Rue Mavazani Koungou, Koungou, Mayotte, Mayotte"
    },
    {
      "lat": -12.753328543254415,
      "lon": 45.2286578467673,
      "geoinfo": {
        "display_name": "Val Fleuri, Les Hauts Vallons, Majicavo-Lamir, Koungou, Mayotte, 97600, France",
        "road": null,
        "house_number": null,
        "neighbourhood": null,
        "suburb": "Les Hauts Vallons",
        "city_district": null,
        "city": "Koungou",
        "state": "Mayotte",
        "postcode": "97600",
        "country": "France",
        "country_code": "fr"
      },
      "address": "Les Hauts Vallons, Koungou, Mayotte, Mayotte"
    },
    {
      "lat": -12.728787685511206,
      "lon": 45.169837193193494,
      "geoinfo": {
        "display_name": "D 19, Longoni, Koungou, Mayotte, 97600, France",
        "road": "D 19",
        "house_number": null,
        "neighbourhood": null,
        "suburb": null,
        "city_district": null,
        "city": "Koungou",
        "state": "Mayotte",
        "postcode": "97600",
        "country": "France",
        "country_code": "fr"
      },
      "address": "D 19, Koungou, 97600 Mayotte, Mayotte"
    },
    {
      "lat": -12.754464517163212,
      "lon": 45.18342356592999,
      "geoinfo": {
        "display_name": "Kangani, Koungou, Mayotte, 97600, France",
        "road": null,
        "house_number": null,
        "neighbourhood": null,
        "suburb": null,
        "city_district": null,
        "city": "Koungou",
        "state": "Mayotte",
        "postcode": "97600",
        "country": "France",
        "country_code": "fr"
      },
      "address": "209, Koungou, 97600 Mayotte, Mayotte"
    },
    {
      "lat": -12.697408775212633,
      "lon": 45.20687659982635,
      "geoinfo": {
        "display_name": "Trévani, Koungou, Mayotte, 97600, France",
        "road": null,
        "house_number": null,
        "neighbourhood": null,
        "suburb": null,
        "city_district": null,
        "city": "Koungou",
        "state": "Mayotte",
        "postcode": "97600",
        "country": "France",
        "country_code": "fr"
      },
      "address": "791, Koungou, 97600 Mayotte, Mayotte"
    },
    {
      "lat": -12.765027083606602,
      "lon": 45.23464937824659,
      "geoinfo": {
        "display_name": "Kawéni, Mamoudzou, Mayotte, 97690, France",
        "road": null,
        "house_number": null,
        "neighbourhood": null,
        "suburb": null,
        "city_district": null,
        "city": "Kawéni",
        "state": "Mayotte",
        "postcode": "97690",
        "country": "France",
        "country_code": "fr"
      },
      "address": "708, Koungou, 97690 Mayotte, Mayotte"
    },
    {
      "lat": -12.737552890912658,
      "lon": 45.182162639834274,
      "geoinfo": {
        "display_name": "Zone Vallée 3, Kangani, Koungou, Mayotte, 97600, France",
        "road": null,
        "house_number": null,
        "neighbourhood": null,
        "suburb": null,
        "city_district": null,
        "city": "Koungou",
        "state": "Mayotte",
        "postcode": "97600",
        "country": "France",
        "country_code": "fr"
      },
      "address": "261, Koungou, 97600 Mayotte, Mayotte"
    },
    {
      "lat": -12.739979276600693,
      "lon": 45.19420620671033,
      "geoinfo": {
        "display_name": "Rue d'Achery, Quartier Belle Vue, Kangani, Koungou, Mayotte, 97600, France",
        "road": "Rue d'Achery",
        "house_number": null,
        "neighbourhood": null,
        "suburb": null,
        "city_district": null,
        "city": "Koungou",
        "state": "Mayotte",
        "postcode": "97600",
        "country": "France",
        "country_code": "fr"
      },
      "address": "937, Rue d'Achery, Koungou, 97600 Mayotte, Mayotte"
    },
    {
      "lat": -12.744311513648258,
      "lon": 45.16027439726998,
      "geoinfo": {
        "display_name": "Longoni, Koungou, Mayotte, 97600, France",
        "road": null,
        "house_number": null,
        "neighbourhood": null,
        "suburb": null,
        "city_district": null,
        "city": "Koungou",
        "state": "Mayotte",
        "postcode": "97600",
        "country": "France",
        "country_code": "fr"
      },
      "address": "348, Koungou, 97600 Mayotte, Mayotte"
    },
    {
      "lat": -12.698312205524799,
      "lon": 45.20990368958638,
      "geoinfo": {
        "display_name": "Trévani, Koungou, Mayotte, 97600, France",
        "road": null,
        "house_number": null,
        "neighbourhood": null,
        "suburb": null,
        "city_district": null,
        "city": "Koungou",
        "state": "Mayotte",
        "postcode": "97600",
        "country": "France",
        "country_code": "fr"
      },
      "address": "071, Koungou, 97600 Mayotte, Mayotte"
    },
    {
      "lat": -12.725307776318687,
      "lon": 45.165972352931675,
      "geoinfo": {
        "display_name": "N 1, Longoni, Koungou, Mayotte, 97600, France",
        "road": "N 1",
        "house_number": null,
        "neighbourhood": null,
        "suburb": null,
        "city_district": null,
        "city": "Koungou",
        "state": "Mayotte",
        "postcode": "97600",
        "country": "France",
        "country_code": "fr"
      },
      "address": "N 1, Koungou, 97600 Mayotte, Mayotte"
    },
    {
      "lat": -12.72297701992185,
      "lon": 45.19238017322296,
      "geoinfo": {
        "display_name": "Quartier Belle Vue, Kangani, Koungou, Mayotte, 97600, France",
        "road": null,
        "house_number": null,
        "neighbourhood": null,
        "suburb": null,
        "city_district": null,
        "city": "Koungou",
        "state": "Mayotte",
        "postcode": "97600",
        "country": "France",
        "country_code": "fr"
      },
      "address": "329, Koungou, 97600 Mayotte, Mayotte"
    },
    {
      "lat": -12.706843170449034,
      "lon": 45.238964824553754,
      "geoinfo": {
        "display_name": "Majicavo-Koropa, Koungou, Mayotte, 97600, France",
        "road": null,
        "house_number": null,
        "neighbourhood": null,
        "suburb": null,
        "city_district": null,
        "city": "Majicavo-Koropa",
        "state": "Mayotte",
        "postcode": "97600",
        "country": "France",
        "country_code": "fr"
      },
      "address": "356, Koungou, 97600 Mayotte, Mayotte"
    },
    {
      "lat": -12.750417652645021,
      "lon": 45.2381983168647,
      "geoinfo": {
        "display_name": "Les 4 Frères (Zissoua Ziné), Kawéni, Mayotte, 97690, France",
        "road": null,
        "house_number": null,
        "neighbourhood": null,
        "suburb": null,
        "city_district": null,
        "city": "Kawéni",
        "state": "Mayotte",
        "postcode": "97690",
        "country": "France",
        "country_code": "fr"
      },
      "address": "755, Koungou, 97690 Mayotte, Mayotte"
    },
    {
      "lat": -12.750823321708353,
      "lon": 45.19912352018663,
      "geoinfo": {
        "display_name": "Montlegun, Majicavo-Koropa, Koungou, Mayotte, 97600, France",
        "road": null,
        "house_number": null,
        "neighbourhood": null,
        "suburb": null,
        "city_district": null,
        "city": "Majicavo-Koropa",
        "state": "Mayotte",
        "postcode": "97600",
        "country": "France",
        "country_code": "fr"
      },
      "address": "392, Koungou, 97600 Mayotte, Mayotte"
    },
    {
      "lat": -12.717949125929577,
      "lon": 45.191060370477345,
      "geoinfo": {
        "display_name": "Quartier Belle Vue, Kangani, Koungou, Mayotte, 97600, France",
        "road": null,
        "house_number": null,
        "neighbourhood": null,
        "suburb": null,
        "city_district": null,
        "city": "Koungou",
        "state": "Mayotte",
        "postcode": "97600",
        "country": "France",
        "country_code": "fr"
      },
      "address": "747, Koungou, 97600 Mayotte, Mayotte"
    },
    {
      "lat": -12.752006400396816,
      "lon": 45.19646556365316,
      "geoinfo": {
        "display_name": "Montlegun, Majicavo-Koropa, Koungou, Mayotte, 97600, France",
        "road": null,
        "house_number": null,
        "neighbourhood": null,
        "suburb": null,
        "city_district": null,
        "city": "Majicavo-Koropa",
        "state": "Mayotte",
        "postcode": "97600",
        "country": "France",
        "country_code": "fr"
      },
      "address": "302, Koungou, 97600 Mayotte, Mayotte"
    },
    {
      "lat": -12.731512442315614,
      "lon": 45.211318231403595,
      "geoinfo": {
        "display_name": "Rue du Belvédère, Pointe de Koungou, Bandrajou, Majicavo-Koropa, Koungou, Mayotte, 97600, France",
        "road": "Rue du Belvédère",
        "house_number": null,
        "neighbourhood": "Pointe de Koungou",
        "suburb": "Bandrajou",
        "city_district": null,
        "city": "Majicavo-Koropa",
        "state": "Mayotte",
        "postcode": "97600",
        "country": "France",
        "country_code": "fr"
      },
      "address": "837, Rue du Belvédère, Koungou, 97600 Mayotte, Mayotte"
    }
  ],
  "updated_at": "2025-10-19T07:55:02.797497+00:00",
  "_kind": "geo_samples"
}