{
  "country_code": "TJ",
  "country": "Tajikistan",
  "city": "Bokhtar",
  "geonameid": 1220747,
  "target_addresses": 4,
  "samples": [
    {
      "lat": 37.8229865803797,
      "lon": 68.80585111540576,
      "geoinfo": {
        "display_name": "Вахдат 2, Зарбдор, Kushoniyon District, 735146, Tajikistan",
        "road": null,
        "house_number": null,
        "neighbourhood": null,
        "suburb": "Вахдат 2",
        "city_district": null,
        "city": "Зарбдор",
        "state": null,
        "postcode": "735146",
        "country": "Tajikistan",
        "country_code": "tj"
      },
      "address": "Вахдат 2, Bokhtar, Tajikistan"
    },
    {
      "lat": 37.82180459900925,
      "lon": 68.79865144392618,
      "geoinfo": {
        "display_name": "Ургут маҳалла, Зарбдор, Kushoniyon District, 733036, Tajikistan",
        "road": null,
        "house_number": null,
        "neighbourhood": null,
        "suburb": "Ургут маҳалла",
        "city_district": null,
        "city": "Зарбдор",
        "state": null,
        "postcode": "733036",
        "country": "Tajikistan",
        "country_code": "tj"
      },
      "address": "Ургут маҳалла, Bokhtar, Tajikistan"
    },
    {
      "lat": 37.8466530954972,
      "lon": 68.74244815454448,
      "geoinfo": {
        "display_name": "Дусти махалла, Оқолтин, Kushoniyon District, 735145, Tajikistan",
        "road": null,
        "house_number": null,
        "neighbourhood": null,
        "suburb": "Дусти махалла",
        "city_district": null,
        "city": "Оқолтин",
        "state": null,
        "postcode": "735145",
        "country": "Tajikistan",
        "country_code": "tj"
      },
      "address": "Дусти махалла, Bokhtar, Tajikistan"
    },
    {
      "lat": 37.79827941628797,
      "lon": 68.7674920751882,
      "geoinfo": {
        "display_name": "Хаваскор, Vakhsh District, 735140, Tajikistan",
        "road": null,
        "house_number": null,
        "neighbourhood": null,
        "suburb": null,
        "city_district": null,
        "city": "Хаваскор",
        "state": null,
        "postcode": "735140",
        "country": "Tajikistan",
        "country_code": "tj"
      },
      "address": "Bokhtar, Tajikistan"
    },
    {
      "lat": 37.800203908987356,
      "lon": 68.76566306287819,
      "geoinfo": {
        "display_name": "Хаваскор, Vakhsh District, 735140, Tajikistan",
        "road": null,
        "house_number": null,
        "neighbourhood": null,
        "suburb": null,
        "city_district": null,
        "city": "Хаваскор",
        "state": null,
        "postcode": "735140",
        "country": "Tajikistan",
        "country_code": "tj"
      },
      "address": "411, Хаваскор, Vakhsh District, 735140, Tajikistan"
    },
    {
      "lat": 37.85872856569662,
      "lon": 68.80297562954507,
      "geoinfo": {
        "display_name": "дехаи Сари Хосор, Ломонос, Bokhtar, Kushoniyon District, 733036, Tajikistan",
        "road": "дехаи Сари Хосор",
        "house_number": null,
        "neighbourhood": null,
        "suburb": "Ломонос",
        "city_district": null,
        "city": "Bokhtar",
        "state": null,
        "postcode": "733036",
        "country": "Tajikistan",
        "country_code": "tj"
      },
      "address": "695, дехаи Сари Хосор, Ломонос, Bokhtar, Kushoniyon District, 733036, Tajikistan"
    },
    {
      "lat": 37.81051399722126,
      "lon": 68.7553820130337,
      "geoinfo": {
        "display_name": "РБ09, Маданияти поён, Bokhtar, Vakhsh District, 733036, Tajikistan",
        "road": "РБ09",
        "house_number": null,
        "neighbourhood": null,
        "suburb": "Маданияти поён",
        "city_district": null,
        "city": "Bokhtar",
        "state": null,
        "postcode": "733036",
        "country": "Tajikistan",
        "country_code": "tj"
      },
      "address": "РБ09, Маданияти поён, Bokhtar, Vakhsh District, 733036, Tajikistan"
    },
    {
      "lat": 37.83390004728887,
      "lon": 68.77015894168247,
      "geoinfo": {
        "display_name": "Хлопзавод, Ayni Street, Маданияти поён, Bokhtar, Kushoniyon District, 733036, Tajikistan",
        "road": "Ayni Street",
        "house_number": null,
        "neighbourhood": null,
        "suburb": "Маданияти поён",
        "city_district": null,
        "city": "Bokhtar",
        "state": null,
        "postcode": "733036",
        "country": "Tajikistan",
        "country_code": "tj"
      },
      "address": "027, Ayni Street, 733036 Bokhtar, Tajikistan"
    }
  ],
  "updated_at": "2025-10-19T10:19:28.772236+00:00",
  "_kind": "geo_samples"
}