{
  "country_code": "TJ",
  "country": "Tajikistan",
  "city": "Buston",
  "geonameid": 1538311,
  "target_addresses": 4,
  "samples": [
    {
      "lat": 40.250950407167046,
      "lon": 69.71402874401788,
      "geoinfo": {
        "display_name": "S.M. Homidov street, Сирдарё, Guliston, Sughd Region, 735690, Tajikistan",
        "road": "S.M. Homidov street",
        "house_number": null,
        "neighbourhood": null,
        "suburb": "Сирдарё",
        "city_district": null,
        "city": "Guliston",
        "state": "Sughd Region",
        "postcode": "735690",
        "country": "Tajikistan",
        "country_code": "tj"
      },
      "address": "S.M. Homidov street, Buston, Sughd Region, Tajikistan"
    },
    {
      "lat": 40.22810812691337,
      "lon": 69.68057804855427,
      "geoinfo": {
        "display_name": "кучаи Снежинская, Бӯстон, Buston, Sughd Region, 735730, Tajikistan",
        "road": "кучаи Снежинская",
        "house_number": null,
        "neighbourhood": null,
        "suburb": null,
        "city_district": null,
        "city": "Buston",
        "state": "Sughd Region",
        "postcode": "735730",
        "country": "Tajikistan",
        "country_code": "tj"
      },
      "address": "кучаи Снежинская, Buston, Sughd Region, Tajikistan"
    },
    {
      "lat": 40.23142794412095,
      "lon": 69.66564715217622,
      "geoinfo": {
        "display_name": "Buston, Sughd Region, 735730, Tajikistan",
        "road": null,
        "house_number": null,
        "neighbourhood": null,
        "suburb": null,
        "city_district": null,
        "city": "Buston",
        "state": "Sughd Region",
        "postcode": "735730",
        "country": "Tajikistan",
        "country_code": "tj"
      },
      "address": "Buston, Sughd Region, Tajikistan"
    },
    {
      "lat": 40.208876252030194,
      "lon": 69.74268478592442,
      "geoinfo": {
        "display_name": "РҶ068, Ghafurov, Ghafurov District, Sughd Region, 735690, Tajikistan",
        "road": "РҶ068",
        "house_number": null,
        "neighbourhood": null,
        "suburb": null,
        "city_district": null,
        "city": "Ghafurov",
        "state": "Sughd Region",
        "postcode": "735690",
        "country": "Tajikistan",
        "country_code": "tj"
      },
      "address": "РҶ068, Buston, Sughd Region, Tajikistan"
    }
  ],
  "updated_at": "2025-10-16T23:20:45.308687+00:00",
  "_kind": "geo_samples"
}