{
  "country_code": "TJ",
  "country": "Tajikistan",
  "city": "Dalyoni Bolo",
  "geonameid": 1221970,
  "target_addresses": 11,
  "samples": [
    {
      "lat": 39.769462927087176,
      "lon": 68.9889467120909,
      "geoinfo": {
        "display_name": "Devashtich District, Sughd Region, 735610, Tajikistan",
        "road": null,
        "house_number": null,
        "neighbourhood": null,
        "suburb": null,
        "city_district": null,
        "city": null,
        "state": "Sughd Region",
        "postcode": "735610",
        "country": "Tajikistan",
        "country_code": "tj"
      },
      "address": "Dalyoni Bolo, Sughd Region, Tajikistan"
    },
    {
      "lat": 39.76476485712848,
      "lon": 69.03686321804167,
      "geoinfo": {
        "display_name": "Ismoili Somoni, Devashtich District, Sughd Region, 735630, Tajikistan",
        "road": null,
        "house_number": null,
        "neighbourhood": null,
        "suburb": null,
        "city_district": null,
        "city": "Ismoili Somoni",
        "state": "Sughd Region",
        "postcode": "735630",
        "country": "Tajikistan",
        "country_code": "tj"
      },
      "address": "960, Dalyoni Bolo, 735630 Sughd Region, Tajikistan"
    },
    {
      "lat": 39.78222329834572,
      "lon": 68.97341408770929,
      "geoinfo": {
        "display_name": "Devashtich District, Sughd Region, 735620, Tajikistan",
        "road": null,
        "house_number": null,
        "neighbourhood": null,
        "suburb": null,
        "city_district": null,
        "city": null,
        "state": "Sughd Region",
        "postcode": "735620",
        "country": "Tajikistan",
        "country_code": "tj"
      },
      "address": "867, Dalyoni Bolo, 735620 Sughd Region, Tajikistan"
    },
    {
      "lat": 39.770303895536905,
      "lon": 68.95714737991376,
      "geoinfo": {
        "display_name": "Devashtich District, Sughd Region, 735610, Tajikistan",
        "road": null,
        "house_number": null,
        "neighbourhood": null,
        "suburb": null,
        "city_district": null,
        "city": null,
        "state": "Sughd Region",
        "postcode": "735610",
        "country": "Tajikistan",
        "country_code": "tj"
      },
      "address": "479, Dalyoni Bolo, 735610 Sughd Region, Tajikistan"
    },
    {
      "lat": 39.757147158776924,
      "lon": 69.00043409234905,
      "geoinfo": {
        "display_name": "Devashtich District, Sughd Region, 735620, Tajikistan",
        "road": null,
        "house_number": null,
        "neighbourhood": null,
        "suburb": null,
        "city_district": null,
        "city": null,
        "state": "Sughd Region",
        "postcode": "735620",
        "country": "Tajikistan",
        "country_code": "tj"
      },
      "address": "223, Dalyoni Bolo, 735620 Sughd Region, Tajikistan"
    },
    {
      "lat": 39.74112239000182,
      "lon": 68.99315726552847,
      "geoinfo": {
        "display_name": "Dalyoni Bolo, Devashtich District, Sughd Region, 735633, Tajikistan",
        "road": null,
        "house_number": null,
        "neighbourhood": null,
        "suburb": null,
        "city_district": null,
        "city": "Dalyoni Bolo",
        "state": "Sughd Region",
        "postcode": "735633",
        "country": "Tajikistan",
        "country_code": "tj"
      },
      "address": "265, Dalyoni Bolo, Devashtich District, Sughd Region, 735633, Tajikistan"
    },
    {
      "lat": 39.7732472221952,
      "lon": 68.98090195415689,
      "geoinfo": {
        "display_name": "Devashtich District, Sughd Region, 735610, Tajikistan",
        "road": null,
        "house_number": null,
        "neighbourhood": null,
        "suburb": null,
        "city_district": null,
        "city": null,
        "state": "Sughd Region",
        "postcode": "735610",
        "country": "Tajikistan",
        "country_code": "tj"
      },
      "address": "709, Dalyoni Bolo, 735610 Sughd Region, Tajikistan"
    },
    {
      "lat": 39.721701223626845,
      "lon": 68.95091978440318,
      "geoinfo": {
        "display_name": "Navаbаd, Devashtich District, Sughd Region, 735620, Tajikistan",
        "road": null,
        "house_number": null,
        "neighbourhood": null,
        "suburb": null,
        "city_district": null,
        "city": "Navаbаd",
        "state": "Sughd Region",
        "postcode": "735620",
        "country": "Tajikistan",
        "country_code": "tj"
      },
      "address": "234, Dalyoni Bolo, 735620 Sughd Region, Tajikistan"
    },
    {
      "lat": 39.72127257758716,
      "lon": 69.02800071383689,
      "geoinfo": {
        "display_name": "Sumbulkand, Devashtich District, Sughd Region, 735620, Tajikistan",
        "road": null,
        "house_number": null,
        "neighbourhood": null,
        "suburb": null,
        "city_district": null,
        "city": "Sumbulkand",
        "state": "Sughd Region",
        "postcode": "735620",
        "country": "Tajikistan",
        "country_code": "tj"
      },
      "address": "096, Dalyoni Bolo, 735620 Sughd Region, Tajikistan"
    },
    {
      "lat": 39.73449262094188,
      "lon": 68.96241315332232,
      "geoinfo": {
        "display_name": "Navаbаd, Devashtich District, Sughd Region, 735620, Tajikistan",
        "road": null,
        "house_number": null,
        "neighbourhood": null,
        "suburb": null,
        "city_district": null,
        "city": "Navаbаd",
        "state": "Sughd Region",
        "postcode": "735620",
        "country": "Tajikistan",
        "country_code": "tj"
      },
      "address": "950, Dalyoni Bolo, 735620 Sughd Region, Tajikistan"
    },
    {
      "lat": 39.7490678872303,
      "lon": 68.97593220818318,
      "geoinfo": {
        "display_name": "Dalyoni Bolo, Devashtich District, Sughd Region, 735633, Tajikistan",
        "road": null,
        "house_number": null,
        "neighbourhood": null,
        "suburb": null,
        "city_district": null,
        "city": "Dalyoni Bolo",
        "state": "Sughd Region",
        "postcode": "735633",
        "country": "Tajikistan",
        "country_code": "tj"
      },
      "address": "132, Dalyoni Bolo, Devashtich District, Sughd Region, 735633, Tajikistan"
    }
  ],
  "updated_at": "2025-10-19T06:28:21.043414+00:00",
  "_kind": "geo_samples"
}