{
  "country_code": "TJ",
  "country": "Tajikistan",
  "city": "Dushanbe",
  "geonameid": 1221874,
  "target_addresses": 4,
  "samples": [
    {
      "lat": 38.56702763711575,
      "lon": 68.76252067458873,
      "geoinfo": {
        "display_name": "4 гузари.2, 2-ум гузаргоҳ кӯчаи Ҳувайдуллоев, 11th microdistrict, Sino district, Dushanbe, 734000, Tajikistan",
        "road": "2-ум гузаргоҳ кӯчаи Ҳувайдуллоев",
        "house_number": "4 гузари.2",
        "neighbourhood": null,
        "suburb": "11th microdistrict",
        "city_district": null,
        "city": "Dushanbe",
        "state": null,
        "postcode": "734000",
        "country": "Tajikistan",
        "country_code": "tj"
      },
      "address": "4 гузари.2 2-ум гузаргоҳ кӯчаи Ҳувайдуллоев, Dushanbe, Tajikistan"
    },
    {
      "lat": 38.57024155236694,
      "lon": 68.78691591580441,
      "geoinfo": {
        "display_name": "1-у гуз. кӯчаи Бухоро, Ismail Samani District, Dushanbe, 734000, Tajikistan",
        "road": "1-у гуз. кӯчаи Бухоро",
        "house_number": null,
        "neighbourhood": null,
        "suburb": null,
        "city_district": null,
        "city": "Dushanbe",
        "state": null,
        "postcode": "734000",
        "country": "Tajikistan",
        "country_code": "tj"
      },
      "address": "1-у гуз. кӯчаи Бухоро, Dushanbe, Tajikistan"
    },
    {
      "lat": 38.497061164746455,
      "lon": 68.8060830261297,
      "geoinfo": {
        "display_name": "Rudaki District, 735100, Tajikistan",
        "road": null,
        "house_number": null,
        "neighbourhood": null,
        "suburb": null,
        "city_district": null,
        "city": null,
        "state": null,
        "postcode": "735100",
        "country": "Tajikistan",
        "country_code": "tj"
      },
      "address": "Dushanbe, Tajikistan"
    },
    {
      "lat": 38.525681394591416,
      "lon": 68.74900852114858,
      "geoinfo": {
        "display_name": "Мясной, Borbad Street, 62th microdistrict, Ferdowsi District, Dushanbe, 734000, Tajikistan",
        "road": "Borbad Street",
        "house_number": null,
        "neighbourhood": null,
        "suburb": "62th microdistrict",
        "city_district": null,
        "city": "Dushanbe",
        "state": null,
        "postcode": "734000",
        "country": "Tajikistan",
        "country_code": "tj"
      },
      "address": "Borbad Street, Dushanbe, Tajikistan"
    },
    {
      "lat": 38.531816841026746,
      "lon": 68.75394866864217,
      "geoinfo": {
        "display_name": "кӯчаи Деҳотӣ, 46th microdistrict, Ferdowsi District, Dushanbe, 734000, Tajikistan",
        "road": "кӯчаи Деҳотӣ",
        "house_number": null,
        "neighbourhood": null,
        "suburb": "46th microdistrict",
        "city_district": null,
        "city": "Dushanbe",
        "state": null,
        "postcode": "734000",
        "country": "Tajikistan",
        "country_code": "tj"
      },
      "address": "кӯчаи Деҳотӣ, 46th microdistrict, Ferdowsi District, Dushanbe, 734000, Tajikistan"
    },
    {
      "lat": 38.51325976969186,
      "lon": 68.7744756768772,
      "geoinfo": {
        "display_name": "Masha Street, Ferdowsi District, Dushanbe, 734000, Tajikistan",
        "road": "Masha Street",
        "house_number": null,
        "neighbourhood": null,
        "suburb": null,
        "city_district": null,
        "city": "Dushanbe",
        "state": null,
        "postcode": "734000",
        "country": "Tajikistan",
        "country_code": "tj"
      },
      "address": "929, Masha Street, Ferdowsi District, Dushanbe, 734000, Tajikistan"
    },
    {
      "lat": 38.50279656505815,
      "lon": 68.77278423962187,
      "geoinfo": {
        "display_name": "Masha Street, Ferdowsi District, Dushanbe, 734000, Tajikistan",
        "road": "Masha Street",
        "house_number": null,
        "neighbourhood": null,
        "suburb": null,
        "city_district": null,
        "city": "Dushanbe",
        "state": null,
        "postcode": "734000",
        "country": "Tajikistan",
        "country_code": "tj"
      },
      "address": "307, Masha Street, Ferdowsi District, Dushanbe, 734000, Tajikistan"
    },
    {
      "lat": 38.52509015696301,
      "lon": 68.74682365709961,
      "geoinfo": {
        "display_name": "Sino district, Dushanbe, 734000, Tajikistan",
        "road": null,
        "house_number": null,
        "neighbourhood": null,
        "suburb": null,
        "city_district": null,
        "city": "Dushanbe",
        "state": null,
        "postcode": "734000",
        "country": "Tajikistan",
        "country_code": "tj"
      },
      "address": "746, Sino district, Dushanbe, 734000, Tajikistan"
    }
  ],
  "updated_at": "2025-10-19T05:47:51.852128+00:00",
  "_kind": "geo_samples"
}