{
  "country_code": "TJ",
  "country": "Tajikistan",
  "city": "Khujand",
  "geonameid": 1514879,
  "target_addresses": 4,
  "samples": [
    {
      "lat": 40.26531688145919,
      "lon": 69.64609397750073,
      "geoinfo": {
        "display_name": "Кӯйи Қозӣ, Khujand, Sughd Region, 735690, Tajikistan",
        "road": null,
        "house_number": null,
        "neighbourhood": null,
        "suburb": null,
        "city_district": null,
        "city": "Khujand",
        "state": "Sughd Region",
        "postcode": "735690",
        "country": "Tajikistan",
        "country_code": "tj"
      },
      "address": "Khujand, Sughd Region, Tajikistan"
    },
    {
      "lat": 40.31365116928951,
      "lon": 69.65371580534935,
      "geoinfo": {
        "display_name": "Таваллудхонаи шахрй, Абдуфаттоҳ Кулолӣ, Khujand, Sughd Region, 735700, Tajikistan",
        "road": "Абдуфаттоҳ Кулолӣ",
        "house_number": null,
        "neighbourhood": null,
        "suburb": null,
        "city_district": null,
        "city": "Khujand",
        "state": "Sughd Region",
        "postcode": "735700",
        "country": "Tajikistan",
        "country_code": "tj"
      },
      "address": "Абдуфаттоҳ Кулолӣ, Khujand, Sughd Region, Tajikistan"
    },
    {
      "lat": 40.30902046395832,
      "lon": 69.59209318206206,
      "geoinfo": {
        "display_name": "18 микрорайон, Khujand, Sughd Region, 735700, Tajikistan",
        "road": null,
        "house_number": null,
        "neighbourhood": "18 микрорайон",
        "suburb": null,
        "city_district": null,
        "city": "Khujand",
        "state": "Sughd Region",
        "postcode": "735700",
        "country": "Tajikistan",
        "country_code": "tj"
      },
      "address": "18 микрорайон, Khujand, Sughd Region, Tajikistan"
    },
    {
      "lat": 40.31256369566507,
      "lon": 69.62582700898125,
      "geoinfo": {
        "display_name": "27 микрорайон, Khujand, Sughd Region, 735700, Tajikistan",
        "road": null,
        "house_number": null,
        "neighbourhood": "27 микрорайон",
        "suburb": null,
        "city_district": null,
        "city": "Khujand",
        "state": "Sughd Region",
        "postcode": "735700",
        "country": "Tajikistan",
        "country_code": "tj"
      },
      "address": "27 микрорайон, Khujand, Sughd Region, Tajikistan"
    },
    {
      "lat": 40.30404084581189,
      "lon": 69.67060080094191,
      "geoinfo": {
        "display_name": "Сумчаки Нав, Рӯмон, Khujand, Ghafurov District, Sughd Region, 735690, Tajikistan",
        "road": null,
        "house_number": null,
        "neighbourhood": null,
        "suburb": null,
        "city_district": null,
        "city": "Khujand",
        "state": "Sughd Region",
        "postcode": "735690",
        "country": "Tajikistan",
        "country_code": "tj"
      },
      "address": "212, Сумчаки Нав, Рӯмон, Khujand, Ghafurov District, Sughd Region, 735690, Tajikistan"
    },
    {
      "lat": 40.323234579804975,
      "lon": 69.61123855888806,
      "geoinfo": {
        "display_name": "Ghafurov District, Sughd Region, 735690, Tajikistan",
        "road": null,
        "house_number": null,
        "neighbourhood": null,
        "suburb": null,
        "city_district": null,
        "city": null,
        "state": "Sughd Region",
        "postcode": "735690",
        "country": "Tajikistan",
        "country_code": "tj"
      },
      "address": "539, Khujand, 735690 Sughd Region, Tajikistan"
    },
    {
      "lat": 40.29662497658626,
      "lon": 69.59280244178673,
      "geoinfo": {
        "display_name": "РБ01, 13 микрорайон, Khujand, Sughd Region, 735700, Tajikistan",
        "road": "РБ01",
        "house_number": null,
        "neighbourhood": "13 микрорайон",
        "suburb": null,
        "city_district": null,
        "city": "Khujand",
        "state": "Sughd Region",
        "postcode": "735700",
        "country": "Tajikistan",
        "country_code": "tj"
      },
      "address": "РБ01, 13 микрорайон, Khujand, Sughd Region, 735700, Tajikistan"
    },
    {
      "lat": 40.272815321515786,
      "lon": 69.60613488930989,
      "geoinfo": {
        "display_name": "кучаи Дунгимазор, Пахтакор, Yova, Khujand, Ghafurov District, Sughd Region, 735690, Tajikistan",
        "road": "кучаи Дунгимазор",
        "house_number": null,
        "neighbourhood": "Пахтакор",
        "suburb": null,
        "city_district": null,
        "city": "Khujand",
        "state": "Sughd Region",
        "postcode": "735690",
        "country": "Tajikistan",
        "country_code": "tj"
      },
      "address": "915, кучаи Дунгимазор, Пахтакор, Yova, Khujand, Ghafurov District, Sughd Region, 735690, Tajikistan"
    }
  ],
  "updated_at": "2025-10-19T07:13:22.833711+00:00",
  "_kind": "geo_samples"
}