{
  "country_code": "TJ",
  "country": "Tajikistan",
  "city": "Kŭlob",
  "geonameid": 1221194,
  "target_addresses": 4,
  "samples": [
    {
      "lat": 37.90715481113704,
      "lon": 69.79833700154221,
      "geoinfo": {
        "display_name": "Firdavsi, Kulob District, 735360, Tajikistan",
        "road": null,
        "house_number": null,
        "neighbourhood": "Firdavsi",
        "suburb": null,
        "city_district": null,
        "city": null,
        "state": null,
        "postcode": "735360",
        "country": "Tajikistan",
        "country_code": "tj"
      },
      "address": "Firdavsi, Kŭlob, Tajikistan"
    },
    {
      "lat": 37.912851083524885,
      "lon": 69.82149832470995,
      "geoinfo": {
        "display_name": "РБ04, Valizoda, Tebolay, Tudakavsh, Kulob District, Khatlon Region, 735360, Tajikistan",
        "road": "РБ04",
        "house_number": null,
        "neighbourhood": "Valizoda",
        "suburb": null,
        "city_district": null,
        "city": "Tudakavsh",
        "state": "Khatlon Region",
        "postcode": "735360",
        "country": "Tajikistan",
        "country_code": "tj"
      },
      "address": "РБ04, Kŭlob, Khatlon Region, Tajikistan"
    },
    {
      "lat": 37.93412249423628,
      "lon": 69.83335284268162,
      "geoinfo": {
        "display_name": "Gulbogh, Kulob District, 735360, Tajikistan",
        "road": null,
        "house_number": null,
        "neighbourhood": null,
        "suburb": null,
        "city_district": null,
        "city": "Gulbogh",
        "state": null,
        "postcode": "735360",
        "country": "Tajikistan",
        "country_code": "tj"
      },
      "address": "Kŭlob, Khatlon Region, Tajikistan"
    },
    {
      "lat": 37.92572518504385,
      "lon": 69.7844568817933,
      "geoinfo": {
        "display_name": "Rudaki, Pakhtakor, Kulob District, 735360, Tajikistan",
        "road": null,
        "house_number": null,
        "neighbourhood": "Rudaki",
        "suburb": null,
        "city_district": null,
        "city": "Pakhtakor",
        "state": null,
        "postcode": "735360",
        "country": "Tajikistan",
        "country_code": "tj"
      },
      "address": "Rudaki, Kŭlob, Khatlon Region, Tajikistan"
    },
    {
      "lat": 37.87467196208255,
      "lon": 69.8045723610527,
      "geoinfo": {
        "display_name": "Chamanzor 1, Fayzobodi-bolo, Kulob District, 735360, Tajikistan",
        "road": null,
        "house_number": null,
        "neighbourhood": "Chamanzor 1",
        "suburb": null,
        "city_district": null,
        "city": "Fayzobodi-bolo",
        "state": null,
        "postcode": "735360",
        "country": "Tajikistan",
        "country_code": "tj"
      },
      "address": "Chamanzor 1, 735360 Kŭlob, Tajikistan"
    },
    {
      "lat": 37.92967022162023,
      "lon": 69.78719484286349,
      "geoinfo": {
        "display_name": "Ruzigul Solieva, Korezi-Poyon, Kulob District, 735360, Tajikistan",
        "road": null,
        "house_number": null,
        "neighbourhood": "Ruzigul Solieva",
        "suburb": null,
        "city_district": null,
        "city": "Korezi-Poyon",
        "state": null,
        "postcode": "735360",
        "country": "Tajikistan",
        "country_code": "tj"
      },
      "address": "686, Ruzigul Solieva, 735360 Kŭlob, Tajikistan"
    },
    {
      "lat": 37.924758646833794,
      "lon": 69.8035056621441,
      "geoinfo": {
        "display_name": "Ashur Safar, Korezi-Poyon, Kulob District, 735360, Tajikistan",
        "road": null,
        "house_number": null,
        "neighbourhood": "Ashur Safar",
        "suburb": null,
        "city_district": null,
        "city": "Korezi-Poyon",
        "state": null,
        "postcode": "735360",
        "country": "Tajikistan",
        "country_code": "tj"
      },
      "address": "354, Ashur Safar, 735360 Kŭlob, Tajikistan"
    },
    {
      "lat": 37.93379820858284,
      "lon": 69.79414978376158,
      "geoinfo": {
        "display_name": "Hiloli Ahmar, Korezi-Poyon, Kulob District, 735360, Tajikistan",
        "road": null,
        "house_number": null,
        "neighbourhood": "Hiloli Ahmar",
        "suburb": null,
        "city_district": null,
        "city": "Korezi-Poyon",
        "state": null,
        "postcode": "735360",
        "country": "Tajikistan",
        "country_code": "tj"
      },
      "address": "395, Hiloli Ahmar, 735360 Kŭlob, Tajikistan"
    }
  ],
  "updated_at": "2025-10-19T05:46:41.816253+00:00",
  "_kind": "geo_samples"
}