{
  "country_code": "TJ",
  "country": "Tajikistan",
  "city": "Vahdat",
  "geonameid": 1220855,
  "target_addresses": 4,
  "samples": [
    {
      "lat": 38.53603584426336,
      "lon": 69.05463418662292,
      "geoinfo": {
        "display_name": "Анатуриши тоҷик, Vahdat District, 735400, Tajikistan",
        "road": null,
        "house_number": null,
        "neighbourhood": null,
        "suburb": null,
        "city_district": null,
        "city": "Анатуриши тоҷик",
        "state": null,
        "postcode": "735400",
        "country": "Tajikistan",
        "country_code": "tj"
      },
      "address": "Vahdat, Tajikistan"
    },
    {
      "lat": 38.567729994262955,
      "lon": 69.0354541547646,
      "geoinfo": {
        "display_name": "РБ07, Чӯтқайшӣ, Vahdat, Vahdat District, Districts of Republican Subordination, 735400, Tajikistan",
        "road": "РБ07",
        "house_number": null,
        "neighbourhood": "Чӯтқайшӣ",
        "suburb": null,
        "city_district": null,
        "city": "Vahdat",
        "state": "Districts of Republican Subordination",
        "postcode": "735400",
        "country": "Tajikistan",
        "country_code": "tj"
      },
      "address": "РБ07, Vahdat, Districts of Republican Subordination, Tajikistan"
    },
    {
      "lat": 38.57432327932276,
      "lon": 68.98642886630398,
      "geoinfo": {
        "display_name": "Лолазор, Vahdat District, 735400, Tajikistan",
        "road": null,
        "house_number": null,
        "neighbourhood": null,
        "suburb": null,
        "city_district": null,
        "city": "Лолазор",
        "state": null,
        "postcode": "735400",
        "country": "Tajikistan",
        "country_code": "tj"
      },
      "address": "Vahdat, Districts of Republican Subordination, Tajikistan"
    },
    {
      "lat": 38.55636312425092,
      "lon": 68.99386974418901,
      "geoinfo": {
        "display_name": "Роҳатӣ, Rochati, Vahdat, Vahdat District, 735400, Tajikistan",
        "road": null,
        "house_number": null,
        "neighbourhood": "Роҳатӣ",
        "suburb": "Rochati",
        "city_district": null,
        "city": "Vahdat",
        "state": null,
        "postcode": "735400",
        "country": "Tajikistan",
        "country_code": "tj"
      },
      "address": "Роҳатӣ, Vahdat, Districts of Republican Subordination, Tajikistan"
    },
    {
      "lat": 38.54807316918397,
      "lon": 68.96454911876859,
      "geoinfo": {
        "display_name": "Камонгарони Боло, Vahdat District, 735400, Tajikistan",
        "road": null,
        "house_number": null,
        "neighbourhood": null,
        "suburb": null,
        "city_district": null,
        "city": "Камонгарони Боло",
        "state": null,
        "postcode": "735400",
        "country": "Tajikistan",
        "country_code": "tj"
      },
      "address": "024, Камонгарони Боло, Vahdat District, 735400, Tajikistan"
    },
    {
      "lat": 38.58478007547925,
      "lon": 69.05149064889652,
      "geoinfo": {
        "display_name": "Калон, Vahdat District, 735400, Tajikistan",
        "road": null,
        "house_number": null,
        "neighbourhood": null,
        "suburb": null,
        "city_district": null,
        "city": "Калон",
        "state": null,
        "postcode": "735400",
        "country": "Tajikistan",
        "country_code": "tj"
      },
      "address": "053, Калон, Vahdat District, 735400, Tajikistan"
    },
    {
      "lat": 38.59238149027548,
      "lon": 69.00194074612816,
      "geoinfo": {
        "display_name": "Фариштӣ, Vahdat District, 735400, Tajikistan",
        "road": null,
        "house_number": null,
        "neighbourhood": null,
        "suburb": null,
        "city_district": null,
        "city": "Фариштӣ",
        "state": null,
        "postcode": "735400",
        "country": "Tajikistan",
        "country_code": "tj"
      },
      "address": "181, Фариштӣ, Vahdat District, 735400, Tajikistan"
    },
    {
      "lat": 38.56548005433163,
      "lon": 69.04697393777924,
      "geoinfo": {
        "display_name": "РБ07, Vahdat, Vahdat District, Districts of Republican Subordination, 735400, Tajikistan",
        "road": "РБ07",
        "house_number": null,
        "neighbourhood": null,
        "suburb": null,
        "city_district": null,
        "city": "Vahdat",
        "state": "Districts of Republican Subordination",
        "postcode": "735400",
        "country": "Tajikistan",
        "country_code": "tj"
      },
      "address": "РБ07, Vahdat, Vahdat District, Districts of Republican Subordination, 735400, Tajikistan"
    }
  ],
  "updated_at": "2025-10-19T07:15:37.580603+00:00",
  "_kind": "geo_samples"
}