{
  "country_code": "GG",
  "country": "Guernsey",
  "city": "Saint Peter Port",
  "geonameid": 3042287,
  "target_addresses": 100,
  "samples": [
    {
      "lat": 49.41787584613942,
      "lon": -2.559598755847494,
      "geoinfo": {
        "display_name": "Cliff Path, St Martin, Guernsey, GY4 6ER, Guernsey",
        "road": "Cliff Path",
        "house_number": null,
        "neighbourhood": null,
        "suburb": null,
        "city_district": null,
        "city": "St Martin",
        "state": "Guernsey",
        "postcode": "GY4 6ER",
        "country": "Guernsey",
        "country_code": "gg"
      },
      "address": "Cliff Path, Saint Peter Port, Guernsey, Guernsey"
    },
    {
      "lat": 49.44684544344634,
      "lon": -2.5444277000185784,
      "geoinfo": {
        "display_name": "Colborne Road, Canton 4, Les Vardes, St Peter Port, Guernsey, GY1 1FH, Guernsey",
        "road": "Colborne Road",
        "house_number": null,
        "neighbourhood": null,
        "suburb": "Canton 4",
        "city_district": null,
        "city": "St Peter Port",
        "state": "Guernsey",
        "postcode": "GY1 1FH",
        "country": "Guernsey",
        "country_code": "gg"
      },
      "address": "Colborne Road, Saint Peter Port, Guernsey, Guernsey"
    },
    {
      "lat": 49.453073613719,
      "lon": -2.473202897188776,
      "geoinfo": {
        "display_name": "Keitholm Wood, St Peter Port, Guernsey, GY1 3HR, Guernsey",
        "road": null,
        "house_number": null,
        "neighbourhood": null,
        "suburb": null,
        "city_district": null,
        "city": "St Peter Port",
        "state": "Guernsey",
        "postcode": "GY1 3HR",
        "country": "Guernsey",
        "country_code": "gg"
      },
      "address": "Saint Peter Port, Guernsey, Guernsey"
    },
    {
      "lat": 49.43551324340122,
      "lon": -2.5297557694997215,
      "geoinfo": {
        "display_name": "To moorings, Canton 4, Les Vardes, St Peter Port, Guernsey, GY1 1ZP, Guernsey",
        "road": "To moorings",
        "house_number": null,
        "neighbourhood": null,
        "suburb": "Canton 4",
        "city_district": null,
        "city": "St Peter Port",
        "state": "Guernsey",
        "postcode": "GY1 1ZP",
        "country": "Guernsey",
        "country_code": "gg"
      },
      "address": "To moorings, Saint Peter Port, Guernsey, Guernsey"
    },
    {
      "lat": 49.45684750502376,
      "lon": -2.5565264152154867,
      "geoinfo": {
        "display_name": "Route Isabelle, Canton 3, Les Vardes, St Peter Port, Guernsey, GY1 1SZ, Guernsey",
        "road": "Route Isabelle",
        "house_number": null,
        "neighbourhood": null,
        "suburb": "Canton 3",
        "city_district": null,
        "city": "St Peter Port",
        "state": "Guernsey",
        "postcode": "GY1 1SZ",
        "country": "Guernsey",
        "country_code": "gg"
      },
      "address": "Route Isabelle, Saint Peter Port, Guernsey, Guernsey"
    },
    {
      "lat": 49.449966600853585,
      "lon": -2.541308870831178,
      "geoinfo": {
        "display_name": "The Marton Guest House, Pied Des Vardes, Canton 4, Les Vardes, St Peter Port, Guernsey, GY1 1EQ, Guernsey",
        "road": "Pied Des Vardes",
        "house_number": null,
        "neighbourhood": null,
        "suburb": "Canton 4",
        "city_district": null,
        "city": "St Peter Port",
        "state": "Guernsey",
        "postcode": "GY1 1EQ",
        "country": "Guernsey",
        "country_code": "gg"
      },
      "address": "Pied Des Vardes, Saint Peter Port, Guernsey, Guernsey"
    },
    {
      "lat": 49.44978547320097,
      "lon": -2.533947190111561,
      "geoinfo": {
        "display_name": "La Valette, Canton 4, Les Vardes, St Peter Port, Guernsey, GY1 1AX, Guernsey",
        "road": "La Valette",
        "house_number": null,
        "neighbourhood": null,
        "suburb": "Canton 4",
        "city_district": null,
        "city": "St Peter Port",
        "state": "Guernsey",
        "postcode": "GY1 1AX",
        "country": "Guernsey",
        "country_code": "gg"
      },
      "address": "La Valette, Saint Peter Port, Guernsey, Guernsey"
    },
    {
      "lat": 49.441281414761534,
      "lon": -2.541309666158372,
      "geoinfo": {
        "display_name": "Maison Morley, Fort Road, Canton 4, Les Vardes, St Peter Port, Guernsey, GY1 1ZP, Guernsey",
        "road": "Fort Road",
        "house_number": null,
        "neighbourhood": null,
        "suburb": "Canton 4",
        "city_district": null,
        "city": "St Peter Port",
        "state": "Guernsey",
        "postcode": "GY1 1ZP",
        "country": "Guernsey",
        "country_code": "gg"
      },
      "address": "Fort Road, Saint Peter Port, Guernsey, Guernsey"
    },
    {
      "lat": 49.461883348939374,
      "lon": -2.553748995846931,
      "geoinfo": {
        "display_name": "Fernhill, Green Lanes, Canton 2, Les Vardes, St Peter Port, Guernsey, GY1 1GQ, Guernsey",
        "road": "Green Lanes",
        "house_number": null,
        "neighbourhood": null,
        "suburb": "Canton 2",
        "city_district": null,
        "city": "St Peter Port",
        "state": "Guernsey",
        "postcode": "GY1 1GQ",
        "country": "Guernsey",
        "country_code": "gg"
      },
      "address": "Green Lanes, Saint Peter Port, Guernsey, Guernsey"
    },
    {
      "lat": 49.45295285472408,
      "lon": -2.5404409441841818,
      "geoinfo": {
        "display_name": "3, Lincoln Place, Canton 3, Les Vardes, St Peter Port, Guernsey, GY1 1HU, Guernsey",
        "road": "Lincoln Place",
        "house_number": "3",
        "neighbourhood": null,
        "suburb": "Canton 3",
        "city_district": null,
        "city": "St Peter Port",
        "state": "Guernsey",
        "postcode": "GY1 1HU",
        "country": "Guernsey",
        "country_code": "gg"
      },
      "address": "3 Lincoln Place, Saint Peter Port, Guernsey, Guernsey"
    },
    {
      "lat": 49.447051380815374,
      "lon": -2.532562351581047,
      "geoinfo": {
        "display_name": "Ruette Irwin, Canton 4, Les Vardes, St Peter Port, Guernsey, GY1 1AX, Guernsey",
        "road": "Ruette Irwin",
        "house_number": null,
        "neighbourhood": null,
        "suburb": "Canton 4",
        "city_district": null,
        "city": "St Peter Port",
        "state": "Guernsey",
        "postcode": "GY1 1AX",
        "country": "Guernsey",
        "country_code": "gg"
      },
      "address": "Ruette Irwin, Saint Peter Port, Guernsey, Guernsey"
    },
    {
      "lat": 49.46366482912159,
      "lon": -2.5386064274150026,
      "geoinfo": {
        "display_name": "4, St Johns Road, Canton 1, Les Vardes, St Peter Port, Guernsey, GY1 2BJ, Guernsey",
        "road": "St Johns Road",
        "house_number": "4",
        "neighbourhood": null,
        "suburb": "Canton 1",
        "city_district": null,
        "city": "St Peter Port",
        "state": "Guernsey",
        "postcode": "GY1 2BJ",
        "country": "Guernsey",
        "country_code": "gg"
      },
      "address": "4 St Johns Road, Saint Peter Port, Guernsey, Guernsey"
    },
    {
      "lat": 49.49567884758122,
      "lon": -2.50482396055232,
      "geoinfo": {
        "display_name": "Les Croutes, Le Clos du Valle, Vale, Guernsey, GY1 3AD, Guernsey",
        "road": "Les Croutes",
        "house_number": null,
        "neighbourhood": null,
        "suburb": null,
        "city_district": "Le Clos du Valle",
        "city": "Vale",
        "state": "Guernsey",
        "postcode": "GY1 3AD",
        "country": "Guernsey",
        "country_code": "gg"
      },
      "address": "Les Croutes, Saint Peter Port, Guernsey, Guernsey"
    },
    {
      "lat": 49.45544572238661,
      "lon": -2.5662594182684,
      "geoinfo": {
        "display_name": "Route des Fauconnaires, St Andrew, Les Vardes, St Peter Port, Guernsey, GY1 1FF, Guernsey",
        "road": "Route des Fauconnaires",
        "house_number": null,
        "neighbourhood": null,
        "suburb": null,
        "city_district": null,
        "city": "St Peter Port",
        "state": "Guernsey",
        "postcode": "GY1 1FF",
        "country": "Guernsey",
        "country_code": "gg"
      },
      "address": "Route des Fauconnaires, Saint Peter Port, Guernsey, Guernsey"
    },
    {
      "lat": 49.475200535487396,
      "lon": -2.537340853017862,
      "geoinfo": {
        "display_name": "Victoria Avenue, Saint-Sampson, St Sampson, Guernsey, GY1 2RX, Guernsey",
        "road": "Victoria Avenue",
        "house_number": null,
        "neighbourhood": null,
        "suburb": null,
        "city_district": null,
        "city": "St Sampson",
        "state": "Guernsey",
        "postcode": "GY1 2RX",
        "country": "Guernsey",
        "country_code": "gg"
      },
      "address": "Victoria Avenue, Saint Peter Port, Guernsey, Guernsey"
    },
    {
      "lat": 49.47129726193359,
      "lon": -2.547695921681344,
      "geoinfo": {
        "display_name": "Route de Coutanchez, Canton 1, Les Vardes, St Peter Port, Guernsey, GY1 2EY, Guernsey",
        "road": "Route de Coutanchez",
        "house_number": null,
        "neighbourhood": null,
        "suburb": "Canton 1",
        "city_district": null,
        "city": "St Peter Port",
        "state": "Guernsey",
        "postcode": "GY1 2EY",
        "country": "Guernsey",
        "country_code": "gg"
      },
      "address": "Route de Coutanchez, Saint Peter Port, Guernsey, Guernsey"
    },
    {
      "lat": 49.455346997514305,
      "lon": -2.5195815661645353,
      "geoinfo": {
        "display_name": "Castle Breakwater Light, Castle Breakwater, Canton 4, Les Vardes, St Peter Port, Guernsey, GY1 1AX, Guernsey",
        "road": "Castle Breakwater",
        "house_number": null,
        "neighbourhood": null,
        "suburb": "Canton 4",
        "city_district": null,
        "city": "St Peter Port",
        "state": "Guernsey",
        "postcode": "GY1 1AX",
        "country": "Guernsey",
        "country_code": "gg"
      },
      "address": "Castle Breakwater, Saint Peter Port, Guernsey, Guernsey"
    },
    {
      "lat": 49.46661161377636,
      "lon": -2.56055238765429,
      "geoinfo": {
        "display_name": "Diamond Drilling & Cutting, Les Ozouëts, Canton 2, Les Vardes, St Peter Port, Guernsey, GY1 2UB, Guernsey",
        "road": "Les Ozouëts",
        "house_number": null,
        "neighbourhood": null,
        "suburb": "Canton 2",
        "city_district": null,
        "city": "St Peter Port",
        "state": "Guernsey",
        "postcode": "GY1 2UB",
        "country": "Guernsey",
        "country_code": "gg"
      },
      "address": "Les Ozouëts, Saint Peter Port, Guernsey, Guernsey"
    },
    {
      "lat": 49.44369737769771,
      "lon": -2.5402093511863026,
      "geoinfo": {
        "display_name": "Leycroft, 11, Rue de la Douzaine, Canton 4, Les Vardes, St Peter Port, Guernsey, GY1 1ZP, Guernsey",
        "road": "Rue de la Douzaine",
        "house_number": "11",
        "neighbourhood": null,
        "suburb": "Canton 4",
        "city_district": null,
        "city": "St Peter Port",
        "state": "Guernsey",
        "postcode": "GY1 1ZP",
        "country": "Guernsey",
        "country_code": "gg"
      },
      "address": "11 Rue de la Douzaine, Saint Peter Port, Guernsey, Guernsey"
    },
    {
      "lat": 49.459675457490796,
      "lon": -2.560309694197786,
      "geoinfo": {
        "display_name": "St Pierre Park Hotel, Rohais, Canton 3, Les Vardes, St Peter Port, Guernsey, GY1 1FF, Guernsey",
        "road": "Rohais",
        "house_number": null,
        "neighbourhood": null,
        "suburb": "Canton 3",
        "city_district": null,
        "city": "St Peter Port",
        "state": "Guernsey",
        "postcode": "GY1 1FF",
        "country": "Guernsey",
        "country_code": "gg"
      },
      "address": "Rohais, Saint Peter Port, Guernsey, Guernsey"
    },
    {
      "lat": 49.463199731065714,
      "lon": -2.544872737150225,
      "geoinfo": {
        "display_name": "Clos de Fosse André, Canton 1, Les Vardes, St Peter Port, Guernsey, GY1 1RJ, Guernsey",
        "road": "Clos de Fosse André",
        "house_number": null,
        "neighbourhood": null,
        "suburb": "Canton 1",
        "city_district": null,
        "city": "St Peter Port",
        "state": "Guernsey",
        "postcode": "GY1 1RJ",
        "country": "Guernsey",
        "country_code": "gg"
      },
      "address": "Clos de Fosse André, Saint Peter Port, Guernsey, Guernsey"
    },
    {
      "lat": 49.46193222314889,
      "lon": -2.5417934183404918,
      "geoinfo": {
        "display_name": "Winston Churchill Avenue, Canton 1, Les Vardes, St Peter Port, Guernsey, GY1 2PY, Guernsey",
        "road": "Winston Churchill Avenue",
        "house_number": null,
        "neighbourhood": null,
        "suburb": "Canton 1",
        "city_district": null,
        "city": "St Peter Port",
        "state": "Guernsey",
        "postcode": "GY1 2PY",
        "country": "Guernsey",
        "country_code": "gg"
      },
      "address": "Winston Churchill Avenue, Saint Peter Port, Guernsey, Guernsey"
    },
    {
      "lat": 49.45406263746367,
      "lon": -2.5314625306420946,
      "geoinfo": {
        "display_name": "Boatworks slipway, Canton 4, Les Vardes, St Peter Port, Guernsey, GY1 3YB, Guernsey",
        "road": "Boatworks slipway",
        "house_number": null,
        "neighbourhood": null,
        "suburb": "Canton 4",
        "city_district": null,
        "city": "St Peter Port",
        "state": "Guernsey",
        "postcode": "GY1 3YB",
        "country": "Guernsey",
        "country_code": "gg"
      },
      "address": "Boatworks slipway, Saint Peter Port, Guernsey, Guernsey"
    },
    {
      "lat": 49.44962706308508,
      "lon": -2.539112356727184,
      "geoinfo": {
        "display_name": "Hotel De Havelet, Havelet, Canton 4, Les Vardes, St Peter Port, Guernsey, GY1 1DG, Guernsey",
        "road": "Havelet",
        "house_number": null,
        "neighbourhood": null,
        "suburb": "Canton 4",
        "city_district": null,
        "city": "St Peter Port",
        "state": "Guernsey",
        "postcode": "GY1 1DG",
        "country": "Guernsey",
        "country_code": "gg"
      },
      "address": "Havelet, Saint Peter Port, Guernsey, Guernsey"
    },
    {
      "lat": 49.456408004251145,
      "lon": -2.550393402719441,
      "geoinfo": {
        "display_name": "The Ladies' College, Les Gravees Du Sud, Canton 3, Les Vardes, St Peter Port, Guernsey, GY1 1SZ, Guernsey",
        "road": "Les Gravees Du Sud",
        "house_number": null,
        "neighbourhood": null,
        "suburb": "Canton 3",
        "city_district": null,
        "city": "St Peter Port",
        "state": "Guernsey",
        "postcode": "GY1 1SZ",
        "country": "Guernsey",
        "country_code": "gg"
      },
      "address": "Les Gravees Du Sud, Saint Peter Port, Guernsey, Guernsey"
    },
    {
      "lat": 49.4693914697435,
      "lon": -2.553725050114633,
      "geoinfo": {
        "display_name": "Guernsey Gardens Plant Centre, La Ramée, Canton 2, Les Vardes, St Peter Port, Guernsey, GY1 2ET, Guernsey",
        "road": "La Ramée",
        "house_number": null,
        "neighbourhood": null,
        "suburb": "Canton 2",
        "city_district": null,
        "city": "St Peter Port",
        "state": "Guernsey",
        "postcode": "GY1 2ET",
        "country": "Guernsey",
        "country_code": "gg"
      },
      "address": "La Ramée, Saint Peter Port, Guernsey, Guernsey"
    },
    {
      "lat": 49.46237223136577,
      "lon": -2.5247358702678637,
      "geoinfo": {
        "display_name": "Saint Julians Emplacement, Canton 1, Les Vardes, St Peter Port, Guernsey, GY1 1WN, Guernsey",
        "road": "Saint Julians Emplacement",
        "house_number": null,
        "neighbourhood": null,
        "suburb": "Canton 1",
        "city_district": null,
        "city": "St Peter Port",
        "state": "Guernsey",
        "postcode": "GY1 1WN",
        "country": "Guernsey",
        "country_code": "gg"
      },
      "address": "Saint Julians Emplacement, Saint Peter Port, Guernsey, Guernsey"
    },
    {
      "lat": 49.45315422189345,
      "lon": -2.5458018701346536,
      "geoinfo": {
        "display_name": "Valnord Hill, Canton 3, Les Vardes, St Peter Port, Guernsey, GY1 1JQ, Guernsey",
        "road": "Valnord Hill",
        "house_number": null,
        "neighbourhood": null,
        "suburb": "Canton 3",
        "city_district": null,
        "city": "St Peter Port",
        "state": "Guernsey",
        "postcode": "GY1 1JQ",
        "country": "Guernsey",
        "country_code": "gg"
      },
      "address": "Valnord Hill, Saint Peter Port, Guernsey, Guernsey"
    },
    {
      "lat": 49.44100729566997,
      "lon": -2.5377489461572753,
      "geoinfo": {
        "display_name": "Oakfield, York Way, Canton 4, Les Vardes, St Peter Port, Guernsey, GY1 1ZP, Guernsey",
        "road": "York Way",
        "house_number": null,
        "neighbourhood": null,
        "suburb": "Canton 4",
        "city_district": null,
        "city": "St Peter Port",
        "state": "Guernsey",
        "postcode": "GY1 1ZP",
        "country": "Guernsey",
        "country_code": "gg"
      },
      "address": "York Way, Saint Peter Port, Guernsey, Guernsey"
    },
    {
      "lat": 49.48184093734631,
      "lon": -2.5264966401101003,
      "geoinfo": {
        "display_name": "Brock Road, Saint-Sampson, St Sampson, Guernsey, GY2 4PN, Guernsey",
        "road": "Brock Road",
        "house_number": null,
        "neighbourhood": null,
        "suburb": null,
        "city_district": null,
        "city": "St Sampson",
        "state": "Guernsey",
        "postcode": "GY2 4PN",
        "country": "Guernsey",
        "country_code": "gg"
      },
      "address": "Brock Road, Saint Peter Port, Guernsey, Guernsey"
    },
    {
      "lat": 49.47149811200229,
      "lon": -2.5332477595195515,
      "geoinfo": {
        "display_name": "Les Banques, Canton 1, Saint-Sampson, St Sampson, Guernsey, GY1 3HS, Guernsey",
        "road": "Les Banques",
        "house_number": null,
        "neighbourhood": null,
        "suburb": "Canton 1",
        "city_district": null,
        "city": "St Sampson",
        "state": "Guernsey",
        "postcode": "GY1 3HS",
        "country": "Guernsey",
        "country_code": "gg"
      },
      "address": "Les Banques, Saint Peter Port, Guernsey, Guernsey"
    },
    {
      "lat": 49.45807298447294,
      "lon": -2.5409916243708435,
      "geoinfo": {
        "display_name": "Upland Road, Canton 1, Les Vardes, St Peter Port, Guernsey, GY1 2PY, Guernsey",
        "road": "Upland Road",
        "house_number": null,
        "neighbourhood": null,
        "suburb": "Canton 1",
        "city_district": null,
        "city": "St Peter Port",
        "state": "Guernsey",
        "postcode": "GY1 2PY",
        "country": "Guernsey",
        "country_code": "gg"
      },
      "address": "Upland Road, Saint Peter Port, Guernsey, Guernsey"
    },
    {
      "lat": 49.43573756030708,
      "lon": -2.5602448048467377,
      "geoinfo": {
        "display_name": "Burnt Lane, States Works, St Martin, Guernsey, GY4 6HW, Guernsey",
        "road": "Burnt Lane",
        "house_number": null,
        "neighbourhood": null,
        "suburb": null,
        "city_district": null,
        "city": "St Martin",
        "state": "Guernsey",
        "postcode": "GY4 6HW",
        "country": "Guernsey",
        "country_code": "gg"
      },
      "address": "Burnt Lane, Saint Peter Port, Guernsey, Guernsey"
    },
    {
      "lat": 49.435577935390086,
      "lon": -2.547428334257359,
      "geoinfo": {
        "display_name": "La Route de Sausmarez, Canton 4, St Martin, Guernsey, GY1 1ZP, Guernsey",
        "road": "La Route de Sausmarez",
        "house_number": null,
        "neighbourhood": null,
        "suburb": "Canton 4",
        "city_district": null,
        "city": "St Martin",
        "state": "Guernsey",
        "postcode": "GY1 1ZP",
        "country": "Guernsey",
        "country_code": "gg"
      },
      "address": "La Route de Sausmarez, Saint Peter Port, Guernsey, Guernsey"
    },
    {
      "lat": 49.45331489085693,
      "lon": -2.5588037141282585,
      "geoinfo": {
        "display_name": "La Rue à L'Or, Canton 3, Les Vardes, St Peter Port, Guernsey, GY1 1SZ, Guernsey",
        "road": "La Rue à L'Or",
        "house_number": null,
        "neighbourhood": null,
        "suburb": "Canton 3",
        "city_district": null,
        "city": "St Peter Port",
        "state": "Guernsey",
        "postcode": "GY1 1SZ",
        "country": "Guernsey",
        "country_code": "gg"
      },
      "address": "La Rue à L'Or, Saint Peter Port, Guernsey, Guernsey"
    },
    {
      "lat": 49.4467192257151,
      "lon": -2.5516082677910656,
      "geoinfo": {
        "display_name": "Ruettes Brayes, Canton 4, Les Vardes, St Peter Port, Guernsey, GY1 1FH, Guernsey",
        "road": "Ruettes Brayes",
        "house_number": null,
        "neighbourhood": null,
        "suburb": "Canton 4",
        "city_district": null,
        "city": "St Peter Port",
        "state": "Guernsey",
        "postcode": "GY1 1FH",
        "country": "Guernsey",
        "country_code": "gg"
      },
      "address": "Ruettes Brayes, Saint Peter Port, Guernsey, Guernsey"
    },
    {
      "lat": 49.467924742988316,
      "lon": -2.5655024020166546,
      "geoinfo": {
        "display_name": "Les Baissieres, Canton 2, Les Vardes, St Peter Port, Guernsey, GY1 2UL, Guernsey",
        "road": "Les Baissieres",
        "house_number": null,
        "neighbourhood": null,
        "suburb": "Canton 2",
        "city_district": null,
        "city": "St Peter Port",
        "state": "Guernsey",
        "postcode": "GY1 2UL",
        "country": "Guernsey",
        "country_code": "gg"
      },
      "address": "Les Baissieres, Saint Peter Port, Guernsey, Guernsey"
    },
    {
      "lat": 49.442516841182865,
      "lon": -2.5394426530884133,
      "geoinfo": {
        "display_name": "Southwind, 34, Rue de la Douzaine, Canton 4, Les Vardes, St Peter Port, Guernsey, GY1 1ZP, Guernsey",
        "road": "Rue de la Douzaine",
        "house_number": "34",
        "neighbourhood": null,
        "suburb": "Canton 4",
        "city_district": null,
        "city": "St Peter Port",
        "state": "Guernsey",
        "postcode": "GY1 1ZP",
        "country": "Guernsey",
        "country_code": "gg"
      },
      "address": "34 Rue de la Douzaine, Saint Peter Port, Guernsey, Guernsey"
    },
    {
      "lat": 49.45260165858779,
      "lon": -2.532894693274758,
      "geoinfo": {
        "display_name": "Castle Pier, Canton 4, Les Vardes, St Peter Port, Guernsey, GY1 1AN, Guernsey",
        "road": "Castle Pier",
        "house_number": null,
        "neighbourhood": null,
        "suburb": "Canton 4",
        "city_district": null,
        "city": "St Peter Port",
        "state": "Guernsey",
        "postcode": "GY1 1AN",
        "country": "Guernsey",
        "country_code": "gg"
      },
      "address": "Castle Pier, Saint Peter Port, Guernsey, Guernsey"
    },
    {
      "lat": 49.43832885816451,
      "lon": -2.581731377301759,
      "geoinfo": {
        "display_name": "Les Buttes, St Andrew, Les Vardes, Guernsey, GY8 0AB, Guernsey",
        "road": "Les Buttes",
        "house_number": null,
        "neighbourhood": null,
        "suburb": null,
        "city_district": null,
        "city": "Les Vardes",
        "state": "Guernsey",
        "postcode": "GY8 0AB",
        "country": "Guernsey",
        "country_code": "gg"
      },
      "address": "Les Buttes, Saint Peter Port, Guernsey, Guernsey"
    },
    {
      "lat": 49.46021933318245,
      "lon": -2.5350900253732433,
      "geoinfo": {
        "display_name": "Don Street, Canton 1, Les Vardes, St Peter Port, Guernsey, GY1 1WN, Guernsey",
        "road": "Don Street",
        "house_number": null,
        "neighbourhood": null,
        "suburb": "Canton 1",
        "city_district": null,
        "city": "St Peter Port",
        "state": "Guernsey",
        "postcode": "GY1 1WN",
        "country": "Guernsey",
        "country_code": "gg"
      },
      "address": "Don Street, Saint Peter Port, Guernsey, Guernsey"
    },
    {
      "lat": 49.46158531050149,
      "lon": -2.5335225139854183,
      "geoinfo": {
        "display_name": "Paris Street, Canton 1, Les Vardes, St Peter Port, Guernsey, GY1 1WN, Guernsey",
        "road": "Paris Street",
        "house_number": null,
        "neighbourhood": null,
        "suburb": "Canton 1",
        "city_district": null,
        "city": "St Peter Port",
        "state": "Guernsey",
        "postcode": "GY1 1WN",
        "country": "Guernsey",
        "country_code": "gg"
      },
      "address": "Paris Street, Saint Peter Port, Guernsey, Guernsey"
    },
    {
      "lat": 49.4468287153378,
      "lon": -2.532167375430581,
      "geoinfo": {
        "display_name": "Canton 4, Les Vardes, St Peter Port, Guernsey, GY1 1AX, Guernsey",
        "road": null,
        "house_number": null,
        "neighbourhood": null,
        "suburb": "Canton 4",
        "city_district": null,
        "city": "St Peter Port",
        "state": "Guernsey",
        "postcode": "GY1 1AX",
        "country": "Guernsey",
        "country_code": "gg"
      },
      "address": "Canton 4, Saint Peter Port, Guernsey, Guernsey"
    },
    {
      "lat": 49.46220852636414,
      "lon": -2.5417866864742256,
      "geoinfo": {
        "display_name": "Canton 1, Les Vardes, St Peter Port, Guernsey, GY1 2PY, Guernsey",
        "road": null,
        "house_number": null,
        "neighbourhood": null,
        "suburb": "Canton 1",
        "city_district": null,
        "city": "St Peter Port",
        "state": "Guernsey",
        "postcode": "GY1 2PY",
        "country": "Guernsey",
        "country_code": "gg"
      },
      "address": "Canton 1, Saint Peter Port, Guernsey, Guernsey"
    },
    {
      "lat": 49.46315636016538,
      "lon": -2.534613994342014,
      "geoinfo": {
        "display_name": "La Piette Hotel, St George's Esplanade, Canton 1, Les Vardes, St Peter Port, Guernsey, GY1 2BG, Guernsey",
        "road": "St George's Esplanade",
        "house_number": null,
        "neighbourhood": null,
        "suburb": "Canton 1",
        "city_district": null,
        "city": "St Peter Port",
        "state": "Guernsey",
        "postcode": "GY1 2BG",
        "country": "Guernsey",
        "country_code": "gg"
      },
      "address": "St George's Esplanade, Saint Peter Port, Guernsey, Guernsey"
    },
    {
      "lat": 49.46656460181108,
      "lon": -2.5551984525467355,
      "geoinfo": {
        "display_name": "Rivendell, 9, La Neuve Rue Estate, Canton 2, Les Vardes, St Peter Port, Guernsey, GY1 2UB, Guernsey",
        "road": "La Neuve Rue Estate",
        "house_number": "9",
        "neighbourhood": null,
        "suburb": "Canton 2",
        "city_district": null,
        "city": "St Peter Port",
        "state": "Guernsey",
        "postcode": "GY1 2UB",
        "country": "Guernsey",
        "country_code": "gg"
      },
      "address": "9 La Neuve Rue Estate, Saint Peter Port, Guernsey, Guernsey"
    },
    {
      "lat": 49.49693688239132,
      "lon": -2.5154578731534354,
      "geoinfo": {
        "display_name": "Les Marais, The Vale, Le Clos du Valle, Vale, Guernsey, GY3 5JQ, Guernsey",
        "road": "Les Marais",
        "house_number": null,
        "neighbourhood": null,
        "suburb": null,
        "city_district": "Le Clos du Valle",
        "city": "Vale",
        "state": "Guernsey",
        "postcode": "GY3 5JQ",
        "country": "Guernsey",
        "country_code": "gg"
      },
      "address": "Les Marais, Saint Peter Port, Guernsey, Guernsey"
    },
    {
      "lat": 49.43755960238119,
      "lon": -2.54102360836332,
      "geoinfo": {
        "display_name": "Fermain Lane, Canton 4, Les Vardes, St Peter Port, Guernsey, GY1 1ZP, Guernsey",
        "road": "Fermain Lane",
        "house_number": null,
        "neighbourhood": null,
        "suburb": "Canton 4",
        "city_district": null,
        "city": "St Peter Port",
        "state": "Guernsey",
        "postcode": "GY1 1ZP",
        "country": "Guernsey",
        "country_code": "gg"
      },
      "address": "Fermain Lane, Saint Peter Port, Guernsey, Guernsey"
    },
    {
      "lat": 49.442792393536315,
      "lon": -2.545323029514468,
      "geoinfo": {
        "display_name": "Havilland Vale, Canton 4, St Martin, Guernsey, GY1 1ZP, Guernsey",
        "road": "Havilland Vale",
        "house_number": null,
        "neighbourhood": null,
        "suburb": "Canton 4",
        "city_district": null,
        "city": "St Martin",
        "state": "Guernsey",
        "postcode": "GY1 1ZP",
        "country": "Guernsey",
        "country_code": "gg"
      },
      "address": "Havilland Vale, Saint Peter Port, Guernsey, Guernsey"
    },
    {
      "lat": 49.4532067591191,
      "lon": -2.550347358522244,
      "geoinfo": {
        "display_name": "Elizabeth College Junior School, The Queen's Road, Canton 3, Les Vardes, St Peter Port, Guernsey, GY1 1RH, Guernsey",
        "road": "The Queen's Road",
        "house_number": null,
        "neighbourhood": null,
        "suburb": "Canton 3",
        "city_district": null,
        "city": "St Peter Port",
        "state": "Guernsey",
        "postcode": "GY1 1RH",
        "country": "Guernsey",
        "country_code": "gg"
      },
      "address": "The Queen's Road, Saint Peter Port, Guernsey, Guernsey"
    },
    {
      "lat": 49.47863443472605,
      "lon": -2.597965921901489,
      "geoinfo": {
        "display_name": "La Neuve Rue, Cobo, Castel, Guernsey, GY5 7JW, Guernsey",
        "road": "La Neuve Rue",
        "house_number": null,
        "neighbourhood": null,
        "suburb": null,
        "city_district": null,
        "city": "Castel",
        "state": "Guernsey",
        "postcode": "GY5 7JW",
        "country": "Guernsey",
        "country_code": "gg"
      },
      "address": "La Neuve Rue, Saint Peter Port, Guernsey, Guernsey"
    },
    {
      "lat": 49.45941930060412,
      "lon": -2.5470694797179823,
      "geoinfo": {
        "display_name": "Silverton, La Gibauderie, Rosaire Court, Canton 2, Les Vardes, St Peter Port, Guernsey, GY1 1RJ, Guernsey",
        "road": "La Gibauderie",
        "house_number": null,
        "neighbourhood": null,
        "suburb": "Canton 2",
        "city_district": null,
        "city": "St Peter Port",
        "state": "Guernsey",
        "postcode": "GY1 1RJ",
        "country": "Guernsey",
        "country_code": "gg"
      },
      "address": "La Gibauderie, Saint Peter Port, Guernsey, Guernsey"
    },
    {
      "lat": 49.460928309176566,
      "lon": -2.532185386852417,
      "geoinfo": {
        "display_name": "Queen Elizabeth II Marina, Glategny Esplanade, Canton 1, Les Vardes, St Peter Port, Guernsey, GY1 1WN, Guernsey",
        "road": "Glategny Esplanade",
        "house_number": null,
        "neighbourhood": null,
        "suburb": "Canton 1",
        "city_district": null,
        "city": "St Peter Port",
        "state": "Guernsey",
        "postcode": "GY1 1WN",
        "country": "Guernsey",
        "country_code": "gg"
      },
      "address": "Glategny Esplanade, Saint Peter Port, Guernsey, Guernsey"
    },
    {
      "lat": 49.47952125955082,
      "lon": -2.5716985345112415,
      "geoinfo": {
        "display_name": "Silvercoombe, Rue des Marais, Vingtaine de l'Epine, Vale, Guernsey, GY6 8AX, Guernsey",
        "road": "Rue des Marais",
        "house_number": null,
        "neighbourhood": null,
        "suburb": null,
        "city_district": "Vingtaine de l'Epine",
        "city": "Vale",
        "state": "Guernsey",
        "postcode": "GY6 8AX",
        "country": "Guernsey",
        "country_code": "gg"
      },
      "address": "Rue des Marais, Saint Peter Port, Guernsey, Guernsey"
    },
    {
      "lat": 49.46249885171377,
      "lon": -2.557707918876042,
      "geoinfo": {
        "display_name": "9, Collings Road Estate, Canton 2, Les Vardes, St Peter Port, Guernsey, GY1 1GQ, Guernsey",
        "road": "Collings Road Estate",
        "house_number": "9",
        "neighbourhood": null,
        "suburb": "Canton 2",
        "city_district": null,
        "city": "St Peter Port",
        "state": "Guernsey",
        "postcode": "GY1 1GQ",
        "country": "Guernsey",
        "country_code": "gg"
      },
      "address": "9 Collings Road Estate, Saint Peter Port, Guernsey, Guernsey"
    },
    {
      "lat": 49.4531409815549,
      "lon": -2.544053285631373,
      "geoinfo": {
        "display_name": "Valnord Road, Canton 3, Les Vardes, St Peter Port, Guernsey, GY1 1HU, Guernsey",
        "road": "Valnord Road",
        "house_number": null,
        "neighbourhood": null,
        "suburb": "Canton 3",
        "city_district": null,
        "city": "St Peter Port",
        "state": "Guernsey",
        "postcode": "GY1 1HU",
        "country": "Guernsey",
        "country_code": "gg"
      },
      "address": "Valnord Road, Saint Peter Port, Guernsey, Guernsey"
    },
    {
      "lat": 49.484858160833866,
      "lon": -2.481982606541727,
      "geoinfo": {
        "display_name": "Fondu, Guernsey, GY1 3HR, Guernsey",
        "road": null,
        "house_number": null,
        "neighbourhood": null,
        "suburb": null,
        "city_district": null,
        "city": null,
        "state": "Guernsey",
        "postcode": "GY1 3HR",
        "country": "Guernsey",
        "country_code": "gg"
      },
      "address": "331, Saint Peter Port, GY1 3HR Guernsey, Guernsey"
    },
    {
      "lat": 49.45244734663985,
      "lon": -2.5335829593447063,
      "geoinfo": {
        "display_name": "Castle Pier, Canton 4, Les Vardes, St Peter Port, Guernsey, GY1 1AN, Guernsey",
        "road": "Castle Pier",
        "house_number": null,
        "neighbourhood": null,
        "suburb": "Canton 4",
        "city_district": null,
        "city": "St Peter Port",
        "state": "Guernsey",
        "postcode": "GY1 1AN",
        "country": "Guernsey",
        "country_code": "gg"
      },
      "address": "Castle Pier, Canton 4, Les Vardes, St Peter Port, Guernsey, GY1 1AN, Guernsey"
    },
    {
      "lat": 49.46318976590886,
      "lon": -2.5117218282225906,
      "geoinfo": {
        "display_name": "L'Ancresse, Vale, Guernsey, GY3 5JQ, Guernsey",
        "road": null,
        "house_number": null,
        "neighbourhood": null,
        "suburb": null,
        "city_district": null,
        "city": "Vale",
        "state": "Guernsey",
        "postcode": "GY3 5JQ",
        "country": "Guernsey",
        "country_code": "gg"
      },
      "address": "972, Saint Peter Port, GY3 5JQ Guernsey, Guernsey"
    },
    {
      "lat": 49.437185142504504,
      "lon": -2.4824870443849387,
      "geoinfo": {
        "display_name": "Saint-Sampson, St Sampson, Guernsey, GY2 4PB, Guernsey",
        "road": null,
        "house_number": null,
        "neighbourhood": null,
        "suburb": null,
        "city_district": null,
        "city": "St Sampson",
        "state": "Guernsey",
        "postcode": "GY2 4PB",
        "country": "Guernsey",
        "country_code": "gg"
      },
      "address": "131, Saint Peter Port, GY2 4PB Guernsey, Guernsey"
    },
    {
      "lat": 49.43859047917288,
      "lon": -2.5048436709046706,
      "geoinfo": {
        "display_name": "Les Vardes, St Peter Port, Guernsey, GY1 1EQ, Guernsey",
        "road": null,
        "house_number": null,
        "neighbourhood": null,
        "suburb": null,
        "city_district": null,
        "city": "St Peter Port",
        "state": "Guernsey",
        "postcode": "GY1 1EQ",
        "country": "Guernsey",
        "country_code": "gg"
      },
      "address": "Les Vardes, St Peter Port, Guernsey, GY1 1EQ, Guernsey"
    },
    {
      "lat": 49.47481510474591,
      "lon": -2.5016719460866454,
      "geoinfo": {
        "display_name": "South Side, Saint-Sampson, St Sampson, Guernsey, GY2 4QG, Guernsey",
        "road": null,
        "house_number": null,
        "neighbourhood": null,
        "suburb": null,
        "city_district": null,
        "city": "St Sampson",
        "state": "Guernsey",
        "postcode": "GY2 4QG",
        "country": "Guernsey",
        "country_code": "gg"
      },
      "address": "985, Saint Peter Port, GY2 4QG Guernsey, Guernsey"
    },
    {
      "lat": 49.43608122938448,
      "lon": -2.4821474935611487,
      "geoinfo": {
        "display_name": "Saint-Sampson, St Sampson, Guernsey, GY2 4PB, Guernsey",
        "road": null,
        "house_number": null,
        "neighbourhood": null,
        "suburb": null,
        "city_district": null,
        "city": "St Sampson",
        "state": "Guernsey",
        "postcode": "GY2 4PB",
        "country": "Guernsey",
        "country_code": "gg"
      },
      "address": "380, Saint Peter Port, GY2 4PB Guernsey, Guernsey"
    },
    {
      "lat": 49.46250309293333,
      "lon": -2.527620586519886,
      "geoinfo": {
        "display_name": "Queen Elizabeth II Marina, Saint Julians Emplacement, Canton 1, Les Vardes, St Peter Port, Guernsey, GY1 1WN, Guernsey",
        "road": "Saint Julians Emplacement",
        "house_number": null,
        "neighbourhood": null,
        "suburb": "Canton 1",
        "city_district": null,
        "city": "St Peter Port",
        "state": "Guernsey",
        "postcode": "GY1 1WN",
        "country": "Guernsey",
        "country_code": "gg"
      },
      "address": "Queen Elizabeth II Marina, Saint Julians Emplacement, Canton 1, Les Vardes, St Peter Port, Guernsey, GY1 1WN, Guernsey"
    },
    {
      "lat": 49.467446673893626,
      "lon": -2.563455068714267,
      "geoinfo": {
        "display_name": "The Naze, Pont Vaillant, Canton 2, Vingtaine de l'Epine, St Peter Port, Guernsey, GY6 8BR, Guernsey",
        "road": "Pont Vaillant",
        "house_number": null,
        "neighbourhood": null,
        "suburb": "Canton 2",
        "city_district": "Vingtaine de l'Epine",
        "city": "St Peter Port",
        "state": "Guernsey",
        "postcode": "GY6 8BR",
        "country": "Guernsey",
        "country_code": "gg"
      },
      "address": "The Naze, Pont Vaillant, Canton 2, Vingtaine de l'Epine, St Peter Port, Guernsey, GY6 8BR, Guernsey"
    },
    {
      "lat": 49.47344703106437,
      "lon": -2.504064790507115,
      "geoinfo": {
        "display_name": "South Side, Saint-Sampson, St Sampson, Guernsey, GY2 4QG, Guernsey",
        "road": null,
        "house_number": null,
        "neighbourhood": null,
        "suburb": null,
        "city_district": null,
        "city": "St Sampson",
        "state": "Guernsey",
        "postcode": "GY2 4QG",
        "country": "Guernsey",
        "country_code": "gg"
      },
      "address": "545, Saint Peter Port, GY2 4QG Guernsey, Guernsey"
    },
    {
      "lat": 49.452741440799436,
      "lon": -2.5008156024375476,
      "geoinfo": {
        "display_name": "Saint-Sampson, St Sampson, Guernsey, GY2 4PB, Guernsey",
        "road": null,
        "house_number": null,
        "neighbourhood": null,
        "suburb": null,
        "city_district": null,
        "city": "St Sampson",
        "state": "Guernsey",
        "postcode": "GY2 4PB",
        "country": "Guernsey",
        "country_code": "gg"
      },
      "address": "732, Saint Peter Port, GY2 4PB Guernsey, Guernsey"
    },
    {
      "lat": 49.47737068963594,
      "lon": -2.498156493058599,
      "geoinfo": {
        "display_name": "L'Ancresse, Vale, Guernsey, GY3 5JQ, Guernsey",
        "road": null,
        "house_number": null,
        "neighbourhood": null,
        "suburb": null,
        "city_district": null,
        "city": "Vale",
        "state": "Guernsey",
        "postcode": "GY3 5JQ",
        "country": "Guernsey",
        "country_code": "gg"
      },
      "address": "254, Saint Peter Port, GY3 5JQ Guernsey, Guernsey"
    },
    {
      "lat": 49.416302379348565,
      "lon": -2.54482616628048,
      "geoinfo": {
        "display_name": "Jerbourg, St Martin, Guernsey, GY4 6BN, Guernsey",
        "road": null,
        "house_number": null,
        "neighbourhood": null,
        "suburb": null,
        "city_district": null,
        "city": "St Martin",
        "state": "Guernsey",
        "postcode": "GY4 6BN",
        "country": "Guernsey",
        "country_code": "gg"
      },
      "address": "877, Saint Peter Port, GY4 6BN Guernsey, Guernsey"
    },
    {
      "lat": 49.42512112074142,
      "lon": -2.5267944467935584,
      "geoinfo": {
        "display_name": "Cliff Path, Jerbourg, St Martin, Guernsey, GY4 6BN, Guernsey",
        "road": "Cliff Path",
        "house_number": null,
        "neighbourhood": null,
        "suburb": null,
        "city_district": null,
        "city": "St Martin",
        "state": "Guernsey",
        "postcode": "GY4 6BN",
        "country": "Guernsey",
        "country_code": "gg"
      },
      "address": "607, Cliff Path, Saint Peter Port, GY4 6BN Guernsey, Guernsey"
    },
    {
      "lat": 49.474604685886284,
      "lon": -2.47656562482558,
      "geoinfo": {
        "display_name": "Fondu, Guernsey, GY1 3HR, Guernsey",
        "road": null,
        "house_number": null,
        "neighbourhood": null,
        "suburb": null,
        "city_district": null,
        "city": null,
        "state": "Guernsey",
        "postcode": "GY1 3HR",
        "country": "Guernsey",
        "country_code": "gg"
      },
      "address": "589, Saint Peter Port, GY1 3HR Guernsey, Guernsey"
    },
    {
      "lat": 49.43747119747421,
      "lon": -2.544741386285322,
      "geoinfo": {
        "display_name": "St Martin, Guernsey, GY1 1ZP, Guernsey",
        "road": null,
        "house_number": null,
        "neighbourhood": null,
        "suburb": null,
        "city_district": null,
        "city": "St Martin",
        "state": "Guernsey",
        "postcode": "GY1 1ZP",
        "country": "Guernsey",
        "country_code": "gg"
      },
      "address": "837, Saint Peter Port, GY1 1ZP Guernsey, Guernsey"
    },
    {
      "lat": 49.43787002467932,
      "lon": -2.5365101996947224,
      "geoinfo": {
        "display_name": "Becquet Road, Village de Putron, Canton 4, Les Vardes, St Peter Port, Guernsey, GY1 1ZP, Guernsey",
        "road": "Becquet Road",
        "house_number": null,
        "neighbourhood": null,
        "suburb": "Canton 4",
        "city_district": null,
        "city": "St Peter Port",
        "state": "Guernsey",
        "postcode": "GY1 1ZP",
        "country": "Guernsey",
        "country_code": "gg"
      },
      "address": "Becquet Road, Village de Putron, Canton 4, Les Vardes, St Peter Port, Guernsey, GY1 1ZP, Guernsey"
    },
    {
      "lat": 49.44737586803561,
      "lon": -2.482698775477851,
      "geoinfo": {
        "display_name": "Saint-Sampson, St Sampson, Guernsey, GY2 4PB, Guernsey",
        "road": null,
        "house_number": null,
        "neighbourhood": null,
        "suburb": null,
        "city_district": null,
        "city": "St Sampson",
        "state": "Guernsey",
        "postcode": "GY2 4PB",
        "country": "Guernsey",
        "country_code": "gg"
      },
      "address": "652, Saint Peter Port, GY2 4PB Guernsey, Guernsey"
    },
    {
      "lat": 49.46511986540363,
      "lon": -2.4835921852479586,
      "geoinfo": {
        "display_name": "Fondu, Guernsey, GY1 3HR, Guernsey",
        "road": null,
        "house_number": null,
        "neighbourhood": null,
        "suburb": null,
        "city_district": null,
        "city": null,
        "state": "Guernsey",
        "postcode": "GY1 3HR",
        "country": "Guernsey",
        "country_code": "gg"
      },
      "address": "780, Saint Peter Port, GY1 3HR Guernsey, Guernsey"
    },
    {
      "lat": 49.43068385962035,
      "lon": -2.504305561243233,
      "geoinfo": {
        "display_name": "Les Vardes, St Peter Port, Guernsey, GY1 1EQ, Guernsey",
        "road": null,
        "house_number": null,
        "neighbourhood": null,
        "suburb": null,
        "city_district": null,
        "city": "St Peter Port",
        "state": "Guernsey",
        "postcode": "GY1 1EQ",
        "country": "Guernsey",
        "country_code": "gg"
      },
      "address": "669, Saint Peter Port, GY1 1EQ Guernsey, Guernsey"
    },
    {
      "lat": 49.46117934071308,
      "lon": -2.5345202760132612,
      "geoinfo": {
        "display_name": "Well Road, Canton 1, Les Vardes, St Peter Port, Guernsey, GY1 1WN, Guernsey",
        "road": "Well Road",
        "house_number": null,
        "neighbourhood": null,
        "suburb": "Canton 1",
        "city_district": null,
        "city": "St Peter Port",
        "state": "Guernsey",
        "postcode": "GY1 1WN",
        "country": "Guernsey",
        "country_code": "gg"
      },
      "address": "Well Road, Canton 1, Les Vardes, St Peter Port, Guernsey, GY1 1WN, Guernsey"
    },
    {
      "lat": 49.44216999249312,
      "lon": -2.4815328467239244,
      "geoinfo": {
        "display_name": "Saint-Sampson, St Sampson, Guernsey, GY2 4PB, Guernsey",
        "road": null,
        "house_number": null,
        "neighbourhood": null,
        "suburb": null,
        "city_district": null,
        "city": "St Sampson",
        "state": "Guernsey",
        "postcode": "GY2 4PB",
        "country": "Guernsey",
        "country_code": "gg"
      },
      "address": "362, Saint Peter Port, GY2 4PB Guernsey, Guernsey"
    },
    {
      "lat": 49.46717720010239,
      "lon": -2.5522198820734188,
      "geoinfo": {
        "display_name": "Toccata, 3, Le Bordage, Canton 1, Les Vardes, St Peter Port, Guernsey, GY1 2ET, Guernsey",
        "road": "Le Bordage",
        "house_number": "3",
        "neighbourhood": null,
        "suburb": "Canton 1",
        "city_district": null,
        "city": "St Peter Port",
        "state": "Guernsey",
        "postcode": "GY1 2ET",
        "country": "Guernsey",
        "country_code": "gg"
      },
      "address": "Toccata, 3, Le Bordage, Canton 1, Les Vardes, St Peter Port, Guernsey, GY1 2ET, Guernsey"
    },
    {
      "lat": 49.45537717342733,
      "lon": -2.4963673124712344,
      "geoinfo": {
        "display_name": "Saint-Sampson, St Sampson, Guernsey, GY2 4PB, Guernsey",
        "road": null,
        "house_number": null,
        "neighbourhood": null,
        "suburb": null,
        "city_district": null,
        "city": "St Sampson",
        "state": "Guernsey",
        "postcode": "GY2 4PB",
        "country": "Guernsey",
        "country_code": "gg"
      },
      "address": "301, Saint Peter Port, GY2 4PB Guernsey, Guernsey"
    },
    {
      "lat": 49.466481417505584,
      "lon": -2.4929762753780023,
      "geoinfo": {
        "display_name": "Saint-Sampson, St Sampson, Guernsey, GY2 4PB, Guernsey",
        "road": null,
        "house_number": null,
        "neighbourhood": null,
        "suburb": null,
        "city_district": null,
        "city": "St Sampson",
        "state": "Guernsey",
        "postcode": "GY2 4PB",
        "country": "Guernsey",
        "country_code": "gg"
      },
      "address": "774, Saint Peter Port, GY2 4PB Guernsey, Guernsey"
    },
    {
      "lat": 49.49064865643028,
      "lon": -2.4896684652819063,
      "geoinfo": {
        "display_name": "L'Ancresse, Vale, Guernsey, GY3 5JQ, Guernsey",
        "road": null,
        "house_number": null,
        "neighbourhood": null,
        "suburb": null,
        "city_district": null,
        "city": "Vale",
        "state": "Guernsey",
        "postcode": "GY3 5JQ",
        "country": "Guernsey",
        "country_code": "gg"
      },
      "address": "638, Saint Peter Port, GY3 5JQ Guernsey, Guernsey"
    },
    {
      "lat": 49.427767664833404,
      "lon": -2.518073855634621,
      "geoinfo": {
        "display_name": "Jerbourg, St Martin, Guernsey, GY4 6BN, Guernsey",
        "road": null,
        "house_number": null,
        "neighbourhood": null,
        "suburb": null,
        "city_district": null,
        "city": "St Martin",
        "state": "Guernsey",
        "postcode": "GY4 6BN",
        "country": "Guernsey",
        "country_code": "gg"
      },
      "address": "536, Saint Peter Port, GY4 6BN Guernsey, Guernsey"
    },
    {
      "lat": 49.43528373614236,
      "lon": -2.5463455649240276,
      "geoinfo": {
        "display_name": "La Route de Sausmarez, Canton 4, St Martin, Guernsey, GY1 1ZP, Guernsey",
        "road": "La Route de Sausmarez",
        "house_number": null,
        "neighbourhood": null,
        "suburb": "Canton 4",
        "city_district": null,
        "city": "St Martin",
        "state": "Guernsey",
        "postcode": "GY1 1ZP",
        "country": "Guernsey",
        "country_code": "gg"
      },
      "address": "908, La Route de Sausmarez, Saint Peter Port, GY1 1ZP Guernsey, Guernsey"
    },
    {
      "lat": 49.43488529246305,
      "lon": -2.513143142693228,
      "geoinfo": {
        "display_name": "Les Vardes, St Peter Port, Guernsey, GY1 1EQ, Guernsey",
        "road": null,
        "house_number": null,
        "neighbourhood": null,
        "suburb": null,
        "city_district": null,
        "city": "St Peter Port",
        "state": "Guernsey",
        "postcode": "GY1 1EQ",
        "country": "Guernsey",
        "country_code": "gg"
      },
      "address": "753, Saint Peter Port, GY1 1EQ Guernsey, Guernsey"
    },
    {
      "lat": 49.446777078391634,
      "lon": -2.543188680616646,
      "geoinfo": {
        "display_name": "Ruette Godfrey, Canton 4, Les Vardes, St Peter Port, Guernsey, GY1 1FH, Guernsey",
        "road": "Ruette Godfrey",
        "house_number": null,
        "neighbourhood": null,
        "suburb": "Canton 4",
        "city_district": null,
        "city": "St Peter Port",
        "state": "Guernsey",
        "postcode": "GY1 1FH",
        "country": "Guernsey",
        "country_code": "gg"
      },
      "address": "Ruette Godfrey, Canton 4, Les Vardes, St Peter Port, Guernsey, GY1 1FH, Guernsey"
    },
    {
      "lat": 49.43580971133143,
      "lon": -2.528015511935675,
      "geoinfo": {
        "display_name": "To moorings, Canton 4, Les Vardes, St Peter Port, Guernsey, GY1 1ZP, Guernsey",
        "road": "To moorings",
        "house_number": null,
        "neighbourhood": null,
        "suburb": "Canton 4",
        "city_district": null,
        "city": "St Peter Port",
        "state": "Guernsey",
        "postcode": "GY1 1ZP",
        "country": "Guernsey",
        "country_code": "gg"
      },
      "address": "To moorings, Canton 4, Les Vardes, St Peter Port, Guernsey, GY1 1ZP, Guernsey"
    },
    {
      "lat": 49.4300646727207,
      "lon": -2.5016080651501533,
      "geoinfo": {
        "display_name": "Les Vardes, St Peter Port, Guernsey, GY1 1EQ, Guernsey",
        "road": null,
        "house_number": null,
        "neighbourhood": null,
        "suburb": null,
        "city_district": null,
        "city": "St Peter Port",
        "state": "Guernsey",
        "postcode": "GY1 1EQ",
        "country": "Guernsey",
        "country_code": "gg"
      },
      "address": "303, Saint Peter Port, GY1 1EQ Guernsey, Guernsey"
    },
    {
      "lat": 49.47641654499128,
      "lon": -2.5296235482858846,
      "geoinfo": {
        "display_name": "St Sampson, Saint-Sampson, St Sampson, Guernsey, GY2 4DH, Guernsey",
        "road": null,
        "house_number": null,
        "neighbourhood": null,
        "suburb": null,
        "city_district": null,
        "city": "St Sampson",
        "state": "Guernsey",
        "postcode": "GY2 4DH",
        "country": "Guernsey",
        "country_code": "gg"
      },
      "address": "766, Saint Peter Port, GY2 4DH Guernsey, Guernsey"
    },
    {
      "lat": 49.43221239860993,
      "lon": -2.498651408927869,
      "geoinfo": {
        "display_name": "Les Vardes, St Peter Port, Guernsey, GY1 1EQ, Guernsey",
        "road": null,
        "house_number": null,
        "neighbourhood": null,
        "suburb": null,
        "city_district": null,
        "city": "St Peter Port",
        "state": "Guernsey",
        "postcode": "GY1 1EQ",
        "country": "Guernsey",
        "country_code": "gg"
      },
      "address": "030, Saint Peter Port, GY1 1EQ Guernsey, Guernsey"
    },
    {
      "lat": 49.45679388581087,
      "lon": -2.5267178259041287,
      "geoinfo": {
        "display_name": "White Rock Pier Light, Castle Breakwater, Canton 4, Les Vardes, St Peter Port, Guernsey, GY1 1AX, Guernsey",
        "road": "Castle Breakwater",
        "house_number": null,
        "neighbourhood": null,
        "suburb": "Canton 4",
        "city_district": null,
        "city": "St Peter Port",
        "state": "Guernsey",
        "postcode": "GY1 1AX",
        "country": "Guernsey",
        "country_code": "gg"
      },
      "address": "White Rock Pier Light, Castle Breakwater, Canton 4, Les Vardes, St Peter Port, Guernsey, GY1 1AX, Guernsey"
    },
    {
      "lat": 49.457484581996844,
      "lon": -2.4852397220013014,
      "geoinfo": {
        "display_name": "Saint-Sampson, St Sampson, Guernsey, GY2 4PB, Guernsey",
        "road": null,
        "house_number": null,
        "neighbourhood": null,
        "suburb": null,
        "city_district": null,
        "city": "St Sampson",
        "state": "Guernsey",
        "postcode": "GY2 4PB",
        "country": "Guernsey",
        "country_code": "gg"
      },
      "address": "711, Saint Peter Port, GY2 4PB Guernsey, Guernsey"
    },
    {
      "lat": 49.46902045742847,
      "lon": -2.500508290291156,
      "geoinfo": {
        "display_name": "L'Ancresse, Vale, Guernsey, GY3 5JQ, Guernsey",
        "road": null,
        "house_number": null,
        "neighbourhood": null,
        "suburb": null,
        "city_district": null,
        "city": "Vale",
        "state": "Guernsey",
        "postcode": "GY3 5JQ",
        "country": "Guernsey",
        "country_code": "gg"
      },
      "address": "519, Saint Peter Port, GY3 5JQ Guernsey, Guernsey"
    },
    {
      "lat": 49.45818956003245,
      "lon": -2.5392833314168763,
      "geoinfo": {
        "display_name": "Candie Gardens, Upland Road, Canton 1, Les Vardes, St Peter Port, Guernsey, GY1 2PY, Guernsey",
        "road": "Upland Road",
        "house_number": null,
        "neighbourhood": null,
        "suburb": "Canton 1",
        "city_district": null,
        "city": "St Peter Port",
        "state": "Guernsey",
        "postcode": "GY1 2PY",
        "country": "Guernsey",
        "country_code": "gg"
      },
      "address": "Candie Gardens, Upland Road, Canton 1, Les Vardes, St Peter Port, Guernsey, GY1 2PY, Guernsey"
    },
    {
      "lat": 49.478418111031914,
      "lon": -2.472938049953419,
      "geoinfo": {
        "display_name": "Fondu, Guernsey, GY1 3HR, Guernsey",
        "road": null,
        "house_number": null,
        "neighbourhood": null,
        "suburb": null,
        "city_district": null,
        "city": null,
        "state": "Guernsey",
        "postcode": "GY1 3HR",
        "country": "Guernsey",
        "country_code": "gg"
      },
      "address": "351, Saint Peter Port, GY1 3HR Guernsey, Guernsey"
    },
    {
      "lat": 49.44454917077124,
      "lon": -2.5442564175932936,
      "geoinfo": {
        "display_name": "30, Havilland Road, Canton 4, Les Vardes, St Peter Port, Guernsey, GY1 1FH, Guernsey",
        "road": "Havilland Road",
        "house_number": null,
        "neighbourhood": null,
        "suburb": "Canton 4",
        "city_district": null,
        "city": "St Peter Port",
        "state": "Guernsey",
        "postcode": "GY1 1FH",
        "country": "Guernsey",
        "country_code": "gg"
      },
      "address": "30, Havilland Road, Canton 4, Les Vardes, St Peter Port, Guernsey, GY1 1FH, Guernsey"
    },
    {
      "lat": 49.422439399296294,
      "lon": -2.5149633574763444,
      "geoinfo": {
        "display_name": "Jerbourg, St Martin, Guernsey, GY4 6BN, Guernsey",
        "road": null,
        "house_number": null,
        "neighbourhood": null,
        "suburb": null,
        "city_district": null,
        "city": "St Martin",
        "state": "Guernsey",
        "postcode": "GY4 6BN",
        "country": "Guernsey",
        "country_code": "gg"
      },
      "address": "446, Saint Peter Port, GY4 6BN Guernsey, Guernsey"
    },
    {
      "lat": 49.435912729496685,
      "lon": -2.538298732965628,
      "geoinfo": {
        "display_name": "Fermain Lane, Canton 4, Les Vardes, St Peter Port, Guernsey, GY1 1ZP, Guernsey",
        "road": "Fermain Lane",
        "house_number": null,
        "neighbourhood": null,
        "suburb": "Canton 4",
        "city_district": null,
        "city": "St Peter Port",
        "state": "Guernsey",
        "postcode": "GY1 1ZP",
        "country": "Guernsey",
        "country_code": "gg"
      },
      "address": "Fermain Lane, Canton 4, Les Vardes, St Peter Port, Guernsey, GY1 1ZP, Guernsey"
    },
    {
      "lat": 49.41608781310592,
      "lon": -2.5346946045972687,
      "geoinfo": {
        "display_name": "Cliff Path, Jerbourg, St Martin, Guernsey, GY4 6BN, Guernsey",
        "road": "Cliff Path",
        "house_number": null,
        "neighbourhood": null,
        "suburb": null,
        "city_district": null,
        "city": "St Martin",
        "state": "Guernsey",
        "postcode": "GY4 6BN",
        "country": "Guernsey",
        "country_code": "gg"
      },
      "address": "783, Cliff Path, Saint Peter Port, GY4 6BN Guernsey, Guernsey"
    },
    {
      "lat": 49.479313292721386,
      "lon": -2.4998195114261583,
      "geoinfo": {
        "display_name": "South Side, Saint-Sampson, St Sampson, Guernsey, GY2 4QG, Guernsey",
        "road": null,
        "house_number": null,
        "neighbourhood": null,
        "suburb": null,
        "city_district": null,
        "city": "St Sampson",
        "state": "Guernsey",
        "postcode": "GY2 4QG",
        "country": "Guernsey",
        "country_code": "gg"
      },
      "address": "341, Saint Peter Port, GY2 4QG Guernsey, Guernsey"
    },
    {
      "lat": 49.423099107662566,
      "lon": -2.500536326962777,
      "geoinfo": {
        "display_name": "Les Vardes, St Peter Port, Guernsey, GY1 1EQ, Guernsey",
        "road": null,
        "house_number": null,
        "neighbourhood": null,
        "suburb": null,
        "city_district": null,
        "city": "St Peter Port",
        "state": "Guernsey",
        "postcode": "GY1 1EQ",
        "country": "Guernsey",
        "country_code": "gg"
      },
      "address": "464, Saint Peter Port, GY1 1EQ Guernsey, Guernsey"
    },
    {
      "lat": 49.466772321461825,
      "lon": -2.5218009326518316,
      "geoinfo": {
        "display_name": "South Side, Saint-Sampson, St Sampson, Guernsey, GY2 4QG, Guernsey",
        "road": null,
        "house_number": null,
        "neighbourhood": null,
        "suburb": null,
        "city_district": null,
        "city": "St Sampson",
        "state": "Guernsey",
        "postcode": "GY2 4QG",
        "country": "Guernsey",
        "country_code": "gg"
      },
      "address": "457, Saint Peter Port, GY2 4QG Guernsey, Guernsey"
    },
    {
      "lat": 49.42313758905148,
      "lon": -2.5043388608363393,
      "geoinfo": {
        "display_name": "Les Vardes, St Peter Port, Guernsey, GY1 1EQ, Guernsey",
        "road": null,
        "house_number": null,
        "neighbourhood": null,
        "suburb": null,
        "city_district": null,
        "city": "St Peter Port",
        "state": "Guernsey",
        "postcode": "GY1 1EQ",
        "country": "Guernsey",
        "country_code": "gg"
      },
      "address": "772, Saint Peter Port, GY1 1EQ Guernsey, Guernsey"
    },
    {
      "lat": 49.471918370042836,
      "lon": -2.531828050641929,
      "geoinfo": {
        "display_name": "Les Banques, Canton 1, Saint-Sampson, St Sampson, Guernsey, GY1 3HS, Guernsey",
        "road": "Les Banques",
        "house_number": null,
        "neighbourhood": null,
        "suburb": "Canton 1",
        "city_district": null,
        "city": "St Sampson",
        "state": "Guernsey",
        "postcode": "GY1 3HS",
        "country": "Guernsey",
        "country_code": "gg"
      },
      "address": "332, Les Banques, Saint Peter Port, GY1 3HS Guernsey, Guernsey"
    },
    {
      "lat": 49.48225434928577,
      "lon": -2.478834561595258,
      "geoinfo": {
        "display_name": "Fondu, Guernsey, GY1 3HR, Guernsey",
        "road": null,
        "house_number": null,
        "neighbourhood": null,
        "suburb": null,
        "city_district": null,
        "city": null,
        "state": "Guernsey",
        "postcode": "GY1 3HR",
        "country": "Guernsey",
        "country_code": "gg"
      },
      "address": "130, Saint Peter Port, GY1 3HR Guernsey, Guernsey"
    },
    {
      "lat": 49.457142520089285,
      "lon": -2.5110222886418323,
      "geoinfo": {
        "display_name": "Saint-Sampson, St Sampson, Guernsey, GY2 4PB, Guernsey",
        "road": null,
        "house_number": null,
        "neighbourhood": null,
        "suburb": null,
        "city_district": null,
        "city": "St Sampson",
        "state": "Guernsey",
        "postcode": "GY2 4PB",
        "country": "Guernsey",
        "country_code": "gg"
      },
      "address": "223, Saint Peter Port, GY2 4PB Guernsey, Guernsey"
    },
    {
      "lat": 49.42452476097564,
      "lon": -2.5416573627587415,
      "geoinfo": {
        "display_name": "Cliff Path, Jerbourg, St Martin, Guernsey, GY4 6BH, Guernsey",
        "road": "Cliff Path",
        "house_number": null,
        "neighbourhood": null,
        "suburb": null,
        "city_district": null,
        "city": "St Martin",
        "state": "Guernsey",
        "postcode": "GY4 6BH",
        "country": "Guernsey",
        "country_code": "gg"
      },
      "address": "848, Cliff Path, Saint Peter Port, GY4 6BH Guernsey, Guernsey"
    },
    {
      "lat": 49.46596613606243,
      "lon": -2.554152557877972,
      "geoinfo": {
        "display_name": "Dingley Dell, La Neuve Rue, Canton 2, Les Vardes, St Peter Port, Guernsey, GY1 2ED, Guernsey",
        "road": "La Neuve Rue",
        "house_number": null,
        "neighbourhood": null,
        "suburb": "Canton 2",
        "city_district": null,
        "city": "St Peter Port",
        "state": "Guernsey",
        "postcode": "GY1 2ED",
        "country": "Guernsey",
        "country_code": "gg"
      },
      "address": "Dingley Dell, La Neuve Rue, Canton 2, Les Vardes, St Peter Port, Guernsey, GY1 2ED, Guernsey"
    },
    {
      "lat": 49.467718309409314,
      "lon": -2.5007551379590467,
      "geoinfo": {
        "display_name": "Saint-Sampson, St Sampson, Guernsey, GY2 4PB, Guernsey",
        "road": null,
        "house_number": null,
        "neighbourhood": null,
        "suburb": null,
        "city_district": null,
        "city": "St Sampson",
        "state": "Guernsey",
        "postcode": "GY2 4PB",
        "country": "Guernsey",
        "country_code": "gg"
      },
      "address": "314, Saint Peter Port, GY2 4PB Guernsey, Guernsey"
    },
    {
      "lat": 49.44464310858746,
      "lon": -2.472496663213602,
      "geoinfo": {
        "display_name": "Grande Fauconniere, Guernsey, GY1 3HR, Guernsey",
        "road": null,
        "house_number": null,
        "neighbourhood": null,
        "suburb": null,
        "city_district": null,
        "city": null,
        "state": "Guernsey",
        "postcode": "GY1 3HR",
        "country": "Guernsey",
        "country_code": "gg"
      },
      "address": "749, Saint Peter Port, GY1 3HR Guernsey, Guernsey"
    },
    {
      "lat": 49.441157850756284,
      "lon": -2.5586761410282004,
      "geoinfo": {
        "display_name": "St Martin, Guernsey, GY4 6HW, Guernsey",
        "road": null,
        "house_number": null,
        "neighbourhood": null,
        "suburb": null,
        "city_district": null,
        "city": "St Martin",
        "state": "Guernsey",
        "postcode": "GY4 6HW",
        "country": "Guernsey",
        "country_code": "gg"
      },
      "address": "258, Saint Peter Port, GY4 6HW Guernsey, Guernsey"
    },
    {
      "lat": 49.42659112847061,
      "lon": -2.5103273464852833,
      "geoinfo": {
        "display_name": "Les Vardes, St Peter Port, Guernsey, GY1 1EQ, Guernsey",
        "road": null,
        "house_number": null,
        "neighbourhood": null,
        "suburb": null,
        "city_district": null,
        "city": "St Peter Port",
        "state": "Guernsey",
        "postcode": "GY1 1EQ",
        "country": "Guernsey",
        "country_code": "gg"
      },
      "address": "964, Saint Peter Port, GY1 1EQ Guernsey, Guernsey"
    },
    {
      "lat": 49.42888890689704,
      "lon": -2.537129364838522,
      "geoinfo": {
        "display_name": "Jerbourg, St Martin, Guernsey, GY4 6BH, Guernsey",
        "road": null,
        "house_number": null,
        "neighbourhood": null,
        "suburb": null,
        "city_district": null,
        "city": "St Martin",
        "state": "Guernsey",
        "postcode": "GY4 6BH",
        "country": "Guernsey",
        "country_code": "gg"
      },
      "address": "785, Saint Peter Port, GY4 6BH Guernsey, Guernsey"
    }
  ],
  "updated_at": "2025-10-19T05:38:55.186197+00:00",
  "_kind": "geo_samples"
}