{
  "country_code": "LC",
  "country": "Saint Lucia",
  "city": "Castries",
  "geonameid": 3576812,
  "target_addresses": 50,
  "samples": [
    {
      "lat": 14.02714154107512,
      "lon": -61.02116745388561,
      "geoinfo": {
        "display_name": "Tapion, Castries, LC04 301, Saint Lucia",
        "road": null,
        "house_number": null,
        "neighbourhood": null,
        "suburb": "Tapion",
        "city_district": null,
        "city": "Castries",
        "state": "Castries",
        "postcode": "LC04 301",
        "country": "Saint Lucia",
        "country_code": "lc"
      },
      "address": "Tapion, Castries, LC04 301, Saint Lucia"
    },
    {
      "lat": 14.010365567442593,
      "lon": -60.96591044355931,
      "geoinfo": {
        "display_name": "Independence City, Balata, Castries, LC06 401, Saint Lucia",
        "road": null,
        "house_number": null,
        "neighbourhood": null,
        "suburb": "Independence City",
        "city_district": null,
        "city": "Balata",
        "state": "Castries",
        "postcode": "LC06 401",
        "country": "Saint Lucia",
        "country_code": "lc"
      },
      "address": "446, Independence City, Castries, LC06 401 Castries, Saint Lucia"
    },
    {
      "lat": 13.98977009675883,
      "lon": -61.00328247920341,
      "geoinfo": {
        "display_name": "Morne Fortune, Ciceron, Castries, LC04 201, Saint Lucia",
        "road": null,
        "house_number": null,
        "neighbourhood": null,
        "suburb": "Morne Fortune",
        "city_district": null,
        "city": "Ciceron",
        "state": "Castries",
        "postcode": "LC04 201",
        "country": "Saint Lucia",
        "country_code": "lc"
      },
      "address": "Morne Fortune, Ciceron, Castries, LC04 201, Saint Lucia"
    },
    {
      "lat": 13.969755477029715,
      "lon": -60.97593887029346,
      "geoinfo": {
        "display_name": "Castries - Vieux Fort Highway, Morne Rouge, Ravine Poisson, L'Abbayée, Castries, LC06 201, Saint Lucia",
        "road": "Castries - Vieux Fort Highway",
        "house_number": null,
        "neighbourhood": "Morne Rouge",
        "suburb": null,
        "city_district": null,
        "city": "L'Abbayée",
        "state": "Castries",
        "postcode": "LC06 201",
        "country": "Saint Lucia",
        "country_code": "lc"
      },
      "address": "Castries - Vieux Fort Highway, Morne Rouge, Ravine Poisson, L'Abbayée, Castries, LC06 201, Saint Lucia"
    },
    {
      "lat": 13.985619141012751,
      "lon": -61.00859737418225,
      "geoinfo": {
        "display_name": "Millennium Highway, Morne Fortune, Monkey Town, Castries, LC04 201, Saint Lucia",
        "road": "Millennium Highway",
        "house_number": null,
        "neighbourhood": null,
        "suburb": "Morne Fortune",
        "city_district": null,
        "city": "Monkey Town",
        "state": "Castries",
        "postcode": "LC04 201",
        "country": "Saint Lucia",
        "country_code": "lc"
      },
      "address": "Millennium Highway, Morne Fortune, Monkey Town, Castries, LC04 201, Saint Lucia"
    },
    {
      "lat": 13.96512298052595,
      "lon": -61.02289360164874,
      "geoinfo": {
        "display_name": "Waterfront Road, Marigot, Coolie Town, Castries, LC33 311, Saint Lucia",
        "road": "Waterfront Road",
        "house_number": null,
        "neighbourhood": null,
        "suburb": null,
        "city_district": null,
        "city": "Coolie Town",
        "state": "Castries",
        "postcode": "LC33 311",
        "country": "Saint Lucia",
        "country_code": "lc"
      },
      "address": "Waterfront Road, Marigot, Coolie Town, Castries, LC33 311, Saint Lucia"
    },
    {
      "lat": 13.998496606141504,
      "lon": -60.96365743584133,
      "geoinfo": {
        "display_name": "Green Gold Road, Cacoa, La Pansee, Babonneau, Castries, LC06 401, Saint Lucia",
        "road": "Green Gold Road",
        "house_number": null,
        "neighbourhood": "Cacoa",
        "suburb": "La Pansee",
        "city_district": null,
        "city": "Babonneau",
        "state": "Castries",
        "postcode": "LC06 401",
        "country": "Saint Lucia",
        "country_code": "lc"
      },
      "address": "Green Gold Road, Cacoa, La Pansee, Babonneau, Castries, LC06 401, Saint Lucia"
    },
    {
      "lat": 13.977306230986521,
      "lon": -60.97995120328041,
      "geoinfo": {
        "display_name": "Castries - Vieux Fort Highway, Morne Rouge, Ravine Poisson, L'Abbayée, Castries, LC06 201, Saint Lucia",
        "road": "Castries - Vieux Fort Highway",
        "house_number": null,
        "neighbourhood": "Morne Rouge",
        "suburb": null,
        "city_district": null,
        "city": "L'Abbayée",
        "state": "Castries",
        "postcode": "LC06 201",
        "country": "Saint Lucia",
        "country_code": "lc"
      },
      "address": "176, Castries - Vieux Fort Highway, Castries, LC06 201 Castries, Saint Lucia"
    },
    {
      "lat": 13.957086827966402,
      "lon": -60.99547829309826,
      "geoinfo": {
        "display_name": "Bel Air, Castries, LC06 201, Saint Lucia",
        "road": null,
        "house_number": null,
        "neighbourhood": null,
        "suburb": null,
        "city_district": null,
        "city": null,
        "state": "Castries",
        "postcode": "LC06 201",
        "country": "Saint Lucia",
        "country_code": "lc"
      },
      "address": "Bel Air, Castries, LC06 201, Saint Lucia"
    },
    {
      "lat": 13.958662655391048,
      "lon": -61.02380188738504,
      "geoinfo": {
        "display_name": "Roseau, Coolie Town, Castries, Saint Lucia",
        "road": null,
        "house_number": null,
        "neighbourhood": null,
        "suburb": null,
        "city_district": null,
        "city": "Coolie Town",
        "state": "Castries",
        "postcode": null,
        "country": "Saint Lucia",
        "country_code": "lc"
      },
      "address": "654, Roseau, Coolie Town, 98108 Castries, Saint Lucia"
    },
    {
      "lat": 13.979751393912155,
      "lon": -60.987056304647716,
      "geoinfo": {
        "display_name": "Ferrands, Country Village, Castries, LC06 201, Saint Lucia",
        "road": null,
        "house_number": null,
        "neighbourhood": null,
        "suburb": null,
        "city_district": null,
        "city": "Country Village",
        "state": "Castries",
        "postcode": "LC06 201",
        "country": "Saint Lucia",
        "country_code": "lc"
      },
      "address": "Ferrands, Country Village, Castries, LC06 201, Saint Lucia"
    },
    {
      "lat": 13.966428600700166,
      "lon": -60.99067039806102,
      "geoinfo": {
        "display_name": "La Croix Maingot - Odsan Road, Odsan, Country Village, Castries, LC33 311, Saint Lucia",
        "road": "La Croix Maingot - Odsan Road",
        "house_number": null,
        "neighbourhood": null,
        "suburb": null,
        "city_district": null,
        "city": "Country Village",
        "state": "Castries",
        "postcode": "LC33 311",
        "country": "Saint Lucia",
        "country_code": "lc"
      },
      "address": "La Croix Maingot - Odsan Road, Odsan, Country Village, Castries, LC33 311, Saint Lucia"
    },
    {
      "lat": 13.974336012592444,
      "lon": -60.99353401047839,
      "geoinfo": {
        "display_name": "Cul De Sac Road, Cul De Sac, Castries, LC06 201, Saint Lucia",
        "road": "Cul De Sac Road",
        "house_number": null,
        "neighbourhood": null,
        "suburb": null,
        "city_district": null,
        "city": null,
        "state": "Castries",
        "postcode": "LC06 201",
        "country": "Saint Lucia",
        "country_code": "lc"
      },
      "address": "Cul De Sac Road, Cul De Sac, Castries, LC06 201, Saint Lucia"
    },
    {
      "lat": 14.020025703667086,
      "lon": -61.01709904557789,
      "geoinfo": {
        "display_name": "Vigie, Castries, LC04 301, Saint Lucia",
        "road": null,
        "house_number": null,
        "neighbourhood": null,
        "suburb": null,
        "city_district": null,
        "city": "Castries",
        "state": "Castries",
        "postcode": "LC04 301",
        "country": "Saint Lucia",
        "country_code": "lc"
      },
      "address": "Vigie, Castries, LC04 301, Saint Lucia"
    },
    {
      "lat": 14.00958452598757,
      "lon": -60.96696314332858,
      "geoinfo": {
        "display_name": "Active Hill, Balata, Castries, LC06 401, Saint Lucia",
        "road": null,
        "house_number": null,
        "neighbourhood": null,
        "suburb": "Active Hill",
        "city_district": null,
        "city": "Balata",
        "state": "Castries",
        "postcode": "LC06 401",
        "country": "Saint Lucia",
        "country_code": "lc"
      },
      "address": "Active Hill, Balata, Castries, LC06 401, Saint Lucia"
    },
    {
      "lat": 14.022402554159184,
      "lon": -60.99413659224035,
      "geoinfo": {
        "display_name": "Nelson Mandela Drive, City Gate, Vigie, Castries, LC04 301, Saint Lucia",
        "road": "Nelson Mandela Drive",
        "house_number": null,
        "neighbourhood": "City Gate",
        "suburb": null,
        "city_district": null,
        "city": "Castries",
        "state": "Castries",
        "postcode": "LC04 301",
        "country": "Saint Lucia",
        "country_code": "lc"
      },
      "address": "Nelson Mandela Drive, City Gate, Vigie, Castries, LC04 301, Saint Lucia"
    },
    {
      "lat": 13.971019046065743,
      "lon": -61.00618924113385,
      "geoinfo": {
        "display_name": "Ti Colon Road, La Croix Maingot, Coolie Town, Castries, LC06 201, Saint Lucia",
        "road": "Ti Colon Road",
        "house_number": null,
        "neighbourhood": null,
        "suburb": null,
        "city_district": null,
        "city": "Coolie Town",
        "state": "Castries",
        "postcode": "LC06 201",
        "country": "Saint Lucia",
        "country_code": "lc"
      },
      "address": "Ti Colon Road, La Croix Maingot, Coolie Town, Castries, LC06 201, Saint Lucia"
    },
    {
      "lat": 13.977593942004026,
      "lon": -61.029232968131076,
      "geoinfo": {
        "display_name": "Marigot, Coolie Town, Castries, LC06 201, Saint Lucia",
        "road": null,
        "house_number": null,
        "neighbourhood": null,
        "suburb": null,
        "city_district": null,
        "city": "Coolie Town",
        "state": "Castries",
        "postcode": "LC06 201",
        "country": "Saint Lucia",
        "country_code": "lc"
      },
      "address": "Marigot, Coolie Town, Castries, LC06 201, Saint Lucia"
    },
    {
      "lat": 14.003748598978932,
      "lon": -60.989791090131725,
      "geoinfo": {
        "display_name": "Maynard Hill Road, Parker's Hill, Maynard Hill, Castries, LC04 201, Saint Lucia",
        "road": "Maynard Hill Road",
        "house_number": null,
        "neighbourhood": "Parker's Hill",
        "suburb": "Maynard Hill",
        "city_district": null,
        "city": "Castries",
        "state": "Castries",
        "postcode": "LC04 201",
        "country": "Saint Lucia",
        "country_code": "lc"
      },
      "address": "Maynard Hill Road, Parker's Hill, Maynard Hill, Castries, LC04 201, Saint Lucia"
    },
    {
      "lat": 13.959309928471573,
      "lon": -61.01202200936775,
      "geoinfo": {
        "display_name": "Colie Town Road, Perou, Coolie Town, Castries, LC06 201, Saint Lucia",
        "road": "Colie Town Road",
        "house_number": null,
        "neighbourhood": null,
        "suburb": null,
        "city_district": null,
        "city": "Coolie Town",
        "state": "Castries",
        "postcode": "LC06 201",
        "country": "Saint Lucia",
        "country_code": "lc"
      },
      "address": "Colie Town Road, Perou, Coolie Town, Castries, LC06 201, Saint Lucia"
    },
    {
      "lat": 13.973413962304713,
      "lon": -60.976199916128046,
      "geoinfo": {
        "display_name": "Castries - Vieux Fort Highway, Morne Rouge, Ravine Poisson, L'Abbayée, Castries, LC06 201, Saint Lucia",
        "road": "Castries - Vieux Fort Highway",
        "house_number": null,
        "neighbourhood": "Morne Rouge",
        "suburb": null,
        "city_district": null,
        "city": "L'Abbayée",
        "state": "Castries",
        "postcode": "LC06 201",
        "country": "Saint Lucia",
        "country_code": "lc"
      },
      "address": "228, Castries - Vieux Fort Highway, Castries, LC06 201 Castries, Saint Lucia"
    },
    {
      "lat": 14.01198193436346,
      "lon": -61.01883215106182,
      "geoinfo": {
        "display_name": "Coubaril, Goodlands, Castries, LC04 201, Saint Lucia",
        "road": null,
        "house_number": null,
        "neighbourhood": null,
        "suburb": null,
        "city_district": null,
        "city": "Goodlands",
        "state": "Castries",
        "postcode": "LC04 201",
        "country": "Saint Lucia",
        "country_code": "lc"
      },
      "address": "Coubaril, Goodlands, Castries, LC04 201, Saint Lucia"
    },
    {
      "lat": 14.010745867062983,
      "lon": -61.04412489819704,
      "geoinfo": {
        "display_name": "Anse La Raye, Saint Lucia",
        "road": null,
        "house_number": null,
        "neighbourhood": null,
        "suburb": null,
        "city_district": null,
        "city": "Anse La Raye",
        "state": "Anse La Raye",
        "postcode": null,
        "country": "Saint Lucia",
        "country_code": "lc"
      },
      "address": "016, Castries, 88161 Anse La Raye, Saint Lucia"
    },
    {
      "lat": 14.02440150277201,
      "lon": -61.01948327910526,
      "geoinfo": {
        "display_name": "Vigie, Castries, LC04 301, Saint Lucia",
        "road": null,
        "house_number": null,
        "neighbourhood": null,
        "suburb": null,
        "city_district": null,
        "city": "Castries",
        "state": "Castries",
        "postcode": "LC04 301",
        "country": "Saint Lucia",
        "country_code": "lc"
      },
      "address": "482, Castries, LC04 301 Castries, Saint Lucia"
    },
    {
      "lat": 13.973003017307361,
      "lon": -61.030389207037445,
      "geoinfo": {
        "display_name": "\"Billy Goat\" Nature Trail, Coolie Town, Castries, LC04 201, Saint Lucia",
        "road": "\"Billy Goat\" Nature Trail",
        "house_number": null,
        "neighbourhood": null,
        "suburb": null,
        "city_district": null,
        "city": "Coolie Town",
        "state": "Castries",
        "postcode": "LC04 201",
        "country": "Saint Lucia",
        "country_code": "lc"
      },
      "address": "\"Billy Goat\" Nature Trail, Coolie Town, Castries, LC04 201, Saint Lucia"
    },
    {
      "lat": 14.013688495650126,
      "lon": -60.9638482834413,
      "geoinfo": {
        "display_name": "La Pansee - Morne Du Don Road, L'Anse Road, Pavée, Balata, Castries, LC04 401, Saint Lucia",
        "road": "La Pansee - Morne Du Don Road",
        "house_number": null,
        "neighbourhood": "L'Anse Road",
        "suburb": "Pavée",
        "city_district": null,
        "city": "Balata",
        "state": "Castries",
        "postcode": "LC04 401",
        "country": "Saint Lucia",
        "country_code": "lc"
      },
      "address": "La Pansee - Morne Du Don Road, L'Anse Road, Pavée, Balata, Castries, LC04 401, Saint Lucia"
    },
    {
      "lat": 14.025742459611488,
      "lon": -60.98136008372749,
      "geoinfo": {
        "display_name": "BeachComber ltd Pools, Choc Highway, City Gate, Choc, Castries, LC02 501, Saint Lucia",
        "road": "Choc Highway",
        "house_number": null,
        "neighbourhood": "City Gate",
        "suburb": null,
        "city_district": null,
        "city": "Castries",
        "state": "Castries",
        "postcode": "LC02 501",
        "country": "Saint Lucia",
        "country_code": "lc"
      },
      "address": "BeachComber ltd Pools, Choc Highway, City Gate, Choc, Castries, LC02 501, Saint Lucia"
    },
    {
      "lat": 13.98940702107047,
      "lon": -60.965590395041865,
      "geoinfo": {
        "display_name": "Ti Rocher, Castries, LC06 401, Saint Lucia",
        "road": null,
        "house_number": null,
        "neighbourhood": null,
        "suburb": null,
        "city_district": null,
        "city": "Castries",
        "state": "Castries",
        "postcode": "LC06 401",
        "country": "Saint Lucia",
        "country_code": "lc"
      },
      "address": "Ti Rocher, Castries, LC06 401, Saint Lucia"
    },
    {
      "lat": 13.963411995324844,
      "lon": -60.974442976949675,
      "geoinfo": {
        "display_name": "Morne Rouge, Bexon, Castries, LC06 201, Saint Lucia",
        "road": null,
        "house_number": null,
        "neighbourhood": "Morne Rouge",
        "suburb": null,
        "city_district": null,
        "city": "Bexon",
        "state": "Castries",
        "postcode": "LC06 201",
        "country": "Saint Lucia",
        "country_code": "lc"
      },
      "address": "Morne Rouge, Bexon, Castries, LC06 201, Saint Lucia"
    },
    {
      "lat": 14.000452097834826,
      "lon": -60.99645699024782,
      "geoinfo": {
        "display_name": "OECS Access Road, Bois Catchet, Morne Fortune, Castries, LC04 201, Saint Lucia",
        "road": "OECS Access Road",
        "house_number": null,
        "neighbourhood": "Bois Catchet",
        "suburb": "Morne Fortune",
        "city_district": null,
        "city": "Morne Fortune",
        "state": "Castries",
        "postcode": "LC04 201",
        "country": "Saint Lucia",
        "country_code": "lc"
      },
      "address": "OECS Access Road, Bois Catchet, Morne Fortune, Castries, LC04 201, Saint Lucia"
    },
    {
      "lat": 13.985829431716247,
      "lon": -61.00953273594779,
      "geoinfo": {
        "display_name": "Millennium Highway, Morne Fortune, Monkey Town, Castries, LC04 201, Saint Lucia",
        "road": "Millennium Highway",
        "house_number": null,
        "neighbourhood": null,
        "suburb": "Morne Fortune",
        "city_district": null,
        "city": "Monkey Town",
        "state": "Castries",
        "postcode": "LC04 201",
        "country": "Saint Lucia",
        "country_code": "lc"
      },
      "address": "959, Millennium Highway, Castries, LC04 201 Castries, Saint Lucia"
    },
    {
      "lat": 13.974765343492159,
      "lon": -60.98425418144223,
      "geoinfo": {
        "display_name": "La Croix Maingot - Odsan Road, Odsan, Country Village, Castries, LC33 311, Saint Lucia",
        "road": "La Croix Maingot - Odsan Road",
        "house_number": null,
        "neighbourhood": null,
        "suburb": null,
        "city_district": null,
        "city": "Country Village",
        "state": "Castries",
        "postcode": "LC33 311",
        "country": "Saint Lucia",
        "country_code": "lc"
      },
      "address": "701, La Croix Maingot - Odsan Road, Castries, LC33 311 Castries, Saint Lucia"
    },
    {
      "lat": 14.00810050556745,
      "lon": -61.00839260006193,
      "geoinfo": {
        "display_name": "Sandals Regency La Toc Golf Resort & Spa, Coubaril Road, Coubaril, Goodlands, Castries, LC04 201, Saint Lucia",
        "road": "Coubaril Road",
        "house_number": null,
        "neighbourhood": null,
        "suburb": null,
        "city_district": null,
        "city": "Goodlands",
        "state": "Castries",
        "postcode": "LC04 201",
        "country": "Saint Lucia",
        "country_code": "lc"
      },
      "address": "Sandals Regency La Toc Golf Resort & Spa, Coubaril Road, Coubaril, Goodlands, Castries, LC04 201, Saint Lucia"
    },
    {
      "lat": 13.97857044545375,
      "lon": -61.02707496441565,
      "geoinfo": {
        "display_name": "Marigot, Coolie Town, Castries, LC06 201, Saint Lucia",
        "road": null,
        "house_number": null,
        "neighbourhood": null,
        "suburb": null,
        "city_district": null,
        "city": "Coolie Town",
        "state": "Castries",
        "postcode": "LC06 201",
        "country": "Saint Lucia",
        "country_code": "lc"
      },
      "address": "100, Castries, LC06 201 Castries, Saint Lucia"
    },
    {
      "lat": 14.024305383568883,
      "lon": -61.02527022732747,
      "geoinfo": {
        "display_name": "Tapion, Castries, LC04 301, Saint Lucia",
        "road": null,
        "house_number": null,
        "neighbourhood": null,
        "suburb": "Tapion",
        "city_district": null,
        "city": "Castries",
        "state": "Castries",
        "postcode": "LC04 301",
        "country": "Saint Lucia",
        "country_code": "lc"
      },
      "address": "439, Tapion, Castries, LC04 301 Castries, Saint Lucia"
    },
    {
      "lat": 14.013714897030837,
      "lon": -60.976971161751095,
      "geoinfo": {
        "display_name": "mechanic shop, Carellie Road, City Gate, Bisee, Castries, LC02 501, Saint Lucia",
        "road": "Carellie Road",
        "house_number": null,
        "neighbourhood": "City Gate",
        "suburb": null,
        "city_district": null,
        "city": "Castries",
        "state": "Castries",
        "postcode": "LC02 501",
        "country": "Saint Lucia",
        "country_code": "lc"
      },
      "address": "mechanic shop, Carellie Road, City Gate, Bisee, Castries, LC02 501, Saint Lucia"
    },
    {
      "lat": 14.031367551122099,
      "lon": -61.0191511775623,
      "geoinfo": {
        "display_name": "Tapion, Castries, LC04 301, Saint Lucia",
        "road": null,
        "house_number": null,
        "neighbourhood": null,
        "suburb": "Tapion",
        "city_district": null,
        "city": "Castries",
        "state": "Castries",
        "postcode": "LC04 301",
        "country": "Saint Lucia",
        "country_code": "lc"
      },
      "address": "057, Tapion, Castries, LC04 301 Castries, Saint Lucia"
    },
    {
      "lat": 13.952079113331411,
      "lon": -61.010539942321984,
      "geoinfo": {
        "display_name": "Millet Road, Morne d'Or, Jacmel, Castries, LC05 201, Saint Lucia",
        "road": "Millet Road",
        "house_number": null,
        "neighbourhood": null,
        "suburb": null,
        "city_district": null,
        "city": "Jacmel",
        "state": "Castries",
        "postcode": "LC05 201",
        "country": "Saint Lucia",
        "country_code": "lc"
      },
      "address": "Millet Road, Morne d'Or, Jacmel, Castries, LC05 201, Saint Lucia"
    },
    {
      "lat": 14.021478223983758,
      "lon": -60.998162916815446,
      "geoinfo": {
        "display_name": "Vigie, Castries, LC04 301, Saint Lucia",
        "road": null,
        "house_number": null,
        "neighbourhood": null,
        "suburb": null,
        "city_district": null,
        "city": "Castries",
        "state": "Castries",
        "postcode": "LC04 301",
        "country": "Saint Lucia",
        "country_code": "lc"
      },
      "address": "239, Castries, LC04 301 Castries, Saint Lucia"
    },
    {
      "lat": 14.024674861931233,
      "lon": -60.99537607591943,
      "geoinfo": {
        "display_name": "Saint Mary's College Football Field, Vigie, Castries, LC04 301, Saint Lucia",
        "road": null,
        "house_number": null,
        "neighbourhood": null,
        "suburb": null,
        "city_district": null,
        "city": "Castries",
        "state": "Castries",
        "postcode": "LC04 301",
        "country": "Saint Lucia",
        "country_code": "lc"
      },
      "address": "Saint Mary's College Football Field, Vigie, Castries, LC04 301, Saint Lucia"
    },
    {
      "lat": 14.027955643344306,
      "lon": -61.031942149269334,
      "geoinfo": {
        "display_name": "Tapion, Castries, LC04 301, Saint Lucia",
        "road": null,
        "house_number": null,
        "neighbourhood": null,
        "suburb": "Tapion",
        "city_district": null,
        "city": "Castries",
        "state": "Castries",
        "postcode": "LC04 301",
        "country": "Saint Lucia",
        "country_code": "lc"
      },
      "address": "793, Tapion, Castries, LC04 301 Castries, Saint Lucia"
    },
    {
      "lat": 14.012796960855098,
      "lon": -61.022314117121475,
      "geoinfo": {
        "display_name": "Coubaril, Goodlands, Castries, LC04 201, Saint Lucia",
        "road": null,
        "house_number": null,
        "neighbourhood": null,
        "suburb": null,
        "city_district": null,
        "city": "Goodlands",
        "state": "Castries",
        "postcode": "LC04 201",
        "country": "Saint Lucia",
        "country_code": "lc"
      },
      "address": "533, Castries, LC04 201 Castries, Saint Lucia"
    },
    {
      "lat": 14.007266800520394,
      "lon": -60.99055083641184,
      "geoinfo": {
        "display_name": "Laborie Street, Parker's Hill, City, Castries, LC04 101, Saint Lucia",
        "road": "Laborie Street",
        "house_number": null,
        "neighbourhood": "Parker's Hill",
        "suburb": "City",
        "city_district": null,
        "city": "Castries",
        "state": "Castries",
        "postcode": "LC04 101",
        "country": "Saint Lucia",
        "country_code": "lc"
      },
      "address": "Laborie Street, Parker's Hill, City, Castries, LC04 101, Saint Lucia"
    },
    {
      "lat": 13.965458664597119,
      "lon": -60.99315510095603,
      "geoinfo": {
        "display_name": "Barre Denis Road, Barre Denis, Castries, LC33 311, Saint Lucia",
        "road": "Barre Denis Road",
        "house_number": null,
        "neighbourhood": null,
        "suburb": null,
        "city_district": null,
        "city": null,
        "state": "Castries",
        "postcode": "LC33 311",
        "country": "Saint Lucia",
        "country_code": "lc"
      },
      "address": "Barre Denis Road, Barre Denis, Castries, LC33 311, Saint Lucia"
    },
    {
      "lat": 13.966475681428559,
      "lon": -60.99481066055726,
      "geoinfo": {
        "display_name": "Barre Denis, Castries, LC33 311, Saint Lucia",
        "road": null,
        "house_number": null,
        "neighbourhood": null,
        "suburb": null,
        "city_district": null,
        "city": null,
        "state": "Castries",
        "postcode": "LC33 311",
        "country": "Saint Lucia",
        "country_code": "lc"
      },
      "address": "Barre Denis, Castries, LC33 311, Saint Lucia"
    },
    {
      "lat": 13.983203029050317,
      "lon": -60.97540433685564,
      "geoinfo": {
        "display_name": "Landfill Road, Dubrassay, Country Village, Castries, LC06 401, Saint Lucia",
        "road": "Landfill Road",
        "house_number": null,
        "neighbourhood": null,
        "suburb": null,
        "city_district": null,
        "city": "Country Village",
        "state": "Castries",
        "postcode": "LC06 401",
        "country": "Saint Lucia",
        "country_code": "lc"
      },
      "address": "Landfill Road, Dubrassay, Country Village, Castries, LC06 401, Saint Lucia"
    },
    {
      "lat": 14.008462366397364,
      "lon": -61.02523900893193,
      "geoinfo": {
        "display_name": "Tapion, Castries, LC04 301, Saint Lucia",
        "road": null,
        "house_number": null,
        "neighbourhood": null,
        "suburb": "Tapion",
        "city_district": null,
        "city": "Castries",
        "state": "Castries",
        "postcode": "LC04 301",
        "country": "Saint Lucia",
        "country_code": "lc"
      },
      "address": "047, Tapion, Castries, LC04 301 Castries, Saint Lucia"
    },
    {
      "lat": 13.956900807698728,
      "lon": -60.99505345128369,
      "geoinfo": {
        "display_name": "Bel Air, Castries, LC06 201, Saint Lucia",
        "road": null,
        "house_number": null,
        "neighbourhood": null,
        "suburb": null,
        "city_district": null,
        "city": null,
        "state": "Castries",
        "postcode": "LC06 201",
        "country": "Saint Lucia",
        "country_code": "lc"
      },
      "address": "078, Castries, LC06 201 Castries, Saint Lucia"
    }
  ],
  "updated_at": "2025-10-19T05:09:31.986786+00:00",
  "_kind": "geo_samples"
}