{
  "country_code": "SY",
  "country": "Syria",
  "city": "Al Bāb",
  "geonameid": 174018,
  "target_addresses": 2,
  "samples": [
    {
      "lat": 36.39834749032537,
      "lon": 37.49942205779114,
      "geoinfo": {
        "display_name": "International Route - Al-Bab, Olan, Al-Bab Subdistrict, Al-Bab District, Aleppo Governorate, Syria",
        "road": "International Route - Al-Bab",
        "house_number": null,
        "neighbourhood": null,
        "suburb": null,
        "city_district": null,
        "city": "Olan",
        "state": "Aleppo Governorate",
        "postcode": null,
        "country": "Syria",
        "country_code": "sy"
      },
      "address": "International Route - Al-Bab, Al Bāb, Aleppo Governorate, Syria"
    },
    {
      "lat": 36.387977315283145,
      "lon": 37.48990942668248,
      "geoinfo": {
        "display_name": "Al-Bab, Al-Bab Subdistrict, Al-Bab District, Aleppo Governorate, Syria",
        "road": null,
        "house_number": null,
        "neighbourhood": null,
        "suburb": null,
        "city_district": null,
        "city": "Al-Bab",
        "state": "Aleppo Governorate",
        "postcode": null,
        "country": "Syria",
        "country_code": "sy"
      },
      "address": "Al Bāb, Aleppo Governorate, Syria"
    },
    {
      "lat": 36.346679653260225,
      "lon": 37.49454703922751,
      "geoinfo": {
        "display_name": "M4, Abu El Zandin, Al-Bab Subdistrict, Al-Bab District, Aleppo Governorate, Syria",
        "road": "M4",
        "house_number": null,
        "neighbourhood": null,
        "suburb": null,
        "city_district": null,
        "city": "Abu El Zandin",
        "state": "Aleppo Governorate",
        "postcode": null,
        "country": "Syria",
        "country_code": "sy"
      },
      "address": "M4, Abu El Zandin, Al-Bab Subdistrict, Al-Bab District, 68648 Aleppo Governorate, Syria"
    },
    {
      "lat": 36.345581287851445,
      "lon": 37.551547253734306,
      "geoinfo": {
        "display_name": "‫طريق ابو جبار, مدينة تادف, Tadef Subdistrict, Al-Bab District, Aleppo Governorate, Syria",
        "road": "‫طريق ابو جبار",
        "house_number": null,
        "neighbourhood": null,
        "suburb": null,
        "city_district": null,
        "city": "مدينة تادف",
        "state": "Aleppo Governorate",
        "postcode": null,
        "country": "Syria",
        "country_code": "sy"
      },
      "address": "105, ‫طريق ابو جبار, مدينة تادف, Tadef Subdistrict, Al-Bab District, 90235 Aleppo Governorate, Syria"
    }
  ],
  "updated_at": "2025-10-19T06:41:56.390643+00:00",
  "_kind": "geo_samples"
}