{
  "country_code": "SY",
  "country": "Syria",
  "city": "Burj Islām",
  "geonameid": 171147,
  "target_addresses": 2,
  "samples": [
    {
      "lat": 35.636172095318564,
      "lon": 35.809513054481705,
      "geoinfo": {
        "display_name": "Shamiya, Lattakia Subdistrict, Lattakia District, Lattakia Governorate, Syria",
        "road": null,
        "house_number": null,
        "neighbourhood": null,
        "suburb": null,
        "city_district": null,
        "city": "Shamiya",
        "state": "Lattakia Governorate",
        "postcode": null,
        "country": "Syria",
        "country_code": "sy"
      },
      "address": "Burj Islām, Lattakia Governorate, Syria"
    },
    {
      "lat": 35.67083197391163,
      "lon": 35.84498999187623,
      "geoinfo": {
        "display_name": "1, Khirbet al-Joziya, Ain al-Beida Subdistrict, Lattakia District, Lattakia Governorate, Syria",
        "road": "1",
        "house_number": null,
        "neighbourhood": null,
        "suburb": null,
        "city_district": null,
        "city": "Khirbet al-Joziya",
        "state": "Lattakia Governorate",
        "postcode": null,
        "country": "Syria",
        "country_code": "sy"
      },
      "address": "1, Burj Islām, Lattakia Governorate, Syria"
    },
    {
      "lat": 35.65810134081846,
      "lon": 35.81827038817669,
      "geoinfo": {
        "display_name": "Burj Islam, Ain al-Beida Subdistrict, Lattakia District, Lattakia Governorate, Syria",
        "road": null,
        "house_number": null,
        "neighbourhood": null,
        "suburb": null,
        "city_district": null,
        "city": "Burj Islam",
        "state": "Lattakia Governorate",
        "postcode": null,
        "country": "Syria",
        "country_code": "sy"
      },
      "address": "695, Burj Islam, Ain al-Beida Subdistrict, Lattakia District, 07330 Lattakia Governorate, Syria"
    },
    {
      "lat": 35.711947565520774,
      "lon": 35.80426446824224,
      "geoinfo": {
        "display_name": "Al Qanatir, Sulaib at-Turkman, Ain al-Beida Subdistrict, Lattakia District, Lattakia Governorate, Syria",
        "road": null,
        "house_number": null,
        "neighbourhood": null,
        "suburb": null,
        "city_district": null,
        "city": "Sulaib at-Turkman",
        "state": "Lattakia Governorate",
        "postcode": null,
        "country": "Syria",
        "country_code": "sy"
      },
      "address": "924, Al Qanatir, Sulaib at-Turkman, Ain al-Beida Subdistrict, Lattakia District, 99752 Lattakia Governorate, Syria"
    }
  ],
  "updated_at": "2025-10-19T10:05:50.606581+00:00",
  "_kind": "geo_samples"
}