{
  "country_code": "SY",
  "country": "Syria",
  "city": "Deir ez-Zor",
  "geonameid": 170794,
  "target_addresses": 2,
  "samples": [
    {
      "lat": 35.34530092483376,
      "lon": 40.148498410024295,
      "geoinfo": {
        "display_name": "Kornish Street, Othmaniyeh, Deir ez-Zor, Deir ez-Zor Subdistrict, Deir ez-Zor District, Deir ez-Zor Governorate, Syria",
        "road": "Kornish Street",
        "house_number": null,
        "neighbourhood": "Othmaniyeh",
        "suburb": null,
        "city_district": null,
        "city": "Deir ez-Zor",
        "state": "Deir ez-Zor Governorate",
        "postcode": null,
        "country": "Syria",
        "country_code": "sy"
      },
      "address": "Kornish Street, Deir ez-Zor, Deir ez-Zor Governorate, Syria"
    },
    {
      "lat": 35.371915299909574,
      "lon": 40.1514913890291,
      "geoinfo": {
        "display_name": "Al Husainia, Deir ez-Zor, Deir ez-Zor Subdistrict, Deir ez-Zor District, Deir ez-Zor Governorate, Syria",
        "road": null,
        "house_number": null,
        "neighbourhood": "Al Husainia",
        "suburb": null,
        "city_district": null,
        "city": "Deir ez-Zor",
        "state": "Deir ez-Zor Governorate",
        "postcode": null,
        "country": "Syria",
        "country_code": "sy"
      },
      "address": "Al Husainia, Deir ez-Zor, Deir ez-Zor Governorate, Syria"
    },
    {
      "lat": 35.342887022902275,
      "lon": 40.129544990740925,
      "geoinfo": {
        "display_name": "Deir ez-Zor, Deir ez-Zor Subdistrict, Deir ez-Zor District, Deir ez-Zor Governorate, Syria",
        "road": null,
        "house_number": null,
        "neighbourhood": null,
        "suburb": null,
        "city_district": null,
        "city": "Deir ez-Zor",
        "state": "Deir ez-Zor Governorate",
        "postcode": null,
        "country": "Syria",
        "country_code": "sy"
      },
      "address": "648, Deir ez-Zor, Deir ez-Zor Subdistrict, Deir ez-Zor District, 94163 Deir ez-Zor Governorate, Syria"
    },
    {
      "lat": 35.32152161607088,
      "lon": 40.110726210413716,
      "geoinfo": {
        "display_name": "University al-Furat, 7, Deir ez-Zor, Deir ez-Zor Subdistrict, Deir ez-Zor District, Deir ez-Zor Governorate, Syria",
        "road": "7",
        "house_number": null,
        "neighbourhood": null,
        "suburb": null,
        "city_district": null,
        "city": "Deir ez-Zor",
        "state": "Deir ez-Zor Governorate",
        "postcode": null,
        "country": "Syria",
        "country_code": "sy"
      },
      "address": "7, Deir ez-Zor, 85274 Deir ez-Zor Governorate, Syria"
    }
  ],
  "updated_at": "2025-10-19T05:38:29.983850+00:00",
  "_kind": "geo_samples"
}