{
  "country_code": "SY",
  "country": "Syria",
  "city": "Jarābulus",
  "geonameid": 169179,
  "target_addresses": 2,
  "samples": [
    {
      "lat": 36.77882840100779,
      "lon": 37.98926073213372,
      "geoinfo": {
        "display_name": "Marma al-Hajar, Jarablus Subdistrict, Jarablus District, Aleppo Governorate, Syria",
        "road": null,
        "house_number": null,
        "neighbourhood": null,
        "suburb": null,
        "city_district": null,
        "city": "Marma al-Hajar",
        "state": "Aleppo Governorate",
        "postcode": null,
        "country": "Syria",
        "country_code": "sy"
      },
      "address": "Jarābulus, Aleppo Governorate, Syria"
    },
    {
      "lat": 36.85388578930425,
      "lon": 38.02704496552508,
      "geoinfo": {
        "display_name": "-1, Ziyaret, Ziyaret Mahallesi, Birecik, Şanlıurfa, Southeastern Anatolia Region, Turkey",
        "road": "-1",
        "house_number": null,
        "neighbourhood": null,
        "suburb": null,
        "city_district": null,
        "city": "Birecik",
        "state": null,
        "postcode": null,
        "country": "Turkey",
        "country_code": "tr"
      },
      "address": "-1, Jarābulus, Aleppo Governorate, Syria"
    },
    {
      "lat": 36.814052733519084,
      "lon": 37.99871834604931,
      "geoinfo": {
        "display_name": "Jarablus, Jarablus Subdistrict, Jarablus District, Aleppo Governorate, Syria",
        "road": null,
        "house_number": null,
        "neighbourhood": null,
        "suburb": null,
        "city_district": null,
        "city": "Jarablus",
        "state": "Aleppo Governorate",
        "postcode": null,
        "country": "Syria",
        "country_code": "sy"
      },
      "address": "437, Jarablus, Jarablus Subdistrict, Jarablus District, 84319 Aleppo Governorate, Syria"
    },
    {
      "lat": 36.82699789001219,
      "lon": 38.06529869862591,
      "geoinfo": {
        "display_name": "Khirbet Atu, Shuyoukh Tahtani Subdistrict, Ain al-Arab District, Aleppo Governorate, Syria",
        "road": null,
        "house_number": null,
        "neighbourhood": null,
        "suburb": null,
        "city_district": null,
        "city": "Khirbet Atu",
        "state": "Aleppo Governorate",
        "postcode": null,
        "country": "Syria",
        "country_code": "sy"
      },
      "address": "792, Khirbet Atu, Shuyoukh Tahtani Subdistrict, Ain al-Arab District, 00013 Aleppo Governorate, Syria"
    }
  ],
  "updated_at": "2025-10-19T07:06:25.611138+00:00",
  "_kind": "geo_samples"
}