{
  "country_code": "SY",
  "country": "Syria",
  "city": "Jﾄ《im",
  "geonameid": 165997,
  "target_addresses": 2,
  "samples": [
    {
      "lat": 33.02706580619021,
      "lon": 36.07872530422036,
      "geoinfo": {
        "display_name": "Kafr Shams, Jasim Subdistrict, Izra District, Dar'a Governorate, Syria",
        "road": null,
        "house_number": null,
        "neighbourhood": null,
        "suburb": null,
        "city_district": null,
        "city": "Kafr Shams",
        "state": "Dar'a Governorate",
        "postcode": null,
        "country": "Syria",
        "country_code": "sy"
      },
      "address": "Jﾄ《im, Dar'a Governorate, Syria"
    },
    {
      "lat": 32.9610042094867,
      "lon": 36.074888123484975,
      "geoinfo": {
        "display_name": "Nawa Subdistrict, Izra District, Dar'a Governorate, Syria",
        "road": null,
        "house_number": null,
        "neighbourhood": null,
        "suburb": null,
        "city_district": null,
        "city": null,
        "state": "Dar'a Governorate",
        "postcode": null,
        "country": "Syria",
        "country_code": "sy"
      },
      "address": "353, Jﾄ《im, 51377 Dar'a Governorate, Syria"
    },
    {
      "lat": 33.034232787955595,
      "lon": 36.0495097765937,
      "geoinfo": {
        "display_name": "Namr, Jasim Subdistrict, Izra District, Dar'a Governorate, Syria",
        "road": null,
        "house_number": null,
        "neighbourhood": null,
        "suburb": null,
        "city_district": null,
        "city": "Namr",
        "state": "Dar'a Governorate",
        "postcode": null,
        "country": "Syria",
        "country_code": "sy"
      },
      "address": "388, Jﾄ《im, 45124 Dar'a Governorate, Syria"
    }
  ],
  "updated_at": "2025-10-19T10:03:48.654319+00:00",
  "_kind": "geo_samples"
}