{
  "country_code": "SY",
  "country": "Syria",
  "city": "Manbij",
  "geonameid": 167357,
  "target_addresses": 2,
  "samples": [
    {
      "lat": 36.55025059847027,
      "lon": 37.93540927840335,
      "geoinfo": {
        "display_name": "Manbij, Manbij Subdistrict, Manbij District, Aleppo Governorate, Syria",
        "road": null,
        "house_number": null,
        "neighbourhood": null,
        "suburb": null,
        "city_district": null,
        "city": "Manbij",
        "state": "Aleppo Governorate",
        "postcode": null,
        "country": "Syria",
        "country_code": "sy"
      },
      "address": "Manbij, Aleppo Governorate, Syria"
    },
    {
      "lat": 36.57200260251733,
      "lon": 37.945405571644606,
      "geoinfo": {
        "display_name": "Jarablus-Manbij Road, Jelawi, Al-Sorb, Dadat, Manbij Subdistrict, Manbij District, Aleppo Governorate, Syria",
        "road": "Jarablus-Manbij Road",
        "house_number": null,
        "neighbourhood": "Jelawi",
        "suburb": "Al-Sorb",
        "city_district": null,
        "city": "Dadat",
        "state": "Aleppo Governorate",
        "postcode": null,
        "country": "Syria",
        "country_code": "sy"
      },
      "address": "Jarablus-Manbij Road, Manbij, Aleppo Governorate, Syria"
    },
    {
      "lat": 36.504981750553846,
      "lon": 37.9732102432839,
      "geoinfo": {
        "display_name": "Al-Asadiat, Manbij, Manbij Subdistrict, Manbij District, Aleppo Governorate, Syria",
        "road": null,
        "house_number": null,
        "neighbourhood": null,
        "suburb": "Al-Asadiat",
        "city_district": null,
        "city": "Manbij",
        "state": "Aleppo Governorate",
        "postcode": null,
        "country": "Syria",
        "country_code": "sy"
      },
      "address": "730, Al-Asadiat, Manbij, Manbij Subdistrict, Manbij District, 17000 Aleppo Governorate, Syria"
    },
    {
      "lat": 36.537092976479364,
      "lon": 37.97169351507814,
      "geoinfo": {
        "display_name": "Jelawi, Tell Yasti, Manbij Subdistrict, Manbij District, Aleppo Governorate, Syria",
        "road": null,
        "house_number": null,
        "neighbourhood": null,
        "suburb": "Jelawi",
        "city_district": null,
        "city": "Tell Yasti",
        "state": "Aleppo Governorate",
        "postcode": null,
        "country": "Syria",
        "country_code": "sy"
      },
      "address": "248, Jelawi, Manbij, 71728 Aleppo Governorate, Syria"
    }
  ],
  "updated_at": "2025-10-19T10:04:02.667344+00:00",
  "_kind": "geo_samples"
}