{
  "country_code": "LA",
  "country": "Laos",
  "city": "Savannakhet",
  "geonameid": 1653316,
  "target_addresses": 7,
  "samples": [
    {
      "lat": 16.536575037849136,
      "lon": 104.77383387679818,
      "geoinfo": {
        "display_name": "9B, Savannakhet, Khanthaboury District, Savannakhet Province, 13000, Laos",
        "road": "9B",
        "house_number": null,
        "neighbourhood": null,
        "suburb": null,
        "city_district": null,
        "city": "Savannakhet",
        "state": "Savannakhet Province",
        "postcode": "13000",
        "country": "Laos",
        "country_code": "la"
      },
      "address": "9B, Savannakhet, Savannakhet Province, Laos"
    },
    {
      "lat": 16.56165624382385,
      "lon": 104.73589111912297,
      "geoinfo": {
        "display_name": "Savannakhet, Khanthaboury District, Savannakhet Province, 49000, Laos",
        "road": null,
        "house_number": null,
        "neighbourhood": null,
        "suburb": null,
        "city_district": null,
        "city": "Savannakhet",
        "state": "Savannakhet Province",
        "postcode": "49000",
        "country": "Laos",
        "country_code": "la"
      },
      "address": "Savannakhet, Savannakhet Province, Laos"
    },
    {
      "lat": 16.58921804953682,
      "lon": 104.74540029376196,
      "geoinfo": {
        "display_name": "9A, Savannakhet, Khanthaboury District, Savannakhet Province, 13000, Laos",
        "road": "9A",
        "house_number": null,
        "neighbourhood": null,
        "suburb": null,
        "city_district": null,
        "city": "Savannakhet",
        "state": "Savannakhet Province",
        "postcode": "13000",
        "country": "Laos",
        "country_code": "la"
      },
      "address": "9A, Savannakhet, Savannakhet Province, Laos"
    },
    {
      "lat": 16.57176917359287,
      "lon": 104.78321211389182,
      "geoinfo": {
        "display_name": "Oudomsin Road, Savannakhet, Khanthaboury District, Savannakhet Province, 13000, Laos",
        "road": "Oudomsin Road",
        "house_number": null,
        "neighbourhood": null,
        "suburb": null,
        "city_district": null,
        "city": "Savannakhet",
        "state": "Savannakhet Province",
        "postcode": "13000",
        "country": "Laos",
        "country_code": "la"
      },
      "address": "Oudomsin Road, Savannakhet, Savannakhet Province, Laos"
    },
    {
      "lat": 16.55933216777771,
      "lon": 104.75589470228843,
      "geoinfo": {
        "display_name": "Phagnapui Road, Savannakhet, Khanthaboury District, Savannakhet Province, 49000, Laos",
        "road": "Phagnapui Road",
        "house_number": null,
        "neighbourhood": null,
        "suburb": null,
        "city_district": null,
        "city": "Savannakhet",
        "state": "Savannakhet Province",
        "postcode": "49000",
        "country": "Laos",
        "country_code": "la"
      },
      "address": "Phagnapui Road, Savannakhet, Savannakhet Province, Laos"
    },
    {
      "lat": 16.560222988332445,
      "lon": 104.76370368643431,
      "geoinfo": {
        "display_name": "Savannakhet Airport, Chaimeuang Road, Savannakhet, Khanthaboury District, Savannakhet Province, 13000, Laos",
        "road": "Chaimeuang Road",
        "house_number": null,
        "neighbourhood": null,
        "suburb": null,
        "city_district": null,
        "city": "Savannakhet",
        "state": "Savannakhet Province",
        "postcode": "13000",
        "country": "Laos",
        "country_code": "la"
      },
      "address": "Chaimeuang Road, Savannakhet, Savannakhet Province, Laos"
    },
    {
      "lat": 16.54685732494882,
      "lon": 104.74305850578227,
      "geoinfo": {
        "display_name": "Tha He Road, Savannakhet, Khanthaboury District, Savannakhet Province, 49000, Laos",
        "road": "Tha He Road",
        "house_number": null,
        "neighbourhood": null,
        "suburb": null,
        "city_district": null,
        "city": "Savannakhet",
        "state": "Savannakhet Province",
        "postcode": "49000",
        "country": "Laos",
        "country_code": "la"
      },
      "address": "Tha He Road, Savannakhet, Savannakhet Province, Laos"
    },
    {
      "lat": 16.610474186874473,
      "lon": 104.7565469498916,
      "geoinfo": {
        "display_name": "Ban Nake, Khanthaboury District, Savannakhet Province, 13000, Laos",
        "road": null,
        "house_number": null,
        "neighbourhood": null,
        "suburb": null,
        "city_district": null,
        "city": "Ban Nake",
        "state": "Savannakhet Province",
        "postcode": "13000",
        "country": "Laos",
        "country_code": "la"
      },
      "address": "235, Ban Nake, Khanthaboury District, Savannakhet Province, 13000, Laos"
    },
    {
      "lat": 16.544604123609037,
      "lon": 104.76420388856836,
      "geoinfo": {
        "display_name": "Savannakhet, Khanthaboury District, Savannakhet Province, 13000, Laos",
        "road": null,
        "house_number": null,
        "neighbourhood": null,
        "suburb": null,
        "city_district": null,
        "city": "Savannakhet",
        "state": "Savannakhet Province",
        "postcode": "13000",
        "country": "Laos",
        "country_code": "la"
      },
      "address": "964, Savannakhet, Khanthaboury District, Savannakhet Province, 13000, Laos"
    },
    {
      "lat": 16.58735882733204,
      "lon": 104.78043342085111,
      "geoinfo": {
        "display_name": "Savannakhet, Khanthaboury District, Savannakhet Province, 13000, Laos",
        "road": null,
        "house_number": null,
        "neighbourhood": null,
        "suburb": null,
        "city_district": null,
        "city": "Savannakhet",
        "state": "Savannakhet Province",
        "postcode": "13000",
        "country": "Laos",
        "country_code": "la"
      },
      "address": "110, Savannakhet, Khanthaboury District, Savannakhet Province, 13000, Laos"
    },
    {
      "lat": 16.541008385662277,
      "lon": 104.76656988130192,
      "geoinfo": {
        "display_name": "Savannakhet, Khanthaboury District, Savannakhet Province, 13000, Laos",
        "road": null,
        "house_number": null,
        "neighbourhood": null,
        "suburb": null,
        "city_district": null,
        "city": "Savannakhet",
        "state": "Savannakhet Province",
        "postcode": "13000",
        "country": "Laos",
        "country_code": "la"
      },
      "address": "091, Savannakhet, Khanthaboury District, Savannakhet Province, 13000, Laos"
    },
    {
      "lat": 16.538623984731597,
      "lon": 104.79102796936613,
      "geoinfo": {
        "display_name": "9B, Savannakhet, Khanthaboury District, Savannakhet Province, 13000, Laos",
        "road": "9B",
        "house_number": null,
        "neighbourhood": null,
        "suburb": null,
        "city_district": null,
        "city": "Savannakhet",
        "state": "Savannakhet Province",
        "postcode": "13000",
        "country": "Laos",
        "country_code": "la"
      },
      "address": "9B, Savannakhet, Khanthaboury District, Savannakhet Province, 13000, Laos"
    },
    {
      "lat": 16.59760733789679,
      "lon": 104.75087402228858,
      "geoinfo": {
        "display_name": "Savannakhet, Khanthaboury District, Savannakhet Province, 13000, Laos",
        "road": null,
        "house_number": null,
        "neighbourhood": null,
        "suburb": null,
        "city_district": null,
        "city": "Savannakhet",
        "state": "Savannakhet Province",
        "postcode": "13000",
        "country": "Laos",
        "country_code": "la"
      },
      "address": "917, Savannakhet, Khanthaboury District, Savannakhet Province, 13000, Laos"
    },
    {
      "lat": 16.583593943439052,
      "lon": 104.7904130461871,
      "geoinfo": {
        "display_name": "Ban Nongphu, Khanthaboury District, Savannakhet Province, 13000, Laos",
        "road": null,
        "house_number": null,
        "neighbourhood": null,
        "suburb": null,
        "city_district": null,
        "city": "Ban Nongphu",
        "state": "Savannakhet Province",
        "postcode": "13000",
        "country": "Laos",
        "country_code": "la"
      },
      "address": "992, Ban Nongphu, Khanthaboury District, Savannakhet Province, 13000, Laos"
    }
  ],
  "updated_at": "2025-10-19T05:39:56.035929+00:00",
  "_kind": "geo_samples"
}