{
  "country_code": "LA",
  "country": "Laos",
  "city": "Vang Vieng",
  "geonameid": 1655087,
  "target_addresses": 7,
  "samples": [
    {
      "lat": 18.93852006054191,
      "lon": 102.46204486531269,
      "geoinfo": {
        "display_name": "Ban Na Duang, Vangvieng District, Vientiane Province, 10030, Laos",
        "road": null,
        "house_number": null,
        "neighbourhood": null,
        "suburb": null,
        "city_district": null,
        "city": "Ban Na Duang",
        "state": "Vientiane Province",
        "postcode": "10030",
        "country": "Laos",
        "country_code": "la"
      },
      "address": "Vang Vieng, Vientiane Province, Laos"
    },
    {
      "lat": 18.91071708107518,
      "lon": 102.42598788816721,
      "geoinfo": {
        "display_name": "Orange bridge, Vang Vieng, Vangvieng District, Vientiane Province, 00008, Laos",
        "road": "Orange bridge",
        "house_number": null,
        "neighbourhood": null,
        "suburb": null,
        "city_district": null,
        "city": "Vang Vieng",
        "state": "Vientiane Province",
        "postcode": "00008",
        "country": "Laos",
        "country_code": "la"
      },
      "address": "Orange bridge, Vang Vieng, Vientiane Province, Laos"
    },
    {
      "lat": 18.931276556444043,
      "lon": 102.43655417753261,
      "geoinfo": {
        "display_name": "Pha Poak, 대나무 다리, Vang Vieng, Vangvieng District, Vientiane Province, 30600, Laos",
        "road": "대나무 다리",
        "house_number": null,
        "neighbourhood": null,
        "suburb": null,
        "city_district": null,
        "city": "Vang Vieng",
        "state": "Vientiane Province",
        "postcode": "30600",
        "country": "Laos",
        "country_code": "la"
      },
      "address": "대나무 다리, Vang Vieng, Vientiane Province, Laos"
    },
    {
      "lat": 18.88861054372822,
      "lon": 102.45516357441987,
      "geoinfo": {
        "display_name": "ທາງດ່ວນວຽງຈັນວັງວຽງ, Ban Viangxai, Vangvieng District, Vientiane Province, Laos",
        "road": "ທາງດ່ວນວຽງຈັນວັງວຽງ",
        "house_number": null,
        "neighbourhood": null,
        "suburb": null,
        "city_district": null,
        "city": "Ban Viangxai",
        "state": "Vientiane Province",
        "postcode": null,
        "country": "Laos",
        "country_code": "la"
      },
      "address": "ທາງດ່ວນວຽງຈັນວັງວຽງ, Vang Vieng, Vientiane Province, Laos"
    },
    {
      "lat": 18.94338228845886,
      "lon": 102.42850590753405,
      "geoinfo": {
        "display_name": "Nam Xong Bridge, Houay Sango, Vangvieng District, Vientiane Province, 10300, Laos",
        "road": "Nam Xong Bridge",
        "house_number": null,
        "neighbourhood": null,
        "suburb": null,
        "city_district": null,
        "city": "Houay Sango",
        "state": "Vientiane Province",
        "postcode": "10300",
        "country": "Laos",
        "country_code": "la"
      },
      "address": "Nam Xong Bridge, Vang Vieng, Vientiane Province, Laos"
    },
    {
      "lat": 18.926543690785802,
      "lon": 102.45271493646455,
      "geoinfo": {
        "display_name": "NAMSUNG phone repair, 13N, Phonepheng, Vangvieng District, Vientiane Province, 10030, Laos",
        "road": "13N",
        "house_number": null,
        "neighbourhood": null,
        "suburb": null,
        "city_district": null,
        "city": "Phonepheng",
        "state": "Vientiane Province",
        "postcode": "10030",
        "country": "Laos",
        "country_code": "la"
      },
      "address": "13N, Vang Vieng, Vientiane Province, Laos"
    },
    {
      "lat": 18.92262151907245,
      "lon": 102.42769584020567,
      "geoinfo": {
        "display_name": "Place for camping. Broken excavator. Nice view., Namsong Bridge, Vang Vieng, Vangvieng District, Vientiane Province, 00008, Laos",
        "road": "Namsong Bridge",
        "house_number": null,
        "neighbourhood": null,
        "suburb": null,
        "city_district": null,
        "city": "Vang Vieng",
        "state": "Vientiane Province",
        "postcode": "00008",
        "country": "Laos",
        "country_code": "la"
      },
      "address": "Namsong Bridge, Vang Vieng, Vientiane Province, Laos"
    },
    {
      "lat": 18.916180195925246,
      "lon": 102.42909372353779,
      "geoinfo": {
        "display_name": "Nam Xong Bridge, Vang Vieng, Vangvieng District, Vientiane Province, 00008, Laos",
        "road": "Nam Xong Bridge",
        "house_number": null,
        "neighbourhood": null,
        "suburb": null,
        "city_district": null,
        "city": "Vang Vieng",
        "state": "Vientiane Province",
        "postcode": "00008",
        "country": "Laos",
        "country_code": "la"
      },
      "address": "945, Nam Xong Bridge, Vang Vieng, Vangvieng District, Vientiane Province, 00008, Laos"
    },
    {
      "lat": 18.93438861278872,
      "lon": 102.46223710802737,
      "geoinfo": {
        "display_name": "Ban Na Duang, Vangvieng District, Vientiane Province, 10030, Laos",
        "road": null,
        "house_number": null,
        "neighbourhood": null,
        "suburb": null,
        "city_district": null,
        "city": "Ban Na Duang",
        "state": "Vientiane Province",
        "postcode": "10030",
        "country": "Laos",
        "country_code": "la"
      },
      "address": "310, Ban Na Duang, Vangvieng District, Vientiane Province, 10030, Laos"
    },
    {
      "lat": 18.942152967093183,
      "lon": 102.48587771273347,
      "geoinfo": {
        "display_name": "Ban Na Duang, Vangvieng District, Vientiane Province, 10030, Laos",
        "road": null,
        "house_number": null,
        "neighbourhood": null,
        "suburb": null,
        "city_district": null,
        "city": "Ban Na Duang",
        "state": "Vientiane Province",
        "postcode": "10030",
        "country": "Laos",
        "country_code": "la"
      },
      "address": "256, Ban Na Duang, Vangvieng District, Vientiane Province, 10030, Laos"
    },
    {
      "lat": 18.91083144895133,
      "lon": 102.45753990385754,
      "geoinfo": {
        "display_name": "Viengxay - Naluang, Vangvieng District, Vientiane Province, 30600, Laos",
        "road": null,
        "house_number": null,
        "neighbourhood": null,
        "suburb": null,
        "city_district": null,
        "city": "Viengxay - Naluang",
        "state": "Vientiane Province",
        "postcode": "30600",
        "country": "Laos",
        "country_code": "la"
      },
      "address": "048, Viengxay - Naluang, Vangvieng District, Vientiane Province, 30600, Laos"
    },
    {
      "lat": 18.927619197056753,
      "lon": 102.45347692240658,
      "geoinfo": {
        "display_name": "Vang Vieng, Vangvieng District, Vientiane Province, 10030, Laos",
        "road": null,
        "house_number": null,
        "neighbourhood": null,
        "suburb": null,
        "city_district": null,
        "city": "Vang Vieng",
        "state": "Vientiane Province",
        "postcode": "10030",
        "country": "Laos",
        "country_code": "la"
      },
      "address": "961, Vang Vieng, Vangvieng District, Vientiane Province, 10030, Laos"
    },
    {
      "lat": 18.934797648371962,
      "lon": 102.40660210965127,
      "geoinfo": {
        "display_name": "No water! Close, Nam Xong Bridge, Houay Sango, Vangvieng District, Vientiane Province, 10300, Laos",
        "road": "Nam Xong Bridge",
        "house_number": null,
        "neighbourhood": null,
        "suburb": null,
        "city_district": null,
        "city": "Houay Sango",
        "state": "Vientiane Province",
        "postcode": "10300",
        "country": "Laos",
        "country_code": "la"
      },
      "address": "281, Nam Xong Bridge, Vang Vieng, 10300 Vientiane Province, Laos"
    },
    {
      "lat": 18.921445365243063,
      "lon": 102.49318498595024,
      "geoinfo": {
        "display_name": "Ban Na Duang, Vangvieng District, Vientiane Province, 10030, Laos",
        "road": null,
        "house_number": null,
        "neighbourhood": null,
        "suburb": null,
        "city_district": null,
        "city": "Ban Na Duang",
        "state": "Vientiane Province",
        "postcode": "10030",
        "country": "Laos",
        "country_code": "la"
      },
      "address": "550, Ban Na Duang, Vangvieng District, Vientiane Province, 10030, Laos"
    }
  ],
  "updated_at": "2025-10-19T08:02:57.783310+00:00",
  "_kind": "geo_samples"
}