{
  "country_code": "LA",
  "country": "Laos",
  "city": "Vientiane",
  "geonameid": 1651944,
  "target_addresses": 7,
  "samples": [
    {
      "lat": 17.997912462171346,
      "lon": 102.59958481508413,
      "geoinfo": {
        "display_name": "B. Nongping, Vientiane Capital, Chanthabuly District, Vientiane Prefecture, 21001, Laos",
        "road": null,
        "house_number": null,
        "neighbourhood": null,
        "suburb": null,
        "city_district": null,
        "city": "Vientiane Capital",
        "state": "Vientiane Prefecture",
        "postcode": "21001",
        "country": "Laos",
        "country_code": "la"
      },
      "address": "Vientiane, Vientiane Prefecture, Laos"
    },
    {
      "lat": 17.953778789511983,
      "lon": 102.63687101988644,
      "geoinfo": {
        "display_name": "Lao-Thai Road, Donnokkhoum, Vientiane Capital, Sisattanak District, Vientiane Prefecture, 01030, Laos",
        "road": "Lao-Thai Road",
        "house_number": null,
        "neighbourhood": null,
        "suburb": null,
        "city_district": null,
        "city": "Vientiane Capital",
        "state": "Vientiane Prefecture",
        "postcode": "01030",
        "country": "Laos",
        "country_code": "la"
      },
      "address": "Lao-Thai Road, Vientiane, Vientiane Prefecture, Laos"
    },
    {
      "lat": 17.94507719394925,
      "lon": 102.61723877115779,
      "geoinfo": {
        "display_name": "Landmark Mekong Riverside Hotel, Chemin Donchan, Beungkhayong, Vientiane Capital, Sisattanak District, Vientiane Prefecture, 01030, Laos",
        "road": "Chemin Donchan",
        "house_number": null,
        "neighbourhood": null,
        "suburb": null,
        "city_district": null,
        "city": "Vientiane Capital",
        "state": "Vientiane Prefecture",
        "postcode": "01030",
        "country": "Laos",
        "country_code": "la"
      },
      "address": "Chemin Donchan, Vientiane, Vientiane Prefecture, Laos"
    },
    {
      "lat": 17.97708047122231,
      "lon": 102.56669759622805,
      "geoinfo": {
        "display_name": "ຖະຫນົນສຸພານຸວົງ, Nongpanay, Vientiane Capital, Sikhottabong District, Vientiane Prefecture, 01020, Laos",
        "road": "ຖະຫນົນສຸພານຸວົງ",
        "house_number": null,
        "neighbourhood": null,
        "suburb": null,
        "city_district": null,
        "city": "Vientiane Capital",
        "state": "Vientiane Prefecture",
        "postcode": "01020",
        "country": "Laos",
        "country_code": "la"
      },
      "address": "ຖະຫນົນສຸພານຸວົງ, Vientiane, Vientiane Prefecture, Laos"
    },
    {
      "lat": 17.963013200093595,
      "lon": 102.63560421846611,
      "geoinfo": {
        "display_name": "Xaysettha Secondary School, Ban Saphangmo Hom 2, Saphangmo, Vientiane Capital, Xaysetha District, Vientiane Prefecture, 01160, Laos",
        "road": "Ban Saphangmo Hom 2",
        "house_number": null,
        "neighbourhood": null,
        "suburb": null,
        "city_district": null,
        "city": "Vientiane Capital",
        "state": "Vientiane Prefecture",
        "postcode": "01160",
        "country": "Laos",
        "country_code": "la"
      },
      "address": "Ban Saphangmo Hom 2, Vientiane, Vientiane Prefecture, Laos"
    },
    {
      "lat": 17.995617608246217,
      "lon": 102.56534750911136,
      "geoinfo": {
        "display_name": "Sithong Road, Pakthang, Vientiane Capital, Sikhottabong District, Vientiane Prefecture, 01020, Laos",
        "road": "Sithong Road",
        "house_number": null,
        "neighbourhood": null,
        "suburb": null,
        "city_district": null,
        "city": "Vientiane Capital",
        "state": "Vientiane Prefecture",
        "postcode": "01020",
        "country": "Laos",
        "country_code": "la"
      },
      "address": "Sithong Road, Vientiane, Vientiane Prefecture, Laos"
    },
    {
      "lat": 17.977474957756066,
      "lon": 102.64434830538278,
      "geoinfo": {
        "display_name": "ຮ່ອມ 3, Thatlouangkang, Vientiane Capital, Xaysetha District, Vientiane Prefecture, 01160, Laos",
        "road": "ຮ່ອມ 3",
        "house_number": null,
        "neighbourhood": null,
        "suburb": null,
        "city_district": null,
        "city": "Vientiane Capital",
        "state": "Vientiane Prefecture",
        "postcode": "01160",
        "country": "Laos",
        "country_code": "la"
      },
      "address": "ຮ່ອມ 3, Vientiane, Vientiane Prefecture, Laos"
    },
    {
      "lat": 17.948116702711697,
      "lon": 102.64282675157452,
      "geoinfo": {
        "display_name": "Lao National School of Arts, Boulevard Kamphengmeuang, Don Koy, Vientiane Capital, Sisattanak District, Vientiane Prefecture, 01030, Laos",
        "road": "Boulevard Kamphengmeuang",
        "house_number": null,
        "neighbourhood": null,
        "suburb": null,
        "city_district": null,
        "city": "Vientiane Capital",
        "state": "Vientiane Prefecture",
        "postcode": "01030",
        "country": "Laos",
        "country_code": "la"
      },
      "address": "038, Boulevard Kamphengmeuang, Vientiane, 01030 Vientiane Prefecture, Laos"
    },
    {
      "lat": 17.934599584542013,
      "lon": 102.63117770025227,
      "geoinfo": {
        "display_name": "Thôngkang, Vientiane Capital, Sisattanak District, Vientiane Prefecture, 01030, Laos",
        "road": null,
        "house_number": null,
        "neighbourhood": null,
        "suburb": null,
        "city_district": null,
        "city": "Vientiane Capital",
        "state": "Vientiane Prefecture",
        "postcode": "01030",
        "country": "Laos",
        "country_code": "la"
      },
      "address": "072, Thôngkang, Vientiane Capital, Sisattanak District, Vientiane Prefecture, 01030, Laos"
    },
    {
      "lat": 17.959306957396404,
      "lon": 102.64500668690647,
      "geoinfo": {
        "display_name": "Ocean Park, Boulevard Kamphengmeuang, Phônthannua, Vientiane Capital, Xaysetha District, Vientiane Prefecture, 01160, Laos",
        "road": "Boulevard Kamphengmeuang",
        "house_number": null,
        "neighbourhood": null,
        "suburb": null,
        "city_district": null,
        "city": "Vientiane Capital",
        "state": "Vientiane Prefecture",
        "postcode": "01160",
        "country": "Laos",
        "country_code": "la"
      },
      "address": "034, Boulevard Kamphengmeuang, Vientiane, 01160 Vientiane Prefecture, Laos"
    },
    {
      "lat": 17.959102887974467,
      "lon": 102.63328505075933,
      "geoinfo": {
        "display_name": "Saphanthongneua, Vientiane Capital, Sisattanak District, Vientiane Prefecture, 01006, Laos",
        "road": null,
        "house_number": null,
        "neighbourhood": null,
        "suburb": null,
        "city_district": null,
        "city": "Vientiane Capital",
        "state": "Vientiane Prefecture",
        "postcode": "01006",
        "country": "Laos",
        "country_code": "la"
      },
      "address": "609, Saphanthongneua, Vientiane Capital, Sisattanak District, Vientiane Prefecture, 01006, Laos"
    },
    {
      "lat": 17.99386333784215,
      "lon": 102.63317524013843,
      "geoinfo": {
        "display_name": "Phonephanao Hom 10, Phonephanao, Vientiane Capital, Xaysetha District, Vientiane Prefecture, 21001, Laos",
        "road": "Phonephanao Hom 10",
        "house_number": null,
        "neighbourhood": null,
        "suburb": null,
        "city_district": null,
        "city": "Vientiane Capital",
        "state": "Vientiane Prefecture",
        "postcode": "21001",
        "country": "Laos",
        "country_code": "la"
      },
      "address": "Phonephanao Hom 10, Phonephanao, Vientiane Capital, Xaysetha District, Vientiane Prefecture, 21001, Laos"
    },
    {
      "lat": 17.998501935748486,
      "lon": 102.62500171700111,
      "geoinfo": {
        "display_name": "Dongdok-Phonetong Road, Chommanyneua, Vientiane Capital, Chanthabuly District, Vientiane Prefecture, 21001, Laos",
        "road": "Dongdok-Phonetong Road",
        "house_number": null,
        "neighbourhood": null,
        "suburb": null,
        "city_district": null,
        "city": "Vientiane Capital",
        "state": "Vientiane Prefecture",
        "postcode": "21001",
        "country": "Laos",
        "country_code": "la"
      },
      "address": "612, Dongdok-Phonetong Road, Chommanyneua, Vientiane Capital, Chanthabuly District, Vientiane Prefecture, 21001, Laos"
    },
    {
      "lat": 17.990455144878936,
      "lon": 102.57484656299687,
      "geoinfo": {
        "display_name": "Sithong Road, Pakthang, Vientiane Capital, Sikhottabong District, Vientiane Prefecture, 01020, Laos",
        "road": "Sithong Road",
        "house_number": null,
        "neighbourhood": null,
        "suburb": null,
        "city_district": null,
        "city": "Vientiane Capital",
        "state": "Vientiane Prefecture",
        "postcode": "01020",
        "country": "Laos",
        "country_code": "la"
      },
      "address": "018, Sithong Road, Pakthang, Vientiane Capital, Sikhottabong District, Vientiane Prefecture, 01020, Laos"
    }
  ],
  "updated_at": "2025-10-19T04:05:04.600644+00:00",
  "_kind": "geo_samples"
}