{
  "country_code": "AF",
  "country": "Afghanistan",
  "city": "Andkhōy",
  "geonameid": 1148658,
  "target_addresses": 2,
  "samples": [
    {
      "lat": 36.94159927589324,
      "lon": 65.16833272787932,
      "geoinfo": {
        "display_name": "Herat to Mazar-i-Sharif road, Lab-e Jar-e Taghan, Khani Chahar Bagh District, Faryab Province, Afghanistan",
        "road": "Herat to Mazar-i-Sharif road",
        "house_number": null,
        "neighbourhood": null,
        "suburb": null,
        "city_district": null,
        "city": "Lab-e Jar-e Taghan",
        "state": "Faryab Province",
        "postcode": null,
        "country": "Afghanistan",
        "country_code": "af"
      },
      "address": "Herat to Mazar-i-Sharif road, Andkhōy, Faryab Province, Afghanistan"
    },
    {
      "lat": 36.935923215863625,
      "lon": 65.09412286584036,
      "geoinfo": {
        "display_name": "Andkhoy, Faryab Province, Afghanistan",
        "road": null,
        "house_number": null,
        "neighbourhood": null,
        "suburb": null,
        "city_district": null,
        "city": "Andkhoy",
        "state": "Faryab Province",
        "postcode": null,
        "country": "Afghanistan",
        "country_code": "af"
      },
      "address": "Andkhōy, Faryab Province, Afghanistan"
    },
    {
      "lat": 36.94966340635851,
      "lon": 65.15364440295443,
      "geoinfo": {
        "display_name": "15 km Road Chakman Bala Wa Payin of Khan Chahar Bagh, Khan-e Chahar Bagh, Andkhoy, Faryab Province, Afghanistan",
        "road": "15 km Road Chakman Bala Wa Payin of Khan Chahar Bagh",
        "house_number": null,
        "neighbourhood": null,
        "suburb": null,
        "city_district": null,
        "city": "Khan-e Chahar Bagh",
        "state": "Faryab Province",
        "postcode": null,
        "country": "Afghanistan",
        "country_code": "af"
      },
      "address": "15 km Road Chakman Bala Wa Payin of Khan Chahar Bagh, Khan-e Chahar Bagh, Andkhoy, 26074 Faryab Province, Afghanistan"
    },
    {
      "lat": 36.97501477652735,
      "lon": 65.10315190332676,
      "geoinfo": {
        "display_name": "Andkhoy, Faryab Province, Afghanistan",
        "road": null,
        "house_number": null,
        "neighbourhood": null,
        "suburb": null,
        "city_district": null,
        "city": "Andkhoy",
        "state": "Faryab Province",
        "postcode": null,
        "country": "Afghanistan",
        "country_code": "af"
      },
      "address": "039, Andkhōy, 83131 Faryab Province, Afghanistan"
    }
  ],
  "updated_at": "2025-10-19T02:26:45.176344+00:00",
  "_kind": "geo_samples"
}