{
  "country_code": "AF",
  "country": "Afghanistan",
  "city": "Baghlān",
  "geonameid": 1147540,
  "target_addresses": 12,
  "samples": [
    {
      "lat": 36.117709682284584,
      "lon": 68.68350294850401,
      "geoinfo": {
        "display_name": "Baghlan, Baghlani Jadid District, Baghlan Province, Afghanistan",
        "road": null,
        "house_number": null,
        "neighbourhood": null,
        "suburb": null,
        "city_district": null,
        "city": "Baghlan",
        "state": "Baghlan Province",
        "postcode": null,
        "country": "Afghanistan",
        "country_code": "af"
      },
      "address": "Baghlān, Baghlan Province, Afghanistan"
    },
    {
      "lat": 36.10963986312112,
      "lon": 68.69592785710432,
      "geoinfo": {
        "display_name": "از سرک عمومی الی بالای سرک اول, Baghlan, Baghlani Jadid District, Baghlan Province, Afghanistan",
        "road": "از سرک عمومی الی بالای سرک اول",
        "house_number": null,
        "neighbourhood": null,
        "suburb": null,
        "city_district": null,
        "city": "Baghlan",
        "state": "Baghlan Province",
        "postcode": null,
        "country": "Afghanistan",
        "country_code": "af"
      },
      "address": "از سرک عمومی الی بالای سرک اول, Baghlān, Baghlan Province, Afghanistan"
    },
    {
      "lat": 36.149997015751836,
      "lon": 68.73923251173596,
      "geoinfo": {
        "display_name": "Baghlan, Baghlani Jadid District, Baghlan Province, Afghanistan",
        "road": null,
        "house_number": null,
        "neighbourhood": null,
        "suburb": null,
        "city_district": null,
        "city": "Baghlan",
        "state": "Baghlan Province",
        "postcode": null,
        "country": "Afghanistan",
        "country_code": "af"
      },
      "address": "Baghlān, 57757 Baghlan Province, Afghanistan"
    },
    {
      "lat": 36.126138933565755,
      "lon": 68.75811121449237,
      "geoinfo": {
        "display_name": "Baghlan, Baghlani Jadid District, Baghlan Province, Afghanistan",
        "road": null,
        "house_number": null,
        "neighbourhood": null,
        "suburb": null,
        "city_district": null,
        "city": "Baghlan",
        "state": "Baghlan Province",
        "postcode": null,
        "country": "Afghanistan",
        "country_code": "af"
      },
      "address": "Baghlān, 63066 Baghlan Province, Afghanistan"
    },
    {
      "lat": 36.12510704090134,
      "lon": 68.76202926955787,
      "geoinfo": {
        "display_name": "Baghlan, Baghlani Jadid District, Baghlan Province, Afghanistan",
        "road": null,
        "house_number": null,
        "neighbourhood": null,
        "suburb": null,
        "city_district": null,
        "city": "Baghlan",
        "state": "Baghlan Province",
        "postcode": null,
        "country": "Afghanistan",
        "country_code": "af"
      },
      "address": "Baghlān, 58268 Baghlan Province, Afghanistan"
    },
    {
      "lat": 36.11460287486481,
      "lon": 68.71357392277473,
      "geoinfo": {
        "display_name": "از سرک عمومی الی بالای سرک دومی, Baghlan, Baghlani Jadid District, Baghlan Province, Afghanistan",
        "road": "از سرک عمومی الی بالای سرک دومی",
        "house_number": null,
        "neighbourhood": null,
        "suburb": null,
        "city_district": null,
        "city": "Baghlan",
        "state": "Baghlan Province",
        "postcode": null,
        "country": "Afghanistan",
        "country_code": "af"
      },
      "address": "381, از سرک عمومی الی بالای سرک دومی, Baghlān, 41096 Baghlan Province, Afghanistan"
    },
    {
      "lat": 36.12482161504453,
      "lon": 68.75462855055129,
      "geoinfo": {
        "display_name": "Baghlan, Baghlani Jadid District, Baghlan Province, Afghanistan",
        "road": null,
        "house_number": null,
        "neighbourhood": null,
        "suburb": null,
        "city_district": null,
        "city": "Baghlan",
        "state": "Baghlan Province",
        "postcode": null,
        "country": "Afghanistan",
        "country_code": "af"
      },
      "address": "487, Baghlān, 08170 Baghlan Province, Afghanistan"
    },
    {
      "lat": 36.104040656442024,
      "lon": 68.67485896123938,
      "geoinfo": {
        "display_name": "Baghlan, Baghlani Jadid District, Baghlan Province, Afghanistan",
        "road": null,
        "house_number": null,
        "neighbourhood": null,
        "suburb": null,
        "city_district": null,
        "city": "Baghlan",
        "state": "Baghlan Province",
        "postcode": null,
        "country": "Afghanistan",
        "country_code": "af"
      },
      "address": "966, Baghlān, 30633 Baghlan Province, Afghanistan"
    },
    {
      "lat": 36.136623551982424,
      "lon": 68.68098334038102,
      "geoinfo": {
        "display_name": "Baghlan, Baghlani Jadid District, Baghlan Province, Afghanistan",
        "road": null,
        "house_number": null,
        "neighbourhood": null,
        "suburb": null,
        "city_district": null,
        "city": "Baghlan",
        "state": "Baghlan Province",
        "postcode": null,
        "country": "Afghanistan",
        "country_code": "af"
      },
      "address": "122, Baghlān, 56433 Baghlan Province, Afghanistan"
    },
    {
      "lat": 36.156731538340324,
      "lon": 68.73803600987222,
      "geoinfo": {
        "display_name": "Kunduz Baghlan road, Baghlan, Baghlani Jadid District, Baghlan Province, Afghanistan",
        "road": "Kunduz Baghlan road",
        "house_number": null,
        "neighbourhood": null,
        "suburb": null,
        "city_district": null,
        "city": "Baghlan",
        "state": "Baghlan Province",
        "postcode": null,
        "country": "Afghanistan",
        "country_code": "af"
      },
      "address": "985, Kunduz Baghlan road, Baghlan, Baghlani Jadid District, 21700 Baghlan Province, Afghanistan"
    },
    {
      "lat": 36.15567826612376,
      "lon": 68.6987081460856,
      "geoinfo": {
        "display_name": "سرک هشتم از سرک عمومی الی قشلاق شیخ, Baghlan, Baghlani Jadid District, Baghlan Province, Afghanistan",
        "road": "سرک هشتم از سرک عمومی الی قشلاق شیخ",
        "house_number": null,
        "neighbourhood": null,
        "suburb": null,
        "city_district": null,
        "city": "Baghlan",
        "state": "Baghlan Province",
        "postcode": null,
        "country": "Afghanistan",
        "country_code": "af"
      },
      "address": "136, سرک هشتم از سرک عمومی الی قشلاق شیخ, Baghlān, 79480 Baghlan Province, Afghanistan"
    },
    {
      "lat": 36.12423258719629,
      "lon": 68.74961509004397,
      "geoinfo": {
        "display_name": "Baghlan, Baghlani Jadid District, Baghlan Province, Afghanistan",
        "road": null,
        "house_number": null,
        "neighbourhood": null,
        "suburb": null,
        "city_district": null,
        "city": "Baghlan",
        "state": "Baghlan Province",
        "postcode": null,
        "country": "Afghanistan",
        "country_code": "af"
      },
      "address": "143, Baghlān, 90148 Baghlan Province, Afghanistan"
    }
  ],
  "updated_at": "2025-10-19T03:06:50.761782+00:00",
  "_kind": "geo_samples"
}