{
  "country_code": "AF",
  "country": "Afghanistan",
  "city": "Herāt",
  "geonameid": 1140026,
  "target_addresses": 2,
  "samples": [
    {
      "lat": 34.33113963259668,
      "lon": 62.15814648081637,
      "geoinfo": {
        "display_name": "سرک از خیابان کروخی الی بدلو, 10th District, Herat, Herat Province, 3005, Afghanistan",
        "road": "سرک از خیابان کروخی الی بدلو",
        "house_number": null,
        "neighbourhood": null,
        "suburb": "10th District",
        "city_district": null,
        "city": "Herat",
        "state": "Herat Province",
        "postcode": "3005",
        "country": "Afghanistan",
        "country_code": "af"
      },
      "address": "سرک از خیابان کروخی الی بدلو, Herāt, Herat Province, Afghanistan"
    },
    {
      "lat": 34.320851553168616,
      "lon": 62.178673853525936,
      "geoinfo": {
        "display_name": "سرک از مسجد جامع چار باغ فروزه الی سر ک مالان, 10th District, Herat, Herat Province, 3005, Afghanistan",
        "road": "سرک از مسجد جامع چار باغ فروزه الی سر ک مالان",
        "house_number": null,
        "neighbourhood": null,
        "suburb": "10th District",
        "city_district": null,
        "city": "Herat",
        "state": "Herat Province",
        "postcode": "3005",
        "country": "Afghanistan",
        "country_code": "af"
      },
      "address": "سرک از مسجد جامع چار باغ فروزه الی سر ک مالان, Herāt, Herat Province, Afghanistan"
    },
    {
      "lat": 34.318198846574354,
      "lon": 62.20745837533384,
      "geoinfo": {
        "display_name": "بلوار رسول اکرم, Sawrestan, Injil, Herat Province, 3005, Afghanistan",
        "road": "بلوار رسول اکرم",
        "house_number": null,
        "neighbourhood": null,
        "suburb": null,
        "city_district": null,
        "city": "Sawrestan",
        "state": "Herat Province",
        "postcode": "3005",
        "country": "Afghanistan",
        "country_code": "af"
      },
      "address": "031, بلوار رسول اکرم, Herāt, 3005 Herat Province, Afghanistan"
    },
    {
      "lat": 34.350943767814925,
      "lon": 62.20129946412086,
      "geoinfo": {
        "display_name": "Herat Central Hospital, Mahbas Street, 1st District, Herat, Herat Province, 3001, Afghanistan",
        "road": "Mahbas Street",
        "house_number": null,
        "neighbourhood": null,
        "suburb": "1st District",
        "city_district": null,
        "city": "Herat",
        "state": "Herat Province",
        "postcode": "3001",
        "country": "Afghanistan",
        "country_code": "af"
      },
      "address": "289, Mahbas Street, Herāt, 3001 Herat Province, Afghanistan"
    }
  ],
  "updated_at": "2025-10-19T02:24:48.388045+00:00",
  "_kind": "geo_samples"
}