{
  "country_code": "AF",
  "country": "Afghanistan",
  "city": "Jabal os Saraj",
  "geonameid": 1139807,
  "target_addresses": 2,
  "samples": [
    {
      "lat": 35.11788543727362,
      "lon": 69.26129771240032,
      "geoinfo": {
        "display_name": "Jabal us Saraj, Jabal Saraj, Parwan Province, Afghanistan",
        "road": null,
        "house_number": null,
        "neighbourhood": null,
        "suburb": null,
        "city_district": null,
        "city": "Jabal us Saraj",
        "state": "Parwan Province",
        "postcode": null,
        "country": "Afghanistan",
        "country_code": "af"
      },
      "address": "Jabal os Saraj, Parwan Province, Afghanistan"
    },
    {
      "lat": 35.15249743173882,
      "lon": 69.25621977565918,
      "geoinfo": {
        "display_name": "سرک دیکلان از دیکلان الی سرک عمومی جبل السراج, Jabal Saraj, Shotul District, Parwan Province, Afghanistan",
        "road": "سرک دیکلان از دیکلان الی سرک عمومی جبل السراج",
        "house_number": null,
        "neighbourhood": null,
        "suburb": null,
        "city_district": null,
        "city": null,
        "state": "Parwan Province",
        "postcode": null,
        "country": "Afghanistan",
        "country_code": "af"
      },
      "address": "سرک دیکلان از دیکلان الی سرک عمومی جبل السراج, Jabal os Saraj, Parwan Province, Afghanistan"
    },
    {
      "lat": 35.12310433003623,
      "lon": 69.24438059737915,
      "geoinfo": {
        "display_name": "Jabal us Saraj, Jabal Saraj, Parwan Province, Afghanistan",
        "road": null,
        "house_number": null,
        "neighbourhood": null,
        "suburb": null,
        "city_district": null,
        "city": "Jabal us Saraj",
        "state": "Parwan Province",
        "postcode": null,
        "country": "Afghanistan",
        "country_code": "af"
      },
      "address": "522, Jabal us Saraj, Jabal Saraj, 68867 Parwan Province, Afghanistan"
    },
    {
      "lat": 35.13987601625097,
      "lon": 69.21319624809999,
      "geoinfo": {
        "display_name": "Gardanah-ye Qal`ah, Salang, Parwan Province, Afghanistan",
        "road": null,
        "house_number": null,
        "neighbourhood": null,
        "suburb": null,
        "city_district": null,
        "city": "Gardanah-ye Qal`ah",
        "state": "Parwan Province",
        "postcode": null,
        "country": "Afghanistan",
        "country_code": "af"
      },
      "address": "518, Jabal os Saraj, 21222 Parwan Province, Afghanistan"
    }
  ],
  "updated_at": "2025-10-19T02:25:19.585766+00:00",
  "_kind": "geo_samples"
}