{
  "country_code": "AF",
  "country": "Afghanistan",
  "city": "Khōst",
  "geonameid": 1136469,
  "target_addresses": 2,
  "samples": [
    {
      "lat": 33.33078663116577,
      "lon": 69.92285667075595,
      "geoinfo": {
        "display_name": "Khost, Khost District, Khost Province, 2501, Afghanistan",
        "road": null,
        "house_number": null,
        "neighbourhood": null,
        "suburb": null,
        "city_district": null,
        "city": "Khost",
        "state": "Khost Province",
        "postcode": "2501",
        "country": "Afghanistan",
        "country_code": "af"
      },
      "address": "Khōst, Khost Province, Afghanistan"
    },
    {
      "lat": 33.32774463148868,
      "lon": 69.91308369733176,
      "geoinfo": {
        "display_name": "3.7 km Asphalr road from Maktab Mikhanik Bazar Khost to Segy, Khost, Khost District, Khost Province, 2501, Afghanistan",
        "road": "3.7 km Asphalr road from Maktab Mikhanik Bazar Khost to Segy",
        "house_number": null,
        "neighbourhood": null,
        "suburb": null,
        "city_district": null,
        "city": "Khost",
        "state": "Khost Province",
        "postcode": "2501",
        "country": "Afghanistan",
        "country_code": "af"
      },
      "address": "3.7 km Asphalr road from Maktab Mikhanik Bazar Khost to Segy, Khōst, Khost Province, Afghanistan"
    },
    {
      "lat": 33.36409084348191,
      "lon": 69.93842601421441,
      "geoinfo": {
        "display_name": "Khost, Khost District, Khost Province, 2501, Afghanistan",
        "road": null,
        "house_number": null,
        "neighbourhood": null,
        "suburb": null,
        "city_district": null,
        "city": "Khost",
        "state": "Khost Province",
        "postcode": "2501",
        "country": "Afghanistan",
        "country_code": "af"
      },
      "address": "165, Khōst, 2501 Khost Province, Afghanistan"
    },
    {
      "lat": 33.35554896557918,
      "lon": 69.91578650578687,
      "geoinfo": {
        "display_name": "Khost, Khost District, Khost Province, 2501, Afghanistan",
        "road": null,
        "house_number": null,
        "neighbourhood": null,
        "suburb": null,
        "city_district": null,
        "city": "Khost",
        "state": "Khost Province",
        "postcode": "2501",
        "country": "Afghanistan",
        "country_code": "af"
      },
      "address": "305, Khōst, 2501 Khost Province, Afghanistan"
    }
  ],
  "updated_at": "2025-10-19T02:41:08.312563+00:00",
  "_kind": "geo_samples"
}