{
  "country_code": "AF",
  "country": "Afghanistan",
  "city": "Lashkar Gāh",
  "geonameid": 1134720,
  "target_addresses": 12,
  "samples": [
    {
      "lat": 31.59265441426046,
      "lon": 64.40610278174948,
      "geoinfo": {
        "display_name": "Lashkar Gah, Lashkargah District, Helmand Province, 3901, Afghanistan",
        "road": null,
        "house_number": null,
        "neighbourhood": null,
        "suburb": null,
        "city_district": null,
        "city": "Lashkar Gah",
        "state": "Helmand Province",
        "postcode": "3901",
        "country": "Afghanistan",
        "country_code": "af"
      },
      "address": "Lashkar Gāh, Helmand Province, Afghanistan"
    },
    {
      "lat": 31.56236555640337,
      "lon": 64.3701924514315,
      "geoinfo": {
        "display_name": "Bost Airport, Bost Castle Road, Lashkar Gah, Lashkargah District, Helmand Province, 3901, Afghanistan",
        "road": "Bost Castle Road",
        "house_number": null,
        "neighbourhood": null,
        "suburb": null,
        "city_district": null,
        "city": "Lashkar Gah",
        "state": "Helmand Province",
        "postcode": "3901",
        "country": "Afghanistan",
        "country_code": "af"
      },
      "address": "Bost Castle Road, Lashkar Gāh, Helmand Province, Afghanistan"
    },
    {
      "lat": 31.60657467448069,
      "lon": 64.37881631622794,
      "geoinfo": {
        "display_name": "Lashkar Gah, Lashkargah District, Helmand Province, 3901, Afghanistan",
        "road": null,
        "house_number": null,
        "neighbourhood": null,
        "suburb": null,
        "city_district": null,
        "city": "Lashkar Gah",
        "state": "Helmand Province",
        "postcode": "3901",
        "country": "Afghanistan",
        "country_code": "af"
      },
      "address": "Lashkar Gāh, 94177 Helmand Province, Afghanistan"
    },
    {
      "lat": 31.635776483655558,
      "lon": 64.37708211910348,
      "geoinfo": {
        "display_name": "Lashkar Gah, Lashkargah District, Helmand Province, 3901, Afghanistan",
        "road": null,
        "house_number": null,
        "neighbourhood": null,
        "suburb": null,
        "city_district": null,
        "city": "Lashkar Gah",
        "state": "Helmand Province",
        "postcode": "3901",
        "country": "Afghanistan",
        "country_code": "af"
      },
      "address": "Lashkar Gāh, 15971 Helmand Province, Afghanistan"
    },
    {
      "lat": 31.597046171398627,
      "lon": 64.39233362320026,
      "geoinfo": {
        "display_name": "Lashkar Gah, Lashkargah District, Helmand Province, 3901, Afghanistan",
        "road": null,
        "house_number": null,
        "neighbourhood": null,
        "suburb": null,
        "city_district": null,
        "city": "Lashkar Gah",
        "state": "Helmand Province",
        "postcode": "3901",
        "country": "Afghanistan",
        "country_code": "af"
      },
      "address": "Lashkar Gah, Lashkargah District, Helmand Province, 3901, Afghanistan"
    },
    {
      "lat": 31.584443103118303,
      "lon": 64.4054678459078,
      "geoinfo": {
        "display_name": "Lashkar Gah, Lashkargah District, Helmand Province, 3901, Afghanistan",
        "road": null,
        "house_number": null,
        "neighbourhood": null,
        "suburb": null,
        "city_district": null,
        "city": "Lashkar Gah",
        "state": "Helmand Province",
        "postcode": "3901",
        "country": "Afghanistan",
        "country_code": "af"
      },
      "address": "833, Lashkar Gah, Lashkargah District, Helmand Province, 3901, Afghanistan"
    },
    {
      "lat": 31.615516290002052,
      "lon": 64.3421698621121,
      "geoinfo": {
        "display_name": "از بشران الی بولان, Lashkar Gah, Lashkargah District, Helmand Province, 3901, Afghanistan",
        "road": "از بشران الی بولان",
        "house_number": null,
        "neighbourhood": null,
        "suburb": null,
        "city_district": null,
        "city": "Lashkar Gah",
        "state": "Helmand Province",
        "postcode": "3901",
        "country": "Afghanistan",
        "country_code": "af"
      },
      "address": "899, از بشران الی بولان, Lashkar Gah, Lashkargah District, Helmand Province, 3901, Afghanistan"
    },
    {
      "lat": 31.608166832659528,
      "lon": 64.38823263770813,
      "geoinfo": {
        "display_name": "Lashkar Gah, Lashkargah District, Helmand Province, 3901, Afghanistan",
        "road": null,
        "house_number": null,
        "neighbourhood": null,
        "suburb": null,
        "city_district": null,
        "city": "Lashkar Gah",
        "state": "Helmand Province",
        "postcode": "3901",
        "country": "Afghanistan",
        "country_code": "af"
      },
      "address": "714, Lashkar Gah, Lashkargah District, Helmand Province, 3901, Afghanistan"
    },
    {
      "lat": 31.59021159453659,
      "lon": 64.33506015693472,
      "geoinfo": {
        "display_name": "Lashkar Gah, Lashkargah District, Helmand Province, 3901, Afghanistan",
        "road": null,
        "house_number": null,
        "neighbourhood": null,
        "suburb": null,
        "city_district": null,
        "city": "Lashkar Gah",
        "state": "Helmand Province",
        "postcode": "3901",
        "country": "Afghanistan",
        "country_code": "af"
      },
      "address": "896, Lashkar Gah, Lashkargah District, Helmand Province, 3901, Afghanistan"
    },
    {
      "lat": 31.603972505440762,
      "lon": 64.37512731525986,
      "geoinfo": {
        "display_name": "Lashkar Gah, Lashkargah District, Helmand Province, 3901, Afghanistan",
        "road": null,
        "house_number": null,
        "neighbourhood": null,
        "suburb": null,
        "city_district": null,
        "city": "Lashkar Gah",
        "state": "Helmand Province",
        "postcode": "3901",
        "country": "Afghanistan",
        "country_code": "af"
      },
      "address": "922, Lashkar Gah, Lashkargah District, Helmand Province, 3901, Afghanistan"
    },
    {
      "lat": 31.578426626212593,
      "lon": 64.32598987581288,
      "geoinfo": {
        "display_name": "Lashkar Gah, Lashkargah District, Helmand Province, Afghanistan",
        "road": null,
        "house_number": null,
        "neighbourhood": null,
        "suburb": null,
        "city_district": null,
        "city": "Lashkar Gah",
        "state": "Helmand Province",
        "postcode": null,
        "country": "Afghanistan",
        "country_code": "af"
      },
      "address": "763, Lashkar Gah, Lashkargah District, 23363 Helmand Province, Afghanistan"
    },
    {
      "lat": 31.619211778402626,
      "lon": 64.41171030689007,
      "geoinfo": {
        "display_name": "Lashkargah District, Helmand Province, Afghanistan",
        "road": null,
        "house_number": null,
        "neighbourhood": null,
        "suburb": null,
        "city_district": null,
        "city": null,
        "state": "Helmand Province",
        "postcode": null,
        "country": "Afghanistan",
        "country_code": "af"
      },
      "address": "147, Lashkar Gāh, 44388 Helmand Province, Afghanistan"
    }
  ],
  "updated_at": "2025-10-19T03:05:28.801461+00:00",
  "_kind": "geo_samples"
}