{
  "country_code": "AF",
  "country": "Afghanistan",
  "city": "Paghmān",
  "geonameid": 1131316,
  "target_addresses": 2,
  "samples": [
    {
      "lat": 34.60058568706022,
      "lon": 68.93894613114279,
      "geoinfo": {
        "display_name": "14th District, Paghman, Kabul Province, Afghanistan",
        "road": null,
        "house_number": null,
        "neighbourhood": null,
        "suburb": "14th District",
        "city_district": null,
        "city": "Paghman",
        "state": "Kabul Province",
        "postcode": null,
        "country": "Afghanistan",
        "country_code": "af"
      },
      "address": "14th District, Paghmān, Kabul Province, Afghanistan"
    },
    {
      "lat": 34.577935498698004,
      "lon": 68.97065021413178,
      "geoinfo": {
        "display_name": "12.5km Paghman Road from Paghman Road to Chowk Company, 14th District, Paghman, Kabul Province, Afghanistan",
        "road": "12.5km Paghman Road from Paghman Road to Chowk Company",
        "house_number": null,
        "neighbourhood": null,
        "suburb": "14th District",
        "city_district": null,
        "city": "Paghman",
        "state": "Kabul Province",
        "postcode": null,
        "country": "Afghanistan",
        "country_code": "af"
      },
      "address": "12.5km Paghman Road from Paghman Road to Chowk Company, Paghmān, Kabul Province, Afghanistan"
    },
    {
      "lat": 34.59582648162614,
      "lon": 68.91187604091466,
      "geoinfo": {
        "display_name": "Paghman, Kabul Province, Afghanistan",
        "road": null,
        "house_number": null,
        "neighbourhood": null,
        "suburb": null,
        "city_district": null,
        "city": "Paghman",
        "state": "Kabul Province",
        "postcode": null,
        "country": "Afghanistan",
        "country_code": "af"
      },
      "address": "894, Paghman, 71476 Kabul Province, Afghanistan"
    },
    {
      "lat": 34.56592065623667,
      "lon": 68.96860252847311,
      "geoinfo": {
        "display_name": "سرک قلعه سینو از سرک عمومی پغمان الی جواجه لکن, 14th District, Paghman, Kabul Province, Afghanistan",
        "road": "سرک قلعه سینو از سرک عمومی پغمان الی جواجه لکن",
        "house_number": null,
        "neighbourhood": null,
        "suburb": "14th District",
        "city_district": null,
        "city": "Paghman",
        "state": "Kabul Province",
        "postcode": null,
        "country": "Afghanistan",
        "country_code": "af"
      },
      "address": "341, سرک قلعه سینو از سرک عمومی پغمان الی جواجه لکن, 14th District, Paghman, Kabul Province, Afghanistan"
    }
  ],
  "updated_at": "2025-10-19T02:24:24.071360+00:00",
  "_kind": "geo_samples"
}