{
  "country_code": "AF",
  "country": "Afghanistan",
  "city": "Pul-e Khumrī",
  "geonameid": 1130490,
  "target_addresses": 12,
  "samples": [
    {
      "lat": 35.944717763469214,
      "lon": 68.68527544382574,
      "geoinfo": {
        "display_name": "Puli Khumri, Pul-e Khumri, Baghlan Province, 3601, Afghanistan",
        "road": null,
        "house_number": null,
        "neighbourhood": null,
        "suburb": null,
        "city_district": null,
        "city": "Puli Khumri",
        "state": "Baghlan Province",
        "postcode": "3601",
        "country": "Afghanistan",
        "country_code": "af"
      },
      "address": "Pul-e Khumrī, Baghlan Province, Afghanistan"
    },
    {
      "lat": 35.97919867395436,
      "lon": 68.69096128006339,
      "geoinfo": {
        "display_name": "Kunduz Baghlan road, Puzeh-ye Eshan, Husain Khel, Pul-e Khumri, Baghlan Province, Afghanistan",
        "road": "Kunduz Baghlan road",
        "house_number": null,
        "neighbourhood": null,
        "suburb": null,
        "city_district": null,
        "city": "Husain Khel",
        "state": "Baghlan Province",
        "postcode": null,
        "country": "Afghanistan",
        "country_code": "af"
      },
      "address": "Kunduz Baghlan road, Pul-e Khumrī, Baghlan Province, Afghanistan"
    },
    {
      "lat": 35.95102317583821,
      "lon": 68.67278328210682,
      "geoinfo": {
        "display_name": "Puli Khumri, Pul-e Khumri, Baghlan Province, 3601, Afghanistan",
        "road": null,
        "house_number": null,
        "neighbourhood": null,
        "suburb": null,
        "city_district": null,
        "city": "Puli Khumri",
        "state": "Baghlan Province",
        "postcode": "3601",
        "country": "Afghanistan",
        "country_code": "af"
      },
      "address": "Pul-e Khumrī, 98834 Baghlan Province, Afghanistan"
    },
    {
      "lat": 35.978743737365825,
      "lon": 68.72229221778707,
      "geoinfo": {
        "display_name": "Puli Khumri, Pul-e Khumri, Baghlan Province, 3601, Afghanistan",
        "road": null,
        "house_number": null,
        "neighbourhood": null,
        "suburb": null,
        "city_district": null,
        "city": "Puli Khumri",
        "state": "Baghlan Province",
        "postcode": "3601",
        "country": "Afghanistan",
        "country_code": "af"
      },
      "address": "Pul-e Khumrī, 76127 Baghlan Province, Afghanistan"
    },
    {
      "lat": 35.952934092829345,
      "lon": 68.72001843219913,
      "geoinfo": {
        "display_name": "Puli Khumri, Pul-e Khumri, Baghlan Province, 3601, Afghanistan",
        "road": null,
        "house_number": null,
        "neighbourhood": null,
        "suburb": null,
        "city_district": null,
        "city": "Puli Khumri",
        "state": "Baghlan Province",
        "postcode": "3601",
        "country": "Afghanistan",
        "country_code": "af"
      },
      "address": "Puli Khumri, Pul-e Khumri, Baghlan Province, 3601, Afghanistan"
    },
    {
      "lat": 35.953087482400626,
      "lon": 68.71015747623203,
      "geoinfo": {
        "display_name": "Puli Khumri, Pul-e Khumri, Baghlan Province, 3601, Afghanistan",
        "road": null,
        "house_number": null,
        "neighbourhood": null,
        "suburb": null,
        "city_district": null,
        "city": "Puli Khumri",
        "state": "Baghlan Province",
        "postcode": "3601",
        "country": "Afghanistan",
        "country_code": "af"
      },
      "address": "213, Puli Khumri, Pul-e Khumri, Baghlan Province, 3601, Afghanistan"
    },
    {
      "lat": 35.96771904598274,
      "lon": 68.75107932468269,
      "geoinfo": {
        "display_name": "Puli Khumri, Pul-e Khumri, Baghlan Province, 3601, Afghanistan",
        "road": null,
        "house_number": null,
        "neighbourhood": null,
        "suburb": null,
        "city_district": null,
        "city": "Puli Khumri",
        "state": "Baghlan Province",
        "postcode": "3601",
        "country": "Afghanistan",
        "country_code": "af"
      },
      "address": "103, Puli Khumri, Pul-e Khumri, Baghlan Province, 3601, Afghanistan"
    },
    {
      "lat": 35.926071778535366,
      "lon": 68.72639533398673,
      "geoinfo": {
        "display_name": "Puli Khumri, Pul-e Khumri, Baghlan Province, 3601, Afghanistan",
        "road": null,
        "house_number": null,
        "neighbourhood": null,
        "suburb": null,
        "city_district": null,
        "city": "Puli Khumri",
        "state": "Baghlan Province",
        "postcode": "3601",
        "country": "Afghanistan",
        "country_code": "af"
      },
      "address": "285, Puli Khumri, Pul-e Khumri, Baghlan Province, 3601, Afghanistan"
    },
    {
      "lat": 35.95203420938492,
      "lon": 68.74535144967946,
      "geoinfo": {
        "display_name": "Puli Khumri, Pul-e Khumri, Baghlan Province, 3601, Afghanistan",
        "road": null,
        "house_number": null,
        "neighbourhood": null,
        "suburb": null,
        "city_district": null,
        "city": "Puli Khumri",
        "state": "Baghlan Province",
        "postcode": "3601",
        "country": "Afghanistan",
        "country_code": "af"
      },
      "address": "360, Puli Khumri, Pul-e Khumri, Baghlan Province, 3601, Afghanistan"
    },
    {
      "lat": 35.95656144895197,
      "lon": 68.7293790825617,
      "geoinfo": {
        "display_name": "Puli Khumri, Pul-e Khumri, Baghlan Province, 3601, Afghanistan",
        "road": null,
        "house_number": null,
        "neighbourhood": null,
        "suburb": null,
        "city_district": null,
        "city": "Puli Khumri",
        "state": "Baghlan Province",
        "postcode": "3601",
        "country": "Afghanistan",
        "country_code": "af"
      },
      "address": "409, Puli Khumri, Pul-e Khumri, Baghlan Province, 3601, Afghanistan"
    },
    {
      "lat": 35.93884004618636,
      "lon": 68.66079328073339,
      "geoinfo": {
        "display_name": "Puli Khumri, Pul-e Khumri, Baghlan Province, Afghanistan",
        "road": null,
        "house_number": null,
        "neighbourhood": null,
        "suburb": null,
        "city_district": null,
        "city": "Puli Khumri",
        "state": "Baghlan Province",
        "postcode": null,
        "country": "Afghanistan",
        "country_code": "af"
      },
      "address": "776, Puli Khumri, Pul-e Khumri, 90892 Baghlan Province, Afghanistan"
    },
    {
      "lat": 35.94649249410026,
      "lon": 68.73982694068118,
      "geoinfo": {
        "display_name": "Puli Khumri, Pul-e Khumri, Baghlan Province, 3601, Afghanistan",
        "road": null,
        "house_number": null,
        "neighbourhood": null,
        "suburb": null,
        "city_district": null,
        "city": "Puli Khumri",
        "state": "Baghlan Province",
        "postcode": "3601",
        "country": "Afghanistan",
        "country_code": "af"
      },
      "address": "372, Puli Khumri, Pul-e Khumri, Baghlan Province, 3601, Afghanistan"
    }
  ],
  "updated_at": "2025-10-19T03:05:08.805773+00:00",
  "_kind": "geo_samples"
}