{
  "country_code": "AF",
  "country": "Afghanistan",
  "city": "Āsmār",
  "geonameid": 1148205,
  "target_addresses": 2,
  "samples": [
    {
      "lat": 34.994470582779236,
      "lon": 71.3319353541107,
      "geoinfo": {
        "display_name": "Dangam, Kunar Province, Afghanistan",
        "road": null,
        "house_number": null,
        "neighbourhood": null,
        "suburb": null,
        "city_district": null,
        "city": null,
        "state": "Kunar Province",
        "postcode": null,
        "country": "Afghanistan",
        "country_code": "af"
      },
      "address": "Āsmār, Kunar Province, Afghanistan"
    },
    {
      "lat": 35.04624531880817,
      "lon": 71.36219298588433,
      "geoinfo": {
        "display_name": "Asmar Bazar to Shangar and Petaw Village, Asmar, Bar Kunar, Kunar Province, Afghanistan",
        "road": "Asmar Bazar to Shangar and Petaw Village",
        "house_number": null,
        "neighbourhood": null,
        "suburb": null,
        "city_district": null,
        "city": "Asmar",
        "state": "Kunar Province",
        "postcode": null,
        "country": "Afghanistan",
        "country_code": "af"
      },
      "address": "Asmar Bazar to Shangar and Petaw Village, Āsmār, Kunar Province, Afghanistan"
    },
    {
      "lat": 35.03786512588499,
      "lon": 71.40740614079286,
      "geoinfo": {
        "display_name": "Dangam, Kunar Province, Afghanistan",
        "road": null,
        "house_number": null,
        "neighbourhood": null,
        "suburb": null,
        "city_district": null,
        "city": "Dangam",
        "state": "Kunar Province",
        "postcode": null,
        "country": "Afghanistan",
        "country_code": "af"
      },
      "address": "976, Āsmār, 43030 Kunar Province, Afghanistan"
    },
    {
      "lat": 35.00886266554129,
      "lon": 71.33049443819482,
      "geoinfo": {
        "display_name": "Dangam, Kunar Province, Afghanistan",
        "road": null,
        "house_number": null,
        "neighbourhood": null,
        "suburb": null,
        "city_district": null,
        "city": null,
        "state": "Kunar Province",
        "postcode": null,
        "country": "Afghanistan",
        "country_code": "af"
      },
      "address": "045, Āsmār, 68818 Kunar Province, Afghanistan"
    }
  ],
  "updated_at": "2025-10-19T02:24:55.367814+00:00",
  "_kind": "geo_samples"
}