{
  "country_code": "UA",
  "country": "Ukraine",
  "city": "Luhansk",
  "geonameid": 702658,
  "target_addresses": 100,
  "samples": [
    {
      "lat": 48.54980487737758,
      "lon": 39.30828773252865,
      "geoinfo": {
        "display_name": "Верхній 3-й кілометр, Luhansk, Ленінський район, Луганська міська громада, Луганський район, Luhansk Oblast, 91007, Ukraine",
        "road": null,
        "house_number": null,
        "neighbourhood": null,
        "suburb": null,
        "city_district": null,
        "city": "Luhansk",
        "state": "Luhansk Oblast",
        "postcode": "91007",
        "country": "Ukraine",
        "country_code": "ua"
      },
      "address": "Luhansk, Luhansk Oblast, Ukraine"
    },
    {
      "lat": 48.53761142698891,
      "lon": 39.322240094881664,
      "geoinfo": {
        "display_name": "Пожежна частина №2, Krasnodonska Street, Luhansk, Ленінський район, Луганська міська громада, Луганський район, Luhansk Oblast, 91045, Ukraine",
        "road": "Krasnodonska Street",
        "house_number": null,
        "neighbourhood": null,
        "suburb": null,
        "city_district": null,
        "city": "Luhansk",
        "state": "Luhansk Oblast",
        "postcode": "91045",
        "country": "Ukraine",
        "country_code": "ua"
      },
      "address": "Пожежна частина №2, Krasnodonska Street, Luhansk, Ленінський район, Луганська міська громада, Луганський район, Luhansk Oblast, 91045, Ukraine"
    },
    {
      "lat": 48.59708076756608,
      "lon": 39.30106995924092,
      "geoinfo": {
        "display_name": "41, вулиця Куйбишева, Kamianyi Brid, Luhansk, Kamianyi Brid District, Луганська міська громада, Луганський район, Luhansk Oblast, 291002, Ukraine",
        "road": "вулиця Куйбишева",
        "house_number": "41",
        "neighbourhood": null,
        "suburb": "Kamianyi Brid",
        "city_district": null,
        "city": "Luhansk",
        "state": "Luhansk Oblast",
        "postcode": "291002",
        "country": "Ukraine",
        "country_code": "ua"
      },
      "address": "41, вулиця Куйбишева, Kamianyi Brid, Luhansk, Kamianyi Brid District, Луганська міська громада, Луганський район, Luhansk Oblast, 291002, Ukraine"
    },
    {
      "lat": 48.563416304053185,
      "lon": 39.2834562712988,
      "geoinfo": {
        "display_name": "Совєтська вулиця, Luhansk, Артемівський район, Луганська міська громада, Луганський район, Luhansk Oblast, 91023, Ukraine",
        "road": "Совєтська вулиця",
        "house_number": null,
        "neighbourhood": null,
        "suburb": null,
        "city_district": null,
        "city": "Luhansk",
        "state": "Luhansk Oblast",
        "postcode": "91023",
        "country": "Ukraine",
        "country_code": "ua"
      },
      "address": "527, Совєтська вулиця, Luhansk, Артемівський район, Луганська міська громада, Луганський район, Luhansk Oblast, 91023, Ukraine"
    },
    {
      "lat": 48.58936510277159,
      "lon": 39.25066944513499,
      "geoinfo": {
        "display_name": "Пріродна вулиця, Luhansk, Kamianyi Brid District, Луганська міська громада, Луганський район, Luhansk Oblast, 91021, Ukraine",
        "road": "Пріродна вулиця",
        "house_number": null,
        "neighbourhood": null,
        "suburb": null,
        "city_district": null,
        "city": "Luhansk",
        "state": "Luhansk Oblast",
        "postcode": "91021",
        "country": "Ukraine",
        "country_code": "ua"
      },
      "address": "665, Пріродна вулиця, Luhansk, Kamianyi Brid District, Луганська міська громада, Луганський район, Luhansk Oblast, 91021, Ukraine"
    },
    {
      "lat": 48.55119167653955,
      "lon": 39.285146201413646,
      "geoinfo": {
        "display_name": "1-i Berehovyi Lane, 3-й кілометр, Luhansk, Артемівський район, Луганська міська громада, Луганський район, Luhansk Oblast, 91007, Ukraine",
        "road": "1-i Berehovyi Lane",
        "house_number": null,
        "neighbourhood": null,
        "suburb": "3-й кілометр",
        "city_district": null,
        "city": "Luhansk",
        "state": "Luhansk Oblast",
        "postcode": "91007",
        "country": "Ukraine",
        "country_code": "ua"
      },
      "address": "1-i Berehovyi Lane, 3-й кілометр, Luhansk, Артемівський район, Луганська міська громада, Луганський район, Luhansk Oblast, 91007, Ukraine"
    },
    {
      "lat": 48.582739911450695,
      "lon": 39.27594730631248,
      "geoinfo": {
        "display_name": "Stanislavskoho Street, Kamianyi Brid, Luhansk, Kamianyi Brid District, Луганська міська громада, Луганський район, Luhansk Oblast, 91019, Ukraine",
        "road": "Stanislavskoho Street",
        "house_number": null,
        "neighbourhood": null,
        "suburb": "Kamianyi Brid",
        "city_district": null,
        "city": "Luhansk",
        "state": "Luhansk Oblast",
        "postcode": "91019",
        "country": "Ukraine",
        "country_code": "ua"
      },
      "address": "640, Stanislavskoho Street, Kamianyi Brid, Luhansk, Kamianyi Brid District, Луганська міська громада, Луганський район, Luhansk Oblast, 91019, Ukraine"
    },
    {
      "lat": 48.56061588675509,
      "lon": 39.32267756168429,
      "geoinfo": {
        "display_name": "вулиця Газєти Луганской правди, Верхній 3-й кілометр, Luhansk, Ленінський район, Луганська міська громада, Луганський район, Luhansk Oblast, 91011, Ukraine",
        "road": "вулиця Газєти Луганской правди",
        "house_number": null,
        "neighbourhood": null,
        "suburb": null,
        "city_district": null,
        "city": "Luhansk",
        "state": "Luhansk Oblast",
        "postcode": "91011",
        "country": "Ukraine",
        "country_code": "ua"
      },
      "address": "вулиця Газєти Луганской правди, Верхній 3-й кілометр, Luhansk, Ленінський район, Луганська міська громада, Луганський район, Luhansk Oblast, 91011, Ukraine"
    },
    {
      "lat": 48.56895059722919,
      "lon": 39.25769948420254,
      "geoinfo": {
        "display_name": "Luhansk, Артемівський район, Луганська міська громада, Луганський район, Luhansk Oblast, 91021, Ukraine",
        "road": null,
        "house_number": null,
        "neighbourhood": null,
        "suburb": null,
        "city_district": null,
        "city": "Luhansk",
        "state": "Luhansk Oblast",
        "postcode": "91021",
        "country": "Ukraine",
        "country_code": "ua"
      },
      "address": "602, Luhansk, 91021 Luhansk Oblast, Ukraine"
    },
    {
      "lat": 48.5469048656221,
      "lon": 39.35573273903873,
      "geoinfo": {
        "display_name": "26 Baku Commissars Street, селище заводу ЖР, Luhansk, Zhovtnevyy Rayon, Луганська міська громада, Луганський район, Luhansk Oblast, 91047, Ukraine",
        "road": "26 Baku Commissars Street",
        "house_number": null,
        "neighbourhood": null,
        "suburb": "селище заводу ЖР",
        "city_district": null,
        "city": "Luhansk",
        "state": "Luhansk Oblast",
        "postcode": "91047",
        "country": "Ukraine",
        "country_code": "ua"
      },
      "address": "26 Baku Commissars Street, селище заводу ЖР, Luhansk, Zhovtnevyy Rayon, Луганська міська громада, Луганський район, Luhansk Oblast, 91047, Ukraine"
    },
    {
      "lat": 48.58849697267577,
      "lon": 39.271042600089835,
      "geoinfo": {
        "display_name": "15, 10a Povzdovzhnia Street, Kamianyi Brid, Luhansk, Kamianyi Brid District, Луганська міська громада, Луганський район, Luhansk Oblast, 91019, Ukraine",
        "road": "10a Povzdovzhnia Street",
        "house_number": "15",
        "neighbourhood": null,
        "suburb": "Kamianyi Brid",
        "city_district": null,
        "city": "Luhansk",
        "state": "Luhansk Oblast",
        "postcode": "91019",
        "country": "Ukraine",
        "country_code": "ua"
      },
      "address": "15, 10a Povzdovzhnia Street, Kamianyi Brid, Luhansk, Kamianyi Brid District, Луганська міська громада, Луганський район, Luhansk Oblast, 91019, Ukraine"
    },
    {
      "lat": 48.58023383628602,
      "lon": 39.362627581925935,
      "geoinfo": {
        "display_name": "Frunze Street, Стахановське містечко, Luhansk, Zhovtnevyy Rayon, Луганська міська громада, Луганський район, Luhansk Oblast, 91005, Ukraine",
        "road": "Frunze Street",
        "house_number": null,
        "neighbourhood": null,
        "suburb": null,
        "city_district": null,
        "city": "Luhansk",
        "state": "Luhansk Oblast",
        "postcode": "91005",
        "country": "Ukraine",
        "country_code": "ua"
      },
      "address": "547, Frunze Street, Стахановське містечко, Luhansk, Zhovtnevyy Rayon, Луганська міська громада, Луганський район, Luhansk Oblast, 91005, Ukraine"
    },
    {
      "lat": 48.56585518007122,
      "lon": 39.239484391760406,
      "geoinfo": {
        "display_name": "Аграрна вулиця, містечко ЛНАУ, Luhansk, Артемівський район, Vesela Tarasivka, Луганська міська громада, Луганський район, Luhansk Oblast, 92010, Ukraine",
        "road": "Аграрна вулиця",
        "house_number": null,
        "neighbourhood": "містечко ЛНАУ",
        "suburb": null,
        "city_district": null,
        "city": "Luhansk",
        "state": "Luhansk Oblast",
        "postcode": "92010",
        "country": "Ukraine",
        "country_code": "ua"
      },
      "address": "646, Аграрна вулиця, містечко ЛНАУ, Luhansk, Артемівський район, Vesela Tarasivka, Луганська міська громада, Луганський район, Luhansk Oblast, 92010, Ukraine"
    },
    {
      "lat": 48.604477831321454,
      "lon": 39.31263175560661,
      "geoinfo": {
        "display_name": "Лізи Чайкіної вулиця, Kamianyi Brid, Luhansk, Kamianyi Brid District, Луганська міська громада, Луганський район, Luhansk Oblast, 91002, Ukraine",
        "road": "Лізи Чайкіної вулиця",
        "house_number": null,
        "neighbourhood": null,
        "suburb": "Kamianyi Brid",
        "city_district": null,
        "city": "Luhansk",
        "state": "Luhansk Oblast",
        "postcode": "91002",
        "country": "Ukraine",
        "country_code": "ua"
      },
      "address": "553, Лізи Чайкіної вулиця, Kamianyi Brid, Luhansk, Kamianyi Brid District, Луганська міська громада, Луганський район, Luhansk Oblast, 91002, Ukraine"
    },
    {
      "lat": 48.557223121713804,
      "lon": 39.28447325152327,
      "geoinfo": {
        "display_name": "Безумне, Luhansk, Артемівський район, Луганська міська громада, Луганський район, Luhansk Oblast, 91007, Ukraine",
        "road": null,
        "house_number": null,
        "neighbourhood": null,
        "suburb": "Безумне",
        "city_district": null,
        "city": "Luhansk",
        "state": "Luhansk Oblast",
        "postcode": "91007",
        "country": "Ukraine",
        "country_code": "ua"
      },
      "address": "253, Безумне, Luhansk, Артемівський район, Луганська міська громада, Луганський район, Luhansk Oblast, 91007, Ukraine"
    },
    {
      "lat": 48.576980744200654,
      "lon": 39.361858655022296,
      "geoinfo": {
        "display_name": "96, Lomonosov Street, Стахановське містечко, Luhansk, Zhovtnevyy Rayon, Луганська міська громада, Луганський район, Luhansk Oblast, 91005, Ukraine",
        "road": "Lomonosov Street",
        "house_number": "96",
        "neighbourhood": null,
        "suburb": null,
        "city_district": null,
        "city": "Luhansk",
        "state": "Luhansk Oblast",
        "postcode": "91005",
        "country": "Ukraine",
        "country_code": "ua"
      },
      "address": "96, Lomonosov Street, Стахановське містечко, Luhansk, Zhovtnevyy Rayon, Луганська міська громада, Луганський район, Luhansk Oblast, 91005, Ukraine"
    },
    {
      "lat": 48.5636429191458,
      "lon": 39.341288385517814,
      "geoinfo": {
        "display_name": "2е, Dalekoskhidna Street, містечко заводу ЖР, Luhansk, Zhovtnevyy Rayon, Луганська міська громада, Луганський район, Luhansk Oblast, 91005, Ukraine",
        "road": "Dalekoskhidna Street",
        "house_number": "2е",
        "neighbourhood": null,
        "suburb": "містечко заводу ЖР",
        "city_district": null,
        "city": "Luhansk",
        "state": "Luhansk Oblast",
        "postcode": "91005",
        "country": "Ukraine",
        "country_code": "ua"
      },
      "address": "2е, Dalekoskhidna Street, містечко заводу ЖР, Luhansk, Zhovtnevyy Rayon, Луганська міська громада, Луганський район, Luhansk Oblast, 91005, Ukraine"
    },
    {
      "lat": 48.57712591179012,
      "lon": 39.28827944177619,
      "geoinfo": {
        "display_name": "6А, Kirov Street, Luhansk, Kamianyi Brid District, Луганська міська громада, Луганський район, Luhansk Oblast, 91045, Ukraine",
        "road": "Kirov Street",
        "house_number": "6А",
        "neighbourhood": null,
        "suburb": null,
        "city_district": null,
        "city": "Luhansk",
        "state": "Luhansk Oblast",
        "postcode": "91045",
        "country": "Ukraine",
        "country_code": "ua"
      },
      "address": "6А, Kirov Street, Luhansk, Kamianyi Brid District, Луганська міська громада, Луганський район, Luhansk Oblast, 91045, Ukraine"
    },
    {
      "lat": 48.56747109700604,
      "lon": 39.355096561291596,
      "geoinfo": {
        "display_name": "2, Маяковського провулок, селище заводу ЖР, Luhansk, Zhovtnevyy Rayon, Луганська міська громада, Луганський район, Luhansk Oblast, 91005, Ukraine",
        "road": "Маяковського провулок",
        "house_number": "2",
        "neighbourhood": null,
        "suburb": "селище заводу ЖР",
        "city_district": null,
        "city": "Luhansk",
        "state": "Luhansk Oblast",
        "postcode": "91005",
        "country": "Ukraine",
        "country_code": "ua"
      },
      "address": "2, Маяковського провулок, селище заводу ЖР, Luhansk, Zhovtnevyy Rayon, Луганська міська громада, Луганський район, Luhansk Oblast, 91005, Ukraine"
    },
    {
      "lat": 48.557064849227565,
      "lon": 39.336257388178375,
      "geoinfo": {
        "display_name": "21, тупик 24-ї лінії, Luhansk, Zhovtnevyy Rayon, Луганська міська громада, Луганський район, Luhansk Oblast, 91033, Ukraine",
        "road": "тупик 24-ї лінії",
        "house_number": "21",
        "neighbourhood": null,
        "suburb": null,
        "city_district": null,
        "city": "Luhansk",
        "state": "Luhansk Oblast",
        "postcode": "91033",
        "country": "Ukraine",
        "country_code": "ua"
      },
      "address": "21, тупик 24-ї лінії, Luhansk, Zhovtnevyy Rayon, Луганська міська громада, Луганський район, Luhansk Oblast, 91033, Ukraine"
    },
    {
      "lat": 48.55641980051109,
      "lon": 39.36930059187433,
      "geoinfo": {
        "display_name": "140, Чкалова вулиця, селище заводу ЖР, Luhansk, Zhovtnevyy Rayon, Луганська міська громада, Луганський район, Luhansk Oblast, 91050, Ukraine",
        "road": "Чкалова вулиця",
        "house_number": "140",
        "neighbourhood": null,
        "suburb": "селище заводу ЖР",
        "city_district": null,
        "city": "Luhansk",
        "state": "Luhansk Oblast",
        "postcode": "91050",
        "country": "Ukraine",
        "country_code": "ua"
      },
      "address": "140, Чкалова вулиця, селище заводу ЖР, Luhansk, Zhovtnevyy Rayon, Луганська міська громада, Луганський район, Luhansk Oblast, 91050, Ukraine"
    },
    {
      "lat": 48.53321658672404,
      "lon": 39.30671654586949,
      "geoinfo": {
        "display_name": "Magistralna Street, Luhansk, Артемівський район, Луганська міська громада, Луганський район, Luhansk Oblast, 91045, Ukraine",
        "road": "Magistralna Street",
        "house_number": null,
        "neighbourhood": null,
        "suburb": null,
        "city_district": null,
        "city": "Luhansk",
        "state": "Luhansk Oblast",
        "postcode": "91045",
        "country": "Ukraine",
        "country_code": "ua"
      },
      "address": "789, Magistralna Street, Luhansk, Артемівський район, Луганська міська громада, Луганський район, Luhansk Oblast, 91045, Ukraine"
    },
    {
      "lat": 48.55398022109611,
      "lon": 39.24423810794555,
      "geoinfo": {
        "display_name": "МАНГО, 120, Andrew Linyov Street, Luhansk, Артемівський район, Луганська міська громада, Луганський район, Luhansk Oblast, 91021, Ukraine",
        "road": "Andrew Linyov Street",
        "house_number": "120",
        "neighbourhood": null,
        "suburb": null,
        "city_district": null,
        "city": "Luhansk",
        "state": "Luhansk Oblast",
        "postcode": "91021",
        "country": "Ukraine",
        "country_code": "ua"
      },
      "address": "МАНГО, 120, Andrew Linyov Street, Luhansk, Артемівський район, Луганська міська громада, Луганський район, Luhansk Oblast, 91021, Ukraine"
    },
    {
      "lat": 48.57482144491567,
      "lon": 39.26489604610208,
      "geoinfo": {
        "display_name": "Ukrainian Street, Luhansk, Артемівський район, Луганська міська громада, Луганський район, Luhansk Oblast, 91021, Ukraine",
        "road": "Ukrainian Street",
        "house_number": null,
        "neighbourhood": null,
        "suburb": null,
        "city_district": null,
        "city": "Luhansk",
        "state": "Luhansk Oblast",
        "postcode": "91021",
        "country": "Ukraine",
        "country_code": "ua"
      },
      "address": "041, Ukrainian Street, Luhansk, Артемівський район, Луганська міська громада, Луганський район, Luhansk Oblast, 91021, Ukraine"
    },
    {
      "lat": 48.593302342592764,
      "lon": 39.283065620180956,
      "geoinfo": {
        "display_name": "7, 11-a Povzdovzhnia Street, Kamianyi Brid, Luhansk, Kamianyi Brid District, Луганська міська громада, Луганський район, Luhansk Oblast, 91019, Ukraine",
        "road": "11-a Povzdovzhnia Street",
        "house_number": "7",
        "neighbourhood": null,
        "suburb": "Kamianyi Brid",
        "city_district": null,
        "city": "Luhansk",
        "state": "Luhansk Oblast",
        "postcode": "91019",
        "country": "Ukraine",
        "country_code": "ua"
      },
      "address": "7, 11-a Povzdovzhnia Street, Kamianyi Brid, Luhansk, Kamianyi Brid District, Луганська міська громада, Луганський район, Luhansk Oblast, 91019, Ukraine"
    },
    {
      "lat": 48.604429665254706,
      "lon": 39.27888486392815,
      "geoinfo": {
        "display_name": "Kamianyi Brid, Luhansk, Kamianyi Brid District, Луганська міська громада, Луганський район, Luhansk Oblast, 91019, Ukraine",
        "road": null,
        "house_number": null,
        "neighbourhood": null,
        "suburb": "Kamianyi Brid",
        "city_district": null,
        "city": "Luhansk",
        "state": "Luhansk Oblast",
        "postcode": "91019",
        "country": "Ukraine",
        "country_code": "ua"
      },
      "address": "384, Kamianyi Brid, Luhansk, Kamianyi Brid District, Луганська міська громада, Луганський район, Luhansk Oblast, 91019, Ukraine"
    },
    {
      "lat": 48.56398357447365,
      "lon": 39.303840788725104,
      "geoinfo": {
        "display_name": "59, Hubskoho Street, Гусинівка, Luhansk, Ленінський район, Луганська міська громада, Луганський район, Luhansk Oblast, 91016, Ukraine",
        "road": "Hubskoho Street",
        "house_number": "59",
        "neighbourhood": null,
        "suburb": "Гусинівка",
        "city_district": null,
        "city": "Luhansk",
        "state": "Luhansk Oblast",
        "postcode": "91016",
        "country": "Ukraine",
        "country_code": "ua"
      },
      "address": "59, Hubskoho Street, Гусинівка, Luhansk, Ленінський район, Луганська міська громада, Луганський район, Luhansk Oblast, 91016, Ukraine"
    },
    {
      "lat": 48.58029504167853,
      "lon": 39.351683866514925,
      "geoinfo": {
        "display_name": "АЗС, Frunze Street, Стахановське містечко, Luhansk, Zhovtnevyy Rayon, Луганська міська громада, Луганський район, Luhansk Oblast, 91005, Ukraine",
        "road": "Frunze Street",
        "house_number": null,
        "neighbourhood": null,
        "suburb": null,
        "city_district": null,
        "city": "Luhansk",
        "state": "Luhansk Oblast",
        "postcode": "91005",
        "country": "Ukraine",
        "country_code": "ua"
      },
      "address": "304, Frunze Street, Luhansk, 91005 Luhansk Oblast, Ukraine"
    },
    {
      "lat": 48.544584298400345,
      "lon": 39.30346011112626,
      "geoinfo": {
        "display_name": "49, 4-а Кожевна вулиця, Верхній 3-й кілометр, Luhansk, Артемівський район, Луганська міська громада, Луганський район, Luhansk Oblast, 91007, Ukraine",
        "road": "4-а Кожевна вулиця",
        "house_number": "49",
        "neighbourhood": null,
        "suburb": null,
        "city_district": null,
        "city": "Luhansk",
        "state": "Luhansk Oblast",
        "postcode": "91007",
        "country": "Ukraine",
        "country_code": "ua"
      },
      "address": "49, 4-а Кожевна вулиця, Верхній 3-й кілометр, Luhansk, Артемівський район, Луганська міська громада, Луганський район, Luhansk Oblast, 91007, Ukraine"
    },
    {
      "lat": 48.58319075403182,
      "lon": 39.292408953839846,
      "geoinfo": {
        "display_name": "27, Bohdanivskyi Lane, Luhansk, Kamianyi Brid District, Луганська міська громада, Луганський район, Luhansk Oblast, 91023, Ukraine",
        "road": "Bohdanivskyi Lane",
        "house_number": "27",
        "neighbourhood": null,
        "suburb": null,
        "city_district": null,
        "city": "Luhansk",
        "state": "Luhansk Oblast",
        "postcode": "91023",
        "country": "Ukraine",
        "country_code": "ua"
      },
      "address": "27, Bohdanivskyi Lane, Luhansk, Kamianyi Brid District, Луганська міська громада, Луганський район, Luhansk Oblast, 91023, Ukraine"
    },
    {
      "lat": 48.60507496252554,
      "lon": 39.270301611565884,
      "geoinfo": {
        "display_name": "Н-21, Luhansk, Kamianyi Brid District, Луганська міська громада, Луганський район, Luhansk Oblast, 91000, Ukraine",
        "road": "Н-21",
        "house_number": null,
        "neighbourhood": null,
        "suburb": null,
        "city_district": null,
        "city": "Luhansk",
        "state": "Luhansk Oblast",
        "postcode": "91000",
        "country": "Ukraine",
        "country_code": "ua"
      },
      "address": "Н-21, Luhansk, Kamianyi Brid District, Луганська міська громада, Луганський район, Luhansk Oblast, 91000, Ukraine"
    },
    {
      "lat": 48.56932751137108,
      "lon": 39.31265462231038,
      "geoinfo": {
        "display_name": "Ясла-садок №7, Совєтська вулиця, Гусинівка, Luhansk, Ленінський район, Луганська міська громада, Луганський район, Luhansk Oblast, 91016, Ukraine",
        "road": "Совєтська вулиця",
        "house_number": null,
        "neighbourhood": null,
        "suburb": "Гусинівка",
        "city_district": null,
        "city": "Luhansk",
        "state": "Luhansk Oblast",
        "postcode": "91016",
        "country": "Ukraine",
        "country_code": "ua"
      },
      "address": "Ясла-садок №7, Совєтська вулиця, Гусинівка, Luhansk, Ленінський район, Луганська міська громада, Луганський район, Luhansk Oblast, 91016, Ukraine"
    },
    {
      "lat": 48.56079289133336,
      "lon": 39.34793424289741,
      "geoinfo": {
        "display_name": "28, Кулика вулиця, селище заводу ЖР, Luhansk, Zhovtnevyy Rayon, Луганська міська громада, Луганський район, Luhansk Oblast, 91005, Ukraine",
        "road": "Кулика вулиця",
        "house_number": "28",
        "neighbourhood": null,
        "suburb": "селище заводу ЖР",
        "city_district": null,
        "city": "Luhansk",
        "state": "Luhansk Oblast",
        "postcode": "91005",
        "country": "Ukraine",
        "country_code": "ua"
      },
      "address": "28, Кулика вулиця, селище заводу ЖР, Luhansk, Zhovtnevyy Rayon, Луганська міська громада, Луганський район, Luhansk Oblast, 91005, Ukraine"
    },
    {
      "lat": 48.559105707694386,
      "lon": 39.27937815675677,
      "geoinfo": {
        "display_name": "1, Furmanova Street, Безумне, Luhansk, Артемівський район, Луганська міська громада, Луганський район, Luhansk Oblast, 91007, Ukraine",
        "road": "Furmanova Street",
        "house_number": "1",
        "neighbourhood": null,
        "suburb": "Безумне",
        "city_district": null,
        "city": "Luhansk",
        "state": "Luhansk Oblast",
        "postcode": "91007",
        "country": "Ukraine",
        "country_code": "ua"
      },
      "address": "1, Furmanova Street, Безумне, Luhansk, Артемівський район, Луганська міська громада, Луганський район, Luhansk Oblast, 91007, Ukraine"
    },
    {
      "lat": 48.54473815870663,
      "lon": 39.30858032839526,
      "geoinfo": {
        "display_name": "3Б, Kariernyi Lane, Верхній 3-й кілометр, Luhansk, Артемівський район, Луганська міська громада, Луганський район, Luhansk Oblast, 91007, Ukraine",
        "road": "Kariernyi Lane",
        "house_number": "3Б",
        "neighbourhood": null,
        "suburb": null,
        "city_district": null,
        "city": "Luhansk",
        "state": "Luhansk Oblast",
        "postcode": "91007",
        "country": "Ukraine",
        "country_code": "ua"
      },
      "address": "3Б, Kariernyi Lane, Верхній 3-й кілометр, Luhansk, Артемівський район, Луганська міська громада, Луганський район, Luhansk Oblast, 91007, Ukraine"
    },
    {
      "lat": 48.57259624612556,
      "lon": 39.36619196684924,
      "geoinfo": {
        "display_name": "75, Lomonosov Street, Стахановське містечко, Luhansk, Zhovtnevyy Rayon, Луганська міська громада, Луганський район, Luhansk Oblast, 91005, Ukraine",
        "road": "Lomonosov Street",
        "house_number": "75",
        "neighbourhood": null,
        "suburb": null,
        "city_district": null,
        "city": "Luhansk",
        "state": "Luhansk Oblast",
        "postcode": "91005",
        "country": "Ukraine",
        "country_code": "ua"
      },
      "address": "75, Lomonosov Street, Стахановське містечко, Luhansk, Zhovtnevyy Rayon, Луганська міська громада, Луганський район, Luhansk Oblast, 91005, Ukraine"
    },
    {
      "lat": 48.5624357313292,
      "lon": 39.357483446968615,
      "geoinfo": {
        "display_name": "64а, Комбайная вулиця, селище заводу ЖР, Luhansk, Zhovtnevyy Rayon, Луганська міська громада, Луганський район, Luhansk Oblast, 91005, Ukraine",
        "road": "Комбайная вулиця",
        "house_number": "64а",
        "neighbourhood": null,
        "suburb": "селище заводу ЖР",
        "city_district": null,
        "city": "Luhansk",
        "state": "Luhansk Oblast",
        "postcode": "91005",
        "country": "Ukraine",
        "country_code": "ua"
      },
      "address": "64а, Комбайная вулиця, селище заводу ЖР, Luhansk, Zhovtnevyy Rayon, Луганська міська громада, Луганський район, Luhansk Oblast, 91005, Ukraine"
    },
    {
      "lat": 48.596659817685335,
      "lon": 39.29183239883029,
      "geoinfo": {
        "display_name": "13, 2-й Балтійський провулок, Kamianyi Brid, Luhansk, Kamianyi Brid District, Луганська міська громада, Луганський район, Luhansk Oblast, 291002, Ukraine",
        "road": "2-й Балтійський провулок",
        "house_number": "13",
        "neighbourhood": null,
        "suburb": "Kamianyi Brid",
        "city_district": null,
        "city": "Luhansk",
        "state": "Luhansk Oblast",
        "postcode": "291002",
        "country": "Ukraine",
        "country_code": "ua"
      },
      "address": "13, 2-й Балтійський провулок, Kamianyi Brid, Luhansk, Kamianyi Brid District, Луганська міська громада, Луганський район, Luhansk Oblast, 291002, Ukraine"
    },
    {
      "lat": 48.60345424794621,
      "lon": 39.28726200597072,
      "geoinfo": {
        "display_name": "Kamianyi Brid, Luhansk, Kamianyi Brid District, Луганська міська громада, Луганський район, Luhansk Oblast, 91019, Ukraine",
        "road": null,
        "house_number": null,
        "neighbourhood": null,
        "suburb": "Kamianyi Brid",
        "city_district": null,
        "city": "Luhansk",
        "state": "Luhansk Oblast",
        "postcode": "91019",
        "country": "Ukraine",
        "country_code": "ua"
      },
      "address": "572, Kamianyi Brid, Luhansk, Kamianyi Brid District, Луганська міська громада, Луганський район, Luhansk Oblast, 91019, Ukraine"
    },
    {
      "lat": 48.56849343359692,
      "lon": 39.30459878989758,
      "geoinfo": {
        "display_name": "37, Demyokhin Street, Гусинівка, Luhansk, Ленінський район, Луганська міська громада, Луганський район, Luhansk Oblast, 91016, Ukraine",
        "road": "Demyokhin Street",
        "house_number": "37",
        "neighbourhood": null,
        "suburb": "Гусинівка",
        "city_district": null,
        "city": "Luhansk",
        "state": "Luhansk Oblast",
        "postcode": "91016",
        "country": "Ukraine",
        "country_code": "ua"
      },
      "address": "37, Demyokhin Street, Гусинівка, Luhansk, Ленінський район, Луганська міська громада, Луганський район, Luhansk Oblast, 91016, Ukraine"
    },
    {
      "lat": 48.55793770918703,
      "lon": 39.25988788459132,
      "geoinfo": {
        "display_name": "6, Bronenostsia \"Potomkin\" Street, Безумне, Luhansk, Артемівський район, Луганська міська громада, Луганський район, Luhansk Oblast, 91021, Ukraine",
        "road": "Bronenostsia \"Potomkin\" Street",
        "house_number": "6",
        "neighbourhood": null,
        "suburb": "Безумне",
        "city_district": null,
        "city": "Luhansk",
        "state": "Luhansk Oblast",
        "postcode": "91021",
        "country": "Ukraine",
        "country_code": "ua"
      },
      "address": "6, Bronenostsia \"Potomkin\" Street, Безумне, Luhansk, Артемівський район, Луганська міська громада, Луганський район, Luhansk Oblast, 91021, Ukraine"
    },
    {
      "lat": 48.55667117102603,
      "lon": 39.32230105894806,
      "geoinfo": {
        "display_name": "Луганський будівельний коледж, Oboronna Street, Гусинівка, Luhansk, Ленінський район, Луганська міська громада, Луганський район, Luhansk Oblast, 91031, Ukraine",
        "road": "Oboronna Street",
        "house_number": null,
        "neighbourhood": null,
        "suburb": "Гусинівка",
        "city_district": null,
        "city": "Luhansk",
        "state": "Luhansk Oblast",
        "postcode": "91031",
        "country": "Ukraine",
        "country_code": "ua"
      },
      "address": "908, Oboronna Street, Luhansk, 91031 Luhansk Oblast, Ukraine"
    },
    {
      "lat": 48.59696518880353,
      "lon": 39.276751685133384,
      "geoinfo": {
        "display_name": "Luhansk, Kamianyi Brid District, Луганська міська громада, Луганський район, Luhansk Oblast, 91019, Ukraine",
        "road": null,
        "house_number": null,
        "neighbourhood": null,
        "suburb": null,
        "city_district": null,
        "city": "Luhansk",
        "state": "Luhansk Oblast",
        "postcode": "91019",
        "country": "Ukraine",
        "country_code": "ua"
      },
      "address": "862, Luhansk, 91019 Luhansk Oblast, Ukraine"
    },
    {
      "lat": 48.592417907260824,
      "lon": 39.312953894416985,
      "geoinfo": {
        "display_name": "100А, вулиця Войкова, Kamianyi Brid, Luhansk, Kamianyi Brid District, Луганська міська громада, Луганський район, Luhansk Oblast, 291002, Ukraine",
        "road": "вулиця Войкова",
        "house_number": "100А",
        "neighbourhood": null,
        "suburb": "Kamianyi Brid",
        "city_district": null,
        "city": "Luhansk",
        "state": "Luhansk Oblast",
        "postcode": "291002",
        "country": "Ukraine",
        "country_code": "ua"
      },
      "address": "100А, вулиця Войкова, Kamianyi Brid, Luhansk, Kamianyi Brid District, Луганська міська громада, Луганський район, Luhansk Oblast, 291002, Ukraine"
    },
    {
      "lat": 48.56497748413836,
      "lon": 39.349795221981246,
      "geoinfo": {
        "display_name": "Khersonska Street, містечко заводу ЖР, Luhansk, Zhovtnevyy Rayon, Луганська міська громада, Луганський район, Luhansk Oblast, 91005, Ukraine",
        "road": "Khersonska Street",
        "house_number": null,
        "neighbourhood": null,
        "suburb": "містечко заводу ЖР",
        "city_district": null,
        "city": "Luhansk",
        "state": "Luhansk Oblast",
        "postcode": "91005",
        "country": "Ukraine",
        "country_code": "ua"
      },
      "address": "107, Khersonska Street, містечко заводу ЖР, Luhansk, Zhovtnevyy Rayon, Луганська міська громада, Луганський район, Luhansk Oblast, 91005, Ukraine"
    },
    {
      "lat": 48.56149565942593,
      "lon": 39.31540945902882,
      "geoinfo": {
        "display_name": "42, Сосюри вулиця, Luhansk, Ленінський район, Луганська міська громада, Луганський район, Luhansk Oblast, 91011, Ukraine",
        "road": "Сосюри вулиця",
        "house_number": "42",
        "neighbourhood": null,
        "suburb": null,
        "city_district": null,
        "city": "Luhansk",
        "state": "Luhansk Oblast",
        "postcode": "91011",
        "country": "Ukraine",
        "country_code": "ua"
      },
      "address": "42, Сосюри вулиця, Luhansk, Ленінський район, Луганська міська громада, Луганський район, Luhansk Oblast, 91011, Ukraine"
    },
    {
      "lat": 48.548373716184706,
      "lon": 39.30250435770967,
      "geoinfo": {
        "display_name": "3, 2-i Slovianskyi Lane, Верхній 3-й кілометр, Luhansk, Ленінський район, Луганська міська громада, Луганський район, Luhansk Oblast, 91007, Ukraine",
        "road": "2-i Slovianskyi Lane",
        "house_number": "3",
        "neighbourhood": null,
        "suburb": null,
        "city_district": null,
        "city": "Luhansk",
        "state": "Luhansk Oblast",
        "postcode": "91007",
        "country": "Ukraine",
        "country_code": "ua"
      },
      "address": "3, 2-i Slovianskyi Lane, Верхній 3-й кілометр, Luhansk, Ленінський район, Луганська міська громада, Луганський район, Luhansk Oblast, 91007, Ukraine"
    },
    {
      "lat": 48.5865245201024,
      "lon": 39.357740680786215,
      "geoinfo": {
        "display_name": "Frunze Street, Стахановське містечко, Luhansk, Zhovtnevyy Rayon, Луганська міська громада, Луганський район, Luhansk Oblast, 91005, Ukraine",
        "road": "Frunze Street",
        "house_number": null,
        "neighbourhood": null,
        "suburb": null,
        "city_district": null,
        "city": "Luhansk",
        "state": "Luhansk Oblast",
        "postcode": "91005",
        "country": "Ukraine",
        "country_code": "ua"
      },
      "address": "943, Frunze Street, Стахановське містечко, Luhansk, Zhovtnevyy Rayon, Луганська міська громада, Луганський район, Luhansk Oblast, 91005, Ukraine"
    },
    {
      "lat": 48.54553079234775,
      "lon": 39.26945407707306,
      "geoinfo": {
        "display_name": "1, Stepana Razina Street, Безумне, Luhansk, Артемівський район, Луганська міська громада, Луганський район, Luhansk Oblast, 91006, Ukraine",
        "road": "Stepana Razina Street",
        "house_number": "1",
        "neighbourhood": null,
        "suburb": "Безумне",
        "city_district": null,
        "city": "Luhansk",
        "state": "Luhansk Oblast",
        "postcode": "91006",
        "country": "Ukraine",
        "country_code": "ua"
      },
      "address": "1, Stepana Razina Street, Безумне, Luhansk, Артемівський район, Луганська міська громада, Луганський район, Luhansk Oblast, 91006, Ukraine"
    },
    {
      "lat": 48.54325322323499,
      "lon": 39.35338319973897,
      "geoinfo": {
        "display_name": "Заправка, 162, 26 Baku Commissars Street, селище заводу ЖР, Luhansk, Ленінський район, Луганська міська громада, Луганський район, Luhansk Oblast, 91047, Ukraine",
        "road": "26 Baku Commissars Street",
        "house_number": "162",
        "neighbourhood": null,
        "suburb": "селище заводу ЖР",
        "city_district": null,
        "city": "Luhansk",
        "state": "Luhansk Oblast",
        "postcode": "91047",
        "country": "Ukraine",
        "country_code": "ua"
      },
      "address": "Заправка, 162, 26 Baku Commissars Street, селище заводу ЖР, Luhansk, Ленінський район, Луганська міська громада, Луганський район, Luhansk Oblast, 91047, Ukraine"
    },
    {
      "lat": 48.55004783060844,
      "lon": 39.3317626825955,
      "geoinfo": {
        "display_name": "20, Shevchenko Quarter, Luhansk, Ленінський район, Луганська міська громада, Луганський район, Luhansk Oblast, 91033, Ukraine",
        "road": null,
        "house_number": "20",
        "neighbourhood": null,
        "suburb": null,
        "city_district": null,
        "city": "Luhansk",
        "state": "Luhansk Oblast",
        "postcode": "91033",
        "country": "Ukraine",
        "country_code": "ua"
      },
      "address": "20, Shevchenko Quarter, Luhansk, Ленінський район, Луганська міська громада, Луганський район, Luhansk Oblast, 91033, Ukraine"
    },
    {
      "lat": 48.573427824845496,
      "lon": 39.25900121561405,
      "geoinfo": {
        "display_name": "Дача, Ukrainian Street, Luhansk, Артемівський район, Луганська міська громада, Луганський район, Luhansk Oblast, 91021, Ukraine",
        "road": "Ukrainian Street",
        "house_number": null,
        "neighbourhood": null,
        "suburb": null,
        "city_district": null,
        "city": "Luhansk",
        "state": "Luhansk Oblast",
        "postcode": "91021",
        "country": "Ukraine",
        "country_code": "ua"
      },
      "address": "942, Ukrainian Street, Luhansk, 91021 Luhansk Oblast, Ukraine"
    },
    {
      "lat": 48.541153864646994,
      "lon": 39.27233955416177,
      "geoinfo": {
        "display_name": "16, Луганський квартал, Luhansk, Ленінський район, Луганська міська громада, Луганський район, Luhansk Oblast, 91006, Ukraine",
        "road": null,
        "house_number": "16",
        "neighbourhood": null,
        "suburb": null,
        "city_district": null,
        "city": "Luhansk",
        "state": "Luhansk Oblast",
        "postcode": "91006",
        "country": "Ukraine",
        "country_code": "ua"
      },
      "address": "16, Луганський квартал, Luhansk, Ленінський район, Луганська міська громада, Луганський район, Luhansk Oblast, 91006, Ukraine"
    },
    {
      "lat": 48.57365681238229,
      "lon": 39.303414942654264,
      "geoinfo": {
        "display_name": "1а, Lunacharsky Street, Luhansk, Ленінський район, Луганська міська громада, Луганський район, Luhansk Oblast, 91055, Ukraine",
        "road": "Lunacharsky Street",
        "house_number": "1а",
        "neighbourhood": null,
        "suburb": null,
        "city_district": null,
        "city": "Luhansk",
        "state": "Luhansk Oblast",
        "postcode": "91055",
        "country": "Ukraine",
        "country_code": "ua"
      },
      "address": "1а, Lunacharsky Street, Luhansk, Ленінський район, Луганська міська громада, Луганський район, Luhansk Oblast, 91055, Ukraine"
    },
    {
      "lat": 48.60809819463398,
      "lon": 39.281053695164715,
      "geoinfo": {
        "display_name": "Н-21, Luhansk, Kamianyi Brid District, Луганська міська громада, Луганський район, Luhansk Oblast, 91000, Ukraine",
        "road": "Н-21",
        "house_number": null,
        "neighbourhood": null,
        "suburb": null,
        "city_district": null,
        "city": "Luhansk",
        "state": "Luhansk Oblast",
        "postcode": "91000",
        "country": "Ukraine",
        "country_code": "ua"
      },
      "address": "Н-21, Luhansk, 91000 Luhansk Oblast, Ukraine"
    },
    {
      "lat": 48.58761856330324,
      "lon": 39.28882989178778,
      "geoinfo": {
        "display_name": "20, Камєнная вулиця, Kamianyi Brid, Luhansk, Kamianyi Brid District, Луганська міська громада, Луганський район, Luhansk Oblast, 91019, Ukraine",
        "road": "Камєнная вулиця",
        "house_number": "20",
        "neighbourhood": null,
        "suburb": "Kamianyi Brid",
        "city_district": null,
        "city": "Luhansk",
        "state": "Luhansk Oblast",
        "postcode": "91019",
        "country": "Ukraine",
        "country_code": "ua"
      },
      "address": "20, Камєнная вулиця, Kamianyi Brid, Luhansk, Kamianyi Brid District, Луганська міська громада, Луганський район, Luhansk Oblast, 91019, Ukraine"
    },
    {
      "lat": 48.57826172889618,
      "lon": 39.26103217960925,
      "geoinfo": {
        "display_name": "56, вулиця Комісара Санюка, Luhansk, Kamianyi Brid District, Луганська міська громада, Луганський район, Luhansk Oblast, 91021, Ukraine",
        "road": "вулиця Комісара Санюка",
        "house_number": "56",
        "neighbourhood": null,
        "suburb": null,
        "city_district": null,
        "city": "Luhansk",
        "state": "Luhansk Oblast",
        "postcode": "91021",
        "country": "Ukraine",
        "country_code": "ua"
      },
      "address": "56, вулиця Комісара Санюка, Luhansk, Kamianyi Brid District, Луганська міська громада, Луганський район, Luhansk Oblast, 91021, Ukraine"
    },
    {
      "lat": 48.588775375140756,
      "lon": 39.30653999866637,
      "geoinfo": {
        "display_name": "23, Karl Liebknecht Lane, Новий Світ, Luhansk, Kamianyi Brid District, Луганська міська громада, Луганський район, Luhansk Oblast, 291002, Ukraine",
        "road": "Karl Liebknecht Lane",
        "house_number": "23",
        "neighbourhood": null,
        "suburb": "Новий Світ",
        "city_district": null,
        "city": "Luhansk",
        "state": "Luhansk Oblast",
        "postcode": "291002",
        "country": "Ukraine",
        "country_code": "ua"
      },
      "address": "23, Karl Liebknecht Lane, Новий Світ, Luhansk, Kamianyi Brid District, Луганська міська громада, Луганський район, Luhansk Oblast, 291002, Ukraine"
    },
    {
      "lat": 48.5736371499763,
      "lon": 39.326401610893214,
      "geoinfo": {
        "display_name": "Pavlo Soroka Street, Гусинівка, Luhansk, Zhovtnevyy Rayon, Луганська міська громада, Луганський район, Luhansk Oblast, 91011, Ukraine",
        "road": "Pavlo Soroka Street",
        "house_number": null,
        "neighbourhood": null,
        "suburb": "Гусинівка",
        "city_district": null,
        "city": "Luhansk",
        "state": "Luhansk Oblast",
        "postcode": "91011",
        "country": "Ukraine",
        "country_code": "ua"
      },
      "address": "582, Pavlo Soroka Street, Гусинівка, Luhansk, Zhovtnevyy Rayon, Луганська міська громада, Луганський район, Luhansk Oblast, 91011, Ukraine"
    },
    {
      "lat": 48.59112288319296,
      "lon": 39.359054919234445,
      "geoinfo": {
        "display_name": "Луганський тепловозобудівний завод, Luhansk, Zhovtnevyy Rayon, Луганська міська громада, Луганський район, Luhansk Oblast, 91005, Ukraine",
        "road": null,
        "house_number": null,
        "neighbourhood": null,
        "suburb": null,
        "city_district": null,
        "city": "Luhansk",
        "state": "Luhansk Oblast",
        "postcode": "91005",
        "country": "Ukraine",
        "country_code": "ua"
      },
      "address": "401, Луганський тепловозобудівний завод, Luhansk, Zhovtnevyy Rayon, Луганська міська громада, Луганський район, Luhansk Oblast, 91005, Ukraine"
    },
    {
      "lat": 48.556225903146455,
      "lon": 39.304844422866815,
      "geoinfo": {
        "display_name": "65, Сосюри вулиця, квартал Єрьоменка, Luhansk, Ленінський район, Луганська міська громада, Луганський район, Luhansk Oblast, 91011, Ukraine",
        "road": "Сосюри вулиця",
        "house_number": "65",
        "neighbourhood": null,
        "suburb": null,
        "city_district": null,
        "city": "Luhansk",
        "state": "Luhansk Oblast",
        "postcode": "91011",
        "country": "Ukraine",
        "country_code": "ua"
      },
      "address": "65, Сосюри вулиця, квартал Єрьоменка, Luhansk, Ленінський район, Луганська міська громада, Луганський район, Luhansk Oblast, 91011, Ukraine"
    },
    {
      "lat": 48.56976627573959,
      "lon": 39.26090736607251,
      "geoinfo": {
        "display_name": "2, 1-й Раднаркомівський провулок, Luhansk, Артемівський район, Луганська міська громада, Луганський район, Luhansk Oblast, 91021, Ukraine",
        "road": "1-й Раднаркомівський провулок",
        "house_number": "2",
        "neighbourhood": null,
        "suburb": null,
        "city_district": null,
        "city": "Luhansk",
        "state": "Luhansk Oblast",
        "postcode": "91021",
        "country": "Ukraine",
        "country_code": "ua"
      },
      "address": "2, 1-й Раднаркомівський провулок, Luhansk, Артемівський район, Луганська міська громада, Луганський район, Luhansk Oblast, 91021, Ukraine"
    },
    {
      "lat": 48.58038346079019,
      "lon": 39.345607075640466,
      "geoinfo": {
        "display_name": "123Д, Frunze Street, Стахановське містечко, Luhansk, Zhovtnevyy Rayon, Луганська міська громада, Луганський район, Luhansk Oblast, 91005, Ukraine",
        "road": "Frunze Street",
        "house_number": "123Д",
        "neighbourhood": null,
        "suburb": null,
        "city_district": null,
        "city": "Luhansk",
        "state": "Luhansk Oblast",
        "postcode": "91005",
        "country": "Ukraine",
        "country_code": "ua"
      },
      "address": "123Д, Frunze Street, Стахановське містечко, Luhansk, Zhovtnevyy Rayon, Луганська міська громада, Луганський район, Luhansk Oblast, 91005, Ukraine"
    },
    {
      "lat": 48.605189790573334,
      "lon": 39.336232389728934,
      "geoinfo": {
        "display_name": "Кіровка, Luhansk, Kamianyi Brid District, Луганська міська громада, Луганський район, Luhansk Oblast, 91005, Ukraine",
        "road": null,
        "house_number": null,
        "neighbourhood": "Кіровка",
        "suburb": null,
        "city_district": null,
        "city": "Luhansk",
        "state": "Luhansk Oblast",
        "postcode": "91005",
        "country": "Ukraine",
        "country_code": "ua"
      },
      "address": "718, Кіровка, Luhansk, Kamianyi Brid District, Луганська міська громада, Луганський район, Luhansk Oblast, 91005, Ukraine"
    },
    {
      "lat": 48.582049504347,
      "lon": 39.33277582274082,
      "geoinfo": {
        "display_name": "Штерівка, Luhansk, Zhovtnevyy Rayon, Луганська міська громада, Луганський район, Luhansk Oblast, 91005, Ukraine",
        "road": null,
        "house_number": null,
        "neighbourhood": "Штерівка",
        "suburb": null,
        "city_district": null,
        "city": "Luhansk",
        "state": "Luhansk Oblast",
        "postcode": "91005",
        "country": "Ukraine",
        "country_code": "ua"
      },
      "address": "184, Штерівка, Luhansk, Zhovtnevyy Rayon, Луганська міська громада, Луганський район, Luhansk Oblast, 91005, Ukraine"
    },
    {
      "lat": 48.547457909208205,
      "lon": 39.24900570255305,
      "geoinfo": {
        "display_name": "Луганська міська громада, Луганський район, Luhansk Oblast, Ukraine",
        "road": null,
        "house_number": null,
        "neighbourhood": null,
        "suburb": null,
        "city_district": null,
        "city": null,
        "state": "Luhansk Oblast",
        "postcode": null,
        "country": "Ukraine",
        "country_code": "ua"
      },
      "address": "575, Луганська міська громада, Луганський район, 25099 Luhansk Oblast, Ukraine"
    },
    {
      "lat": 48.604832240093046,
      "lon": 39.284057902335675,
      "geoinfo": {
        "display_name": "Kamianyi Brid, Luhansk, Kamianyi Brid District, Луганська міська громада, Луганський район, Luhansk Oblast, 91019, Ukraine",
        "road": null,
        "house_number": null,
        "neighbourhood": null,
        "suburb": "Kamianyi Brid",
        "city_district": null,
        "city": "Luhansk",
        "state": "Luhansk Oblast",
        "postcode": "91019",
        "country": "Ukraine",
        "country_code": "ua"
      },
      "address": "523, Kamianyi Brid, Luhansk, Kamianyi Brid District, Луганська міська громада, Луганський район, Luhansk Oblast, 91019, Ukraine"
    },
    {
      "lat": 48.577028168768884,
      "lon": 39.25146882121759,
      "geoinfo": {
        "display_name": "33А, вулиця Комісара Санюка, Luhansk, Kamianyi Brid District, Луганська міська громада, Луганський район, Luhansk Oblast, 91021, Ukraine",
        "road": "вулиця Комісара Санюка",
        "house_number": "33А",
        "neighbourhood": null,
        "suburb": null,
        "city_district": null,
        "city": "Luhansk",
        "state": "Luhansk Oblast",
        "postcode": "91021",
        "country": "Ukraine",
        "country_code": "ua"
      },
      "address": "33А, вулиця Комісара Санюка, Luhansk, Kamianyi Brid District, Луганська міська громада, Луганський район, Luhansk Oblast, 91021, Ukraine"
    },
    {
      "lat": 48.54826044426997,
      "lon": 39.32673552693108,
      "geoinfo": {
        "display_name": "Міністерство охорони здоров'я, 8, Novopromyslova Street, Luhansk, Ленінський район, Луганська міська громада, Луганський район, Luhansk Oblast, 91045, Ukraine",
        "road": "Novopromyslova Street",
        "house_number": "8",
        "neighbourhood": null,
        "suburb": null,
        "city_district": null,
        "city": "Luhansk",
        "state": "Luhansk Oblast",
        "postcode": "91045",
        "country": "Ukraine",
        "country_code": "ua"
      },
      "address": "Міністерство охорони здоров'я, 8, Novopromyslova Street, Luhansk, Ленінський район, Луганська міська громада, Луганський район, Luhansk Oblast, 91045, Ukraine"
    },
    {
      "lat": 48.581429872071396,
      "lon": 39.313040097466484,
      "geoinfo": {
        "display_name": "Railway Line, Новий Світ, Luhansk, Kamianyi Brid District, Луганська міська громада, Луганський район, Luhansk Oblast, 91002, Ukraine",
        "road": "Railway Line",
        "house_number": null,
        "neighbourhood": null,
        "suburb": "Новий Світ",
        "city_district": null,
        "city": "Luhansk",
        "state": "Luhansk Oblast",
        "postcode": "91002",
        "country": "Ukraine",
        "country_code": "ua"
      },
      "address": "982, Railway Line, Новий Світ, Luhansk, Kamianyi Brid District, Луганська міська громада, Луганський район, Luhansk Oblast, 91002, Ukraine"
    },
    {
      "lat": 48.586301604253684,
      "lon": 39.36679620715489,
      "geoinfo": {
        "display_name": "Якуба Коласа вулиця, Мала Вергунка, Luhansk, Zhovtnevyy Rayon, Луганська міська громада, Луганський район, Luhansk Oblast, 91024, Ukraine",
        "road": "Якуба Коласа вулиця",
        "house_number": null,
        "neighbourhood": null,
        "suburb": "Мала Вергунка",
        "city_district": null,
        "city": "Luhansk",
        "state": "Luhansk Oblast",
        "postcode": "91024",
        "country": "Ukraine",
        "country_code": "ua"
      },
      "address": "494, Якуба Коласа вулиця, Мала Вергунка, Luhansk, Zhovtnevyy Rayon, Луганська міська громада, Луганський район, Luhansk Oblast, 91024, Ukraine"
    },
    {
      "lat": 48.560429088826254,
      "lon": 39.2478287802431,
      "geoinfo": {
        "display_name": "85А, Andrew Linyov Street, Luhansk, Артемівський район, Луганська міська громада, Луганський район, Luhansk Oblast, 91021, Ukraine",
        "road": "Andrew Linyov Street",
        "house_number": "85А",
        "neighbourhood": null,
        "suburb": null,
        "city_district": null,
        "city": "Luhansk",
        "state": "Luhansk Oblast",
        "postcode": "91021",
        "country": "Ukraine",
        "country_code": "ua"
      },
      "address": "85А, Andrew Linyov Street, Luhansk, Артемівський район, Луганська міська громада, Луганський район, Luhansk Oblast, 91021, Ukraine"
    },
    {
      "lat": 48.58594860130932,
      "lon": 39.25842099238778,
      "geoinfo": {
        "display_name": "Пріродна вулиця, Luhansk, Kamianyi Brid District, Луганська міська громада, Луганський район, Luhansk Oblast, 91021, Ukraine",
        "road": "Пріродна вулиця",
        "house_number": null,
        "neighbourhood": null,
        "suburb": null,
        "city_district": null,
        "city": "Luhansk",
        "state": "Luhansk Oblast",
        "postcode": "91021",
        "country": "Ukraine",
        "country_code": "ua"
      },
      "address": "872, Пріродна вулиця, Luhansk, Kamianyi Brid District, Луганська міська громада, Луганський район, Luhansk Oblast, 91021, Ukraine"
    },
    {
      "lat": 48.527051907567895,
      "lon": 39.29382280653406,
      "geoinfo": {
        "display_name": "121а, Лутугінська вулиця, 5-й кілометр, Luhansk, Артемівський район, Луганська міська громада, Луганський район, Luhansk Oblast, 91020, Ukraine",
        "road": "Лутугінська вулиця",
        "house_number": "121а",
        "neighbourhood": "5-й кілометр",
        "suburb": null,
        "city_district": null,
        "city": "Luhansk",
        "state": "Luhansk Oblast",
        "postcode": "91020",
        "country": "Ukraine",
        "country_code": "ua"
      },
      "address": "121а, Лутугінська вулиця, 5-й кілометр, Luhansk, Артемівський район, Луганська міська громада, Луганський район, Luhansk Oblast, 91020, Ukraine"
    },
    {
      "lat": 48.552577193327245,
      "lon": 39.33869609800696,
      "geoinfo": {
        "display_name": "45Б, Shevchenko Quarter, Luhansk, Ленінський район, Луганська міська громада, Луганський район, Luhansk Oblast, 91033, Ukraine",
        "road": null,
        "house_number": "45Б",
        "neighbourhood": null,
        "suburb": null,
        "city_district": null,
        "city": "Luhansk",
        "state": "Luhansk Oblast",
        "postcode": "91033",
        "country": "Ukraine",
        "country_code": "ua"
      },
      "address": "45Б, Shevchenko Quarter, Luhansk, Ленінський район, Луганська міська громада, Луганський район, Luhansk Oblast, 91033, Ukraine"
    },
    {
      "lat": 48.54709059157498,
      "lon": 39.2462151223117,
      "geoinfo": {
        "display_name": "Луганська міська громада, Луганський район, Luhansk Oblast, Ukraine",
        "road": null,
        "house_number": null,
        "neighbourhood": null,
        "suburb": null,
        "city_district": null,
        "city": null,
        "state": "Luhansk Oblast",
        "postcode": null,
        "country": "Ukraine",
        "country_code": "ua"
      },
      "address": "624, Луганська міська громада, Луганський район, 97899 Luhansk Oblast, Ukraine"
    },
    {
      "lat": 48.541170753313416,
      "lon": 39.30464522439721,
      "geoinfo": {
        "display_name": "Ternopilska Street, Верхній 3-й кілометр, Luhansk, Артемівський район, Луганська міська громада, Луганський район, Luhansk Oblast, 91007, Ukraine",
        "road": "Ternopilska Street",
        "house_number": null,
        "neighbourhood": null,
        "suburb": null,
        "city_district": null,
        "city": "Luhansk",
        "state": "Luhansk Oblast",
        "postcode": "91007",
        "country": "Ukraine",
        "country_code": "ua"
      },
      "address": "Ternopilska Street, Верхній 3-й кілометр, Luhansk, Артемівський район, Луганська міська громада, Луганський район, Luhansk Oblast, 91007, Ukraine"
    },
    {
      "lat": 48.60455046960339,
      "lon": 39.30815330073313,
      "geoinfo": {
        "display_name": "Лізи Чайкіної вулиця, Kamianyi Brid, Luhansk, Kamianyi Brid District, Луганська міська громада, Луганський район, Luhansk Oblast, 91002, Ukraine",
        "road": "Лізи Чайкіної вулиця",
        "house_number": null,
        "neighbourhood": null,
        "suburb": "Kamianyi Brid",
        "city_district": null,
        "city": "Luhansk",
        "state": "Luhansk Oblast",
        "postcode": "91002",
        "country": "Ukraine",
        "country_code": "ua"
      },
      "address": "414, Лізи Чайкіної вулиця, Kamianyi Brid, Luhansk, Kamianyi Brid District, Луганська міська громада, Луганський район, Luhansk Oblast, 91002, Ukraine"
    },
    {
      "lat": 48.558474034285275,
      "lon": 39.242034653877795,
      "geoinfo": {
        "display_name": "Luhansk, Артемівський район, Луганська міська громада, Луганський район, Luhansk Oblast, 91021, Ukraine",
        "road": null,
        "house_number": null,
        "neighbourhood": null,
        "suburb": null,
        "city_district": null,
        "city": "Luhansk",
        "state": "Luhansk Oblast",
        "postcode": "91021",
        "country": "Ukraine",
        "country_code": "ua"
      },
      "address": "498, Luhansk, 91021 Luhansk Oblast, Ukraine"
    },
    {
      "lat": 48.60143645254228,
      "lon": 39.27591187941434,
      "geoinfo": {
        "display_name": "Luhansk, Kamianyi Brid District, Луганська міська громада, Луганський район, Luhansk Oblast, 91019, Ukraine",
        "road": null,
        "house_number": null,
        "neighbourhood": null,
        "suburb": null,
        "city_district": null,
        "city": "Luhansk",
        "state": "Luhansk Oblast",
        "postcode": "91019",
        "country": "Ukraine",
        "country_code": "ua"
      },
      "address": "696, Luhansk, 91019 Luhansk Oblast, Ukraine"
    },
    {
      "lat": 48.583884287131454,
      "lon": 39.2786013479039,
      "geoinfo": {
        "display_name": "6, Stanislavskoho Street, Kamianyi Brid, Luhansk, Kamianyi Brid District, Луганська міська громада, Луганський район, Luhansk Oblast, 91019, Ukraine",
        "road": "Stanislavskoho Street",
        "house_number": "6",
        "neighbourhood": null,
        "suburb": "Kamianyi Brid",
        "city_district": null,
        "city": "Luhansk",
        "state": "Luhansk Oblast",
        "postcode": "91019",
        "country": "Ukraine",
        "country_code": "ua"
      },
      "address": "6, Stanislavskoho Street, Kamianyi Brid, Luhansk, Kamianyi Brid District, Луганська міська громада, Луганський район, Luhansk Oblast, 91019, Ukraine"
    },
    {
      "lat": 48.59572531698675,
      "lon": 39.271383415950666,
      "geoinfo": {
        "display_name": "Luhansk, Kamianyi Brid District, Луганська міська громада, Луганський район, Luhansk Oblast, 91019, Ukraine",
        "road": null,
        "house_number": null,
        "neighbourhood": null,
        "suburb": null,
        "city_district": null,
        "city": "Luhansk",
        "state": "Luhansk Oblast",
        "postcode": "91019",
        "country": "Ukraine",
        "country_code": "ua"
      },
      "address": "035, Luhansk, 91019 Luhansk Oblast, Ukraine"
    },
    {
      "lat": 48.59636670770526,
      "lon": 39.321790000661274,
      "geoinfo": {
        "display_name": "63, Бетонний провулок, Kamianyi Brid, Luhansk, Kamianyi Brid District, Луганська міська громада, Луганський район, Luhansk Oblast, 291002, Ukraine",
        "road": "Бетонний провулок",
        "house_number": "63",
        "neighbourhood": null,
        "suburb": "Kamianyi Brid",
        "city_district": null,
        "city": "Luhansk",
        "state": "Luhansk Oblast",
        "postcode": "291002",
        "country": "Ukraine",
        "country_code": "ua"
      },
      "address": "63, Бетонний провулок, Kamianyi Brid, Luhansk, Kamianyi Brid District, Луганська міська громада, Луганський район, Luhansk Oblast, 291002, Ukraine"
    },
    {
      "lat": 48.5972936825148,
      "lon": 39.32607509398535,
      "geoinfo": {
        "display_name": "Моторний провулок, Kamianyi Brid, Luhansk, Kamianyi Brid District, Луганська міська громада, Луганський район, Luhansk Oblast, 91002, Ukraine",
        "road": "Моторний провулок",
        "house_number": null,
        "neighbourhood": null,
        "suburb": "Kamianyi Brid",
        "city_district": null,
        "city": "Luhansk",
        "state": "Luhansk Oblast",
        "postcode": "91002",
        "country": "Ukraine",
        "country_code": "ua"
      },
      "address": "583, Моторний провулок, Kamianyi Brid, Luhansk, Kamianyi Brid District, Луганська міська громада, Луганський район, Luhansk Oblast, 91002, Ukraine"
    },
    {
      "lat": 48.55456023203219,
      "lon": 39.28156953010804,
      "geoinfo": {
        "display_name": "30, Schorsa Street, Безумне, Luhansk, Артемівський район, Луганська міська громада, Луганський район, Luhansk Oblast, 91007, Ukraine",
        "road": "Schorsa Street",
        "house_number": "30",
        "neighbourhood": null,
        "suburb": "Безумне",
        "city_district": null,
        "city": "Luhansk",
        "state": "Luhansk Oblast",
        "postcode": "91007",
        "country": "Ukraine",
        "country_code": "ua"
      },
      "address": "30, Schorsa Street, Безумне, Luhansk, Артемівський район, Луганська міська громада, Луганський район, Luhansk Oblast, 91007, Ukraine"
    },
    {
      "lat": 48.58618539009358,
      "lon": 39.30730242535043,
      "geoinfo": {
        "display_name": "23, Proletariat Lane, Новий Світ, Luhansk, Kamianyi Brid District, Луганська міська громада, Луганський район, Luhansk Oblast, 91002, Ukraine",
        "road": "Proletariat Lane",
        "house_number": "23",
        "neighbourhood": null,
        "suburb": "Новий Світ",
        "city_district": null,
        "city": "Luhansk",
        "state": "Luhansk Oblast",
        "postcode": "91002",
        "country": "Ukraine",
        "country_code": "ua"
      },
      "address": "23, Proletariat Lane, Новий Світ, Luhansk, Kamianyi Brid District, Луганська міська громада, Луганський район, Luhansk Oblast, 91002, Ukraine"
    },
    {
      "lat": 48.53684122362436,
      "lon": 39.3390804042076,
      "geoinfo": {
        "display_name": "105м, Oboronna Street, Luhansk, Ленінський район, Луганська міська громада, Луганський район, Luhansk Oblast, 91047, Ukraine",
        "road": "Oboronna Street",
        "house_number": "105м",
        "neighbourhood": null,
        "suburb": null,
        "city_district": null,
        "city": "Luhansk",
        "state": "Luhansk Oblast",
        "postcode": "91047",
        "country": "Ukraine",
        "country_code": "ua"
      },
      "address": "105м, Oboronna Street, Luhansk, Ленінський район, Луганська міська громада, Луганський район, Luhansk Oblast, 91047, Ukraine"
    },
    {
      "lat": 48.55105451093613,
      "lon": 39.27684318516443,
      "geoinfo": {
        "display_name": "17, Hrabovskoho Street, Безумне, Luhansk, Артемівський район, Луганська міська громада, Луганський район, Luhansk Oblast, 91007, Ukraine",
        "road": "Hrabovskoho Street",
        "house_number": "17",
        "neighbourhood": null,
        "suburb": "Безумне",
        "city_district": null,
        "city": "Luhansk",
        "state": "Luhansk Oblast",
        "postcode": "91007",
        "country": "Ukraine",
        "country_code": "ua"
      },
      "address": "17, Hrabovskoho Street, Безумне, Luhansk, Артемівський район, Луганська міська громада, Луганський район, Luhansk Oblast, 91007, Ukraine"
    },
    {
      "lat": 48.573957673657965,
      "lon": 39.30170362952868,
      "geoinfo": {
        "display_name": "2, Красна площа, Новий Світ, Luhansk, Ленінський район, Луганська міська громада, Луганський район, Luhansk Oblast, 91055, Ukraine",
        "road": "Красна площа",
        "house_number": "2",
        "neighbourhood": null,
        "suburb": "Новий Світ",
        "city_district": null,
        "city": "Luhansk",
        "state": "Luhansk Oblast",
        "postcode": "91055",
        "country": "Ukraine",
        "country_code": "ua"
      },
      "address": "2, Красна площа, Новий Світ, Luhansk, Ленінський район, Луганська міська громада, Луганський район, Luhansk Oblast, 91055, Ukraine"
    },
    {
      "lat": 48.56303924212025,
      "lon": 39.28466911573627,
      "geoinfo": {
        "display_name": "Совєтська вулиця, Luhansk, Артемівський район, Луганська міська громада, Луганський район, Luhansk Oblast, 91023, Ukraine",
        "road": "Совєтська вулиця",
        "house_number": null,
        "neighbourhood": null,
        "suburb": null,
        "city_district": null,
        "city": "Luhansk",
        "state": "Luhansk Oblast",
        "postcode": "91023",
        "country": "Ukraine",
        "country_code": "ua"
      },
      "address": "919, Совєтська вулиця, Luhansk, Артемівський район, Луганська міська громада, Луганський район, Luhansk Oblast, 91023, Ukraine"
    },
    {
      "lat": 48.60302191139066,
      "lon": 39.32161604822249,
      "geoinfo": {
        "display_name": "Івана Туркенича вулиця, Kamianyi Brid, Luhansk, Kamianyi Brid District, Луганська міська громада, Луганський район, Luhansk Oblast, 91002, Ukraine",
        "road": "Івана Туркенича вулиця",
        "house_number": null,
        "neighbourhood": null,
        "suburb": "Kamianyi Brid",
        "city_district": null,
        "city": "Luhansk",
        "state": "Luhansk Oblast",
        "postcode": "91002",
        "country": "Ukraine",
        "country_code": "ua"
      },
      "address": "779, Івана Туркенича вулиця, Kamianyi Brid, Luhansk, Kamianyi Brid District, Луганська міська громада, Луганський район, Luhansk Oblast, 91002, Ukraine"
    },
    {
      "lat": 48.5841198201006,
      "lon": 39.31338385230318,
      "geoinfo": {
        "display_name": "Новий Світ, Luhansk, Kamianyi Brid District, Луганська міська громада, Луганський район, Luhansk Oblast, 91002, Ukraine",
        "road": null,
        "house_number": null,
        "neighbourhood": null,
        "suburb": "Новий Світ",
        "city_district": null,
        "city": "Luhansk",
        "state": "Luhansk Oblast",
        "postcode": "91002",
        "country": "Ukraine",
        "country_code": "ua"
      },
      "address": "440, Новий Світ, Luhansk, Kamianyi Brid District, Луганська міська громада, Луганський район, Luhansk Oblast, 91002, Ukraine"
    },
    {
      "lat": 48.595935985197556,
      "lon": 39.254304741472225,
      "geoinfo": {
        "display_name": "Пріродна вулиця, Luhansk, Kamianyi Brid District, Луганська міська громада, Луганський район, Luhansk Oblast, 91021, Ukraine",
        "road": "Пріродна вулиця",
        "house_number": null,
        "neighbourhood": null,
        "suburb": null,
        "city_district": null,
        "city": "Luhansk",
        "state": "Luhansk Oblast",
        "postcode": "91021",
        "country": "Ukraine",
        "country_code": "ua"
      },
      "address": "764, Пріродна вулиця, Luhansk, Kamianyi Brid District, Луганська міська громада, Луганський район, Luhansk Oblast, 91021, Ukraine"
    },
    {
      "lat": 48.58249732780311,
      "lon": 39.28644916415938,
      "geoinfo": {
        "display_name": "4, 1-i Tsehelnyi Lane, Luhansk, Kamianyi Brid District, Луганська міська громада, Луганський район, Luhansk Oblast, 91019, Ukraine",
        "road": "1-i Tsehelnyi Lane",
        "house_number": "4",
        "neighbourhood": null,
        "suburb": null,
        "city_district": null,
        "city": "Luhansk",
        "state": "Luhansk Oblast",
        "postcode": "91019",
        "country": "Ukraine",
        "country_code": "ua"
      },
      "address": "4, 1-i Tsehelnyi Lane, Luhansk, Kamianyi Brid District, Луганська міська громада, Луганський район, Luhansk Oblast, 91019, Ukraine"
    },
    {
      "lat": 48.56033497639482,
      "lon": 39.34645007553525,
      "geoinfo": {
        "display_name": "20, Уральський провулок, селище заводу ЖР, Luhansk, Zhovtnevyy Rayon, Луганська міська громада, Луганський район, Luhansk Oblast, 91005, Ukraine",
        "road": "Уральський провулок",
        "house_number": "20",
        "neighbourhood": null,
        "suburb": "селище заводу ЖР",
        "city_district": null,
        "city": "Luhansk",
        "state": "Luhansk Oblast",
        "postcode": "91005",
        "country": "Ukraine",
        "country_code": "ua"
      },
      "address": "20, Уральський провулок, селище заводу ЖР, Luhansk, Zhovtnevyy Rayon, Луганська міська громада, Луганський район, Luhansk Oblast, 91005, Ukraine"
    },
    {
      "lat": 48.59512603913938,
      "lon": 39.28002601353225,
      "geoinfo": {
        "display_name": "Kamianyi Brid, Luhansk, Kamianyi Brid District, Луганська міська громада, Луганський район, Luhansk Oblast, 91019, Ukraine",
        "road": null,
        "house_number": null,
        "neighbourhood": null,
        "suburb": "Kamianyi Brid",
        "city_district": null,
        "city": "Luhansk",
        "state": "Luhansk Oblast",
        "postcode": "91019",
        "country": "Ukraine",
        "country_code": "ua"
      },
      "address": "675, Kamianyi Brid, Luhansk, Kamianyi Brid District, Луганська міська громада, Луганський район, Luhansk Oblast, 91019, Ukraine"
    },
    {
      "lat": 48.60775495571647,
      "lon": 39.33507994294195,
      "geoinfo": {
        "display_name": "Кіровка, Luhansk, Kamianyi Brid District, Луганська міська громада, Луганський район, Luhansk Oblast, 91002, Ukraine",
        "road": null,
        "house_number": null,
        "neighbourhood": "Кіровка",
        "suburb": null,
        "city_district": null,
        "city": "Luhansk",
        "state": "Luhansk Oblast",
        "postcode": "91002",
        "country": "Ukraine",
        "country_code": "ua"
      },
      "address": "535, Кіровка, Luhansk, Kamianyi Brid District, Луганська міська громада, Луганський район, Luhansk Oblast, 91002, Ukraine"
    },
    {
      "lat": 48.5640360191778,
      "lon": 39.34524419964209,
      "geoinfo": {
        "display_name": "1, Уральський провулок, містечко заводу ЖР, Luhansk, Zhovtnevyy Rayon, Луганська міська громада, Луганський район, Luhansk Oblast, 91005, Ukraine",
        "road": "Уральський провулок",
        "house_number": "1",
        "neighbourhood": null,
        "suburb": "містечко заводу ЖР",
        "city_district": null,
        "city": "Luhansk",
        "state": "Luhansk Oblast",
        "postcode": "91005",
        "country": "Ukraine",
        "country_code": "ua"
      },
      "address": "1, Уральський провулок, містечко заводу ЖР, Luhansk, Zhovtnevyy Rayon, Луганська міська громада, Луганський район, Luhansk Oblast, 91005, Ukraine"
    },
    {
      "lat": 48.54123208031414,
      "lon": 39.334052066634726,
      "geoinfo": {
        "display_name": "Krasnodonska Street, Luhansk, Ленінський район, Луганська міська громада, Луганський район, Luhansk Oblast, 91045, Ukraine",
        "road": "Krasnodonska Street",
        "house_number": null,
        "neighbourhood": null,
        "suburb": null,
        "city_district": null,
        "city": "Luhansk",
        "state": "Luhansk Oblast",
        "postcode": "91045",
        "country": "Ukraine",
        "country_code": "ua"
      },
      "address": "379, Krasnodonska Street, Luhansk, Ленінський район, Луганська міська громада, Луганський район, Luhansk Oblast, 91045, Ukraine"
    },
    {
      "lat": 48.546008827141385,
      "lon": 39.319021492463804,
      "geoinfo": {
        "display_name": "9, 2-i Tsymlianskyi End, Luhansk, Ленінський район, Луганська міська громада, Луганський район, Luhansk Oblast, 91045, Ukraine",
        "road": "2-i Tsymlianskyi End",
        "house_number": "9",
        "neighbourhood": null,
        "suburb": null,
        "city_district": null,
        "city": "Luhansk",
        "state": "Luhansk Oblast",
        "postcode": "91045",
        "country": "Ukraine",
        "country_code": "ua"
      },
      "address": "9, 2-i Tsymlianskyi End, Luhansk, Ленінський район, Луганська міська громада, Луганський район, Luhansk Oblast, 91045, Ukraine"
    },
    {
      "lat": 48.556547983209924,
      "lon": 39.29718092160755,
      "geoinfo": {
        "display_name": "86а, Komunalna Street, Luhansk, Артемівський район, Луганська міська громада, Луганський район, Luhansk Oblast, 91007, Ukraine",
        "road": "Komunalna Street",
        "house_number": "86а",
        "neighbourhood": null,
        "suburb": null,
        "city_district": null,
        "city": "Luhansk",
        "state": "Luhansk Oblast",
        "postcode": "91007",
        "country": "Ukraine",
        "country_code": "ua"
      },
      "address": "86а, Komunalna Street, Luhansk, Артемівський район, Луганська міська громада, Луганський район, Luhansk Oblast, 91007, Ukraine"
    },
    {
      "lat": 48.556540482423166,
      "lon": 39.29974623420849,
      "geoinfo": {
        "display_name": "6, Сосюри вулиця, Luhansk, Артемівський район, Луганська міська громада, Луганський район, Luhansk Oblast, 91011, Ukraine",
        "road": "Сосюри вулиця",
        "house_number": "6",
        "neighbourhood": null,
        "suburb": null,
        "city_district": null,
        "city": "Luhansk",
        "state": "Luhansk Oblast",
        "postcode": "91011",
        "country": "Ukraine",
        "country_code": "ua"
      },
      "address": "6, Сосюри вулиця, Luhansk, Артемівський район, Луганська міська громада, Луганський район, Luhansk Oblast, 91011, Ukraine"
    },
    {
      "lat": 48.567877903766224,
      "lon": 39.26685442632493,
      "geoinfo": {
        "display_name": "11, 5-i Sadovoproiznyi Lane, Luhansk, Артемівський район, Луганська міська громада, Луганський район, Luhansk Oblast, 91021, Ukraine",
        "road": "5-i Sadovoproiznyi Lane",
        "house_number": "11",
        "neighbourhood": null,
        "suburb": null,
        "city_district": null,
        "city": "Luhansk",
        "state": "Luhansk Oblast",
        "postcode": "91021",
        "country": "Ukraine",
        "country_code": "ua"
      },
      "address": "11, 5-i Sadovoproiznyi Lane, Luhansk, Артемівський район, Луганська міська громада, Луганський район, Luhansk Oblast, 91021, Ukraine"
    },
    {
      "lat": 48.610537212798434,
      "lon": 39.292115378674985,
      "geoinfo": {
        "display_name": "Вєсьологоровская вулиця, Kamianyi Brid, Luhansk, Kamianyi Brid District, Луганська міська громада, Луганський район, Luhansk Oblast, 91002, Ukraine",
        "road": "Вєсьологоровская вулиця",
        "house_number": null,
        "neighbourhood": null,
        "suburb": "Kamianyi Brid",
        "city_district": null,
        "city": "Luhansk",
        "state": "Luhansk Oblast",
        "postcode": "91002",
        "country": "Ukraine",
        "country_code": "ua"
      },
      "address": "901, Вєсьологоровская вулиця, Kamianyi Brid, Luhansk, Kamianyi Brid District, Луганська міська громада, Луганський район, Luhansk Oblast, 91002, Ukraine"
    },
    {
      "lat": 48.57510793652732,
      "lon": 39.271791146154655,
      "geoinfo": {
        "display_name": "Rud End, Luhansk, Kamianyi Brid District, Луганська міська громада, Луганський район, Luhansk Oblast, 91019, Ukraine",
        "road": "Rud End",
        "house_number": null,
        "neighbourhood": null,
        "suburb": null,
        "city_district": null,
        "city": "Luhansk",
        "state": "Luhansk Oblast",
        "postcode": "91019",
        "country": "Ukraine",
        "country_code": "ua"
      },
      "address": "143, Rud End, Luhansk, Kamianyi Brid District, Луганська міська громада, Луганський район, Luhansk Oblast, 91019, Ukraine"
    },
    {
      "lat": 48.5291403415098,
      "lon": 39.2793961059921,
      "geoinfo": {
        "display_name": "Luhansk, Артемівський район, Луганська міська громада, Луганський район, Luhansk Oblast, 91015, Ukraine",
        "road": null,
        "house_number": null,
        "neighbourhood": null,
        "suburb": null,
        "city_district": null,
        "city": "Luhansk",
        "state": "Luhansk Oblast",
        "postcode": "91015",
        "country": "Ukraine",
        "country_code": "ua"
      },
      "address": "040, Luhansk, 91015 Luhansk Oblast, Ukraine"
    },
    {
      "lat": 48.61016067374533,
      "lon": 39.32840792347,
      "geoinfo": {
        "display_name": "Кіровка, Luhansk, Kamianyi Brid District, Луганська міська громада, Луганський район, Luhansk Oblast, 91002, Ukraine",
        "road": null,
        "house_number": null,
        "neighbourhood": "Кіровка",
        "suburb": null,
        "city_district": null,
        "city": "Luhansk",
        "state": "Luhansk Oblast",
        "postcode": "91002",
        "country": "Ukraine",
        "country_code": "ua"
      },
      "address": "678, Кіровка, Luhansk, Kamianyi Brid District, Луганська міська громада, Луганський район, Luhansk Oblast, 91002, Ukraine"
    },
    {
      "lat": 48.5757138625488,
      "lon": 39.261768416011236,
      "geoinfo": {
        "display_name": "Дача, Ukrainian Street, Luhansk, Артемівський район, Луганська міська громада, Луганський район, Luhansk Oblast, 91021, Ukraine",
        "road": "Ukrainian Street",
        "house_number": null,
        "neighbourhood": null,
        "suburb": null,
        "city_district": null,
        "city": "Luhansk",
        "state": "Luhansk Oblast",
        "postcode": "91021",
        "country": "Ukraine",
        "country_code": "ua"
      },
      "address": "478, Ukrainian Street, Luhansk, 91021 Luhansk Oblast, Ukraine"
    },
    {
      "lat": 48.5667738277812,
      "lon": 39.334453986565194,
      "geoinfo": {
        "display_name": "56, 24th Line, Гусинівка, Luhansk, Zhovtnevyy Rayon, Луганська міська громада, Луганський район, Luhansk Oblast, 91031, Ukraine",
        "road": "24th Line",
        "house_number": "56",
        "neighbourhood": null,
        "suburb": "Гусинівка",
        "city_district": null,
        "city": "Luhansk",
        "state": "Luhansk Oblast",
        "postcode": "91031",
        "country": "Ukraine",
        "country_code": "ua"
      },
      "address": "56, 24th Line, Гусинівка, Luhansk, Zhovtnevyy Rayon, Луганська міська громада, Луганський район, Luhansk Oblast, 91031, Ukraine"
    },
    {
      "lat": 48.54624484842415,
      "lon": 39.26580432307706,
      "geoinfo": {
        "display_name": "90, Korolenka Street, Безумне, Luhansk, Артемівський район, Луганська міська громада, Луганський район, Luhansk Oblast, 91021, Ukraine",
        "road": "Korolenka Street",
        "house_number": "90",
        "neighbourhood": null,
        "suburb": "Безумне",
        "city_district": null,
        "city": "Luhansk",
        "state": "Luhansk Oblast",
        "postcode": "91021",
        "country": "Ukraine",
        "country_code": "ua"
      },
      "address": "90, Korolenka Street, Безумне, Luhansk, Артемівський район, Луганська міська громада, Луганський район, Luhansk Oblast, 91021, Ukraine"
    },
    {
      "lat": 48.54902832559399,
      "lon": 39.27770630926638,
      "geoinfo": {
        "display_name": "14, 2-a Richkova Street, 3-й кілометр, Luhansk, Артемівський район, Луганська міська громада, Луганський район, Luhansk Oblast, 91007, Ukraine",
        "road": "2-a Richkova Street",
        "house_number": "14",
        "neighbourhood": null,
        "suburb": "3-й кілометр",
        "city_district": null,
        "city": "Luhansk",
        "state": "Luhansk Oblast",
        "postcode": "91007",
        "country": "Ukraine",
        "country_code": "ua"
      },
      "address": "14, 2-a Richkova Street, 3-й кілометр, Luhansk, Артемівський район, Луганська міська громада, Луганський район, Luhansk Oblast, 91007, Ukraine"
    },
    {
      "lat": 48.590799833299776,
      "lon": 39.31389113612978,
      "geoinfo": {
        "display_name": "129, Comrade Artyom Street, Kamianyi Brid, Luhansk, Kamianyi Brid District, Луганська міська громада, Луганський район, Luhansk Oblast, 291002, Ukraine",
        "road": "Comrade Artyom Street",
        "house_number": "129",
        "neighbourhood": null,
        "suburb": "Kamianyi Brid",
        "city_district": null,
        "city": "Luhansk",
        "state": "Luhansk Oblast",
        "postcode": "291002",
        "country": "Ukraine",
        "country_code": "ua"
      },
      "address": "129, Comrade Artyom Street, Kamianyi Brid, Luhansk, Kamianyi Brid District, Луганська міська громада, Луганський район, Luhansk Oblast, 291002, Ukraine"
    },
    {
      "lat": 48.59291982937712,
      "lon": 39.342142406545435,
      "geoinfo": {
        "display_name": "Сєченова вулиця, Kamianyi Brid, Luhansk, Kamianyi Brid District, Луганська міська громада, Луганський район, Luhansk Oblast, 91005, Ukraine",
        "road": "Сєченова вулиця",
        "house_number": null,
        "neighbourhood": null,
        "suburb": "Kamianyi Brid",
        "city_district": null,
        "city": "Luhansk",
        "state": "Luhansk Oblast",
        "postcode": "91005",
        "country": "Ukraine",
        "country_code": "ua"
      },
      "address": "391, Сєченова вулиця, Kamianyi Brid, Luhansk, Kamianyi Brid District, Луганська міська громада, Луганський район, Luhansk Oblast, 91005, Ukraine"
    },
    {
      "lat": 48.54149394262506,
      "lon": 39.299332432828095,
      "geoinfo": {
        "display_name": "1-a Kozhevna Street, Верхній 3-й кілометр, Luhansk, Артемівський район, Луганська міська громада, Луганський район, Luhansk Oblast, 91007, Ukraine",
        "road": "1-a Kozhevna Street",
        "house_number": null,
        "neighbourhood": null,
        "suburb": null,
        "city_district": null,
        "city": "Luhansk",
        "state": "Luhansk Oblast",
        "postcode": "91007",
        "country": "Ukraine",
        "country_code": "ua"
      },
      "address": "1-a Kozhevna Street, Верхній 3-й кілометр, Luhansk, Артемівський район, Луганська міська громада, Луганський район, Luhansk Oblast, 91007, Ukraine"
    },
    {
      "lat": 48.56625918103337,
      "lon": 39.37152989103808,
      "geoinfo": {
        "display_name": "139Б, Комбайная вулиця, Східні квартали, Luhansk, Zhovtnevyy Rayon, Луганська міська громада, Луганський район, Luhansk Oblast, 91005, Ukraine",
        "road": "Комбайная вулиця",
        "house_number": "139Б",
        "neighbourhood": null,
        "suburb": "Східні квартали",
        "city_district": null,
        "city": "Luhansk",
        "state": "Luhansk Oblast",
        "postcode": "91005",
        "country": "Ukraine",
        "country_code": "ua"
      },
      "address": "139Б, Комбайная вулиця, Східні квартали, Luhansk, Zhovtnevyy Rayon, Луганська міська громада, Луганський район, Luhansk Oblast, 91005, Ukraine"
    },
    {
      "lat": 48.58093211255285,
      "lon": 39.261129425932765,
      "geoinfo": {
        "display_name": "АЗС, Бахмутський проїзд, Luhansk, Kamianyi Brid District, Луганська міська громада, Луганський район, Luhansk Oblast, 91021, Ukraine",
        "road": "Бахмутський проїзд",
        "house_number": null,
        "neighbourhood": null,
        "suburb": null,
        "city_district": null,
        "city": "Luhansk",
        "state": "Luhansk Oblast",
        "postcode": "91021",
        "country": "Ukraine",
        "country_code": "ua"
      },
      "address": "413, Бахмутський проїзд, Luhansk, 91021 Luhansk Oblast, Ukraine"
    },
    {
      "lat": 48.550039594468444,
      "lon": 39.25679953929743,
      "geoinfo": {
        "display_name": "Cathedral Mosque, 28, Павловская вулиця, Luhansk, Артемівський район, Луганська міська громада, Луганський район, Luhansk Oblast, 91021, Ukraine",
        "road": "Павловская вулиця",
        "house_number": "28",
        "neighbourhood": null,
        "suburb": null,
        "city_district": null,
        "city": "Luhansk",
        "state": "Luhansk Oblast",
        "postcode": "91021",
        "country": "Ukraine",
        "country_code": "ua"
      },
      "address": "Cathedral Mosque, 28, Павловская вулиця, Luhansk, Артемівський район, Луганська міська громада, Луганський район, Luhansk Oblast, 91021, Ukraine"
    },
    {
      "lat": 48.54755507266048,
      "lon": 39.28823327267445,
      "geoinfo": {
        "display_name": "36а, Dostoievskoho Street, 3-й кілометр, Luhansk, Артемівський район, Луганська міська громада, Луганський район, Luhansk Oblast, 91007, Ukraine",
        "road": "Dostoievskoho Street",
        "house_number": "36а",
        "neighbourhood": null,
        "suburb": "3-й кілометр",
        "city_district": null,
        "city": "Luhansk",
        "state": "Luhansk Oblast",
        "postcode": "91007",
        "country": "Ukraine",
        "country_code": "ua"
      },
      "address": "36а, Dostoievskoho Street, 3-й кілометр, Luhansk, Артемівський район, Луганська міська громада, Луганський район, Luhansk Oblast, 91007, Ukraine"
    },
    {
      "lat": 48.53753349385717,
      "lon": 39.260318565869795,
      "geoinfo": {
        "display_name": "2, квартал Героїв Сталінграду, Luhansk, Артемівський район, Луганська міська громада, Луганський район, Luhansk Oblast, 91006, Ukraine",
        "road": null,
        "house_number": "2",
        "neighbourhood": null,
        "suburb": null,
        "city_district": null,
        "city": "Luhansk",
        "state": "Luhansk Oblast",
        "postcode": "91006",
        "country": "Ukraine",
        "country_code": "ua"
      },
      "address": "2, квартал Героїв Сталінграду, Luhansk, Артемівський район, Луганська міська громада, Луганський район, Luhansk Oblast, 91006, Ukraine"
    },
    {
      "lat": 48.60793983277141,
      "lon": 39.325553852442134,
      "geoinfo": {
        "display_name": "Лізи Чайкіної вулиця, Kamianyi Brid, Luhansk, Kamianyi Brid District, Луганська міська громада, Луганський район, Luhansk Oblast, 91002, Ukraine",
        "road": "Лізи Чайкіної вулиця",
        "house_number": null,
        "neighbourhood": null,
        "suburb": "Kamianyi Brid",
        "city_district": null,
        "city": "Luhansk",
        "state": "Luhansk Oblast",
        "postcode": "91002",
        "country": "Ukraine",
        "country_code": "ua"
      },
      "address": "464, Лізи Чайкіної вулиця, Kamianyi Brid, Luhansk, Kamianyi Brid District, Луганська міська громада, Луганський район, Luhansk Oblast, 91002, Ukraine"
    },
    {
      "lat": 48.603684579357484,
      "lon": 39.34089888792822,
      "geoinfo": {
        "display_name": "Luhansk, Zhovtnevyy Rayon, Луганська міська громада, Луганський район, Luhansk Oblast, 91005, Ukraine",
        "road": null,
        "house_number": null,
        "neighbourhood": null,
        "suburb": null,
        "city_district": null,
        "city": "Luhansk",
        "state": "Luhansk Oblast",
        "postcode": "91005",
        "country": "Ukraine",
        "country_code": "ua"
      },
      "address": "522, Luhansk, Zhovtnevyy Rayon, Луганська міська громада, Луганський район, Luhansk Oblast, 91005, Ukraine"
    }
  ],
  "updated_at": "2025-10-19T22:17:26.382738+00:00",
  "_kind": "geo_samples"
}