{
  "country_code": "BO",
  "country": "Bolivia",
  "city": "Bermejo",
  "geonameid": 3923154,
  "target_addresses": 3,
  "samples": [
    {
      "lat": -22.694697739695993,
      "lon": -64.36148750388696,
      "geoinfo": {
        "display_name": "Bermejo, Provincia Arce, Tarija, Bolivia",
        "road": null,
        "house_number": null,
        "neighbourhood": null,
        "suburb": null,
        "city_district": null,
        "city": "Bermejo",
        "state": "Tarija",
        "postcode": null,
        "country": "Bolivia",
        "country_code": "bo"
      },
      "address": "Bermejo, Tarija, Bolivia"
    },
    {
      "lat": -22.728478533215746,
      "lon": -64.34982940186478,
      "geoinfo": {
        "display_name": "Centro, Bermejo, Provincia Arce, Tarija, Bolivia",
        "road": null,
        "house_number": null,
        "neighbourhood": "Centro",
        "suburb": null,
        "city_district": null,
        "city": "Bermejo",
        "state": "Tarija",
        "postcode": null,
        "country": "Bolivia",
        "country_code": "bo"
      },
      "address": "Centro, Bermejo, Tarija, Bolivia"
    },
    {
      "lat": -22.726537410991888,
      "lon": -64.3330333098192,
      "geoinfo": {
        "display_name": "Calle Beni, Zona El Nueve, Bermejo, Provincia Arce, Tarija, Bolivia",
        "road": "Calle Beni",
        "house_number": null,
        "neighbourhood": null,
        "suburb": null,
        "city_district": null,
        "city": "Bermejo",
        "state": "Tarija",
        "postcode": null,
        "country": "Bolivia",
        "country_code": "bo"
      },
      "address": "Calle Beni, Bermejo, Tarija, Bolivia"
    },
    {
      "lat": -22.705494066638337,
      "lon": -64.30399779830026,
      "geoinfo": {
        "display_name": "Zona El Nueve, Bermejo, Provincia Arce, Tarija, Bolivia",
        "road": null,
        "house_number": null,
        "neighbourhood": null,
        "suburb": null,
        "city_district": null,
        "city": "Bermejo",
        "state": "Tarija",
        "postcode": null,
        "country": "Bolivia",
        "country_code": "bo"
      },
      "address": "640, Zona El Nueve, Bermejo, Provincia Arce, 72273 Tarija, Bolivia"
    },
    {
      "lat": -22.76766840075705,
      "lon": -64.31982328909737,
      "geoinfo": {
        "display_name": "La Talita, Bermejo, Provincia Arce, Tarija, Bolivia",
        "road": null,
        "house_number": null,
        "neighbourhood": null,
        "suburb": null,
        "city_district": null,
        "city": "Bermejo",
        "state": "Tarija",
        "postcode": null,
        "country": "Bolivia",
        "country_code": "bo"
      },
      "address": "361, La Talita, Bermejo, Provincia Arce, 67976 Tarija, Bolivia"
    },
    {
      "lat": -22.722485612541945,
      "lon": -64.34754550820892,
      "geoinfo": {
        "display_name": "Calle Potosí, El Cinco, Bermejo, Provincia Arce, Tarija, Bolivia",
        "road": "Calle Potosí",
        "house_number": null,
        "neighbourhood": null,
        "suburb": null,
        "city_district": null,
        "city": "Bermejo",
        "state": "Tarija",
        "postcode": null,
        "country": "Bolivia",
        "country_code": "bo"
      },
      "address": "442, Calle Potosí, El Cinco, Bermejo, Provincia Arce, 43731 Tarija, Bolivia"
    }
  ],
  "updated_at": "2025-10-19T01:14:41.073799+00:00",
  "_kind": "geo_samples"
}