{
  "country_code": "BO",
  "country": "Bolivia",
  "city": "Laja",
  "geonameid": 3912103,
  "target_addresses": 3,
  "samples": [
    {
      "lat": -16.527579719248735,
      "lon": -68.36309667934746,
      "geoinfo": {
        "display_name": "Orkojipiña, Laja, Provincia Los Andes, La Paz, Bolivia",
        "road": null,
        "house_number": null,
        "neighbourhood": null,
        "suburb": null,
        "city_district": null,
        "city": "Orkojipiña",
        "state": "La Paz",
        "postcode": null,
        "country": "Bolivia",
        "country_code": "bo"
      },
      "address": "Laja, La Paz, Bolivia"
    },
    {
      "lat": -16.5533096600599,
      "lon": -68.37361331901583,
      "geoinfo": {
        "display_name": "Camino Laja-Viacha, Laja, Sullcataca Alta, Laja, Provincia Los Andes, La Paz, Bolivia",
        "road": "Camino Laja-Viacha",
        "house_number": null,
        "neighbourhood": null,
        "suburb": null,
        "city_district": null,
        "city": "Sullcataca Alta",
        "state": "La Paz",
        "postcode": null,
        "country": "Bolivia",
        "country_code": "bo"
      },
      "address": "Camino Laja-Viacha, Laja, La Paz, Bolivia"
    },
    {
      "lat": -16.57014341308031,
      "lon": -68.37436544559698,
      "geoinfo": {
        "display_name": "Sullcataca Alta, Laja, Provincia Los Andes, La Paz, Bolivia",
        "road": null,
        "house_number": null,
        "neighbourhood": null,
        "suburb": null,
        "city_district": null,
        "city": "Sullcataca Alta",
        "state": "La Paz",
        "postcode": null,
        "country": "Bolivia",
        "country_code": "bo"
      },
      "address": "837, Sullcataca Alta, Laja, Provincia Los Andes, 84333 La Paz, Bolivia"
    },
    {
      "lat": -16.56237490749813,
      "lon": -68.38303641606328,
      "geoinfo": {
        "display_name": "Laja, Provincia Los Andes, La Paz, Bolivia",
        "road": null,
        "house_number": null,
        "neighbourhood": null,
        "suburb": null,
        "city_district": null,
        "city": "Laja",
        "state": "La Paz",
        "postcode": null,
        "country": "Bolivia",
        "country_code": "bo"
      },
      "address": "267, Laja, Provincia Los Andes, 04306 La Paz, Bolivia"
    },
    {
      "lat": -16.50921815449762,
      "lon": -68.35732471725073,
      "geoinfo": {
        "display_name": "Laja, Provincia Los Andes, La Paz, Bolivia",
        "road": null,
        "house_number": null,
        "neighbourhood": null,
        "suburb": null,
        "city_district": null,
        "city": "Laja",
        "state": "La Paz",
        "postcode": null,
        "country": "Bolivia",
        "country_code": "bo"
      },
      "address": "816, Laja, Provincia Los Andes, 14552 La Paz, Bolivia"
    }
  ],
  "updated_at": "2025-10-19T01:05:45.923063+00:00",
  "_kind": "geo_samples"
}