{
  "country_code": "BO",
  "country": "Bolivia",
  "city": "Llallagua",
  "geonameid": 3911409,
  "target_addresses": 3,
  "samples": [
    {
      "lat": -18.418191404163448,
      "lon": -66.59769361610839,
      "geoinfo": {
        "display_name": "Siglo XX, Llallagua, Provincia Rafael Bustillo, Potosí, Bolivia",
        "road": null,
        "house_number": null,
        "neighbourhood": null,
        "suburb": null,
        "city_district": null,
        "city": "Llallagua",
        "state": "Potosí",
        "postcode": null,
        "country": "Bolivia",
        "country_code": "bo"
      },
      "address": "Llallagua, Potosí, Bolivia"
    },
    {
      "lat": -18.430003753129995,
      "lon": -66.58004734087616,
      "geoinfo": {
        "display_name": "Zona 1 - Distrito Central, Siglo XX, Llallagua, Provincia Rafael Bustillo, Potosí, Bolivia",
        "road": null,
        "house_number": null,
        "neighbourhood": "Zona 1 - Distrito Central",
        "suburb": null,
        "city_district": null,
        "city": "Llallagua",
        "state": "Potosí",
        "postcode": null,
        "country": "Bolivia",
        "country_code": "bo"
      },
      "address": "Zona 1 - Distrito Central, Llallagua, Potosí, Bolivia"
    },
    {
      "lat": -18.438755642573835,
      "lon": -66.56237497290654,
      "geoinfo": {
        "display_name": "RN6: Llallagua-Uncia, Municipio Uncía, Provincia Rafael Bustillo, Potosí, Bolivia",
        "road": "RN6: Llallagua-Uncia",
        "house_number": null,
        "neighbourhood": null,
        "suburb": null,
        "city_district": null,
        "city": "Municipio Uncía",
        "state": "Potosí",
        "postcode": null,
        "country": "Bolivia",
        "country_code": "bo"
      },
      "address": "RN6: Llallagua-Uncia, Llallagua, Potosí, Bolivia"
    },
    {
      "lat": -18.437997580620948,
      "lon": -66.62198184193676,
      "geoinfo": {
        "display_name": "Comunidad Tojota, Llallagua, Provincia Rafael Bustillo, Potosí, Bolivia",
        "road": null,
        "house_number": null,
        "neighbourhood": null,
        "suburb": null,
        "city_district": null,
        "city": "Llallagua",
        "state": "Potosí",
        "postcode": null,
        "country": "Bolivia",
        "country_code": "bo"
      },
      "address": "137, Comunidad Tojota, Llallagua, Provincia Rafael Bustillo, 60587 Potosí, Bolivia"
    },
    {
      "lat": -18.41853479990893,
      "lon": -66.61164181992487,
      "geoinfo": {
        "display_name": "Siglo XX, Llallagua, Provincia Rafael Bustillo, Potosí, Bolivia",
        "road": null,
        "house_number": null,
        "neighbourhood": null,
        "suburb": null,
        "city_district": null,
        "city": "Llallagua",
        "state": "Potosí",
        "postcode": null,
        "country": "Bolivia",
        "country_code": "bo"
      },
      "address": "074, Siglo XX, Llallagua, Provincia Rafael Bustillo, 18138 Potosí, Bolivia"
    },
    {
      "lat": -18.40332579120461,
      "lon": -66.60801274322489,
      "geoinfo": {
        "display_name": "Kisi Kisi, Siglo XX, Llallagua, Provincia Rafael Bustillo, Potosí, Bolivia",
        "road": null,
        "house_number": null,
        "neighbourhood": null,
        "suburb": null,
        "city_district": null,
        "city": "Llallagua",
        "state": "Potosí",
        "postcode": null,
        "country": "Bolivia",
        "country_code": "bo"
      },
      "address": "607, Kisi Kisi, Siglo XX, Llallagua, Provincia Rafael Bustillo, 95736 Potosí, Bolivia"
    }
  ],
  "updated_at": "2025-10-19T03:02:47.747431+00:00",
  "_kind": "geo_samples"
}