{
  "country_code": "BO",
  "country": "Bolivia",
  "city": "Montero",
  "geonameid": 3910027,
  "target_addresses": 3,
  "samples": [
    {
      "lat": -17.335172108841725,
      "lon": -63.27273623949691,
      "geoinfo": {
        "display_name": "Calle Guapurú, Montero, Provincia Obispo Santistevan, Santa Cruz, Bolivia",
        "road": "Calle Guapurú",
        "house_number": null,
        "neighbourhood": null,
        "suburb": null,
        "city_district": null,
        "city": "Montero",
        "state": "Santa Cruz",
        "postcode": null,
        "country": "Bolivia",
        "country_code": "bo"
      },
      "address": "Calle Guapurú, Montero, Santa Cruz, Bolivia"
    },
    {
      "lat": -17.367803069416976,
      "lon": -63.265438416343855,
      "geoinfo": {
        "display_name": "Urbanización \"El Refugio\", Montero, Provincia Obispo Santistevan, Santa Cruz, Bolivia",
        "road": null,
        "house_number": null,
        "neighbourhood": null,
        "suburb": "Urbanización \"El Refugio\"",
        "city_district": null,
        "city": "Montero",
        "state": "Santa Cruz",
        "postcode": null,
        "country": "Bolivia",
        "country_code": "bo"
      },
      "address": "Urbanización \"El Refugio\", Montero, Santa Cruz, Bolivia"
    },
    {
      "lat": -17.31162138977307,
      "lon": -63.24876915498687,
      "geoinfo": {
        "display_name": "Avenida Principal Nro 3 Este Gabriel René Moreno, Montero, Provincia Obispo Santistevan, Santa Cruz, Bolivia",
        "road": "Avenida Principal Nro 3 Este Gabriel René Moreno",
        "house_number": null,
        "neighbourhood": null,
        "suburb": null,
        "city_district": null,
        "city": "Montero",
        "state": "Santa Cruz",
        "postcode": null,
        "country": "Bolivia",
        "country_code": "bo"
      },
      "address": "Avenida Principal Nro 3 Este Gabriel René Moreno, Montero, Santa Cruz, Bolivia"
    },
    {
      "lat": -17.30924409679212,
      "lon": -63.26963554944241,
      "geoinfo": {
        "display_name": "Calle 27 de Mayo, Guabira, Montero, Provincia Obispo Santistevan, Santa Cruz, Bolivia",
        "road": "Calle 27 de Mayo",
        "house_number": null,
        "neighbourhood": null,
        "suburb": null,
        "city_district": null,
        "city": "Montero",
        "state": "Santa Cruz",
        "postcode": null,
        "country": "Bolivia",
        "country_code": "bo"
      },
      "address": "Calle 27 de Mayo, Guabira, Montero, Provincia Obispo Santistevan, 22977 Santa Cruz, Bolivia"
    },
    {
      "lat": -17.358304484753567,
      "lon": -63.23474374441969,
      "geoinfo": {
        "display_name": "Calle El Asalto, URBANIZACION LA ESTRELLA, Montero, Provincia Obispo Santistevan, Santa Cruz, Bolivia",
        "road": "Calle El Asalto",
        "house_number": null,
        "neighbourhood": null,
        "suburb": "URBANIZACION LA ESTRELLA",
        "city_district": null,
        "city": "Montero",
        "state": "Santa Cruz",
        "postcode": null,
        "country": "Bolivia",
        "country_code": "bo"
      },
      "address": "498, Calle El Asalto, URBANIZACION LA ESTRELLA, Montero, Provincia Obispo Santistevan, 23843 Santa Cruz, Bolivia"
    },
    {
      "lat": -17.324361343178225,
      "lon": -63.211701431245224,
      "geoinfo": {
        "display_name": "Ciudadela Bioceanica del Norte, Montero, Provincia Obispo Santistevan, Santa Cruz, Bolivia",
        "road": null,
        "house_number": null,
        "neighbourhood": null,
        "suburb": "Ciudadela Bioceanica del Norte",
        "city_district": null,
        "city": "Montero",
        "state": "Santa Cruz",
        "postcode": null,
        "country": "Bolivia",
        "country_code": "bo"
      },
      "address": "645, Ciudadela Bioceanica del Norte, Montero, Provincia Obispo Santistevan, 98875 Santa Cruz, Bolivia"
    }
  ],
  "updated_at": "2025-10-19T02:53:08.483004+00:00",
  "_kind": "geo_samples"
}