{
  "country_code": "BO",
  "country": "Bolivia",
  "city": "Oruro",
  "geonameid": 3909234,
  "target_addresses": 3,
  "samples": [
    {
      "lat": -17.971811932127178,
      "lon": -67.0851115888773,
      "geoinfo": {
        "display_name": "Oruro, Municipio Oruro, Provincia Cercado, Oruro, Bolivia",
        "road": null,
        "house_number": null,
        "neighbourhood": null,
        "suburb": null,
        "city_district": null,
        "city": "Oruro",
        "state": "Oruro",
        "postcode": null,
        "country": "Bolivia",
        "country_code": "bo"
      },
      "address": "Oruro, Oruro, Bolivia"
    },
    {
      "lat": -17.968022707113246,
      "lon": -67.10186628191991,
      "geoinfo": {
        "display_name": "Calle Montesinos, Distrito 1, Oruro, Municipio Oruro, Provincia Cercado, Oruro, Bolivia",
        "road": "Calle Montesinos",
        "house_number": null,
        "neighbourhood": null,
        "suburb": "Distrito 1",
        "city_district": null,
        "city": "Oruro",
        "state": "Oruro",
        "postcode": null,
        "country": "Bolivia",
        "country_code": "bo"
      },
      "address": "Calle Montesinos, Oruro, Oruro, Bolivia"
    },
    {
      "lat": -17.990858946380428,
      "lon": -67.10903272436916,
      "geoinfo": {
        "display_name": "Avenida Circunvalación, Urbanización El Paraíso I, Oruro, Municipio Oruro, Provincia Cercado, Oruro, Bolivia",
        "road": "Avenida Circunvalación",
        "house_number": null,
        "neighbourhood": "Urbanización El Paraíso I",
        "suburb": null,
        "city_district": null,
        "city": "Oruro",
        "state": "Oruro",
        "postcode": null,
        "country": "Bolivia",
        "country_code": "bo"
      },
      "address": "Avenida Circunvalación, Oruro, Oruro, Bolivia"
    },
    {
      "lat": -17.953504237432625,
      "lon": -67.1027599259513,
      "geoinfo": {
        "display_name": "Calle Gregorio Reynolds, Barrio Jardín, Distrito 3, Oruro, Municipio Oruro, Provincia Cercado, Oruro, Bolivia",
        "road": "Calle Gregorio Reynolds",
        "house_number": null,
        "neighbourhood": "Barrio Jardín",
        "suburb": "Distrito 3",
        "city_district": null,
        "city": "Oruro",
        "state": "Oruro",
        "postcode": null,
        "country": "Bolivia",
        "country_code": "bo"
      },
      "address": "600, Calle Gregorio Reynolds, Barrio Jardín, Distrito 3, Oruro, Municipio Oruro, Provincia Cercado, Oruro, Bolivia"
    },
    {
      "lat": -17.994170855841013,
      "lon": -67.06029859568622,
      "geoinfo": {
        "display_name": "Oruro, Municipio Oruro, Provincia Cercado, Oruro, Bolivia",
        "road": null,
        "house_number": null,
        "neighbourhood": null,
        "suburb": null,
        "city_district": null,
        "city": "Oruro",
        "state": "Oruro",
        "postcode": null,
        "country": "Bolivia",
        "country_code": "bo"
      },
      "address": "354, Oruro, Municipio Oruro, Provincia Cercado, 16686 Oruro, Bolivia"
    },
    {
      "lat": -18.005044779327488,
      "lon": -67.10192341353809,
      "geoinfo": {
        "display_name": "Urbanización El Paraíso I, Iquitaya, Municipio Oruro, Provincia Cercado, Oruro, Bolivia",
        "road": null,
        "house_number": null,
        "neighbourhood": "Urbanización El Paraíso I",
        "suburb": null,
        "city_district": null,
        "city": "Municipio Oruro",
        "state": "Oruro",
        "postcode": null,
        "country": "Bolivia",
        "country_code": "bo"
      },
      "address": "008, Urbanización El Paraíso I, Oruro, 28988 Oruro, Bolivia"
    }
  ],
  "updated_at": "2025-10-19T01:14:16.081384+00:00",
  "_kind": "geo_samples"
}