{
  "country_code": "BO",
  "country": "Bolivia",
  "city": "Potosí",
  "geonameid": 3907584,
  "target_addresses": 3,
  "samples": [
    {
      "lat": -19.540427587710052,
      "lon": -65.75514683536423,
      "geoinfo": {
        "display_name": "Potosí, Provincia Tomás Frías, Potosí, Bolivia",
        "road": null,
        "house_number": null,
        "neighbourhood": null,
        "suburb": null,
        "city_district": null,
        "city": "Potosí",
        "state": "Potosí",
        "postcode": null,
        "country": "Bolivia",
        "country_code": "bo"
      },
      "address": "Potosí, Potosí, Bolivia"
    },
    {
      "lat": -19.587389065706503,
      "lon": -65.76490598585207,
      "geoinfo": {
        "display_name": "Pasaje Siete, La Chaca, Potosí, Provincia Tomás Frías, Potosí, Bolivia",
        "road": "Pasaje Siete",
        "house_number": null,
        "neighbourhood": "La Chaca",
        "suburb": null,
        "city_district": null,
        "city": "Potosí",
        "state": "Potosí",
        "postcode": null,
        "country": "Bolivia",
        "country_code": "bo"
      },
      "address": "Pasaje Siete, Potosí, Potosí, Bolivia"
    },
    {
      "lat": -19.606744441703064,
      "lon": -65.75786645900207,
      "geoinfo": {
        "display_name": "Villa España, Potosí, Provincia Tomás Frías, Potosí, Bolivia",
        "road": null,
        "house_number": null,
        "neighbourhood": "Villa España",
        "suburb": null,
        "city_district": null,
        "city": "Potosí",
        "state": "Potosí",
        "postcode": null,
        "country": "Bolivia",
        "country_code": "bo"
      },
      "address": "Villa España, Potosí, Potosí, Bolivia"
    },
    {
      "lat": -19.601364982400032,
      "lon": -65.75039186680081,
      "geoinfo": {
        "display_name": "Avenida Canadá, San Francisco Chico, Potosí, Provincia Tomás Frías, Potosí, Bolivia",
        "road": "Avenida Canadá",
        "house_number": null,
        "neighbourhood": "San Francisco Chico",
        "suburb": null,
        "city_district": null,
        "city": "Potosí",
        "state": "Potosí",
        "postcode": null,
        "country": "Bolivia",
        "country_code": "bo"
      },
      "address": "696, Avenida Canadá, San Francisco Chico, Potosí, Provincia Tomás Frías, 33954 Potosí, Bolivia"
    },
    {
      "lat": -19.56694944563393,
      "lon": -65.77993118807295,
      "geoinfo": {
        "display_name": "Villa Buena Vista, Potosí, Provincia Tomás Frías, Potosí, Bolivia",
        "road": null,
        "house_number": null,
        "neighbourhood": "Villa Buena Vista",
        "suburb": null,
        "city_district": null,
        "city": "Potosí",
        "state": "Potosí",
        "postcode": null,
        "country": "Bolivia",
        "country_code": "bo"
      },
      "address": "657, Villa Buena Vista, Potosí, Provincia Tomás Frías, 15513 Potosí, Bolivia"
    },
    {
      "lat": -19.58551861699332,
      "lon": -65.70980469779853,
      "geoinfo": {
        "display_name": "Potosí, Provincia Tomás Frías, Potosí, Bolivia",
        "road": null,
        "house_number": null,
        "neighbourhood": null,
        "suburb": null,
        "city_district": null,
        "city": "Potosí",
        "state": "Potosí",
        "postcode": null,
        "country": "Bolivia",
        "country_code": "bo"
      },
      "address": "111, Potosí, Provincia Tomás Frías, 62146 Potosí, Bolivia"
    }
  ],
  "updated_at": "2025-10-19T01:14:02.027811+00:00",
  "_kind": "geo_samples"
}