{
  "country_code": "BO",
  "country": "Bolivia",
  "city": "San Ignacio de Velasco",
  "geonameid": 3905658,
  "target_addresses": 3,
  "samples": [
    {
      "lat": -16.34938953159729,
      "lon": -60.98034134149414,
      "geoinfo": {
        "display_name": "RN10: Uruguayito-San Ignacio de Velasco, San Javierito, Ascencion del Carmen de Ruiz, Carmen de Ruiz, San Ignacio de Velasco, Velasco, Santa Cruz, Bolivia",
        "road": "RN10: Uruguayito-San Ignacio de Velasco",
        "house_number": null,
        "neighbourhood": null,
        "suburb": null,
        "city_district": null,
        "city": "San Ignacio de Velasco",
        "state": "Santa Cruz",
        "postcode": null,
        "country": "Bolivia",
        "country_code": "bo"
      },
      "address": "RN10: Uruguayito-San Ignacio de Velasco, San Ignacio de Velasco, Santa Cruz, Bolivia"
    },
    {
      "lat": -16.365230163522074,
      "lon": -60.998958611259624,
      "geoinfo": {
        "display_name": "Camino a San Lucas, San Lucas, Argelia, San Ignacio de Velasco, Velasco, Santa Cruz, Bolivia",
        "road": "Camino a San Lucas",
        "house_number": null,
        "neighbourhood": null,
        "suburb": null,
        "city_district": null,
        "city": "San Ignacio de Velasco",
        "state": "Santa Cruz",
        "postcode": null,
        "country": "Bolivia",
        "country_code": "bo"
      },
      "address": "Camino a San Lucas, San Ignacio de Velasco, Santa Cruz, Bolivia"
    },
    {
      "lat": -16.393171441113655,
      "lon": -60.927059046723876,
      "geoinfo": {
        "display_name": "San Luisito, San Ignacio de Velasco, Velasco, Santa Cruz, Bolivia",
        "road": null,
        "house_number": null,
        "neighbourhood": null,
        "suburb": null,
        "city_district": null,
        "city": "San Ignacio de Velasco",
        "state": "Santa Cruz",
        "postcode": null,
        "country": "Bolivia",
        "country_code": "bo"
      },
      "address": "San Ignacio de Velasco, Santa Cruz, Bolivia"
    },
    {
      "lat": -16.395197461630985,
      "lon": -60.99095877028397,
      "geoinfo": {
        "display_name": "San Ignacio de Velasco, Velasco, Santa Cruz, Bolivia",
        "road": null,
        "house_number": null,
        "neighbourhood": null,
        "suburb": null,
        "city_district": null,
        "city": "San Ignacio de Velasco",
        "state": "Santa Cruz",
        "postcode": null,
        "country": "Bolivia",
        "country_code": "bo"
      },
      "address": "433, San Ignacio de Velasco, Velasco, 98834 Santa Cruz, Bolivia"
    },
    {
      "lat": -16.385679738837677,
      "lon": -60.98309551775139,
      "geoinfo": {
        "display_name": "Camino a Recreo, Recreo, San Ignacio de Velasco, Velasco, Santa Cruz, Bolivia",
        "road": "Camino a Recreo",
        "house_number": null,
        "neighbourhood": null,
        "suburb": null,
        "city_district": null,
        "city": "San Ignacio de Velasco",
        "state": "Santa Cruz",
        "postcode": null,
        "country": "Bolivia",
        "country_code": "bo"
      },
      "address": "150, Camino a Recreo, Recreo, San Ignacio de Velasco, Velasco, 84028 Santa Cruz, Bolivia"
    },
    {
      "lat": -16.339123753041434,
      "lon": -60.97475997545707,
      "geoinfo": {
        "display_name": "Argelia, San Ignacio de Velasco, Velasco, Santa Cruz, Bolivia",
        "road": null,
        "house_number": null,
        "neighbourhood": null,
        "suburb": null,
        "city_district": null,
        "city": "San Ignacio de Velasco",
        "state": "Santa Cruz",
        "postcode": null,
        "country": "Bolivia",
        "country_code": "bo"
      },
      "address": "449, Argelia, San Ignacio de Velasco, Velasco, 68344 Santa Cruz, Bolivia"
    }
  ],
  "updated_at": "2025-10-19T02:43:23.088656+00:00",
  "_kind": "geo_samples"
}