{
  "country_code": "BO",
  "country": "Bolivia",
  "city": "Tiquipaya",
  "geonameid": 3902949,
  "target_addresses": 3,
  "samples": [
    {
      "lat": -17.3626508886751,
      "lon": -66.23463157814341,
      "geoinfo": {
        "display_name": "Pocpocollo, Quillacollo, Cochabamba, Bolivia",
        "road": null,
        "house_number": null,
        "neighbourhood": null,
        "suburb": null,
        "city_district": null,
        "city": "Pocpocollo",
        "state": "Cochabamba",
        "postcode": null,
        "country": "Bolivia",
        "country_code": "bo"
      },
      "address": "Tiquipaya, Cochabamba, Bolivia"
    },
    {
      "lat": -17.355903753029214,
      "lon": -66.20762565075866,
      "geoinfo": {
        "display_name": "Trojes, Quillacollo, Cochabamba, Bolivia",
        "road": null,
        "house_number": null,
        "neighbourhood": "Trojes",
        "suburb": null,
        "city_district": null,
        "city": null,
        "state": "Cochabamba",
        "postcode": null,
        "country": "Bolivia",
        "country_code": "bo"
      },
      "address": "757, Trojes, Quillacollo, 70499 Cochabamba, Bolivia"
    },
    {
      "lat": -17.355878203521215,
      "lon": -66.18733389544074,
      "geoinfo": {
        "display_name": "Calle María Esther Ballivián, La Vertiente, Cochabamba, Cercado, Cochabamba, Bolivia",
        "road": "Calle María Esther Ballivián",
        "house_number": null,
        "neighbourhood": "La Vertiente",
        "suburb": null,
        "city_district": null,
        "city": "Cochabamba",
        "state": "Cochabamba",
        "postcode": null,
        "country": "Bolivia",
        "country_code": "bo"
      },
      "address": "308, Calle María Esther Ballivián, La Vertiente, Cochabamba, Cercado, 06444 Cochabamba, Bolivia"
    },
    {
      "lat": -17.373404528152115,
      "lon": -66.20332165562107,
      "geoinfo": {
        "display_name": "San Rafael, Cochabamba, Cercado, Cochabamba, Bolivia",
        "road": null,
        "house_number": null,
        "neighbourhood": "San Rafael",
        "suburb": null,
        "city_district": null,
        "city": "Cochabamba",
        "state": "Cochabamba",
        "postcode": null,
        "country": "Bolivia",
        "country_code": "bo"
      },
      "address": "422, San Rafael, Cochabamba, Cercado, 87623 Cochabamba, Bolivia"
    }
  ],
  "updated_at": "2025-10-19T03:02:38.461469+00:00",
  "_kind": "geo_samples"
}