{
  "country_code": "BO",
  "country": "Bolivia",
  "city": "Tupiza",
  "geonameid": 3902202,
  "target_addresses": 3,
  "samples": [
    {
      "lat": -21.433680906685378,
      "lon": -65.71954161994258,
      "geoinfo": {
        "display_name": "Avenida Diego de Almagro, Tupiza, San Gerardo de Tupiza, Tupiza, Sur Chichas, Potosí, Bolivia",
        "road": "Avenida Diego de Almagro",
        "house_number": null,
        "neighbourhood": null,
        "suburb": null,
        "city_district": null,
        "city": "Tupiza",
        "state": "Potosí",
        "postcode": null,
        "country": "Bolivia",
        "country_code": "bo"
      },
      "address": "528, Avenida Diego de Almagro, Tupiza, San Gerardo de Tupiza, Tupiza, Sur Chichas, 74964 Potosí, Bolivia"
    },
    {
      "lat": -21.485468414202685,
      "lon": -65.73366403848502,
      "geoinfo": {
        "display_name": "Acceso a Cañon del Duende, Tupiza, Sur Chichas, Potosí, Bolivia",
        "road": "Acceso a Cañon del Duende",
        "house_number": null,
        "neighbourhood": null,
        "suburb": null,
        "city_district": null,
        "city": "Tupiza",
        "state": "Potosí",
        "postcode": null,
        "country": "Bolivia",
        "country_code": "bo"
      },
      "address": "304, Acceso a Cañon del Duende, Tupiza, Sur Chichas, 87678 Potosí, Bolivia"
    },
    {
      "lat": -21.44164382382317,
      "lon": -65.73737767319429,
      "geoinfo": {
        "display_name": "The small canyon, Avenida Saturnino Murillo, Tupiza, San Gerardo de Tupiza, Tupiza, Sur Chichas, Potosí, Bolivia",
        "road": "Avenida Saturnino Murillo",
        "house_number": null,
        "neighbourhood": null,
        "suburb": null,
        "city_district": null,
        "city": "Tupiza",
        "state": "Potosí",
        "postcode": null,
        "country": "Bolivia",
        "country_code": "bo"
      },
      "address": "322, Avenida Saturnino Murillo, Tupiza, 29068 Potosí, Bolivia"
    }
  ],
  "updated_at": "2025-10-19T03:04:47.672746+00:00",
  "_kind": "geo_samples"
}