{
  "country_code": "BO",
  "country": "Bolivia",
  "city": "Villamontes",
  "geonameid": 3901547,
  "target_addresses": 3,
  "samples": [
    {
      "lat": -21.268967656863115,
      "lon": -63.49598042560012,
      "geoinfo": {
        "display_name": "Villa Montes, Gran Chaco, Tarija, Bolivia",
        "road": null,
        "house_number": null,
        "neighbourhood": null,
        "suburb": null,
        "city_district": null,
        "city": "Villa Montes",
        "state": "Tarija",
        "postcode": null,
        "country": "Bolivia",
        "country_code": "bo"
      },
      "address": "Villamontes, Tarija, Bolivia"
    },
    {
      "lat": -21.266975443734303,
      "lon": -63.42457693638733,
      "geoinfo": {
        "display_name": "RN11: Villamontes-Palo Marcado, Villa Montes, Gran Chaco, Tarija, Bolivia",
        "road": "RN11: Villamontes-Palo Marcado",
        "house_number": null,
        "neighbourhood": null,
        "suburb": null,
        "city_district": null,
        "city": "Villa Montes",
        "state": "Tarija",
        "postcode": null,
        "country": "Bolivia",
        "country_code": "bo"
      },
      "address": "RN11: Villamontes-Palo Marcado, Villamontes, Tarija, Bolivia"
    },
    {
      "lat": -21.25806300552735,
      "lon": -63.494413736107056,
      "geoinfo": {
        "display_name": "Avenida Benemérito Luis Torres Mendizábal, Villa Montes, Gran Chaco, Tarija, Bolivia",
        "road": "Avenida Benemérito Luis Torres Mendizábal",
        "house_number": null,
        "neighbourhood": null,
        "suburb": null,
        "city_district": null,
        "city": "Villa Montes",
        "state": "Tarija",
        "postcode": null,
        "country": "Bolivia",
        "country_code": "bo"
      },
      "address": "Avenida Benemérito Luis Torres Mendizábal, Villamontes, Tarija, Bolivia"
    },
    {
      "lat": -21.297447310000855,
      "lon": -63.44759969170894,
      "geoinfo": {
        "display_name": "Villa Montes, Aguaray, Capirendita, Villa Montes, Gran Chaco, Tarija, Bolivia",
        "road": null,
        "house_number": null,
        "neighbourhood": null,
        "suburb": null,
        "city_district": null,
        "city": "Villa Montes",
        "state": "Tarija",
        "postcode": null,
        "country": "Bolivia",
        "country_code": "bo"
      },
      "address": "221, Villamontes, 73160 Tarija, Bolivia"
    },
    {
      "lat": -21.25670604346983,
      "lon": -63.484293274691915,
      "geoinfo": {
        "display_name": "Avenida Benemérito Luis Torres Mendizábal, Villa Montes, Gran Chaco, Tarija, Bolivia",
        "road": "Avenida Benemérito Luis Torres Mendizábal",
        "house_number": null,
        "neighbourhood": null,
        "suburb": null,
        "city_district": null,
        "city": "Villa Montes",
        "state": "Tarija",
        "postcode": null,
        "country": "Bolivia",
        "country_code": "bo"
      },
      "address": "712, Avenida Benemérito Luis Torres Mendizábal, Villa Montes, Gran Chaco, 98761 Tarija, Bolivia"
    },
    {
      "lat": -21.24396540004811,
      "lon": -63.47887249948059,
      "geoinfo": {
        "display_name": "Villa Montes, Gran Chaco, Tarija, Bolivia",
        "road": null,
        "house_number": null,
        "neighbourhood": null,
        "suburb": null,
        "city_district": null,
        "city": "Villa Montes",
        "state": "Tarija",
        "postcode": null,
        "country": "Bolivia",
        "country_code": "bo"
      },
      "address": "935, Villa Montes, Gran Chaco, 66458 Tarija, Bolivia"
    }
  ],
  "updated_at": "2025-10-19T02:52:12.586716+00:00",
  "_kind": "geo_samples"
}