{
  "country_code": "BO",
  "country": "Bolivia",
  "city": "Vinto",
  "geonameid": 3901435,
  "target_addresses": 3,
  "samples": [
    {
      "lat": -17.420597743652113,
      "lon": -66.28348843606753,
      "geoinfo": {
        "display_name": "Camino Caico-Cotapachi, Cotapachi, Quillacollo, Cochabamba, Bolivia",
        "road": "Camino Caico-Cotapachi",
        "house_number": null,
        "neighbourhood": null,
        "suburb": null,
        "city_district": null,
        "city": "Cotapachi",
        "state": "Cochabamba",
        "postcode": null,
        "country": "Bolivia",
        "country_code": "bo"
      },
      "address": "Camino Caico-Cotapachi, Vinto, Cochabamba, Bolivia"
    },
    {
      "lat": -17.397892708349364,
      "lon": -66.3241077893622,
      "geoinfo": {
        "display_name": "Puente Kora I, RN4: Quillacollo-Suticollo, Sauce Rancho, Quillacollo, Cochabamba, Bolivia",
        "road": "RN4: Quillacollo-Suticollo",
        "house_number": null,
        "neighbourhood": null,
        "suburb": null,
        "city_district": null,
        "city": "Sauce Rancho",
        "state": "Cochabamba",
        "postcode": null,
        "country": "Bolivia",
        "country_code": "bo"
      },
      "address": "RN4: Quillacollo-Suticollo, Vinto, Cochabamba, Bolivia"
    },
    {
      "lat": -17.356736978895697,
      "lon": -66.30598334802272,
      "geoinfo": {
        "display_name": "Marquina, Paucarpata, Quillacollo, Cochabamba, Bolivia",
        "road": null,
        "house_number": null,
        "neighbourhood": null,
        "suburb": null,
        "city_district": null,
        "city": "Paucarpata",
        "state": "Cochabamba",
        "postcode": null,
        "country": "Bolivia",
        "country_code": "bo"
      },
      "address": "Vinto, Cochabamba, Bolivia"
    },
    {
      "lat": -17.362620459026694,
      "lon": -66.29342339039066,
      "geoinfo": {
        "display_name": "Paucarpata, Quillacollo, Cochabamba, Bolivia",
        "road": null,
        "house_number": null,
        "neighbourhood": null,
        "suburb": null,
        "city_district": null,
        "city": "Paucarpata",
        "state": "Cochabamba",
        "postcode": null,
        "country": "Bolivia",
        "country_code": "bo"
      },
      "address": "252, Paucarpata, Quillacollo, 46714 Cochabamba, Bolivia"
    },
    {
      "lat": -17.410026698036994,
      "lon": -66.27564599094659,
      "geoinfo": {
        "display_name": "Unidad Vecinal 13-B, Quillacollo, Cochabamba, Bolivia",
        "road": null,
        "house_number": null,
        "neighbourhood": "Unidad Vecinal 13-B",
        "suburb": null,
        "city_district": null,
        "city": null,
        "state": "Cochabamba",
        "postcode": null,
        "country": "Bolivia",
        "country_code": "bo"
      },
      "address": "Unidad Vecinal 13-B, Quillacollo, 53507 Cochabamba, Bolivia"
    },
    {
      "lat": -17.39622764431541,
      "lon": -66.34384299332788,
      "geoinfo": {
        "display_name": "Thiomoco, Quillacollo, Cochabamba, Bolivia",
        "road": null,
        "house_number": null,
        "neighbourhood": null,
        "suburb": null,
        "city_district": null,
        "city": "Thiomoco",
        "state": "Cochabamba",
        "postcode": null,
        "country": "Bolivia",
        "country_code": "bo"
      },
      "address": "332, Thiomoco, Quillacollo, 43523 Cochabamba, Bolivia"
    }
  ],
  "updated_at": "2025-10-19T02:43:22.610549+00:00",
  "_kind": "geo_samples"
}