{
  "country_code": "MC",
  "country": "Monaco",
  "city": "Monaco",
  "geonameid": 2993458,
  "target_addresses": 50,
  "samples": [
    {
      "lat": 43.73889060303737,
      "lon": 7.470071437253321,
      "geoinfo": {
        "display_name": "Pointe du Cap Martin, Cap Martin, Roquebrune-Cap-Martin, Nice, Maritime Alps, Provence-Alpes-Côte d'Azur, Metropolitan France, 06190, France",
        "road": null,
        "house_number": null,
        "neighbourhood": null,
        "suburb": "Cap Martin",
        "city_district": null,
        "city": "Roquebrune-Cap-Martin",
        "state": "Provence-Alpes-Côte d'Azur",
        "postcode": "06190",
        "country": "France",
        "country_code": "fr"
      },
      "address": "Cap Martin, Monaco, Provence-Alpes-Côte d'Azur, Monaco"
    },
    {
      "lat": 43.70726273669982,
      "lon": 7.427301439241079,
      "geoinfo": {
        "display_name": "Monaco",
        "road": null,
        "house_number": null,
        "neighbourhood": null,
        "suburb": null,
        "city_district": null,
        "city": null,
        "state": null,
        "postcode": null,
        "country": "Monaco",
        "country_code": "mc"
      },
      "address": "Monaco, Provence-Alpes-Côte d'Azur, Monaco"
    },
    {
      "lat": 43.723328968685614,
      "lon": 7.405377431544672,
      "geoinfo": {
        "display_name": "Avenue Prince Rainier III de Monaco, Cap-d'Ail, Nice, Maritime Alps, Provence-Alpes-Côte d'Azur, Metropolitan France, 06320, France",
        "road": "Avenue Prince Rainier III de Monaco",
        "house_number": null,
        "neighbourhood": null,
        "suburb": null,
        "city_district": null,
        "city": "Cap-d'Ail",
        "state": "Provence-Alpes-Côte d'Azur",
        "postcode": "06320",
        "country": "France",
        "country_code": "fr"
      },
      "address": "Avenue Prince Rainier III de Monaco, Monaco, Provence-Alpes-Côte d'Azur, Monaco"
    },
    {
      "lat": 43.74805064284566,
      "lon": 7.425099373646251,
      "geoinfo": {
        "display_name": "Faussignana, Avenue Prince Rainier III Monaco, Beausoleil, Nice, Maritime Alps, Provence-Alpes-Côte d'Azur, Metropolitan France, 06240, France",
        "road": "Avenue Prince Rainier III Monaco",
        "house_number": null,
        "neighbourhood": null,
        "suburb": null,
        "city_district": null,
        "city": "Beausoleil",
        "state": "Provence-Alpes-Côte d'Azur",
        "postcode": "06240",
        "country": "France",
        "country_code": "fr"
      },
      "address": "Avenue Prince Rainier III Monaco, Monaco, Provence-Alpes-Côte d'Azur, Monaco"
    },
    {
      "lat": 43.716664113320796,
      "lon": 7.471453499810639,
      "geoinfo": {
        "display_name": "Cap Martin, Roquebrune-Cap-Martin, Nice, Maritime Alps, Provence-Alpes-Côte d'Azur, Metropolitan France, 06190, France",
        "road": null,
        "house_number": null,
        "neighbourhood": null,
        "suburb": "Cap Martin",
        "city_district": null,
        "city": "Roquebrune-Cap-Martin",
        "state": "Provence-Alpes-Côte d'Azur",
        "postcode": "06190",
        "country": "France",
        "country_code": "fr"
      },
      "address": "916, Cap Martin, Monaco, 06190 Provence-Alpes-Côte d'Azur, Monaco"
    },
    {
      "lat": 43.73263418992313,
      "lon": 7.462432180746415,
      "geoinfo": {
        "display_name": "Cap Martin, Roquebrune-Cap-Martin, Nice, Maritime Alps, Provence-Alpes-Côte d'Azur, Metropolitan France, 06190, France",
        "road": null,
        "house_number": null,
        "neighbourhood": null,
        "suburb": "Cap Martin",
        "city_district": null,
        "city": "Roquebrune-Cap-Martin",
        "state": "Provence-Alpes-Côte d'Azur",
        "postcode": "06190",
        "country": "France",
        "country_code": "fr"
      },
      "address": "150, Cap Martin, Monaco, 06190 Provence-Alpes-Côte d'Azur, Monaco"
    },
    {
      "lat": 43.72889167166795,
      "lon": 7.425165962670403,
      "geoinfo": {
        "display_name": "Jardins de Saint-Martin, Avenue Saint-Martin, Monaco City, Monaco, 98000, Monaco",
        "road": "Avenue Saint-Martin",
        "house_number": null,
        "neighbourhood": null,
        "suburb": "Monaco City",
        "city_district": null,
        "city": "Monaco",
        "state": null,
        "postcode": "98000",
        "country": "Monaco",
        "country_code": "mc"
      },
      "address": "769, Avenue Saint-Martin, 98000 Monaco, Monaco"
    },
    {
      "lat": 43.70508022219952,
      "lon": 7.417852633891978,
      "geoinfo": {
        "display_name": "Pointe des Douaniers, Cap-d'Ail, Nice, Maritime Alps, Provence-Alpes-Côte d'Azur, Metropolitan France, 06320, France",
        "road": null,
        "house_number": null,
        "neighbourhood": null,
        "suburb": null,
        "city_district": null,
        "city": "Cap-d'Ail",
        "state": "Provence-Alpes-Côte d'Azur",
        "postcode": "06320",
        "country": "France",
        "country_code": "fr"
      },
      "address": "659, Monaco, 06320 Provence-Alpes-Côte d'Azur, Monaco"
    },
    {
      "lat": 43.72216264779392,
      "lon": 7.4681876989281015,
      "geoinfo": {
        "display_name": "Cap Martin, Roquebrune-Cap-Martin, Nice, Maritime Alps, Provence-Alpes-Côte d'Azur, Metropolitan France, 06190, France",
        "road": null,
        "house_number": null,
        "neighbourhood": null,
        "suburb": "Cap Martin",
        "city_district": null,
        "city": "Roquebrune-Cap-Martin",
        "state": "Provence-Alpes-Côte d'Azur",
        "postcode": "06190",
        "country": "France",
        "country_code": "fr"
      },
      "address": "897, Cap Martin, Monaco, 06190 Provence-Alpes-Côte d'Azur, Monaco"
    },
    {
      "lat": 43.709774857550045,
      "lon": 7.389641060756252,
      "geoinfo": {
        "display_name": "Cap Mala, Cap-d'Ail, Nice, Maritime Alps, Provence-Alpes-Côte d'Azur, Metropolitan France, 06320, France",
        "road": null,
        "house_number": null,
        "neighbourhood": null,
        "suburb": null,
        "city_district": null,
        "city": "Cap-d'Ail",
        "state": "Provence-Alpes-Côte d'Azur",
        "postcode": "06320",
        "country": "France",
        "country_code": "fr"
      },
      "address": "871, Monaco, 06320 Provence-Alpes-Côte d'Azur, Monaco"
    },
    {
      "lat": 43.730818980142956,
      "lon": 7.458630591976217,
      "geoinfo": {
        "display_name": "Cap Martin, Roquebrune-Cap-Martin, Nice, Maritime Alps, Provence-Alpes-Côte d'Azur, Metropolitan France, 06190, France",
        "road": null,
        "house_number": null,
        "neighbourhood": null,
        "suburb": "Cap Martin",
        "city_district": null,
        "city": "Roquebrune-Cap-Martin",
        "state": "Provence-Alpes-Côte d'Azur",
        "postcode": "06190",
        "country": "France",
        "country_code": "fr"
      },
      "address": "032, Cap Martin, Monaco, 06190 Provence-Alpes-Côte d'Azur, Monaco"
    },
    {
      "lat": 43.739364314867096,
      "lon": 7.42477979564373,
      "geoinfo": {
        "display_name": "Park Palace, 6, Impasse de la Fontaine, Monte-Carlo, Monaco, 98000, Monaco",
        "road": "Impasse de la Fontaine",
        "house_number": "6",
        "neighbourhood": null,
        "suburb": "Monte-Carlo",
        "city_district": null,
        "city": "Monaco",
        "state": null,
        "postcode": "98000",
        "country": "Monaco",
        "country_code": "mc"
      },
      "address": "Park Palace, 6, Impasse de la Fontaine, Monte-Carlo, Monaco, 98000, Monaco"
    },
    {
      "lat": 43.76238026870184,
      "lon": 7.380925640721991,
      "geoinfo": {
        "display_name": "La Trinité, Nice, Maritime Alps, Provence-Alpes-Côte d'Azur, Metropolitan France, 06340, France",
        "road": null,
        "house_number": null,
        "neighbourhood": null,
        "suburb": null,
        "city_district": null,
        "city": "La Trinité",
        "state": "Provence-Alpes-Côte d'Azur",
        "postcode": "06340",
        "country": "France",
        "country_code": "fr"
      },
      "address": "116, Monaco, 06340 Provence-Alpes-Côte d'Azur, Monaco"
    },
    {
      "lat": 43.72831111090495,
      "lon": 7.417923864655422,
      "geoinfo": {
        "display_name": "Rond-Point Papalins, Fontvieille, Monaco, 98020, Monaco",
        "road": "Rond-Point Papalins",
        "house_number": null,
        "neighbourhood": null,
        "suburb": "Fontvieille",
        "city_district": null,
        "city": "Monaco",
        "state": null,
        "postcode": "98020",
        "country": "Monaco",
        "country_code": "mc"
      },
      "address": "368, Rond-Point Papalins, Fontvieille, Monaco, 98020, Monaco"
    },
    {
      "lat": 43.71164996357656,
      "lon": 7.415917038741719,
      "geoinfo": {
        "display_name": "Pointe des Douaniers, Cap-d'Ail, Nice, Maritime Alps, Provence-Alpes-Côte d'Azur, Metropolitan France, 06320, France",
        "road": null,
        "house_number": null,
        "neighbourhood": null,
        "suburb": null,
        "city_district": null,
        "city": "Cap-d'Ail",
        "state": "Provence-Alpes-Côte d'Azur",
        "postcode": "06320",
        "country": "France",
        "country_code": "fr"
      },
      "address": "786, Monaco, 06320 Provence-Alpes-Côte d'Azur, Monaco"
    },
    {
      "lat": 43.74466531667389,
      "lon": 7.4696620115506605,
      "geoinfo": {
        "display_name": "Pointe du Cap Martin, Cap Martin, Roquebrune-Cap-Martin, Nice, Maritime Alps, Provence-Alpes-Côte d'Azur, Metropolitan France, 06190, France",
        "road": null,
        "house_number": null,
        "neighbourhood": null,
        "suburb": "Cap Martin",
        "city_district": null,
        "city": "Roquebrune-Cap-Martin",
        "state": "Provence-Alpes-Côte d'Azur",
        "postcode": "06190",
        "country": "France",
        "country_code": "fr"
      },
      "address": "311, Cap Martin, Monaco, 06190 Provence-Alpes-Côte d'Azur, Monaco"
    },
    {
      "lat": 43.7351292481611,
      "lon": 7.432434327784261,
      "geoinfo": {
        "display_name": "Port Hercule de Monaco, Avenue d'Ostende, La Condamine, Monaco, 98000, Monaco",
        "road": "Avenue d'Ostende",
        "house_number": null,
        "neighbourhood": null,
        "suburb": "La Condamine",
        "city_district": null,
        "city": "Monaco",
        "state": null,
        "postcode": "98000",
        "country": "Monaco",
        "country_code": "mc"
      },
      "address": "160, Avenue d'Ostende, 98000 Monaco, Monaco"
    }
  ],
  "updated_at": "2025-10-19T05:33:46.842284+00:00",
  "_kind": "geo_samples"
}