{
  "country_code": "PT",
  "country": "Portugal",
  "city": "Amora",
  "geonameid": 2271680,
  "target_addresses": 3,
  "samples": [
    {
      "lat": 38.63660598480437,
      "lon": -9.122712667434502,
      "geoinfo": {
        "display_name": "Rua Quinta da Medideira, Medideira, Vale da Achada, Amora, Seixal, Setúbal, 2845-466, Portugal",
        "road": "Rua Quinta da Medideira",
        "house_number": null,
        "neighbourhood": "Medideira",
        "suburb": null,
        "city_district": null,
        "city": "Amora",
        "state": null,
        "postcode": "2845-466",
        "country": "Portugal",
        "country_code": "pt"
      },
      "address": "Rua Quinta da Medideira, Amora, Portugal"
    },
    {
      "lat": 38.62414408261947,
      "lon": -9.131379397307784,
      "geoinfo": {
        "display_name": "A5, Avenida Seixalíada, Vale de Gatos, Amora, Seixal, Setúbal, 2845-580, Portugal",
        "road": "Avenida Seixalíada",
        "house_number": null,
        "neighbourhood": "Vale de Gatos",
        "suburb": null,
        "city_district": null,
        "city": "Amora",
        "state": null,
        "postcode": "2845-580",
        "country": "Portugal",
        "country_code": "pt"
      },
      "address": "A5, Avenida Seixalíada, Vale de Gatos, Amora, Seixal, Setúbal, 2845-580, Portugal"
    },
    {
      "lat": 38.604267049925745,
      "lon": -9.072226760690127,
      "geoinfo": {
        "display_name": "Praceta José Maria Baldi, Parque Empresarial Seixal, Seixal, Arrentela e Aldeia de Paio Pires, Seixal, Setúbal, 2840-068, Portugal",
        "road": "Praceta José Maria Baldi",
        "house_number": null,
        "neighbourhood": null,
        "suburb": null,
        "city_district": "Seixal, Arrentela e Aldeia de Paio Pires",
        "city": "Seixal",
        "state": null,
        "postcode": "2840-068",
        "country": "Portugal",
        "country_code": "pt"
      },
      "address": "Praceta José Maria Baldi, Parque Empresarial Seixal, Seixal, Arrentela e Aldeia de Paio Pires, Seixal, Setúbal, 2840-068, Portugal"
    }
  ],
  "updated_at": "2025-10-19T06:08:53.527157+00:00",
  "_kind": "geo_samples"
}