{
  "country_code": "PT",
  "country": "Portugal",
  "city": "Arouca",
  "geonameid": 2742700,
  "target_addresses": 3,
  "samples": [
    {
      "lat": 40.964889750001504,
      "lon": -8.210403869930214,
      "geoinfo": {
        "display_name": "Rua da Bouçó, Aldeia de Cima, Canelas e Espiunca, Arouca, Aveiro, 4540-251, Portugal",
        "road": "Rua da Bouçó",
        "house_number": null,
        "neighbourhood": null,
        "suburb": null,
        "city_district": "Canelas e Espiunca",
        "city": "Arouca",
        "state": null,
        "postcode": "4540-251",
        "country": "Portugal",
        "country_code": "pt"
      },
      "address": "Rua da Bouçó, Arouca, Portugal"
    },
    {
      "lat": 40.914616151859946,
      "lon": -8.191241114922978,
      "geoinfo": {
        "display_name": "EM 510, Cela, Moldes, Arouca, Aveiro, 4540-453, Portugal",
        "road": "EM 510",
        "house_number": null,
        "neighbourhood": null,
        "suburb": null,
        "city_district": null,
        "city": "Arouca",
        "state": null,
        "postcode": "4540-453",
        "country": "Portugal",
        "country_code": "pt"
      },
      "address": "EM 510, Cela, Moldes, Arouca, Aveiro, 4540-453, Portugal"
    },
    {
      "lat": 40.938090048488164,
      "lon": -8.259580920248023,
      "geoinfo": {
        "display_name": "Estrada da Manga, Picoto, Arouca e Burgo, Arouca, Aveiro, 4540-140, Portugal",
        "road": "Estrada da Manga",
        "house_number": null,
        "neighbourhood": null,
        "suburb": null,
        "city_district": "Arouca e Burgo",
        "city": "Arouca",
        "state": null,
        "postcode": "4540-140",
        "country": "Portugal",
        "country_code": "pt"
      },
      "address": "Estrada da Manga, Picoto, Arouca e Burgo, Arouca, Aveiro, 4540-140, Portugal"
    }
  ],
  "updated_at": "2025-10-19T06:09:06.557530+00:00",
  "_kind": "geo_samples"
}