{
  "country_code": "PT",
  "country": "Portugal",
  "city": "Figueira da Foz",
  "geonameid": 2739590,
  "target_addresses": 3,
  "samples": [
    {
      "lat": 40.15926358470594,
      "lon": -8.806296084710148,
      "geoinfo": {
        "display_name": "EN 111-2, Caceira de Cima, Alhadas, Figueira da Foz, Coimbra, 3090-399, Portugal",
        "road": "EN 111-2",
        "house_number": null,
        "neighbourhood": null,
        "suburb": null,
        "city_district": null,
        "city": "Figueira da Foz",
        "state": null,
        "postcode": "3090-399",
        "country": "Portugal",
        "country_code": "pt"
      },
      "address": "EN 111-2, Figueira da Foz, Portugal"
    },
    {
      "lat": 40.160103128106826,
      "lon": -8.81250188607579,
      "geoinfo": {
        "display_name": "Rua dos Moinhos, Caceira de Baixo, Alhadas, Figueira da Foz, Coimbra, 3090-399, Portugal",
        "road": "Rua dos Moinhos",
        "house_number": null,
        "neighbourhood": null,
        "suburb": null,
        "city_district": null,
        "city": "Figueira da Foz",
        "state": null,
        "postcode": "3090-399",
        "country": "Portugal",
        "country_code": "pt"
      },
      "address": "Rua dos Moinhos, Caceira de Baixo, Alhadas, Figueira da Foz, Coimbra, 3090-399, Portugal"
    },
    {
      "lat": 40.150608461074576,
      "lon": -8.851075773265181,
      "geoinfo": {
        "display_name": "Vila Branca, 53, Rua Vasco da Gama, Buarcos e São Julião, Figueira da Foz, Coimbra, 3080-046, Portugal",
        "road": "Rua Vasco da Gama",
        "house_number": "53",
        "neighbourhood": null,
        "suburb": null,
        "city_district": "Buarcos e São Julião",
        "city": "Figueira da Foz",
        "state": null,
        "postcode": "3080-046",
        "country": "Portugal",
        "country_code": "pt"
      },
      "address": "Vila Branca, 53, Rua Vasco da Gama, Buarcos e São Julião, Figueira da Foz, Coimbra, 3080-046, Portugal"
    }
  ],
  "updated_at": "2025-10-19T06:09:04.400938+00:00",
  "_kind": "geo_samples"
}