{
  "country_code": "PT",
  "country": "Portugal",
  "city": "Paranhos",
  "geonameid": 2736680,
  "target_addresses": 3,
  "samples": [
    {
      "lat": 41.17896366259593,
      "lon": -8.603940893434432,
      "geoinfo": {
        "display_name": "Universidade do Porto, Rua de Cedofeita, Porto City Centre, Cedofeita, Cedofeita, Santo Ildefonso, Sé, Miragaia, São Nicolau e Vitória, Porto, 4050-108, Portugal",
        "road": "Rua de Cedofeita",
        "house_number": null,
        "neighbourhood": "Porto City Centre",
        "suburb": "Cedofeita",
        "city_district": "Cedofeita, Santo Ildefonso, Sé, Miragaia, São Nicolau e Vitória",
        "city": "Porto",
        "state": null,
        "postcode": "4050-108",
        "country": "Portugal",
        "country_code": "pt"
      },
      "address": "Rua de Cedofeita, Paranhos, Portugal"
    },
    {
      "lat": 41.18047867514104,
      "lon": -8.611242786239076,
      "geoinfo": {
        "display_name": "Rua da Ribeira Grande, Azenha, Paranhos, Porto, 4200-113, Portugal",
        "road": "Rua da Ribeira Grande",
        "house_number": null,
        "neighbourhood": "Azenha",
        "suburb": "Paranhos",
        "city_district": null,
        "city": "Porto",
        "state": null,
        "postcode": "4200-113",
        "country": "Portugal",
        "country_code": "pt"
      },
      "address": "Rua da Ribeira Grande, Azenha, Paranhos, Porto, 4200-113, Portugal"
    },
    {
      "lat": 41.19764906466747,
      "lon": -8.580640836452558,
      "geoinfo": {
        "display_name": "Rua Nossa Senhora de Fátima, Brás Oleiro, Águas Santas, Maia, Porto, 4425-102, Portugal",
        "road": "Rua Nossa Senhora de Fátima",
        "house_number": null,
        "neighbourhood": "Brás Oleiro",
        "suburb": null,
        "city_district": null,
        "city": "Águas Santas",
        "state": null,
        "postcode": "4425-102",
        "country": "Portugal",
        "country_code": "pt"
      },
      "address": "Rua Nossa Senhora de Fátima, Brás Oleiro, Águas Santas, Maia, Porto, 4425-102, Portugal"
    }
  ],
  "updated_at": "2025-10-19T06:09:00.057043+00:00",
  "_kind": "geo_samples"
}