{
  "country_code": "PT",
  "country": "Portugal",
  "city": "Santarém",
  "geonameid": 2263480,
  "target_addresses": 3,
  "samples": [
    {
      "lat": 39.2547721449031,
      "lon": -8.723824697584734,
      "geoinfo": {
        "display_name": "Grainho, Romeira e Várzea, Santarém, 2005-297, Portugal",
        "road": null,
        "house_number": null,
        "neighbourhood": null,
        "suburb": null,
        "city_district": "Romeira e Várzea",
        "city": "Santarém",
        "state": null,
        "postcode": "2005-297",
        "country": "Portugal",
        "country_code": "pt"
      },
      "address": "Romeira e Várzea, Santarém, Portugal"
    },
    {
      "lat": 39.26046307056746,
      "lon": -8.6900815630545,
      "geoinfo": {
        "display_name": "Rua Teófilo de Braga, São Salvador, Cidade de Santarém, Santarém, 2005-283, Portugal",
        "road": "Rua Teófilo de Braga",
        "house_number": null,
        "neighbourhood": null,
        "suburb": "São Salvador",
        "city_district": "Cidade de Santarém",
        "city": "Santarém",
        "state": null,
        "postcode": "2005-283",
        "country": "Portugal",
        "country_code": "pt"
      },
      "address": "Rua Teófilo de Braga, São Salvador, Cidade de Santarém, Santarém, 2005-283, Portugal"
    },
    {
      "lat": 39.22980737600952,
      "lon": -8.65070691407861,
      "geoinfo": {
        "display_name": "EM 368, Almeirim, Santarém, 2090-219, Portugal",
        "road": "EM 368",
        "house_number": null,
        "neighbourhood": null,
        "suburb": null,
        "city_district": "Almeirim",
        "city": "Almeirim",
        "state": null,
        "postcode": "2090-219",
        "country": "Portugal",
        "country_code": "pt"
      },
      "address": "EM 368, Almeirim, Santarém, 2090-219, Portugal"
    }
  ],
  "updated_at": "2025-10-19T06:08:47.043989+00:00",
  "_kind": "geo_samples"
}