{
  "country_code": "PT",
  "country": "Portugal",
  "city": "Senhora da Hora",
  "geonameid": 2734140,
  "target_addresses": 3,
  "samples": [
    {
      "lat": 41.174575178433855,
      "lon": -8.628392138274348,
      "geoinfo": {
        "display_name": "Parque da Prelada, Rua do Monte dos Burgos, Santa Luzia, Ramalde, Porto, 4250-113, Portugal",
        "road": "Rua do Monte dos Burgos",
        "house_number": null,
        "neighbourhood": "Santa Luzia",
        "suburb": "Ramalde",
        "city_district": null,
        "city": "Porto",
        "state": null,
        "postcode": "4250-113",
        "country": "Portugal",
        "country_code": "pt"
      },
      "address": "Rua do Monte dos Burgos, Senhora da Hora, Portugal"
    },
    {
      "lat": 41.22321723508378,
      "lon": -8.630928658083635,
      "geoinfo": {
        "display_name": "Custió, Custóias, Leça do Balio e Guifões, Matosinhos, Porto, 4470-474, Portugal",
        "road": null,
        "house_number": null,
        "neighbourhood": "Custió",
        "suburb": null,
        "city_district": "Custóias, Leça do Balio e Guifões",
        "city": "Matosinhos",
        "state": null,
        "postcode": "4470-474",
        "country": "Portugal",
        "country_code": "pt"
      },
      "address": "Custió, Custóias, Leça do Balio e Guifões, Matosinhos, Porto, 4470-474, Portugal"
    },
    {
      "lat": 41.179943352722255,
      "lon": -8.68020216997102,
      "geoinfo": {
        "display_name": "Sem nome 75, Carcavelos, Matosinhos e Leça da Palmeira, Matosinhos, Porto, 4450-031, Portugal",
        "road": "Sem nome 75",
        "house_number": null,
        "neighbourhood": "Carcavelos",
        "suburb": null,
        "city_district": "Matosinhos e Leça da Palmeira",
        "city": "Matosinhos",
        "state": null,
        "postcode": "4450-031",
        "country": "Portugal",
        "country_code": "pt"
      },
      "address": "Sem nome 75, Carcavelos, Matosinhos e Leça da Palmeira, Matosinhos, Porto, 4450-031, Portugal"
    }
  ],
  "updated_at": "2025-10-19T06:08:55.708940+00:00",
  "_kind": "geo_samples"
}