{
  "country_code": "KP",
  "country": "North Korea",
  "city": "Chŏngju",
  "geonameid": 1878389,
  "target_addresses": 2,
  "samples": [
    {
      "lat": 39.68788650800955,
      "lon": 125.20012171827089,
      "geoinfo": {
        "display_name": "Soju-dong, Chongju-si, North Pyongan, North Korea",
        "road": null,
        "house_number": null,
        "neighbourhood": null,
        "suburb": null,
        "city_district": null,
        "city": "Chongju-si",
        "state": "North Pyongan",
        "postcode": null,
        "country": "North Korea",
        "country_code": "kp"
      },
      "address": "Chŏngju, North Pyongan, North Korea"
    },
    {
      "lat": 39.71607465522288,
      "lon": 125.23851788508429,
      "geoinfo": {
        "display_name": "AH1, Daesong-ri, Chongju-si, North Pyongan, North Korea",
        "road": "AH1",
        "house_number": null,
        "neighbourhood": null,
        "suburb": null,
        "city_district": null,
        "city": "Chongju-si",
        "state": "North Pyongan",
        "postcode": null,
        "country": "North Korea",
        "country_code": "kp"
      },
      "address": "AH1, Chŏngju, North Pyongan, North Korea"
    },
    {
      "lat": 39.703072868117985,
      "lon": 125.1940838114199,
      "geoinfo": {
        "display_name": "Samma-dong, Chongju-si, North Pyongan, North Korea",
        "road": null,
        "house_number": null,
        "neighbourhood": null,
        "suburb": null,
        "city_district": null,
        "city": "Chongju-si",
        "state": "North Pyongan",
        "postcode": null,
        "country": "North Korea",
        "country_code": "kp"
      },
      "address": "114, Chŏngju, 12054 North Pyongan, North Korea"
    },
    {
      "lat": 39.684221441084645,
      "lon": 125.17878270646041,
      "geoinfo": {
        "display_name": "Soju-dong, Chongju-si, North Pyongan, North Korea",
        "road": null,
        "house_number": null,
        "neighbourhood": null,
        "suburb": null,
        "city_district": null,
        "city": "Chongju-si",
        "state": "North Pyongan",
        "postcode": null,
        "country": "North Korea",
        "country_code": "kp"
      },
      "address": "348, Chŏngju, 75309 North Pyongan, North Korea"
    }
  ],
  "updated_at": "2025-10-19T05:40:07.529577+00:00",
  "_kind": "geo_samples"
}