{
  "country_code": "KP",
  "country": "North Korea",
  "city": "Hyesan-dong",
  "geonameid": 2043835,
  "target_addresses": 2,
  "samples": [
    {
      "lat": 41.37150531060157,
      "lon": 128.1721145393945,
      "geoinfo": {
        "display_name": "Masan 2-dong, Hyesan-si, North Korea",
        "road": null,
        "house_number": null,
        "neighbourhood": null,
        "suburb": null,
        "city_district": null,
        "city": "Hyesan-si",
        "state": null,
        "postcode": null,
        "country": "North Korea",
        "country_code": "kp"
      },
      "address": "Hyesan-dong, North Korea"
    },
    {
      "lat": 41.38879849640335,
      "lon": 128.2054154001843,
      "geoinfo": {
        "display_name": "9, Yeonbong 2-dong, Hyesan-si, Ryanggang, North Korea",
        "road": "9",
        "house_number": null,
        "neighbourhood": null,
        "suburb": null,
        "city_district": null,
        "city": "Hyesan-si",
        "state": "Ryanggang",
        "postcode": null,
        "country": "North Korea",
        "country_code": "kp"
      },
      "address": "9, Hyesan-dong, Ryanggang, North Korea"
    },
    {
      "lat": 41.37767752349944,
      "lon": 128.14320570977515,
      "geoinfo": {
        "display_name": "Hyesan Park, Topseong-dong, Hyesan-si, Ryanggang, North Korea",
        "road": "Hyesan Park",
        "house_number": null,
        "neighbourhood": null,
        "suburb": null,
        "city_district": null,
        "city": "Hyesan-si",
        "state": "Ryanggang",
        "postcode": null,
        "country": "North Korea",
        "country_code": "kp"
      },
      "address": "840, Hyesan Park, Topseong-dong, Hyesan-si, 99781 Ryanggang, North Korea"
    },
    {
      "lat": 41.36182499790849,
      "lon": 128.22540801821003,
      "geoinfo": {
        "display_name": "9, 운총리, Hyesan-si, Ryanggang, North Korea",
        "road": "9",
        "house_number": null,
        "neighbourhood": null,
        "suburb": null,
        "city_district": null,
        "city": "Hyesan-si",
        "state": "Ryanggang",
        "postcode": null,
        "country": "North Korea",
        "country_code": "kp"
      },
      "address": "9, Hyesan-dong, 88481 Ryanggang, North Korea"
    }
  ],
  "updated_at": "2025-10-19T05:37:19.461645+00:00",
  "_kind": "geo_samples"
}