{
  "country_code": "KP",
  "country": "North Korea",
  "city": "Hŭngnam",
  "geonameid": 1877030,
  "target_addresses": 7,
  "samples": [
    {
      "lat": 39.80530324381436,
      "lon": 127.64295796477278,
      "geoinfo": {
        "display_name": "Jakdo-dong, Hamhung-si, South Hamgyong, North Korea",
        "road": null,
        "house_number": null,
        "neighbourhood": null,
        "suburb": null,
        "city_district": null,
        "city": "Hamhung-si",
        "state": "South Hamgyong",
        "postcode": null,
        "country": "North Korea",
        "country_code": "kp"
      },
      "address": "Hŭngnam, South Hamgyong, North Korea"
    },
    {
      "lat": 39.833389934533635,
      "lon": 127.63559971388962,
      "geoinfo": {
        "display_name": "Hungnam District, Hamhung-si, South Hamgyong, North Korea",
        "road": null,
        "house_number": null,
        "neighbourhood": null,
        "suburb": null,
        "city_district": "Hungnam District",
        "city": "Hamhung-si",
        "state": "South Hamgyong",
        "postcode": null,
        "country": "North Korea",
        "country_code": "kp"
      },
      "address": "Hungnam District, Hŭngnam, South Hamgyong, North Korea"
    },
    {
      "lat": 39.8172248808811,
      "lon": 127.66111264286697,
      "geoinfo": {
        "display_name": "Hungnam District, Hamhung-si, South Hamgyong, North Korea",
        "road": null,
        "house_number": null,
        "neighbourhood": null,
        "suburb": null,
        "city_district": "Hungnam District",
        "city": "Hamhung-si",
        "state": "South Hamgyong",
        "postcode": null,
        "country": "North Korea",
        "country_code": "kp"
      },
      "address": "597, Hungnam District, Hŭngnam, 26670 South Hamgyong, North Korea"
    },
    {
      "lat": 39.80114878137481,
      "lon": 127.63620774361557,
      "geoinfo": {
        "display_name": "Seoho 2-dong, Hamhung-si, South Hamgyong, North Korea",
        "road": null,
        "house_number": null,
        "neighbourhood": null,
        "suburb": null,
        "city_district": null,
        "city": "Hamhung-si",
        "state": "South Hamgyong",
        "postcode": null,
        "country": "North Korea",
        "country_code": "kp"
      },
      "address": "589, Hŭngnam, 34678 South Hamgyong, North Korea"
    },
    {
      "lat": 39.842691702933784,
      "lon": 127.67630433182381,
      "geoinfo": {
        "display_name": "Hungnam District, Hamhung-si, South Hamgyong, North Korea",
        "road": null,
        "house_number": null,
        "neighbourhood": null,
        "suburb": null,
        "city_district": "Hungnam District",
        "city": "Hamhung-si",
        "state": "South Hamgyong",
        "postcode": null,
        "country": "North Korea",
        "country_code": "kp"
      },
      "address": "083, Hungnam District, Hŭngnam, 95460 South Hamgyong, North Korea"
    },
    {
      "lat": 39.84916630782889,
      "lon": 127.66693494471508,
      "geoinfo": {
        "display_name": "Majeon-ri, Hamhung-si, South Hamgyong, North Korea",
        "road": null,
        "house_number": null,
        "neighbourhood": null,
        "suburb": null,
        "city_district": null,
        "city": "Hamhung-si",
        "state": "South Hamgyong",
        "postcode": null,
        "country": "North Korea",
        "country_code": "kp"
      },
      "address": "614, Hŭngnam, 54868 South Hamgyong, North Korea"
    },
    {
      "lat": 39.848197967856066,
      "lon": 127.68384417300983,
      "geoinfo": {
        "display_name": "Hungnam District, Hamhung-si, South Hamgyong, North Korea",
        "road": null,
        "house_number": null,
        "neighbourhood": null,
        "suburb": null,
        "city_district": "Hungnam District",
        "city": "Hamhung-si",
        "state": "South Hamgyong",
        "postcode": null,
        "country": "North Korea",
        "country_code": "kp"
      },
      "address": "640, Hungnam District, Hŭngnam, 96423 South Hamgyong, North Korea"
    }
  ],
  "updated_at": "2025-10-19T05:12:52.751073+00:00",
  "_kind": "geo_samples"
}