{
  "country_code": "KP",
  "country": "North Korea",
  "city": "Songhwa",
  "geonameid": 1869577,
  "target_addresses": 2,
  "samples": [
    {
      "lat": 38.38312169424938,
      "lon": 125.08939116411132,
      "geoinfo": {
        "display_name": "약산리, Songhwa County, South Hwanghae, North Korea",
        "road": null,
        "house_number": null,
        "neighbourhood": null,
        "suburb": null,
        "city_district": null,
        "city": "약산리",
        "state": "South Hwanghae",
        "postcode": null,
        "country": "North Korea",
        "country_code": "kp"
      },
      "address": "Songhwa, South Hwanghae, North Korea"
    },
    {
      "lat": 38.32601721342029,
      "lon": 125.10674261652635,
      "geoinfo": {
        "display_name": "8, Changyon County, South Hwanghae, North Korea",
        "road": "8",
        "house_number": null,
        "neighbourhood": null,
        "suburb": null,
        "city_district": null,
        "city": null,
        "state": "South Hwanghae",
        "postcode": null,
        "country": "North Korea",
        "country_code": "kp"
      },
      "address": "8, Songhwa, South Hwanghae, North Korea"
    },
    {
      "lat": 38.381682362490345,
      "lon": 125.14982607087316,
      "geoinfo": {
        "display_name": "수증리, Songhwa County, South Hwanghae, North Korea",
        "road": null,
        "house_number": null,
        "neighbourhood": null,
        "suburb": null,
        "city_district": null,
        "city": "수증리",
        "state": "South Hwanghae",
        "postcode": null,
        "country": "North Korea",
        "country_code": "kp"
      },
      "address": "168, 수증리, Songhwa County, 17896 South Hwanghae, North Korea"
    },
    {
      "lat": 38.38119372108024,
      "lon": 125.14347797180905,
      "geoinfo": {
        "display_name": "8, Songhwa-up, Songhwa County, South Hwanghae, North Korea",
        "road": "8",
        "house_number": null,
        "neighbourhood": null,
        "suburb": null,
        "city_district": null,
        "city": "Songhwa-up",
        "state": "South Hwanghae",
        "postcode": null,
        "country": "North Korea",
        "country_code": "kp"
      },
      "address": "8, Songhwa-up, Songhwa County, 79257 South Hwanghae, North Korea"
    }
  ],
  "updated_at": "2025-10-19T07:43:49.989396+00:00",
  "_kind": "geo_samples"
}