{
  "country_code": "KP",
  "country": "North Korea",
  "city": "Yŏnan-ŭp",
  "geonameid": 1866569,
  "target_addresses": 2,
  "samples": [
    {
      "lat": 37.951557319919566,
      "lon": 126.1444181516902,
      "geoinfo": {
        "display_name": "Ryongho-ri, Yonan County, South Hwanghae, North Korea",
        "road": null,
        "house_number": null,
        "neighbourhood": null,
        "suburb": null,
        "city_district": null,
        "city": "Ryongho-ri",
        "state": "South Hwanghae",
        "postcode": null,
        "country": "North Korea",
        "country_code": "kp"
      },
      "address": "Yŏnan-ŭp, South Hwanghae, North Korea"
    },
    {
      "lat": 37.90371173633551,
      "lon": 126.15093601512729,
      "geoinfo": {
        "display_name": "50, Yeonan-eup, Yonan County, South Hwanghae, North Korea",
        "road": "50",
        "house_number": null,
        "neighbourhood": null,
        "suburb": null,
        "city_district": null,
        "city": "Yeonan-eup",
        "state": "South Hwanghae",
        "postcode": null,
        "country": "North Korea",
        "country_code": "kp"
      },
      "address": "50, Yŏnan-ŭp, South Hwanghae, North Korea"
    },
    {
      "lat": 37.9095867850008,
      "lon": 126.10990039566133,
      "geoinfo": {
        "display_name": "50, Ohyon-ri, Yonan County, South Hwanghae, North Korea",
        "road": "50",
        "house_number": null,
        "neighbourhood": null,
        "suburb": null,
        "city_district": null,
        "city": "Ohyon-ri",
        "state": "South Hwanghae",
        "postcode": null,
        "country": "North Korea",
        "country_code": "kp"
      },
      "address": "50, Yŏnan-ŭp, 81343 South Hwanghae, North Korea"
    }
  ],
  "updated_at": "2025-10-19T05:39:02.277819+00:00",
  "_kind": "geo_samples"
}