{
  "country_code": "MD",
  "country": "Moldova",
  "city": "Ceadîr-Lunga",
  "geonameid": 618450,
  "target_addresses": 24,
  "samples": [
    {
      "lat": 46.10114526527793,
      "lon": 28.80318982808829,
      "geoinfo": {
        "display_name": "Comrat-Ceadîr-Lunga, Gaidar, Gagauzia, MD-6114, Moldova",
        "road": "Comrat-Ceadîr-Lunga",
        "house_number": null,
        "neighbourhood": null,
        "suburb": null,
        "city_district": null,
        "city": "Gaidar",
        "state": null,
        "postcode": "MD-6114",
        "country": "Moldova",
        "country_code": "md"
      },
      "address": "Comrat-Ceadîr-Lunga, Ceadîr-Lunga, Moldova"
    },
    {
      "lat": 46.06519502115411,
      "lon": 28.886563210782494,
      "geoinfo": {
        "display_name": "Valea Perjei, Taraclia District, Moldova",
        "road": null,
        "house_number": null,
        "neighbourhood": null,
        "suburb": null,
        "city_district": null,
        "city": "Valea Perjei",
        "state": null,
        "postcode": null,
        "country": "Moldova",
        "country_code": "md"
      },
      "address": "Ceadîr-Lunga, Moldova"
    },
    {
      "lat": 46.05906868027878,
      "lon": 28.83936569578629,
      "geoinfo": {
        "display_name": "35, Strada Aleksandr Ostrovski, Ceadîr-Lunga, Gagauzia, MD-6100, Moldova",
        "road": "Strada Aleksandr Ostrovski",
        "house_number": "35",
        "neighbourhood": null,
        "suburb": null,
        "city_district": null,
        "city": "Ceadîr-Lunga",
        "state": null,
        "postcode": "MD-6100",
        "country": "Moldova",
        "country_code": "md"
      },
      "address": "35 Strada Aleksandr Ostrovski, Ceadîr-Lunga, Moldova"
    },
    {
      "lat": 46.043539977609015,
      "lon": 28.83467939552147,
      "geoinfo": {
        "display_name": "41, Strada Nagornaia, Ceadîr-Lunga, Gagauzia, MD-6100, Moldova",
        "road": "Strada Nagornaia",
        "house_number": "41",
        "neighbourhood": null,
        "suburb": null,
        "city_district": null,
        "city": "Ceadîr-Lunga",
        "state": null,
        "postcode": "MD-6100",
        "country": "Moldova",
        "country_code": "md"
      },
      "address": "41 Strada Nagornaia, Ceadîr-Lunga, Moldova"
    },
    {
      "lat": 46.04595113277559,
      "lon": 28.88289192264722,
      "geoinfo": {
        "display_name": "R29-Drumul de acces spre satul Valea Perjei, Valea Perjei, Ceadîr-Lunga, Taraclia District, Gagauzia, MD-7427, Moldova",
        "road": "R29-Drumul de acces spre satul Valea Perjei",
        "house_number": null,
        "neighbourhood": null,
        "suburb": null,
        "city_district": null,
        "city": "Ceadîr-Lunga",
        "state": null,
        "postcode": "MD-7427",
        "country": "Moldova",
        "country_code": "md"
      },
      "address": "R29-Drumul de acces spre satul Valea Perjei, Ceadîr-Lunga, Moldova"
    },
    {
      "lat": 46.065548157248614,
      "lon": 28.796915761117695,
      "geoinfo": {
        "display_name": "Ciadîr-Lunga-Congaz, Ceadîr-Lunga, Gagauzia, MD-6114, Moldova",
        "road": "Ciadîr-Lunga-Congaz",
        "house_number": null,
        "neighbourhood": null,
        "suburb": null,
        "city_district": null,
        "city": "Ceadîr-Lunga",
        "state": null,
        "postcode": "MD-6114",
        "country": "Moldova",
        "country_code": "md"
      },
      "address": "Ciadîr-Lunga-Congaz, Ceadîr-Lunga, Gagauzia, MD-6114, Moldova"
    },
    {
      "lat": 46.025600624692665,
      "lon": 28.847596600023838,
      "geoinfo": {
        "display_name": "Ceadîr-Lunga-Taraclia, Ceadîr-Lunga, Gagauzia, MD-6104, Moldova",
        "road": "Ceadîr-Lunga-Taraclia",
        "house_number": null,
        "neighbourhood": null,
        "suburb": null,
        "city_district": null,
        "city": "Ceadîr-Lunga",
        "state": null,
        "postcode": "MD-6104",
        "country": "Moldova",
        "country_code": "md"
      },
      "address": "Ceadîr-Lunga-Taraclia, Ceadîr-Lunga, Gagauzia, MD-6104, Moldova"
    },
    {
      "lat": 46.07134753688258,
      "lon": 28.76832000497875,
      "geoinfo": {
        "display_name": "Ciadîr-Lunga-Congaz, Ceadîr-Lunga, Gagauzia, MD-6114, Moldova",
        "road": "Ciadîr-Lunga-Congaz",
        "house_number": null,
        "neighbourhood": null,
        "suburb": null,
        "city_district": null,
        "city": "Ceadîr-Lunga",
        "state": null,
        "postcode": "MD-6114",
        "country": "Moldova",
        "country_code": "md"
      },
      "address": "794, Ciadîr-Lunga-Congaz, Ceadîr-Lunga, Gagauzia, MD-6114, Moldova"
    },
    {
      "lat": 46.06110173957583,
      "lon": 28.857794388622843,
      "geoinfo": {
        "display_name": "129/A, Strada Vladimir Maiakovski, Ceadîr-Lunga, Gagauzia, MD-6100, Moldova",
        "road": "Strada Vladimir Maiakovski",
        "house_number": "129/A",
        "neighbourhood": null,
        "suburb": null,
        "city_district": null,
        "city": "Ceadîr-Lunga",
        "state": null,
        "postcode": "MD-6100",
        "country": "Moldova",
        "country_code": "md"
      },
      "address": "129/A, Strada Vladimir Maiakovski, Ceadîr-Lunga, Gagauzia, MD-6100, Moldova"
    },
    {
      "lat": 46.0725059735571,
      "lon": 28.823945022921954,
      "geoinfo": {
        "display_name": "4, Strada Zoia Kosmodemianskaia, Ceadîr-Lunga, Gagauzia, MD-6100, Moldova",
        "road": "Strada Zoia Kosmodemianskaia",
        "house_number": "4",
        "neighbourhood": null,
        "suburb": null,
        "city_district": null,
        "city": "Ceadîr-Lunga",
        "state": null,
        "postcode": "MD-6100",
        "country": "Moldova",
        "country_code": "md"
      },
      "address": "4, Strada Zoia Kosmodemianskaia, Ceadîr-Lunga, Gagauzia, MD-6100, Moldova"
    },
    {
      "lat": 46.04253772762206,
      "lon": 28.84119821174578,
      "geoinfo": {
        "display_name": "34, Strada 9 Ianuarie, Ceadîr-Lunga, Gagauzia, MD-6100, Moldova",
        "road": "Strada 9 Ianuarie",
        "house_number": "34",
        "neighbourhood": null,
        "suburb": null,
        "city_district": null,
        "city": "Ceadîr-Lunga",
        "state": null,
        "postcode": "MD-6100",
        "country": "Moldova",
        "country_code": "md"
      },
      "address": "34, Strada 9 Ianuarie, Ceadîr-Lunga, Gagauzia, MD-6100, Moldova"
    },
    {
      "lat": 46.033948063117236,
      "lon": 28.840018466566317,
      "geoinfo": {
        "display_name": "At Prolin, Ceadîr-Lunga, Gagauzia, MD-6104, Moldova",
        "road": null,
        "house_number": null,
        "neighbourhood": null,
        "suburb": null,
        "city_district": null,
        "city": "Ceadîr-Lunga",
        "state": null,
        "postcode": "MD-6104",
        "country": "Moldova",
        "country_code": "md"
      },
      "address": "463, At Prolin, Ceadîr-Lunga, Gagauzia, MD-6104, Moldova"
    },
    {
      "lat": 46.094058965691424,
      "lon": 28.846431440558106,
      "geoinfo": {
        "display_name": "Puțul artezian a prizei Ceadîr-Lunga, R29-Drumul de acces spre stația Ceadîr-Lunga, Ceadîr-Lunga, Gagauzia, MD-6102, Moldova",
        "road": "R29-Drumul de acces spre stația Ceadîr-Lunga",
        "house_number": null,
        "neighbourhood": null,
        "suburb": null,
        "city_district": null,
        "city": "Ceadîr-Lunga",
        "state": null,
        "postcode": "MD-6102",
        "country": "Moldova",
        "country_code": "md"
      },
      "address": "Puțul artezian a prizei Ceadîr-Lunga, R29-Drumul de acces spre stația Ceadîr-Lunga, Ceadîr-Lunga, Gagauzia, MD-6102, Moldova"
    },
    {
      "lat": 46.043743165871994,
      "lon": 28.83149866083638,
      "geoinfo": {
        "display_name": "Strada Nagornaia, Ceadîr-Lunga, Gagauzia, MD-6104, Moldova",
        "road": "Strada Nagornaia",
        "house_number": null,
        "neighbourhood": null,
        "suburb": null,
        "city_district": null,
        "city": "Ceadîr-Lunga",
        "state": null,
        "postcode": "MD-6104",
        "country": "Moldova",
        "country_code": "md"
      },
      "address": "397, Strada Nagornaia, Ceadîr-Lunga, Gagauzia, MD-6104, Moldova"
    },
    {
      "lat": 46.04800507606265,
      "lon": 28.804892124407218,
      "geoinfo": {
        "display_name": "Strada Alexandr Matrosov, Ceadîr-Lunga, Gagauzia, MD-6101, Moldova",
        "road": "Strada Alexandr Matrosov",
        "house_number": null,
        "neighbourhood": null,
        "suburb": null,
        "city_district": null,
        "city": "Ceadîr-Lunga",
        "state": null,
        "postcode": "MD-6101",
        "country": "Moldova",
        "country_code": "md"
      },
      "address": "582, Strada Alexandr Matrosov, Ceadîr-Lunga, Gagauzia, MD-6101, Moldova"
    },
    {
      "lat": 46.07649991850751,
      "lon": 28.85470835568605,
      "geoinfo": {
        "display_name": "Ceadîr-Lunga, Gagauzia, Moldova",
        "road": null,
        "house_number": null,
        "neighbourhood": null,
        "suburb": null,
        "city_district": null,
        "city": "Ceadîr-Lunga",
        "state": null,
        "postcode": null,
        "country": "Moldova",
        "country_code": "md"
      },
      "address": "845, Ceadîr-Lunga, 05925 Gagauzia, Moldova"
    },
    {
      "lat": 46.06504046719394,
      "lon": 28.79885052469975,
      "geoinfo": {
        "display_name": "Ciadîr-Lunga-Congaz, Ceadîr-Lunga, Gagauzia, MD-6114, Moldova",
        "road": "Ciadîr-Lunga-Congaz",
        "house_number": null,
        "neighbourhood": null,
        "suburb": null,
        "city_district": null,
        "city": "Ceadîr-Lunga",
        "state": null,
        "postcode": "MD-6114",
        "country": "Moldova",
        "country_code": "md"
      },
      "address": "458, Ciadîr-Lunga-Congaz, Ceadîr-Lunga, Gagauzia, MD-6114, Moldova"
    },
    {
      "lat": 46.073140539954274,
      "lon": 28.8265599344325,
      "geoinfo": {
        "display_name": "1, Strada Zoia Kosmodemianskaia, Ceadîr-Lunga, Gagauzia, MD-6100, Moldova",
        "road": "Strada Zoia Kosmodemianskaia",
        "house_number": "1",
        "neighbourhood": null,
        "suburb": null,
        "city_district": null,
        "city": "Ceadîr-Lunga",
        "state": null,
        "postcode": "MD-6100",
        "country": "Moldova",
        "country_code": "md"
      },
      "address": "1, Strada Zoia Kosmodemianskaia, Ceadîr-Lunga, Gagauzia, MD-6100, Moldova"
    },
    {
      "lat": 46.05327732876346,
      "lon": 28.87552279173875,
      "geoinfo": {
        "display_name": "R29.1, Ceadîr-Lunga, Taraclia District, Gagauzia, MD-6104, Moldova",
        "road": "R29.1",
        "house_number": null,
        "neighbourhood": null,
        "suburb": null,
        "city_district": null,
        "city": "Ceadîr-Lunga",
        "state": null,
        "postcode": "MD-6104",
        "country": "Moldova",
        "country_code": "md"
      },
      "address": "R29.1, Ceadîr-Lunga, Taraclia District, Gagauzia, MD-6104, Moldova"
    },
    {
      "lat": 46.08277428571709,
      "lon": 28.790616112751017,
      "geoinfo": {
        "display_name": "Ceadîr-Lunga, Gagauzia, Moldova",
        "road": null,
        "house_number": null,
        "neighbourhood": null,
        "suburb": null,
        "city_district": null,
        "city": "Ceadîr-Lunga",
        "state": null,
        "postcode": null,
        "country": "Moldova",
        "country_code": "md"
      },
      "address": "433, Ceadîr-Lunga, 98581 Gagauzia, Moldova"
    },
    {
      "lat": 46.03866060110701,
      "lon": 28.833793816589317,
      "geoinfo": {
        "display_name": "Strada Nagornaia, Ceadîr-Lunga, Gagauzia, MD-6104, Moldova",
        "road": "Strada Nagornaia",
        "house_number": null,
        "neighbourhood": null,
        "suburb": null,
        "city_district": null,
        "city": "Ceadîr-Lunga",
        "state": null,
        "postcode": "MD-6104",
        "country": "Moldova",
        "country_code": "md"
      },
      "address": "814, Strada Nagornaia, Ceadîr-Lunga, Gagauzia, MD-6104, Moldova"
    },
    {
      "lat": 46.03079333847921,
      "lon": 28.85305162338478,
      "geoinfo": {
        "display_name": "Ceadîr-Lunga-Taraclia, Ceadîr-Lunga, Gagauzia, MD-6104, Moldova",
        "road": "Ceadîr-Lunga-Taraclia",
        "house_number": null,
        "neighbourhood": null,
        "suburb": null,
        "city_district": null,
        "city": "Ceadîr-Lunga",
        "state": null,
        "postcode": "MD-6104",
        "country": "Moldova",
        "country_code": "md"
      },
      "address": "186, Ceadîr-Lunga-Taraclia, Ceadîr-Lunga, Gagauzia, MD-6104, Moldova"
    },
    {
      "lat": 46.04394207175549,
      "lon": 28.802192449481417,
      "geoinfo": {
        "display_name": "Ceadîr-Lunga, Gagauzia, MD-6100, Moldova",
        "road": null,
        "house_number": null,
        "neighbourhood": null,
        "suburb": null,
        "city_district": null,
        "city": "Ceadîr-Lunga",
        "state": null,
        "postcode": "MD-6100",
        "country": "Moldova",
        "country_code": "md"
      },
      "address": "001, Ceadîr-Lunga, Gagauzia, MD-6100, Moldova"
    },
    {
      "lat": 46.07512979074358,
      "lon": 28.850980587891552,
      "geoinfo": {
        "display_name": "Ceadîr-Lunga, Gagauzia, MD-6102, Moldova",
        "road": null,
        "house_number": null,
        "neighbourhood": null,
        "suburb": null,
        "city_district": null,
        "city": "Ceadîr-Lunga",
        "state": null,
        "postcode": "MD-6102",
        "country": "Moldova",
        "country_code": "md"
      },
      "address": "525, Ceadîr-Lunga, Gagauzia, MD-6102, Moldova"
    },
    {
      "lat": 46.05942433750238,
      "lon": 28.86716313718799,
      "geoinfo": {
        "display_name": "IP \"Stratan\", Ceadîr-Lunga, Gagauzia, Moldova",
        "road": null,
        "house_number": null,
        "neighbourhood": null,
        "suburb": null,
        "city_district": null,
        "city": "Ceadîr-Lunga",
        "state": null,
        "postcode": null,
        "country": "Moldova",
        "country_code": "md"
      },
      "address": "782, IP \"Stratan\", Ceadîr-Lunga, 42869 Gagauzia, Moldova"
    }
  ],
  "updated_at": "2025-10-19T05:42:38.720762+00:00",
  "_kind": "geo_samples"
}