{
  "country_code": "MD",
  "country": "Moldova",
  "city": "Chisinau",
  "geonameid": 618426,
  "target_addresses": 5,
  "samples": [
    {
      "lat": 46.99801864775346,
      "lon": 28.865256045624907,
      "geoinfo": {
        "display_name": "29, Tăbăcăria Nouă Street, Botanica de Jos, Botanica Sector, Chișinău, Chișinău Municipality, MD-2015, Moldova",
        "road": "Tăbăcăria Nouă Street",
        "house_number": "29",
        "neighbourhood": null,
        "suburb": "Botanica Sector",
        "city_district": null,
        "city": "Chișinău",
        "state": null,
        "postcode": "MD-2015",
        "country": "Moldova",
        "country_code": "md"
      },
      "address": "29 Tăbăcăria Nouă Street, Chisinau, Moldova"
    },
    {
      "lat": 47.007634658315496,
      "lon": 28.838332427949144,
      "geoinfo": {
        "display_name": "9, Mihail Ciachir Street, Melestiu, Centru Sector, Chișinău, Chișinău Municipality, MD-2025, Moldova",
        "road": "Mihail Ciachir Street",
        "house_number": "9",
        "neighbourhood": null,
        "suburb": "Centru Sector",
        "city_district": null,
        "city": "Chișinău",
        "state": null,
        "postcode": "MD-2025",
        "country": "Moldova",
        "country_code": "md"
      },
      "address": "9 Mihail Ciachir Street, Chisinau, Moldova"
    },
    {
      "lat": 47.000033030054595,
      "lon": 28.89042423674635,
      "geoinfo": {
        "display_name": "78A, Uzinelor Street, Otovasca, Ciocana Sector, Chișinău, Chișinău Municipality, MD-2023, Moldova",
        "road": "Uzinelor Street",
        "house_number": "78A",
        "neighbourhood": null,
        "suburb": "Otovasca",
        "city_district": null,
        "city": "Chișinău",
        "state": null,
        "postcode": "MD-2023",
        "country": "Moldova",
        "country_code": "md"
      },
      "address": "78A Uzinelor Street, Chisinau, Moldova"
    },
    {
      "lat": 46.99708088816589,
      "lon": 28.848155735553817,
      "geoinfo": {
        "display_name": "31/6, Trandafirilor Street, Botanica de Jos, Botanica Sector, Chișinău, Chișinău Municipality, MD-2038, Moldova",
        "road": "Trandafirilor Street",
        "house_number": "31/6",
        "neighbourhood": null,
        "suburb": "Botanica Sector",
        "city_district": null,
        "city": "Chișinău",
        "state": null,
        "postcode": "MD-2038",
        "country": "Moldova",
        "country_code": "md"
      },
      "address": "31/6 Trandafirilor Street, Chisinau, Moldova"
    },
    {
      "lat": 47.01033918825141,
      "lon": 28.8593832124102,
      "geoinfo": {
        "display_name": "18, Iuri Gagarin Boulevard, Botanica Sector, Chișinău, Chișinău Municipality, MD-2000, Moldova",
        "road": "Iuri Gagarin Boulevard",
        "house_number": "18",
        "neighbourhood": null,
        "suburb": "Botanica Sector",
        "city_district": null,
        "city": "Chișinău",
        "state": null,
        "postcode": "MD-2000",
        "country": "Moldova",
        "country_code": "md"
      },
      "address": "18 Iuri Gagarin Boulevard, Chisinau, Moldova"
    },
    {
      "lat": 46.98326326370765,
      "lon": 28.84641766010673,
      "geoinfo": {
        "display_name": "10/3, Independenței Street, Nunta, Botanica Sector, Chișinău, Chișinău Municipality, MD-2400, Moldova",
        "road": "Independenței Street",
        "house_number": "10/3",
        "neighbourhood": "Nunta",
        "suburb": "Botanica Sector",
        "city_district": null,
        "city": "Chișinău",
        "state": null,
        "postcode": "MD-2400",
        "country": "Moldova",
        "country_code": "md"
      },
      "address": "10/3, Independenței Street, MD-2400 Chisinau, Moldova"
    },
    {
      "lat": 47.024848502923284,
      "lon": 28.80003628090878,
      "geoinfo": {
        "display_name": "Blocul nr. 7, 27/7, Ioana Radu Street, Flacăra, Buiucani Sector, Chișinău, Chișinău Municipality, MD-2064, Moldova",
        "road": "Ioana Radu Street",
        "house_number": "27/7",
        "neighbourhood": null,
        "suburb": "Buiucani Sector",
        "city_district": null,
        "city": "Chișinău",
        "state": null,
        "postcode": "MD-2064",
        "country": "Moldova",
        "country_code": "md"
      },
      "address": "27/7, Ioana Radu Street, MD-2064 Chisinau, Moldova"
    },
    {
      "lat": 46.988014970569466,
      "lon": 28.846412217450627,
      "geoinfo": {
        "display_name": "Matei Milo Street, Nunta, Botanica Sector, Chișinău, Chișinău Municipality, MD-2043, Moldova",
        "road": "Matei Milo Street",
        "house_number": null,
        "neighbourhood": "Nunta",
        "suburb": "Botanica Sector",
        "city_district": null,
        "city": "Chișinău",
        "state": null,
        "postcode": "MD-2043",
        "country": "Moldova",
        "country_code": "md"
      },
      "address": "888, Matei Milo Street, MD-2043 Chisinau, Moldova"
    },
    {
      "lat": 47.04035040344192,
      "lon": 28.820884267394625,
      "geoinfo": {
        "display_name": "170/Ș, Columna Street, Parcul Industrial „Tracom”, Buiucani Sector, Chișinău, Chișinău Municipality, MD-2000, Moldova",
        "road": "Columna Street",
        "house_number": "170/Ș",
        "neighbourhood": null,
        "suburb": "Buiucani Sector",
        "city_district": null,
        "city": "Chișinău",
        "state": null,
        "postcode": "MD-2000",
        "country": "Moldova",
        "country_code": "md"
      },
      "address": "170/Ș, Columna Street, MD-2000 Chisinau, Moldova"
    },
    {
      "lat": 46.9893168933048,
      "lon": 28.80131901425361,
      "geoinfo": {
        "display_name": "21, Sfântul Ștefan Street, Codru, Chișinău Municipality, MD-2019, Moldova",
        "road": "Sfântul Ștefan Street",
        "house_number": "21",
        "neighbourhood": null,
        "suburb": null,
        "city_district": null,
        "city": "Codru",
        "state": null,
        "postcode": "MD-2019",
        "country": "Moldova",
        "country_code": "md"
      },
      "address": "21, Sfântul Ștefan Street, Codru, Chișinău Municipality, MD-2019, Moldova"
    }
  ],
  "updated_at": "2025-10-19T05:52:39.548368+00:00",
  "_kind": "geo_samples"
}