{
  "country_code": "MD",
  "country": "Moldova",
  "city": "Căuşeni",
  "geonameid": 618120,
  "target_addresses": 24,
  "samples": [
    {
      "lat": 46.66372184264547,
      "lon": 29.391908613903432,
      "geoinfo": {
        "display_name": "Strada Grigore Grigoriu, IP \"Belșug\", Căușeni, Căuşeni, Căușeni District, MD-4301, Moldova",
        "road": "Strada Grigore Grigoriu",
        "house_number": null,
        "neighbourhood": null,
        "suburb": null,
        "city_district": null,
        "city": "Căușeni",
        "state": null,
        "postcode": "MD-4301",
        "country": "Moldova",
        "country_code": "md"
      },
      "address": "Strada Grigore Grigoriu, Căuşeni, Moldova"
    },
    {
      "lat": 46.62038387983103,
      "lon": 29.4676534679499,
      "geoinfo": {
        "display_name": "Căușeni bypass road, Căuşeni, Căușeni District, Moldova",
        "road": "Căușeni bypass road",
        "house_number": null,
        "neighbourhood": null,
        "suburb": null,
        "city_district": null,
        "city": "Căuşeni",
        "state": null,
        "postcode": null,
        "country": "Moldova",
        "country_code": "md"
      },
      "address": "Căușeni bypass road, Căuşeni, Moldova"
    },
    {
      "lat": 46.617591031149374,
      "lon": 29.394834047603148,
      "geoinfo": {
        "display_name": "G117, Border crossing point \"\", Căuşeni, Căușeni District, MD-4320, Moldova",
        "road": "G117",
        "house_number": null,
        "neighbourhood": null,
        "suburb": null,
        "city_district": null,
        "city": "Căuşeni",
        "state": null,
        "postcode": "MD-4320",
        "country": "Moldova",
        "country_code": "md"
      },
      "address": "G117, Căuşeni, Moldova"
    },
    {
      "lat": 46.6321754092013,
      "lon": 29.409559044813022,
      "geoinfo": {
        "display_name": "32, Strada Trei Fîntîni, Căușeni, Căuşeni, Căușeni District, MD-4301, Moldova",
        "road": "Strada Trei Fîntîni",
        "house_number": "32",
        "neighbourhood": null,
        "suburb": null,
        "city_district": null,
        "city": "Căușeni",
        "state": null,
        "postcode": "MD-4301",
        "country": "Moldova",
        "country_code": "md"
      },
      "address": "32 Strada Trei Fîntîni, Căuşeni, Moldova"
    },
    {
      "lat": 46.6535897900145,
      "lon": 29.393277175210034,
      "geoinfo": {
        "display_name": "68, Strada Bogdan Vodă, Căușeni, Căuşeni, Căușeni District, MD-4301, Moldova",
        "road": "Strada Bogdan Vodă",
        "house_number": "68",
        "neighbourhood": null,
        "suburb": null,
        "city_district": null,
        "city": "Căușeni",
        "state": null,
        "postcode": "MD-4301",
        "country": "Moldova",
        "country_code": "md"
      },
      "address": "68 Strada Bogdan Vodă, Căuşeni, Moldova"
    },
    {
      "lat": 46.63008301261977,
      "lon": 29.402735540542142,
      "geoinfo": {
        "display_name": "105, Strada Păcii, Căușeni, Căuşeni, Căușeni District, MD-4301, Moldova",
        "road": "Strada Păcii",
        "house_number": "105",
        "neighbourhood": null,
        "suburb": null,
        "city_district": null,
        "city": "Căușeni",
        "state": null,
        "postcode": "MD-4301",
        "country": "Moldova",
        "country_code": "md"
      },
      "address": "105, Strada Păcii, Căușeni, Căuşeni, Căușeni District, MD-4301, Moldova"
    },
    {
      "lat": 46.6530122525296,
      "lon": 29.38304386202503,
      "geoinfo": {
        "display_name": "Căușeni-Cimișlia, Căușeni, Căuşeni, Căușeni District, MD-4300, Moldova",
        "road": "Căușeni-Cimișlia",
        "house_number": null,
        "neighbourhood": null,
        "suburb": null,
        "city_district": null,
        "city": "Căușeni",
        "state": null,
        "postcode": "MD-4300",
        "country": "Moldova",
        "country_code": "md"
      },
      "address": "Căușeni-Cimișlia, Căușeni, Căuşeni, Căușeni District, MD-4300, Moldova"
    },
    {
      "lat": 46.5950327738502,
      "lon": 29.398018698251153,
      "geoinfo": {
        "display_name": "G117, Border crossing point \"\", Căuşeni, Căușeni District, MD-4320, Moldova",
        "road": "G117",
        "house_number": null,
        "neighbourhood": null,
        "suburb": null,
        "city_district": null,
        "city": "Căuşeni",
        "state": null,
        "postcode": "MD-4320",
        "country": "Moldova",
        "country_code": "md"
      },
      "address": "G117, Border crossing point \"\", Căuşeni, Căușeni District, MD-4320, Moldova"
    },
    {
      "lat": 46.647873072947455,
      "lon": 29.407198753507014,
      "geoinfo": {
        "display_name": "Love bridge, Bulevardul Mihai Eminescu, Căușeni, Căuşeni, Căușeni District, MD-4301, Moldova",
        "road": "Bulevardul Mihai Eminescu",
        "house_number": null,
        "neighbourhood": null,
        "suburb": null,
        "city_district": null,
        "city": "Căușeni",
        "state": null,
        "postcode": "MD-4301",
        "country": "Moldova",
        "country_code": "md"
      },
      "address": "681, Bulevardul Mihai Eminescu, MD-4301 Căuşeni, Moldova"
    },
    {
      "lat": 46.63222515603964,
      "lon": 29.460840300712842,
      "geoinfo": {
        "display_name": "Căușeni bypass road, Căuşeni, Căușeni District, MD-4300, Moldova",
        "road": "Căușeni bypass road",
        "house_number": null,
        "neighbourhood": null,
        "suburb": null,
        "city_district": null,
        "city": "Căuşeni",
        "state": null,
        "postcode": "MD-4300",
        "country": "Moldova",
        "country_code": "md"
      },
      "address": "648, Căușeni bypass road, Căuşeni, Căușeni District, MD-4300, Moldova"
    },
    {
      "lat": 46.62865395260206,
      "lon": 29.452337328749902,
      "geoinfo": {
        "display_name": "Căușenii Vechi, Căușeni, Căuşeni, Căușeni District, MD-4300, Moldova",
        "road": null,
        "house_number": null,
        "neighbourhood": null,
        "suburb": "Căușenii Vechi",
        "city_district": null,
        "city": "Căușeni",
        "state": null,
        "postcode": "MD-4300",
        "country": "Moldova",
        "country_code": "md"
      },
      "address": "033, Căușenii Vechi, Căușeni, Căuşeni, Căușeni District, MD-4300, Moldova"
    },
    {
      "lat": 46.59635185478133,
      "lon": 29.422000991429467,
      "geoinfo": {
        "display_name": "Căuşeni, Căușeni District, MD-4304, Moldova",
        "road": null,
        "house_number": null,
        "neighbourhood": null,
        "suburb": null,
        "city_district": null,
        "city": "Căuşeni",
        "state": null,
        "postcode": "MD-4304",
        "country": "Moldova",
        "country_code": "md"
      },
      "address": "899, Căuşeni, Căușeni District, MD-4304, Moldova"
    },
    {
      "lat": 46.63071702332309,
      "lon": 29.36164724791371,
      "geoinfo": {
        "display_name": "Căușeni-Cimișlia, Căușeni, Zaim, Căușeni District, MD-4300, Moldova",
        "road": "Căușeni-Cimișlia",
        "house_number": null,
        "neighbourhood": null,
        "suburb": null,
        "city_district": null,
        "city": "Căușeni",
        "state": null,
        "postcode": "MD-4300",
        "country": "Moldova",
        "country_code": "md"
      },
      "address": "628, Căușeni-Cimișlia, MD-4300 Căuşeni, Moldova"
    },
    {
      "lat": 46.62510887284441,
      "lon": 29.442725118336,
      "geoinfo": {
        "display_name": "Drumul de acces spre orașul Căuşeni, Căușeni, Căuşeni, Căușeni District, MD-4300, Moldova",
        "road": "Drumul de acces spre orașul Căuşeni",
        "house_number": null,
        "neighbourhood": null,
        "suburb": null,
        "city_district": null,
        "city": "Căușeni",
        "state": null,
        "postcode": "MD-4300",
        "country": "Moldova",
        "country_code": "md"
      },
      "address": "801, Drumul de acces spre orașul Căuşeni, Căușeni, Căuşeni, Căușeni District, MD-4300, Moldova"
    },
    {
      "lat": 46.64996085108533,
      "lon": 29.37673995864027,
      "geoinfo": {
        "display_name": "Căușeni-Cimișlia, Căușeni, Căuşeni, Căușeni District, MD-4300, Moldova",
        "road": "Căușeni-Cimișlia",
        "house_number": null,
        "neighbourhood": null,
        "suburb": null,
        "city_district": null,
        "city": "Căușeni",
        "state": null,
        "postcode": "MD-4300",
        "country": "Moldova",
        "country_code": "md"
      },
      "address": "051, Căușeni-Cimișlia, Căușeni, Căuşeni, Căușeni District, MD-4300, Moldova"
    },
    {
      "lat": 46.65694160985145,
      "lon": 29.457149560880552,
      "geoinfo": {
        "display_name": "Căușenii Vechi, Căușeni, Căuşeni, Căușeni District, MD-4300, Moldova",
        "road": null,
        "house_number": null,
        "neighbourhood": null,
        "suburb": "Căușenii Vechi",
        "city_district": null,
        "city": "Căușeni",
        "state": null,
        "postcode": "MD-4300",
        "country": "Moldova",
        "country_code": "md"
      },
      "address": "531, Căușenii Vechi, Căușeni, Căuşeni, Căușeni District, MD-4300, Moldova"
    },
    {
      "lat": 46.66608528321172,
      "lon": 29.380880089575218,
      "geoinfo": {
        "display_name": "Prestij, Strada Păcii, Căușeni, Căuşeni, Căușeni District, MD-4314, Moldova",
        "road": "Strada Păcii",
        "house_number": null,
        "neighbourhood": null,
        "suburb": null,
        "city_district": null,
        "city": "Căușeni",
        "state": null,
        "postcode": "MD-4314",
        "country": "Moldova",
        "country_code": "md"
      },
      "address": "927, Strada Păcii, MD-4314 Căuşeni, Moldova"
    },
    {
      "lat": 46.648139185612635,
      "lon": 29.39721730296723,
      "geoinfo": {
        "display_name": "Strada Vasile Alecsandri, Căușeni, Căuşeni, Căușeni District, MD-4304, Moldova",
        "road": "Strada Vasile Alecsandri",
        "house_number": null,
        "neighbourhood": null,
        "suburb": null,
        "city_district": null,
        "city": "Căușeni",
        "state": null,
        "postcode": "MD-4304",
        "country": "Moldova",
        "country_code": "md"
      },
      "address": "402, Strada Vasile Alecsandri, Căușeni, Căuşeni, Căușeni District, MD-4304, Moldova"
    },
    {
      "lat": 46.61083393954942,
      "lon": 29.44560387601372,
      "geoinfo": {
        "display_name": "Căușenii Vechi, Căușeni, Căuşeni, Căușeni District, MD-4300, Moldova",
        "road": null,
        "house_number": null,
        "neighbourhood": null,
        "suburb": "Căușenii Vechi",
        "city_district": null,
        "city": "Căușeni",
        "state": null,
        "postcode": "MD-4300",
        "country": "Moldova",
        "country_code": "md"
      },
      "address": "099, Căușenii Vechi, Căușeni, Căuşeni, Căușeni District, MD-4300, Moldova"
    },
    {
      "lat": 46.63951081378839,
      "lon": 29.42777047318953,
      "geoinfo": {
        "display_name": "Turnul Căușeni, Strada Mitropolit Varlaam, Căușenii Vechi, Căușeni, Căuşeni, Căușeni District, MD-4300, Moldova",
        "road": "Strada Mitropolit Varlaam",
        "house_number": null,
        "neighbourhood": null,
        "suburb": "Căușenii Vechi",
        "city_district": null,
        "city": "Căușeni",
        "state": null,
        "postcode": "MD-4300",
        "country": "Moldova",
        "country_code": "md"
      },
      "address": "171, Strada Mitropolit Varlaam, MD-4300 Căuşeni, Moldova"
    },
    {
      "lat": 46.635771893837266,
      "lon": 29.459697297796748,
      "geoinfo": {
        "display_name": "Căușeni bypass road, Căuşeni, Căușeni District, MD-4300, Moldova",
        "road": "Căușeni bypass road",
        "house_number": null,
        "neighbourhood": null,
        "suburb": null,
        "city_district": null,
        "city": "Căuşeni",
        "state": null,
        "postcode": "MD-4300",
        "country": "Moldova",
        "country_code": "md"
      },
      "address": "729, Căușeni bypass road, Căuşeni, Căușeni District, MD-4300, Moldova"
    },
    {
      "lat": 46.633510604339314,
      "lon": 29.419113654150127,
      "geoinfo": {
        "display_name": "22, Strada Tineretului, Căușeni, Căuşeni, Căușeni District, MD-4304, Moldova",
        "road": "Strada Tineretului",
        "house_number": "22",
        "neighbourhood": null,
        "suburb": null,
        "city_district": null,
        "city": "Căușeni",
        "state": null,
        "postcode": "MD-4304",
        "country": "Moldova",
        "country_code": "md"
      },
      "address": "22, Strada Tineretului, Căușeni, Căuşeni, Căușeni District, MD-4304, Moldova"
    },
    {
      "lat": 46.675204336461654,
      "lon": 29.391659422309008,
      "geoinfo": {
        "display_name": "IP \"Belșug\", Căuşeni, Căușeni District, MD-4301, Moldova",
        "road": null,
        "house_number": null,
        "neighbourhood": null,
        "suburb": null,
        "city_district": null,
        "city": "Căuşeni",
        "state": null,
        "postcode": "MD-4301",
        "country": "Moldova",
        "country_code": "md"
      },
      "address": "265, IP \"Belșug\", Căuşeni, Căușeni District, MD-4301, Moldova"
    },
    {
      "lat": 46.624743560503276,
      "lon": 29.37001092378629,
      "geoinfo": {
        "display_name": "Cariera de lângă satul Zaim, R26-drum de acces spre or. Căușeni, Căuşeni, Căușeni District, MD-4300, Moldova",
        "road": "R26-drum de acces spre or. Căușeni",
        "house_number": null,
        "neighbourhood": null,
        "suburb": null,
        "city_district": null,
        "city": "Căuşeni",
        "state": null,
        "postcode": "MD-4300",
        "country": "Moldova",
        "country_code": "md"
      },
      "address": "Cariera de lângă satul Zaim, R26-drum de acces spre or. Căușeni, Căuşeni, Căușeni District, MD-4300, Moldova"
    },
    {
      "lat": 46.641616070957646,
      "lon": 29.432452034671652,
      "geoinfo": {
        "display_name": "158, Strada Mitropolit Varlaam, Căușenii Vechi, Căușeni, Căuşeni, Căușeni District, MD-4301, Moldova",
        "road": "Strada Mitropolit Varlaam",
        "house_number": "158",
        "neighbourhood": null,
        "suburb": "Căușenii Vechi",
        "city_district": null,
        "city": "Căușeni",
        "state": null,
        "postcode": "MD-4301",
        "country": "Moldova",
        "country_code": "md"
      },
      "address": "158, Strada Mitropolit Varlaam, Căușenii Vechi, Căușeni, Căuşeni, Căușeni District, MD-4301, Moldova"
    }
  ],
  "updated_at": "2025-10-19T05:41:44.750562+00:00",
  "_kind": "geo_samples"
}