{
  "country_code": "MD",
  "country": "Moldova",
  "city": "Edineţ",
  "geonameid": 617076,
  "target_addresses": 5,
  "samples": [
    {
      "lat": 48.20155758924469,
      "lon": 27.25938430405997,
      "geoinfo": {
        "display_name": "L50, Hlinaia, Edineț District, Moldova",
        "road": "L50",
        "house_number": null,
        "neighbourhood": null,
        "suburb": null,
        "city_district": null,
        "city": "Hlinaia",
        "state": null,
        "postcode": null,
        "country": "Moldova",
        "country_code": "md"
      },
      "address": "L50, Edineţ, Moldova"
    },
    {
      "lat": 48.147642189368696,
      "lon": 27.284642824205733,
      "geoinfo": {
        "display_name": "Brînzeni-M5, Edineț, Edineț District, MD-4601, Moldova",
        "road": "Brînzeni-M5",
        "house_number": null,
        "neighbourhood": null,
        "suburb": null,
        "city_district": null,
        "city": "Edineț",
        "state": null,
        "postcode": "MD-4601",
        "country": "Moldova",
        "country_code": "md"
      },
      "address": "Brînzeni-M5, Edineţ, Moldova"
    },
    {
      "lat": 48.18464634746674,
      "lon": 27.309473592754486,
      "geoinfo": {
        "display_name": "Strada Florar, Edineț, Edineț District, MD-4601, Moldova",
        "road": "Strada Florar",
        "house_number": null,
        "neighbourhood": null,
        "suburb": null,
        "city_district": null,
        "city": "Edineț",
        "state": null,
        "postcode": "MD-4601",
        "country": "Moldova",
        "country_code": "md"
      },
      "address": "Strada Florar, Edineţ, Moldova"
    },
    {
      "lat": 48.196128362167094,
      "lon": 27.341596994437676,
      "geoinfo": {
        "display_name": "IP \"Speranța-Avante\", Ruseni, Edineț District, MD-4637, Moldova",
        "road": null,
        "house_number": null,
        "neighbourhood": null,
        "suburb": null,
        "city_district": null,
        "city": null,
        "state": null,
        "postcode": "MD-4637",
        "country": "Moldova",
        "country_code": "md"
      },
      "address": "Edineţ, Moldova"
    },
    {
      "lat": 48.177436972778,
      "lon": 27.32514041252303,
      "geoinfo": {
        "display_name": "Strada Maria Cebotari, Edineț, Edineț District, MD-4601, Moldova",
        "road": "Strada Maria Cebotari",
        "house_number": null,
        "neighbourhood": null,
        "suburb": null,
        "city_district": null,
        "city": "Edineț",
        "state": null,
        "postcode": "MD-4601",
        "country": "Moldova",
        "country_code": "md"
      },
      "address": "Strada Maria Cebotari, Edineţ, Moldova"
    },
    {
      "lat": 48.18000666128943,
      "lon": 27.291859006835633,
      "geoinfo": {
        "display_name": "10, Strada Independenței, Edineț, Edineț District, MD-4601, Moldova",
        "road": "Strada Independenței",
        "house_number": "10",
        "neighbourhood": null,
        "suburb": null,
        "city_district": null,
        "city": "Edineț",
        "state": null,
        "postcode": "MD-4601",
        "country": "Moldova",
        "country_code": "md"
      },
      "address": "10, Strada Independenței, MD-4601 Edineţ, Moldova"
    },
    {
      "lat": 48.15007816376114,
      "lon": 27.326641726554723,
      "geoinfo": {
        "display_name": "Criva-Bălți, Edineț, Edineț District, MD-4601, Moldova",
        "road": "Criva-Bălți",
        "house_number": null,
        "neighbourhood": null,
        "suburb": null,
        "city_district": null,
        "city": "Edineț",
        "state": null,
        "postcode": "MD-4601",
        "country": "Moldova",
        "country_code": "md"
      },
      "address": "803, Criva-Bălți, MD-4601 Edineţ, Moldova"
    },
    {
      "lat": 48.15253446123066,
      "lon": 27.284756912516812,
      "geoinfo": {
        "display_name": "Brînzeni-M5, Edineț, Edineț District, MD-4601, Moldova",
        "road": "Brînzeni-M5",
        "house_number": null,
        "neighbourhood": null,
        "suburb": null,
        "city_district": null,
        "city": "Edineț",
        "state": null,
        "postcode": "MD-4601",
        "country": "Moldova",
        "country_code": "md"
      },
      "address": "Brînzeni-M5, MD-4601 Edineţ, Moldova"
    },
    {
      "lat": 48.14587239852969,
      "lon": 27.268281928129916,
      "geoinfo": {
        "display_name": "Brînzeni-M5, Edineț, Edineț District, Moldova",
        "road": "Brînzeni-M5",
        "house_number": null,
        "neighbourhood": null,
        "suburb": null,
        "city_district": null,
        "city": "Edineț",
        "state": null,
        "postcode": null,
        "country": "Moldova",
        "country_code": "md"
      },
      "address": "Brînzeni-M5, 62562 Edineţ, Moldova"
    },
    {
      "lat": 48.18665246172779,
      "lon": 27.285818320622308,
      "geoinfo": {
        "display_name": "Criva-Bălți, Edineț, Edineț District, Moldova",
        "road": "Criva-Bălți",
        "house_number": null,
        "neighbourhood": null,
        "suburb": null,
        "city_district": null,
        "city": "Edineț",
        "state": null,
        "postcode": null,
        "country": "Moldova",
        "country_code": "md"
      },
      "address": "869, Criva-Bălți, 34697 Edineţ, Moldova"
    }
  ],
  "updated_at": "2025-10-19T05:51:59.932195+00:00",
  "_kind": "geo_samples"
}