{
  "country_code": "MD",
  "country": "Moldova",
  "city": "Orhei",
  "geonameid": 617638,
  "target_addresses": 5,
  "samples": [
    {
      "lat": 47.374013813124414,
      "lon": 28.80717475340898,
      "geoinfo": {
        "display_name": "Chișinău-Orhei, Bucuria, Mitoc, Orhei District, MD-3503, Moldova",
        "road": "Chișinău-Orhei",
        "house_number": null,
        "neighbourhood": null,
        "suburb": "Bucuria",
        "city_district": null,
        "city": "Mitoc",
        "state": null,
        "postcode": "MD-3503",
        "country": "Moldova",
        "country_code": "md"
      },
      "address": "Chișinău-Orhei, Orhei, Moldova"
    },
    {
      "lat": 47.365210770275766,
      "lon": 28.823346156672372,
      "geoinfo": {
        "display_name": "7, Strada Mihail Frunze, Slobozia Doamnei, Orhei, Orhei District, MD-3501, Moldova",
        "road": "Strada Mihail Frunze",
        "house_number": "7",
        "neighbourhood": null,
        "suburb": "Slobozia Doamnei",
        "city_district": null,
        "city": "Orhei",
        "state": null,
        "postcode": "MD-3501",
        "country": "Moldova",
        "country_code": "md"
      },
      "address": "7 Strada Mihail Frunze, Orhei, Moldova"
    },
    {
      "lat": 47.41221126176863,
      "lon": 28.80460225842481,
      "geoinfo": {
        "display_name": "Pelivan, Orhei District, Moldova",
        "road": null,
        "house_number": null,
        "neighbourhood": null,
        "suburb": null,
        "city_district": null,
        "city": null,
        "state": null,
        "postcode": null,
        "country": "Moldova",
        "country_code": "md"
      },
      "address": "Orhei, Moldova"
    },
    {
      "lat": 47.41677568896749,
      "lon": 28.780522541804736,
      "geoinfo": {
        "display_name": "60, Strada Ion Pelivan, Pelivan, Orhei District, MD-3520, Moldova",
        "road": "Strada Ion Pelivan",
        "house_number": "60",
        "neighbourhood": null,
        "suburb": null,
        "city_district": null,
        "city": "Pelivan",
        "state": null,
        "postcode": "MD-3520",
        "country": "Moldova",
        "country_code": "md"
      },
      "address": "60 Strada Ion Pelivan, Orhei, Moldova"
    },
    {
      "lat": 47.390540830278226,
      "lon": 28.802820050048243,
      "geoinfo": {
        "display_name": "65, Strada Unirii, Bucuria, Orhei, Orhei District, MD-3501, Moldova",
        "road": "Strada Unirii",
        "house_number": "65",
        "neighbourhood": null,
        "suburb": "Bucuria",
        "city_district": null,
        "city": "Orhei",
        "state": null,
        "postcode": "MD-3501",
        "country": "Moldova",
        "country_code": "md"
      },
      "address": "65 Strada Unirii, Orhei, Moldova"
    },
    {
      "lat": 47.36839606301001,
      "lon": 28.87379977945178,
      "geoinfo": {
        "display_name": "R6–Pohorniceni–G68, Pohorniceni, Orhei District, Moldova",
        "road": "R6–Pohorniceni–G68",
        "house_number": null,
        "neighbourhood": null,
        "suburb": null,
        "city_district": null,
        "city": "Pohorniceni",
        "state": null,
        "postcode": null,
        "country": "Moldova",
        "country_code": "md"
      },
      "address": "R6–Pohorniceni–G68, Pohorniceni, Orhei District, Moldova"
    },
    {
      "lat": 47.34457033247246,
      "lon": 28.816366422298106,
      "geoinfo": {
        "display_name": "5, Strada Muntenilor, Nistreană, Orhei, Orhei District, MD-3501, Moldova",
        "road": "Strada Muntenilor",
        "house_number": "5",
        "neighbourhood": null,
        "suburb": "Nistreană",
        "city_district": null,
        "city": "Orhei",
        "state": null,
        "postcode": "MD-3501",
        "country": "Moldova",
        "country_code": "md"
      },
      "address": "5, Strada Muntenilor, Nistreană, Orhei, Orhei District, MD-3501, Moldova"
    },
    {
      "lat": 47.38244602241542,
      "lon": 28.830996527908788,
      "geoinfo": {
        "display_name": "25, Strada Eliberării, Centru, Orhei, Orhei District, MD-3501, Moldova",
        "road": "Strada Eliberării",
        "house_number": "25",
        "neighbourhood": null,
        "suburb": "Centru",
        "city_district": null,
        "city": "Orhei",
        "state": null,
        "postcode": "MD-3501",
        "country": "Moldova",
        "country_code": "md"
      },
      "address": "25, Strada Eliberării, Centru, Orhei, Orhei District, MD-3501, Moldova"
    },
    {
      "lat": 47.40254479597456,
      "lon": 28.76436660255653,
      "geoinfo": {
        "display_name": "Orhei-Bălți, Pelivan, Orhei District, MD-3503, Moldova",
        "road": "Orhei-Bălți",
        "house_number": null,
        "neighbourhood": null,
        "suburb": null,
        "city_district": null,
        "city": null,
        "state": null,
        "postcode": "MD-3503",
        "country": "Moldova",
        "country_code": "md"
      },
      "address": "970, Orhei-Bălți, Pelivan, Orhei District, MD-3503, Moldova"
    },
    {
      "lat": 47.40956559438582,
      "lon": 28.790280038763758,
      "geoinfo": {
        "display_name": "Strada Viilor, Pelivan, Orhei District, MD-3520, Moldova",
        "road": "Strada Viilor",
        "house_number": null,
        "neighbourhood": null,
        "suburb": null,
        "city_district": null,
        "city": "Pelivan",
        "state": null,
        "postcode": "MD-3520",
        "country": "Moldova",
        "country_code": "md"
      },
      "address": "352, Strada Viilor, Pelivan, Orhei District, MD-3520, Moldova"
    }
  ],
  "updated_at": "2025-10-19T05:34:05.771647+00:00",
  "_kind": "geo_samples"
}