{
  "country_code": "MD",
  "country": "Moldova",
  "city": "Rîbniţa",
  "geonameid": 617486,
  "target_addresses": 5,
  "samples": [
    {
      "lat": 47.770631432846066,
      "lon": 29.069824138720634,
      "geoinfo": {
        "display_name": "L696.1, Shmalena, Andreevca, Rybnitsa District, Administrative-Territorial Units of the Left Bank of the Dniester, Pridnestrovie, Moldova",
        "road": "L696.1",
        "house_number": null,
        "neighbourhood": null,
        "suburb": null,
        "city_district": null,
        "city": "Shmalena",
        "state": "Pridnestrovie",
        "postcode": null,
        "country": "Moldova",
        "country_code": "md"
      },
      "address": "L696.1, Rîbniţa, Pridnestrovie, Moldova"
    },
    {
      "lat": 47.73804571116294,
      "lon": 29.01314377458509,
      "geoinfo": {
        "display_name": "Varancau, Rybnitsa District, Administrative-Territorial Units of the Left Bank of the Dniester, Pridnestrovie, MD-5516, Moldova",
        "road": null,
        "house_number": null,
        "neighbourhood": null,
        "suburb": null,
        "city_district": null,
        "city": null,
        "state": "Pridnestrovie",
        "postcode": "MD-5516",
        "country": "Moldova",
        "country_code": "md"
      },
      "address": "Rîbniţa, Pridnestrovie, Moldova"
    },
    {
      "lat": 47.766827671268295,
      "lon": 28.983350042132958,
      "geoinfo": {
        "display_name": "Valchenko Street, Valchenko, Rybnitsa, Rybnitsa District, Administrative-Territorial Units of the Left Bank of the Dniester, Pridnestrovie, MD-5506, Moldova",
        "road": "Valchenko Street",
        "house_number": null,
        "neighbourhood": null,
        "suburb": null,
        "city_district": null,
        "city": "Rybnitsa",
        "state": "Pridnestrovie",
        "postcode": "MD-5506",
        "country": "Moldova",
        "country_code": "md"
      },
      "address": "Valchenko Street, Rîbniţa, Pridnestrovie, Moldova"
    },
    {
      "lat": 47.768756368601736,
      "lon": 29.03274478259253,
      "geoinfo": {
        "display_name": "Industrialnaya Street, Vershigora, Rybnitsa, Rybnitsa District, Administrative-Territorial Units of the Left Bank of the Dniester, Pridnestrovie, MD-0555, Moldova",
        "road": "Industrialnaya Street",
        "house_number": null,
        "neighbourhood": null,
        "suburb": null,
        "city_district": null,
        "city": "Rybnitsa",
        "state": "Pridnestrovie",
        "postcode": "MD-0555",
        "country": "Moldova",
        "country_code": "md"
      },
      "address": "Industrialnaya Street, Rîbniţa, Pridnestrovie, Moldova"
    },
    {
      "lat": 47.76377078478619,
      "lon": 29.031634935174576,
      "geoinfo": {
        "display_name": "36, Matrosova Street, Vershigora, Rybnitsa, Rybnitsa District, Administrative-Territorial Units of the Left Bank of the Dniester, Pridnestrovie, MD-0555, Moldova",
        "road": "Matrosova Street",
        "house_number": "36",
        "neighbourhood": null,
        "suburb": null,
        "city_district": null,
        "city": "Rybnitsa",
        "state": "Pridnestrovie",
        "postcode": "MD-0555",
        "country": "Moldova",
        "country_code": "md"
      },
      "address": "36 Matrosova Street, Rîbniţa, Pridnestrovie, Moldova"
    },
    {
      "lat": 47.77110299264371,
      "lon": 28.98646795883228,
      "geoinfo": {
        "display_name": "Valchenko Street, Rybnitsa, Rybnitsa District, Administrative-Territorial Units of the Left Bank of the Dniester, Pridnestrovie, MD-5506, Moldova",
        "road": "Valchenko Street",
        "house_number": null,
        "neighbourhood": null,
        "suburb": null,
        "city_district": null,
        "city": "Rybnitsa",
        "state": "Pridnestrovie",
        "postcode": "MD-5506",
        "country": "Moldova",
        "country_code": "md"
      },
      "address": "552, Valchenko Street, Rîbniţa, MD-5506 Pridnestrovie, Moldova"
    },
    {
      "lat": 47.751163713137316,
      "lon": 29.02380496092486,
      "geoinfo": {
        "display_name": "G78, Rybnitsa, Rybnitsa District, Administrative-Territorial Units of the Left Bank of the Dniester, Pridnestrovie, MD-0555, Moldova",
        "road": "G78",
        "house_number": null,
        "neighbourhood": null,
        "suburb": null,
        "city_district": null,
        "city": "Rybnitsa",
        "state": "Pridnestrovie",
        "postcode": "MD-0555",
        "country": "Moldova",
        "country_code": "md"
      },
      "address": "G78, Rîbniţa, MD-0555 Pridnestrovie, Moldova"
    },
    {
      "lat": 47.81123142138239,
      "lon": 29.023742836402587,
      "geoinfo": {
        "display_name": "Saratseya, Ержовский сельский совет, Rybnitsa District, Administrative-Territorial Units of the Left Bank of the Dniester, Pridnestrovie, MD-5519, Moldova",
        "road": null,
        "house_number": null,
        "neighbourhood": null,
        "suburb": null,
        "city_district": null,
        "city": "Saratseya",
        "state": "Pridnestrovie",
        "postcode": "MD-5519",
        "country": "Moldova",
        "country_code": "md"
      },
      "address": "941, Rîbniţa, MD-5519 Pridnestrovie, Moldova"
    },
    {
      "lat": 47.749433006309424,
      "lon": 28.998569480023765,
      "geoinfo": {
        "display_name": "20, Zelyonaya Street, Пушкина, Rybnitsa, Rybnitsa District, Administrative-Territorial Units of the Left Bank of the Dniester, Pridnestrovie, MD-5500, Moldova",
        "road": "Zelyonaya Street",
        "house_number": "20",
        "neighbourhood": null,
        "suburb": null,
        "city_district": null,
        "city": "Rybnitsa",
        "state": "Pridnestrovie",
        "postcode": "MD-5500",
        "country": "Moldova",
        "country_code": "md"
      },
      "address": "20, Zelyonaya Street, Rîbniţa, MD-5500 Pridnestrovie, Moldova"
    },
    {
      "lat": 47.78680051496707,
      "lon": 28.990241848697334,
      "geoinfo": {
        "display_name": "Rybnitsa, Rybnitsa District, Administrative-Territorial Units of the Left Bank of the Dniester, Pridnestrovie, MD-5519, Moldova",
        "road": null,
        "house_number": null,
        "neighbourhood": null,
        "suburb": null,
        "city_district": null,
        "city": "Rybnitsa",
        "state": "Pridnestrovie",
        "postcode": "MD-5519",
        "country": "Moldova",
        "country_code": "md"
      },
      "address": "159, Rîbniţa, MD-5519 Pridnestrovie, Moldova"
    }
  ],
  "updated_at": "2025-10-19T05:52:20.411881+00:00",
  "_kind": "geo_samples"
}