{
  "country_code": "MD",
  "country": "Moldova",
  "city": "Soroca",
  "geonameid": 617367,
  "target_addresses": 5,
  "samples": [
    {
      "lat": 48.16259047935746,
      "lon": 28.284127002936124,
      "geoinfo": {
        "display_name": "Gimnaziul „Dumitru Matcovschi“, Stradela Toamnei, Dealul Țiganilor, Soroca, Soroca District, MD-3006, Moldova",
        "road": "Stradela Toamnei",
        "house_number": null,
        "neighbourhood": null,
        "suburb": "Dealul Țiganilor",
        "city_district": null,
        "city": "Soroca",
        "state": null,
        "postcode": "MD-3006",
        "country": "Moldova",
        "country_code": "md"
      },
      "address": "Stradela Toamnei, Soroca, Moldova"
    },
    {
      "lat": 48.14299431953024,
      "lon": 28.253807640212933,
      "geoinfo": {
        "display_name": "Drumul de acces spre satul Hristici, Zastînca, Hristici, Soroca District, MD-3045, Moldova",
        "road": "Drumul de acces spre satul Hristici",
        "house_number": null,
        "neighbourhood": null,
        "suburb": "Zastînca",
        "city_district": null,
        "city": "Hristici",
        "state": null,
        "postcode": "MD-3045",
        "country": "Moldova",
        "country_code": "md"
      },
      "address": "Drumul de acces spre satul Hristici, Soroca, Moldova"
    },
    {
      "lat": 48.17713563537115,
      "lon": 28.24685684872379,
      "geoinfo": {
        "display_name": "Soroca-Holoșnița-Grigorăuca, Iorjnița, Cosăuți, Soroca District, MD-3026, Moldova",
        "road": "Soroca-Holoșnița-Grigorăuca",
        "house_number": null,
        "neighbourhood": null,
        "suburb": null,
        "city_district": null,
        "city": null,
        "state": null,
        "postcode": "MD-3026",
        "country": "Moldova",
        "country_code": "md"
      },
      "address": "037, Soroca-Holoșnița-Grigorăuca, Iorjnița, Cosăuți, Soroca District, MD-3026, Moldova"
    },
    {
      "lat": 48.15140832278287,
      "lon": 28.25574619124039,
      "geoinfo": {
        "display_name": "Zastînca, Soroca, Soroca District, MD-3051, Moldova",
        "road": null,
        "house_number": null,
        "neighbourhood": null,
        "suburb": null,
        "city_district": null,
        "city": "Soroca",
        "state": null,
        "postcode": "MD-3051",
        "country": "Moldova",
        "country_code": "md"
      },
      "address": "260, Zastînca, Soroca, Soroca District, MD-3051, Moldova"
    },
    {
      "lat": 48.13442276086627,
      "lon": 28.331964035695275,
      "geoinfo": {
        "display_name": "Zastînca, Inundeni, Vasilcău, Soroca District, MD-3000, Moldova",
        "road": null,
        "house_number": null,
        "neighbourhood": null,
        "suburb": "Zastînca",
        "city_district": null,
        "city": "Inundeni",
        "state": null,
        "postcode": "MD-3000",
        "country": "Moldova",
        "country_code": "md"
      },
      "address": "617, Zastînca, MD-3000 Soroca, Moldova"
    },
    {
      "lat": 48.12511707953771,
      "lon": 28.284212297663007,
      "geoinfo": {
        "display_name": "Codrul Nou-Soroca, Zastînca, Volovița, Soroca District, MD-3051, Moldova",
        "road": "Codrul Nou-Soroca",
        "house_number": null,
        "neighbourhood": null,
        "suburb": "Zastînca",
        "city_district": null,
        "city": "Volovița",
        "state": null,
        "postcode": "MD-3051",
        "country": "Moldova",
        "country_code": "md"
      },
      "address": "625, Codrul Nou-Soroca, Zastînca, Volovița, Soroca District, MD-3051, Moldova"
    },
    {
      "lat": 48.14309886755025,
      "lon": 28.294014255094424,
      "geoinfo": {
        "display_name": "28, Strada Renașterii, Zastînca, Soroca, Soroca District, MD-3051, Moldova",
        "road": "Strada Renașterii",
        "house_number": "28",
        "neighbourhood": null,
        "suburb": "Zastînca",
        "city_district": null,
        "city": "Soroca",
        "state": null,
        "postcode": "MD-3051",
        "country": "Moldova",
        "country_code": "md"
      },
      "address": "28, Strada Renașterii, Zastînca, Soroca, Soroca District, MD-3051, Moldova"
    }
  ],
  "updated_at": "2025-10-19T08:08:40.971876+00:00",
  "_kind": "geo_samples"
}