{
  "country_code": "MD",
  "country": "Moldova",
  "city": "Strășeni",
  "geonameid": 617302,
  "target_addresses": 5,
  "samples": [
    {
      "lat": 47.1432462098114,
      "lon": 28.605932455249686,
      "geoinfo": {
        "display_name": "101, Strada Vasile Alecsandri, Strășeni, Strășeni District, MD-3701, Moldova",
        "road": "Strada Vasile Alecsandri",
        "house_number": "101",
        "neighbourhood": null,
        "suburb": null,
        "city_district": null,
        "city": "Strășeni",
        "state": null,
        "postcode": "MD-3701",
        "country": "Moldova",
        "country_code": "md"
      },
      "address": "101, Strada Vasile Alecsandri, Strășeni, Strășeni District, MD-3701, Moldova"
    },
    {
      "lat": 47.13927815895996,
      "lon": 28.56338223885057,
      "geoinfo": {
        "display_name": "Strada 31 August 1989, Făgureni, Strășeni, Strășeni District, MD-3703, Moldova",
        "road": "Strada 31 August 1989",
        "house_number": null,
        "neighbourhood": null,
        "suburb": null,
        "city_district": null,
        "city": "Strășeni",
        "state": null,
        "postcode": "MD-3703",
        "country": "Moldova",
        "country_code": "md"
      },
      "address": "Strada 31 August 1989, Făgureni, Strășeni, Strășeni District, MD-3703, Moldova"
    },
    {
      "lat": 47.148768527663776,
      "lon": 28.607578862751314,
      "geoinfo": {
        "display_name": "4, Strada Mitropolit Varlaam, Strășeni, Strășeni District, MD-3701, Moldova",
        "road": "Strada Mitropolit Varlaam",
        "house_number": "4",
        "neighbourhood": null,
        "suburb": null,
        "city_district": null,
        "city": "Strășeni",
        "state": null,
        "postcode": "MD-3701",
        "country": "Moldova",
        "country_code": "md"
      },
      "address": "4, Strada Mitropolit Varlaam, Strășeni, Strășeni District, MD-3701, Moldova"
    },
    {
      "lat": 47.118908368179724,
      "lon": 28.57506593223493,
      "geoinfo": {
        "display_name": "Strășeni-Scoreni, Strășeni, Strășeni District, MD-2083, Moldova",
        "road": "Strășeni-Scoreni",
        "house_number": null,
        "neighbourhood": null,
        "suburb": null,
        "city_district": null,
        "city": "Strășeni",
        "state": null,
        "postcode": "MD-2083",
        "country": "Moldova",
        "country_code": "md"
      },
      "address": "917, Strășeni-Scoreni, Strășeni, Strășeni District, MD-2083, Moldova"
    },
    {
      "lat": 47.18125238004057,
      "lon": 28.629015931092596,
      "geoinfo": {
        "display_name": "10, Strada Vișinarilor, Negrești, Strășeni District, MD-3723, Moldova",
        "road": "Strada Vișinarilor",
        "house_number": "10",
        "neighbourhood": null,
        "suburb": null,
        "city_district": null,
        "city": "Negrești",
        "state": null,
        "postcode": "MD-3723",
        "country": "Moldova",
        "country_code": "md"
      },
      "address": "10, Strada Vișinarilor, Negrești, Strășeni District, MD-3723, Moldova"
    }
  ],
  "updated_at": "2025-10-19T05:14:01.235982+00:00",
  "_kind": "geo_samples"
}