{
  "country_code": "MD",
  "country": "Moldova",
  "city": "Tiraspol",
  "geonameid": 617239,
  "target_addresses": 5,
  "samples": [
    {
      "lat": 46.85254678407306,
      "lon": 29.597666479082918,
      "geoinfo": {
        "display_name": "Объездная дорога, Kirpichnaya Slobodka, Tiraspol, Tiraspol City Council, Administrative-Territorial Units of the Left Bank of the Dniester, Pridnestrovie, MD-3300, Moldova",
        "road": "Объездная дорога",
        "house_number": null,
        "neighbourhood": null,
        "suburb": "Kirpichnaya Slobodka",
        "city_district": null,
        "city": "Tiraspol",
        "state": "Pridnestrovie",
        "postcode": "MD-3300",
        "country": "Moldova",
        "country_code": "md"
      },
      "address": "Объездная дорога, Tiraspol, Pridnestrovie, Moldova"
    },
    {
      "lat": 46.83900969893625,
      "lon": 29.56832654575045,
      "geoinfo": {
        "display_name": "46, Gvardeyskaya Street, квартал Мечникова, Zapadny, Tiraspol, Tiraspol City Council, Administrative-Territorial Units of the Left Bank of the Dniester, Pridnestrovie, MD-5727, Moldova",
        "road": "Gvardeyskaya Street",
        "house_number": "46",
        "neighbourhood": null,
        "suburb": "Zapadny",
        "city_district": null,
        "city": "Tiraspol",
        "state": "Pridnestrovie",
        "postcode": "MD-5727",
        "country": "Moldova",
        "country_code": "md"
      },
      "address": "46 Gvardeyskaya Street, Tiraspol, Pridnestrovie, Moldova"
    },
    {
      "lat": 46.812902018007314,
      "lon": 29.646798090668156,
      "geoinfo": {
        "display_name": "Bunker No 1152 TiFR, Dnestrovskiy Lane, Suklieia, Sukleya, Slobdzeya District, Administrative-Territorial Units of the Left Bank of the Dniester, Pridnestrovie, MD-5725, Moldova",
        "road": "Dnestrovskiy Lane",
        "house_number": null,
        "neighbourhood": null,
        "suburb": null,
        "city_district": null,
        "city": "Suklieia",
        "state": "Pridnestrovie",
        "postcode": "MD-5725",
        "country": "Moldova",
        "country_code": "md"
      },
      "address": "Dnestrovskiy Lane, Tiraspol, Pridnestrovie, Moldova"
    },
    {
      "lat": 46.85261260070304,
      "lon": 29.636953496583512,
      "geoinfo": {
        "display_name": "Sakriyera Street, Kirovskiy, Tiraspol, Tiraspol City Council, Administrative-Territorial Units of the Left Bank of the Dniester, Pridnestrovie, MD-3300, Moldova",
        "road": "Sakriyera Street",
        "house_number": null,
        "neighbourhood": null,
        "suburb": "Kirovskiy",
        "city_district": null,
        "city": "Tiraspol",
        "state": "Pridnestrovie",
        "postcode": "MD-3300",
        "country": "Moldova",
        "country_code": "md"
      },
      "address": "Sakriyera Street, Tiraspol, Pridnestrovie, Moldova"
    },
    {
      "lat": 46.826229622225135,
      "lon": 29.61327238957227,
      "geoinfo": {
        "display_name": "Gorplavni Lane, Tiraspol, Sukleya, Slobdzeya District, Administrative-Territorial Units of the Left Bank of the Dniester, Pridnestrovie, MD-3300, Moldova",
        "road": "Gorplavni Lane",
        "house_number": null,
        "neighbourhood": null,
        "suburb": null,
        "city_district": null,
        "city": "Tiraspol",
        "state": "Pridnestrovie",
        "postcode": "MD-3300",
        "country": "Moldova",
        "country_code": "md"
      },
      "address": "Gorplavni Lane, Tiraspol, Pridnestrovie, Moldova"
    },
    {
      "lat": 46.83940986268438,
      "lon": 29.665483790717715,
      "geoinfo": {
        "display_name": "Средняя школа №18 (корпус 1), 4/3, Komsomolskaya Street, Oktyabrskiy, Tiraspol, Administrative-Territorial Units of the Left Bank of the Dniester, Pridnestrovie, MD-3300, Moldova",
        "road": "Komsomolskaya Street",
        "house_number": "4/3",
        "neighbourhood": null,
        "suburb": "Oktyabrskiy",
        "city_district": null,
        "city": "Tiraspol",
        "state": "Pridnestrovie",
        "postcode": "MD-3300",
        "country": "Moldova",
        "country_code": "md"
      },
      "address": "Средняя школа №18 (корпус 1), 4/3, Komsomolskaya Street, Oktyabrskiy, Tiraspol, Administrative-Territorial Units of the Left Bank of the Dniester, Pridnestrovie, MD-3300, Moldova"
    },
    {
      "lat": 46.829235846024055,
      "lon": 29.62331643218783,
      "geoinfo": {
        "display_name": "48/6, улица 1 Мая, Yuzhny, Tiraspol, Administrative-Territorial Units of the Left Bank of the Dniester, Pridnestrovie, MD-3300, Moldova",
        "road": "улица 1 Мая",
        "house_number": "48/6",
        "neighbourhood": null,
        "suburb": "Yuzhny",
        "city_district": null,
        "city": "Tiraspol",
        "state": "Pridnestrovie",
        "postcode": "MD-3300",
        "country": "Moldova",
        "country_code": "md"
      },
      "address": "48/6, улица 1 Мая, Yuzhny, Tiraspol, Administrative-Territorial Units of the Left Bank of the Dniester, Pridnestrovie, MD-3300, Moldova"
    },
    {
      "lat": 46.83724481827149,
      "lon": 29.69062454298254,
      "geoinfo": {
        "display_name": "Tiraspol, Sukleya, Slobdzeya District, Administrative-Territorial Units of the Left Bank of the Dniester, Pridnestrovie, MD-5725, Moldova",
        "road": null,
        "house_number": null,
        "neighbourhood": null,
        "suburb": null,
        "city_district": null,
        "city": "Tiraspol",
        "state": "Pridnestrovie",
        "postcode": "MD-5725",
        "country": "Moldova",
        "country_code": "md"
      },
      "address": "723, Tiraspol, Sukleya, Slobdzeya District, Administrative-Territorial Units of the Left Bank of the Dniester, Pridnestrovie, MD-5725, Moldova"
    },
    {
      "lat": 46.829433721716875,
      "lon": 29.684236937626576,
      "geoinfo": {
        "display_name": "Sukleya, Slobdzeya District, Administrative-Territorial Units of the Left Bank of the Dniester, Pridnestrovie, MD-5725, Moldova",
        "road": null,
        "house_number": null,
        "neighbourhood": null,
        "suburb": null,
        "city_district": null,
        "city": "Sukleya",
        "state": "Pridnestrovie",
        "postcode": "MD-5725",
        "country": "Moldova",
        "country_code": "md"
      },
      "address": "632, Tiraspol, MD-5725 Pridnestrovie, Moldova"
    },
    {
      "lat": 46.85973852520189,
      "lon": 29.608558152327237,
      "geoinfo": {
        "display_name": "Krasnyye Kazarmy, Tiraspol, Tiraspol City Council, Administrative-Territorial Units of the Left Bank of the Dniester, Pridnestrovie, MD-3300, Moldova",
        "road": null,
        "house_number": null,
        "neighbourhood": null,
        "suburb": "Krasnyye Kazarmy",
        "city_district": null,
        "city": "Tiraspol",
        "state": "Pridnestrovie",
        "postcode": "MD-3300",
        "country": "Moldova",
        "country_code": "md"
      },
      "address": "790, Krasnyye Kazarmy, Tiraspol, Tiraspol City Council, Administrative-Territorial Units of the Left Bank of the Dniester, Pridnestrovie, MD-3300, Moldova"
    }
  ],
  "updated_at": "2025-10-19T05:54:03.013766+00:00",
  "_kind": "geo_samples"
}