{
  "country_code": "HN",
  "country": "Honduras",
  "city": "Ciudad Choluteca",
  "geonameid": 3613528,
  "target_addresses": 5,
  "samples": [
    {
      "lat": 13.312476133801606,
      "lon": -87.196572518487,
      "geoinfo": {
        "display_name": "Choluteca, 51101, Honduras",
        "road": null,
        "house_number": null,
        "neighbourhood": null,
        "suburb": null,
        "city_district": null,
        "city": "Choluteca",
        "state": "Choluteca",
        "postcode": "51101",
        "country": "Honduras",
        "country_code": "hn"
      },
      "address": "Ciudad Choluteca, Choluteca, Honduras"
    },
    {
      "lat": 13.288875374742608,
      "lon": -87.18638297738191,
      "geoinfo": {
        "display_name": "6a Avenida O, Barrio Gracias a Dios, Santa Rosa de Sampile, Choluteca, 51101, Honduras",
        "road": "6a Avenida O",
        "house_number": null,
        "neighbourhood": "Barrio Gracias a Dios",
        "suburb": null,
        "city_district": null,
        "city": "Choluteca",
        "state": "Choluteca",
        "postcode": "51101",
        "country": "Honduras",
        "country_code": "hn"
      },
      "address": "6a Avenida O, Barrio Gracias a Dios, Santa Rosa de Sampile, Choluteca, 51101, Honduras"
    },
    {
      "lat": 13.291072342360847,
      "lon": -87.17905029226756,
      "geoinfo": {
        "display_name": "18a Calle S, Colonia Mons Marcelo Gerin, Santa Rosa de Sampile, Choluteca, 51101, Honduras",
        "road": "18a Calle S",
        "house_number": null,
        "neighbourhood": "Colonia Mons Marcelo Gerin",
        "suburb": null,
        "city_district": null,
        "city": "Choluteca",
        "state": "Choluteca",
        "postcode": "51101",
        "country": "Honduras",
        "country_code": "hn"
      },
      "address": "18a Calle S, Colonia Mons Marcelo Gerin, Santa Rosa de Sampile, Choluteca, 51101, Honduras"
    },
    {
      "lat": 13.290752055670879,
      "lon": -87.20785031319747,
      "geoinfo": {
        "display_name": "Barrio San Pedro Sur, Choluteca, 51101, Honduras",
        "road": null,
        "house_number": null,
        "neighbourhood": "Barrio San Pedro Sur",
        "suburb": null,
        "city_district": null,
        "city": "Choluteca",
        "state": "Choluteca",
        "postcode": "51101",
        "country": "Honduras",
        "country_code": "hn"
      },
      "address": "214, Barrio San Pedro Sur, Choluteca, 51101, Honduras"
    },
    {
      "lat": 13.277758447689958,
      "lon": -87.16715601601862,
      "geoinfo": {
        "display_name": "Anillo Periférico de Choluteca, Santa Rosa de Sampile, Choluteca, 51101, Honduras",
        "road": "Anillo Periférico de Choluteca",
        "house_number": null,
        "neighbourhood": null,
        "suburb": null,
        "city_district": null,
        "city": "Choluteca",
        "state": "Choluteca",
        "postcode": "51101",
        "country": "Honduras",
        "country_code": "hn"
      },
      "address": "811, Anillo Periférico de Choluteca, Santa Rosa de Sampile, Choluteca, 51101, Honduras"
    },
    {
      "lat": 13.338627211183589,
      "lon": -87.19158965087614,
      "geoinfo": {
        "display_name": "Anillo Periférico de Choluteca, Villa Nueva, Hato Nuevo, Choluteca, 51101, Honduras",
        "road": "Anillo Periférico de Choluteca",
        "house_number": null,
        "neighbourhood": "Villa Nueva",
        "suburb": null,
        "city_district": null,
        "city": "Choluteca",
        "state": "Choluteca",
        "postcode": "51101",
        "country": "Honduras",
        "country_code": "hn"
      },
      "address": "068, Anillo Periférico de Choluteca, Villa Nueva, Hato Nuevo, Choluteca, 51101, Honduras"
    }
  ],
  "updated_at": "2025-10-19T04:17:12.330118+00:00",
  "_kind": "geo_samples"
}