{
  "country_code": "HN",
  "country": "Honduras",
  "city": "El Paraíso",
  "geonameid": 3610965,
  "target_addresses": 5,
  "samples": [
    {
      "lat": 13.844780083150193,
      "lon": -86.5873509588495,
      "geoinfo": {
        "display_name": "El Paraíso, Honduras",
        "road": null,
        "house_number": null,
        "neighbourhood": null,
        "suburb": null,
        "city_district": null,
        "city": "El Paraíso",
        "state": "El Paraíso",
        "postcode": null,
        "country": "Honduras",
        "country_code": "hn"
      },
      "address": "El Paraíso, El Paraíso, Honduras"
    },
    {
      "lat": 13.893161773802522,
      "lon": -86.5649696544723,
      "geoinfo": {
        "display_name": "RV-399, El Paraíso, Honduras",
        "road": "RV-399",
        "house_number": null,
        "neighbourhood": null,
        "suburb": null,
        "city_district": null,
        "city": "El Paraíso",
        "state": "El Paraíso",
        "postcode": null,
        "country": "Honduras",
        "country_code": "hn"
      },
      "address": "RV-399, El Paraíso, El Paraíso, Honduras"
    },
    {
      "lat": 13.85003911278617,
      "lon": -86.52255039692588,
      "geoinfo": {
        "display_name": "RN-121, Granadillos, San Antonio de Conchagua, El Paraíso, Honduras",
        "road": "RN-121",
        "house_number": null,
        "neighbourhood": null,
        "suburb": null,
        "city_district": null,
        "city": "El Paraíso",
        "state": "El Paraíso",
        "postcode": null,
        "country": "Honduras",
        "country_code": "hn"
      },
      "address": "RN-121, El Paraíso, El Paraíso, Honduras"
    },
    {
      "lat": 13.876000016556064,
      "lon": -86.52186545763296,
      "geoinfo": {
        "display_name": "RV-365, El Paraíso, Honduras",
        "road": "RV-365",
        "house_number": null,
        "neighbourhood": null,
        "suburb": null,
        "city_district": null,
        "city": "El Paraíso",
        "state": "El Paraíso",
        "postcode": null,
        "country": "Honduras",
        "country_code": "hn"
      },
      "address": "RV-365, El Paraíso, El Paraíso, Honduras"
    },
    {
      "lat": 13.863635096211656,
      "lon": -86.56982419326197,
      "geoinfo": {
        "display_name": "Carretera El Paraiso - Las Manos, El Paraíso, Honduras",
        "road": "Carretera El Paraiso - Las Manos",
        "house_number": null,
        "neighbourhood": null,
        "suburb": null,
        "city_district": null,
        "city": "El Paraíso",
        "state": "El Paraíso",
        "postcode": null,
        "country": "Honduras",
        "country_code": "hn"
      },
      "address": "Carretera El Paraiso - Las Manos, El Paraíso, El Paraíso, Honduras"
    },
    {
      "lat": 13.859251579279125,
      "lon": -86.58964184746306,
      "geoinfo": {
        "display_name": "El Paraíso, Honduras",
        "road": null,
        "house_number": null,
        "neighbourhood": null,
        "suburb": null,
        "city_district": null,
        "city": "El Paraíso",
        "state": "El Paraíso",
        "postcode": null,
        "country": "Honduras",
        "country_code": "hn"
      },
      "address": "053, El Paraíso, 97833 El Paraíso, Honduras"
    },
    {
      "lat": 13.858578521500977,
      "lon": -86.57425725741041,
      "geoinfo": {
        "display_name": "El Paraíso, Honduras",
        "road": null,
        "house_number": null,
        "neighbourhood": null,
        "suburb": null,
        "city_district": null,
        "city": "El Paraíso",
        "state": "El Paraíso",
        "postcode": null,
        "country": "Honduras",
        "country_code": "hn"
      },
      "address": "403, El Paraíso, 51327 El Paraíso, Honduras"
    },
    {
      "lat": 13.893900435754295,
      "lon": -86.52187348755291,
      "geoinfo": {
        "display_name": "Cuyalí, El Paraíso, Honduras",
        "road": null,
        "house_number": null,
        "neighbourhood": null,
        "suburb": null,
        "city_district": null,
        "city": "El Paraíso",
        "state": "El Paraíso",
        "postcode": null,
        "country": "Honduras",
        "country_code": "hn"
      },
      "address": "941, Cuyalí, 46657 El Paraíso, Honduras"
    },
    {
      "lat": 13.881353781318406,
      "lon": -86.56773256785978,
      "geoinfo": {
        "display_name": "El Paraíso, Honduras",
        "road": null,
        "house_number": null,
        "neighbourhood": null,
        "suburb": null,
        "city_district": null,
        "city": "El Paraíso",
        "state": "El Paraíso",
        "postcode": null,
        "country": "Honduras",
        "country_code": "hn"
      },
      "address": "622, El Paraíso, 57282 El Paraíso, Honduras"
    },
    {
      "lat": 13.83493911116614,
      "lon": -86.58002326126964,
      "geoinfo": {
        "display_name": "El Paraíso, Honduras",
        "road": null,
        "house_number": null,
        "neighbourhood": null,
        "suburb": null,
        "city_district": null,
        "city": "El Paraíso",
        "state": "El Paraíso",
        "postcode": null,
        "country": "Honduras",
        "country_code": "hn"
      },
      "address": "896, El Paraíso, 94319 El Paraíso, Honduras"
    }
  ],
  "updated_at": "2025-10-19T04:42:15.013018+00:00",
  "_kind": "geo_samples"
}