{
  "country_code": "HN",
  "country": "Honduras",
  "city": "El Progreso",
  "geonameid": 3610613,
  "target_addresses": 5,
  "samples": [
    {
      "lat": 15.379757802576759,
      "lon": -87.82638102527714,
      "geoinfo": {
        "display_name": "El Progreso, Yoro, 23201, Honduras",
        "road": null,
        "house_number": null,
        "neighbourhood": null,
        "suburb": null,
        "city_district": null,
        "city": "El Progreso",
        "state": "Yoro",
        "postcode": "23201",
        "country": "Honduras",
        "country_code": "hn"
      },
      "address": "El Progreso, Yoro, Honduras"
    },
    {
      "lat": 15.427043249907438,
      "lon": -87.77004103829228,
      "geoinfo": {
        "display_name": "Colonia 3 de Abril, El Progreso, Yoro, Honduras",
        "road": null,
        "house_number": null,
        "neighbourhood": "Colonia 3 de Abril",
        "suburb": null,
        "city_district": null,
        "city": "El Progreso",
        "state": "Yoro",
        "postcode": null,
        "country": "Honduras",
        "country_code": "hn"
      },
      "address": "Colonia 3 de Abril, El Progreso, Yoro, Honduras"
    },
    {
      "lat": 15.418734818607184,
      "lon": -87.83654469482417,
      "geoinfo": {
        "display_name": "San Manuel, Cortés, 41804, Honduras",
        "road": null,
        "house_number": null,
        "neighbourhood": null,
        "suburb": null,
        "city_district": null,
        "city": "San Manuel",
        "state": "Cortés",
        "postcode": "41804",
        "country": "Honduras",
        "country_code": "hn"
      },
      "address": "El Progreso, Cortés, Honduras"
    },
    {
      "lat": 15.422026729959867,
      "lon": -87.79628003373197,
      "geoinfo": {
        "display_name": "Colonia La Libertad, Colonia Renovacion, El Progreso, Yoro, 41804, Honduras",
        "road": null,
        "house_number": null,
        "neighbourhood": "Colonia La Libertad",
        "suburb": "Colonia Renovacion",
        "city_district": null,
        "city": "El Progreso",
        "state": "Yoro",
        "postcode": "41804",
        "country": "Honduras",
        "country_code": "hn"
      },
      "address": "Colonia La Libertad, El Progreso, Yoro, Honduras"
    },
    {
      "lat": 15.427638649533863,
      "lon": -87.79194503083521,
      "geoinfo": {
        "display_name": "Residencial La Granja, Colonia Quebrada Seca, El Progreso, Yoro, 41804, Honduras",
        "road": null,
        "house_number": null,
        "neighbourhood": "Residencial La Granja",
        "suburb": "Colonia Quebrada Seca",
        "city_district": null,
        "city": "El Progreso",
        "state": "Yoro",
        "postcode": "41804",
        "country": "Honduras",
        "country_code": "hn"
      },
      "address": "Residencial La Granja, El Progreso, Yoro, Honduras"
    },
    {
      "lat": 15.419776125551682,
      "lon": -87.84169599175456,
      "geoinfo": {
        "display_name": "San Manuel, Cortés, 41804, Honduras",
        "road": null,
        "house_number": null,
        "neighbourhood": null,
        "suburb": null,
        "city_district": null,
        "city": "San Manuel",
        "state": "Cortés",
        "postcode": "41804",
        "country": "Honduras",
        "country_code": "hn"
      },
      "address": "643, San Manuel, Cortés, 41804, Honduras"
    },
    {
      "lat": 15.374372363512638,
      "lon": -87.77129201523125,
      "geoinfo": {
        "display_name": "El Progreso, Yoro, 41804, Honduras",
        "road": null,
        "house_number": null,
        "neighbourhood": null,
        "suburb": null,
        "city_district": null,
        "city": "El Progreso",
        "state": "Yoro",
        "postcode": "41804",
        "country": "Honduras",
        "country_code": "hn"
      },
      "address": "396, El Progreso, Yoro, 41804, Honduras"
    },
    {
      "lat": 15.433704561215418,
      "lon": -87.77268366218381,
      "geoinfo": {
        "display_name": "Colonia 3 de Abril, El Progreso, Yoro, Honduras",
        "road": null,
        "house_number": null,
        "neighbourhood": "Colonia 3 de Abril",
        "suburb": null,
        "city_district": null,
        "city": "El Progreso",
        "state": "Yoro",
        "postcode": null,
        "country": "Honduras",
        "country_code": "hn"
      },
      "address": "Colonia 3 de Abril, El Progreso, 52539 Yoro, Honduras"
    },
    {
      "lat": 15.387196496558197,
      "lon": -87.8436351751847,
      "geoinfo": {
        "display_name": "El Progreso, Yoro, 23201, Honduras",
        "road": null,
        "house_number": null,
        "neighbourhood": null,
        "suburb": null,
        "city_district": null,
        "city": "El Progreso",
        "state": "Yoro",
        "postcode": "23201",
        "country": "Honduras",
        "country_code": "hn"
      },
      "address": "748, El Progreso, Yoro, 23201, Honduras"
    },
    {
      "lat": 15.388544135006565,
      "lon": -87.78045823478993,
      "geoinfo": {
        "display_name": "El Progreso, Yoro, 41804, Honduras",
        "road": null,
        "house_number": null,
        "neighbourhood": null,
        "suburb": null,
        "city_district": null,
        "city": "El Progreso",
        "state": "Yoro",
        "postcode": "41804",
        "country": "Honduras",
        "country_code": "hn"
      },
      "address": "485, El Progreso, Yoro, 41804, Honduras"
    }
  ],
  "updated_at": "2025-10-19T02:35:35.833812+00:00",
  "_kind": "geo_samples"
}