{
  "country_code": "HN",
  "country": "Honduras",
  "city": "Olanchito",
  "geonameid": 3604251,
  "target_addresses": 5,
  "samples": [
    {
      "lat": 15.46204404941006,
      "lon": -86.58140141659942,
      "geoinfo": {
        "display_name": "Calle del Ferrocarril, Olanchito, Yoro, Honduras",
        "road": "Calle del Ferrocarril",
        "house_number": null,
        "neighbourhood": null,
        "suburb": null,
        "city_district": null,
        "city": "Olanchito",
        "state": "Yoro",
        "postcode": null,
        "country": "Honduras",
        "country_code": "hn"
      },
      "address": "Calle del Ferrocarril, Olanchito, Yoro, Honduras"
    },
    {
      "lat": 15.478915261701056,
      "lon": -86.54798050611456,
      "geoinfo": {
        "display_name": "Olanchito, Yoro, Honduras",
        "road": null,
        "house_number": null,
        "neighbourhood": null,
        "suburb": null,
        "city_district": null,
        "city": "Olanchito",
        "state": "Yoro",
        "postcode": null,
        "country": "Honduras",
        "country_code": "hn"
      },
      "address": "Olanchito, Yoro, Honduras"
    },
    {
      "lat": 15.520721474356824,
      "lon": -86.58323848109275,
      "geoinfo": {
        "display_name": "Sabanetas, Olanchito, Yoro, Honduras",
        "road": null,
        "house_number": null,
        "neighbourhood": "Sabanetas",
        "suburb": null,
        "city_district": null,
        "city": "Olanchito",
        "state": "Yoro",
        "postcode": null,
        "country": "Honduras",
        "country_code": "hn"
      },
      "address": "Sabanetas, Olanchito, Yoro, Honduras"
    },
    {
      "lat": 15.470512415629283,
      "lon": -86.56840266087613,
      "geoinfo": {
        "display_name": "Carretera Olanchito - Sabá, Olanchito, Yoro, Honduras",
        "road": "Carretera Olanchito - Sabá",
        "house_number": null,
        "neighbourhood": null,
        "suburb": null,
        "city_district": null,
        "city": "Olanchito",
        "state": "Yoro",
        "postcode": null,
        "country": "Honduras",
        "country_code": "hn"
      },
      "address": "Carretera Olanchito - Sabá, Olanchito, Yoro, Honduras"
    },
    {
      "lat": 15.509696990408,
      "lon": -86.5555398736826,
      "geoinfo": {
        "display_name": "Agalteca, Olanchito, Yoro, Honduras",
        "road": null,
        "house_number": null,
        "neighbourhood": "Agalteca",
        "suburb": null,
        "city_district": null,
        "city": "Olanchito",
        "state": "Yoro",
        "postcode": null,
        "country": "Honduras",
        "country_code": "hn"
      },
      "address": "Agalteca, Olanchito, Yoro, Honduras"
    }
  ],
  "updated_at": "2025-10-16T15:06:54.385646+00:00",
  "_kind": "geo_samples"
}