{
  "country_code": "HN",
  "country": "Honduras",
  "city": "Potrerillos",
  "geonameid": 3603330,
  "target_addresses": 27,
  "samples": [
    {
      "lat": 15.258024119498396,
      "lon": -87.996543275565,
      "geoinfo": {
        "display_name": "Pimienta, Cortés, Honduras",
        "road": null,
        "house_number": null,
        "neighbourhood": null,
        "suburb": null,
        "city_district": null,
        "city": null,
        "state": "Cortés",
        "postcode": null,
        "country": "Honduras",
        "country_code": "hn"
      },
      "address": "Potrerillos, Cortés, Honduras"
    },
    {
      "lat": 15.228597687768902,
      "lon": -87.96177476194305,
      "geoinfo": {
        "display_name": "1a Calle SE, Potrerillos, Cortés, Honduras",
        "road": "1a Calle SE",
        "house_number": null,
        "neighbourhood": null,
        "suburb": null,
        "city_district": null,
        "city": "Potrerillos",
        "state": "Cortés",
        "postcode": null,
        "country": "Honduras",
        "country_code": "hn"
      },
      "address": "1a Calle SE, Potrerillos, Cortés, Honduras"
    },
    {
      "lat": 15.230315359522162,
      "lon": -87.96623391151911,
      "geoinfo": {
        "display_name": "1a Avenida NO, Potrerillos, Cortés, Honduras",
        "road": "1a Avenida NO",
        "house_number": null,
        "neighbourhood": null,
        "suburb": null,
        "city_district": null,
        "city": "Potrerillos",
        "state": "Cortés",
        "postcode": null,
        "country": "Honduras",
        "country_code": "hn"
      },
      "address": "1a Avenida NO, Potrerillos, Cortés, Honduras"
    },
    {
      "lat": 15.245626911511335,
      "lon": -87.9529812409225,
      "geoinfo": {
        "display_name": "Carretera CA-5, Potrerillos, Cortés, Honduras",
        "road": "Carretera CA-5",
        "house_number": null,
        "neighbourhood": null,
        "suburb": null,
        "city_district": null,
        "city": "Potrerillos",
        "state": "Cortés",
        "postcode": null,
        "country": "Honduras",
        "country_code": "hn"
      },
      "address": "Carretera CA-5, Potrerillos, Cortés, Honduras"
    },
    {
      "lat": 15.256615270761182,
      "lon": -87.96308637058173,
      "geoinfo": {
        "display_name": "Antigua Carretera del Norte, Pimienta, Cortés, Honduras",
        "road": "Antigua Carretera del Norte",
        "house_number": null,
        "neighbourhood": null,
        "suburb": null,
        "city_district": null,
        "city": "Pimienta",
        "state": "Cortés",
        "postcode": null,
        "country": "Honduras",
        "country_code": "hn"
      },
      "address": "Antigua Carretera del Norte, Potrerillos, Cortés, Honduras"
    },
    {
      "lat": 15.187485057848846,
      "lon": -87.96524791279109,
      "geoinfo": {
        "display_name": "Potrerillos, Cortés, 21000, Honduras",
        "road": null,
        "house_number": null,
        "neighbourhood": null,
        "suburb": null,
        "city_district": null,
        "city": "Potrerillos",
        "state": "Cortés",
        "postcode": "21000",
        "country": "Honduras",
        "country_code": "hn"
      },
      "address": "Potrerillos, 86699 Cortés, Honduras"
    },
    {
      "lat": 15.236142877084419,
      "lon": -87.9765131207178,
      "geoinfo": {
        "display_name": "Potrerillos, Cortés, Honduras",
        "road": null,
        "house_number": null,
        "neighbourhood": null,
        "suburb": null,
        "city_district": null,
        "city": "Potrerillos",
        "state": "Cortés",
        "postcode": null,
        "country": "Honduras",
        "country_code": "hn"
      },
      "address": "Potrerillos, 21583 Cortés, Honduras"
    },
    {
      "lat": 15.23891405561623,
      "lon": -87.94874205390765,
      "geoinfo": {
        "display_name": "Potrerillos, Cortés, Honduras",
        "road": null,
        "house_number": null,
        "neighbourhood": null,
        "suburb": null,
        "city_district": null,
        "city": "Potrerillos",
        "state": "Cortés",
        "postcode": null,
        "country": "Honduras",
        "country_code": "hn"
      },
      "address": "Potrerillos, 23247 Cortés, Honduras"
    },
    {
      "lat": 15.247439364099204,
      "lon": -87.98659657600557,
      "geoinfo": {
        "display_name": "Pimienta, Cortés, Honduras",
        "road": null,
        "house_number": null,
        "neighbourhood": null,
        "suburb": null,
        "city_district": null,
        "city": null,
        "state": "Cortés",
        "postcode": null,
        "country": "Honduras",
        "country_code": "hn"
      },
      "address": "Potrerillos, 06997 Cortés, Honduras"
    },
    {
      "lat": 15.243511497984988,
      "lon": -87.97459846246619,
      "geoinfo": {
        "display_name": "Potrerillos, Cortés, Honduras",
        "road": null,
        "house_number": null,
        "neighbourhood": null,
        "suburb": null,
        "city_district": null,
        "city": "Potrerillos",
        "state": "Cortés",
        "postcode": null,
        "country": "Honduras",
        "country_code": "hn"
      },
      "address": "919, Potrerillos, 88272 Cortés, Honduras"
    },
    {
      "lat": 15.239384314225589,
      "lon": -87.94349790209647,
      "geoinfo": {
        "display_name": "Potrerillos, Cortés, Honduras",
        "road": null,
        "house_number": null,
        "neighbourhood": null,
        "suburb": null,
        "city_district": null,
        "city": "Potrerillos",
        "state": "Cortés",
        "postcode": null,
        "country": "Honduras",
        "country_code": "hn"
      },
      "address": "341, Potrerillos, 37287 Cortés, Honduras"
    },
    {
      "lat": 15.251080890760573,
      "lon": -87.94296629910822,
      "geoinfo": {
        "display_name": "Potrerillos, Cortés, 21000, Honduras",
        "road": null,
        "house_number": null,
        "neighbourhood": null,
        "suburb": null,
        "city_district": null,
        "city": null,
        "state": "Cortés",
        "postcode": "21000",
        "country": "Honduras",
        "country_code": "hn"
      },
      "address": "055, Potrerillos, Cortés, 21000, Honduras"
    },
    {
      "lat": 15.231610745877006,
      "lon": -87.95805338778555,
      "geoinfo": {
        "display_name": "Carretera CA-5, Potrerillos, Cortés, Honduras",
        "road": "Carretera CA-5",
        "house_number": null,
        "neighbourhood": null,
        "suburb": null,
        "city_district": null,
        "city": "Potrerillos",
        "state": "Cortés",
        "postcode": null,
        "country": "Honduras",
        "country_code": "hn"
      },
      "address": "Carretera CA-5, Potrerillos, 62036 Cortés, Honduras"
    },
    {
      "lat": 15.205301448484665,
      "lon": -87.99842755773608,
      "geoinfo": {
        "display_name": "Potrerillos, Cortés, 21000, Honduras",
        "road": null,
        "house_number": null,
        "neighbourhood": null,
        "suburb": null,
        "city_district": null,
        "city": null,
        "state": "Cortés",
        "postcode": "21000",
        "country": "Honduras",
        "country_code": "hn"
      },
      "address": "025, Potrerillos, Cortés, 21000, Honduras"
    },
    {
      "lat": 15.248001269719484,
      "lon": -87.9334095153371,
      "geoinfo": {
        "display_name": "El Progreso, Yoro, Honduras",
        "road": null,
        "house_number": null,
        "neighbourhood": null,
        "suburb": null,
        "city_district": null,
        "city": null,
        "state": "Yoro",
        "postcode": null,
        "country": "Honduras",
        "country_code": "hn"
      },
      "address": "452, El Progreso, 33843 Yoro, Honduras"
    },
    {
      "lat": 15.259011008710598,
      "lon": -87.97117322609334,
      "geoinfo": {
        "display_name": "Pimienta Vieja, Pimienta, Cortés, Honduras",
        "road": null,
        "house_number": null,
        "neighbourhood": null,
        "suburb": null,
        "city_district": null,
        "city": "Pimienta",
        "state": "Cortés",
        "postcode": null,
        "country": "Honduras",
        "country_code": "hn"
      },
      "address": "479, Potrerillos, 55999 Cortés, Honduras"
    },
    {
      "lat": 15.266465947122448,
      "lon": -87.9503016635684,
      "geoinfo": {
        "display_name": "El Chorizo, Pimienta, Cortés, Honduras",
        "road": null,
        "house_number": null,
        "neighbourhood": "El Chorizo",
        "suburb": null,
        "city_district": null,
        "city": "Pimienta",
        "state": "Cortés",
        "postcode": null,
        "country": "Honduras",
        "country_code": "hn"
      },
      "address": "299, El Chorizo, Pimienta, 75796 Cortés, Honduras"
    },
    {
      "lat": 15.222799942768749,
      "lon": -88.00757834064287,
      "geoinfo": {
        "display_name": "Potrerillos, Cortés, 21000, Honduras",
        "road": null,
        "house_number": null,
        "neighbourhood": null,
        "suburb": null,
        "city_district": null,
        "city": null,
        "state": "Cortés",
        "postcode": "21000",
        "country": "Honduras",
        "country_code": "hn"
      },
      "address": "369, Potrerillos, Cortés, 21000, Honduras"
    },
    {
      "lat": 15.2493842717404,
      "lon": -87.92883299361922,
      "geoinfo": {
        "display_name": "El Progreso, Yoro, Honduras",
        "road": null,
        "house_number": null,
        "neighbourhood": null,
        "suburb": null,
        "city_district": null,
        "city": null,
        "state": "Yoro",
        "postcode": null,
        "country": "Honduras",
        "country_code": "hn"
      },
      "address": "921, El Progreso, 07364 Yoro, Honduras"
    },
    {
      "lat": 15.194460644787519,
      "lon": -87.96964397409624,
      "geoinfo": {
        "display_name": "Potrerillos, Cortés, 21000, Honduras",
        "road": null,
        "house_number": null,
        "neighbourhood": null,
        "suburb": null,
        "city_district": null,
        "city": null,
        "state": "Cortés",
        "postcode": "21000",
        "country": "Honduras",
        "country_code": "hn"
      },
      "address": "555, Potrerillos, Cortés, 21000, Honduras"
    },
    {
      "lat": 15.217472770472954,
      "lon": -88.00440952437873,
      "geoinfo": {
        "display_name": "Potrerillos, Cortés, Honduras",
        "road": null,
        "house_number": null,
        "neighbourhood": null,
        "suburb": null,
        "city_district": null,
        "city": "Potrerillos",
        "state": "Cortés",
        "postcode": null,
        "country": "Honduras",
        "country_code": "hn"
      },
      "address": "059, Potrerillos, 81965 Cortés, Honduras"
    },
    {
      "lat": 15.19508587015794,
      "lon": -87.96742168379465,
      "geoinfo": {
        "display_name": "Potrerillos, Cortés, 21000, Honduras",
        "road": null,
        "house_number": null,
        "neighbourhood": null,
        "suburb": null,
        "city_district": null,
        "city": "Potrerillos",
        "state": "Cortés",
        "postcode": "21000",
        "country": "Honduras",
        "country_code": "hn"
      },
      "address": "500, Potrerillos, Cortés, 21000, Honduras"
    },
    {
      "lat": 15.25928427582294,
      "lon": -87.97440397497643,
      "geoinfo": {
        "display_name": "Pimienta Vieja, Pimienta, Cortés, Honduras",
        "road": null,
        "house_number": null,
        "neighbourhood": null,
        "suburb": null,
        "city_district": null,
        "city": "Pimienta",
        "state": "Cortés",
        "postcode": null,
        "country": "Honduras",
        "country_code": "hn"
      },
      "address": "002, Potrerillos, 43119 Cortés, Honduras"
    },
    {
      "lat": 15.22690766264911,
      "lon": -87.93885145419227,
      "geoinfo": {
        "display_name": "Santa Cruz de Yojoa, Cortés, Honduras",
        "road": null,
        "house_number": null,
        "neighbourhood": null,
        "suburb": null,
        "city_district": null,
        "city": null,
        "state": "Cortés",
        "postcode": null,
        "country": "Honduras",
        "country_code": "hn"
      },
      "address": "315, Santa Cruz de Yojoa, 36746 Cortés, Honduras"
    },
    {
      "lat": 15.203033030468985,
      "lon": -87.99522382124363,
      "geoinfo": {
        "display_name": "Potrerillos, Cortés, 21000, Honduras",
        "road": null,
        "house_number": null,
        "neighbourhood": null,
        "suburb": null,
        "city_district": null,
        "city": null,
        "state": "Cortés",
        "postcode": "21000",
        "country": "Honduras",
        "country_code": "hn"
      },
      "address": "801, Potrerillos, Cortés, 21000, Honduras"
    },
    {
      "lat": 15.226473106986745,
      "lon": -87.9590953122254,
      "geoinfo": {
        "display_name": "Carretera CA-5, Potrerillos, Cortés, Honduras",
        "road": "Carretera CA-5",
        "house_number": null,
        "neighbourhood": null,
        "suburb": null,
        "city_district": null,
        "city": "Potrerillos",
        "state": "Cortés",
        "postcode": null,
        "country": "Honduras",
        "country_code": "hn"
      },
      "address": "Carretera CA-5, Potrerillos, 55381 Cortés, Honduras"
    },
    {
      "lat": 15.21042428405489,
      "lon": -87.99231300386568,
      "geoinfo": {
        "display_name": "Potrerillos, Cortés, 21000, Honduras",
        "road": null,
        "house_number": null,
        "neighbourhood": null,
        "suburb": null,
        "city_district": null,
        "city": null,
        "state": "Cortés",
        "postcode": "21000",
        "country": "Honduras",
        "country_code": "hn"
      },
      "address": "929, Potrerillos, Cortés, 21000, Honduras"
    }
  ],
  "updated_at": "2025-10-19T04:42:13.537600+00:00",
  "_kind": "geo_samples"
}