{
  "country_code": "HN",
  "country": "Honduras",
  "city": "San Pedro Sula",
  "geonameid": 3601782,
  "target_addresses": 5,
  "samples": [
    {
      "lat": 15.511682938029187,
      "lon": -87.99923499843894,
      "geoinfo": {
        "display_name": "San Pedro Sula, Cortés, 21101, Honduras",
        "road": null,
        "house_number": null,
        "neighbourhood": null,
        "suburb": null,
        "city_district": null,
        "city": "San Pedro Sula",
        "state": "Cortés",
        "postcode": "21101",
        "country": "Honduras",
        "country_code": "hn"
      },
      "address": "696, San Pedro Sula, Cortés, 21101, Honduras"
    },
    {
      "lat": 15.465666988391824,
      "lon": -88.03127568686804,
      "geoinfo": {
        "display_name": "1a Avenida, San Pedro Sula, Cortés, 21104, Honduras",
        "road": "1a Avenida",
        "house_number": null,
        "neighbourhood": null,
        "suburb": null,
        "city_district": null,
        "city": "San Pedro Sula",
        "state": "Cortés",
        "postcode": "21104",
        "country": "Honduras",
        "country_code": "hn"
      },
      "address": "1a Avenida, San Pedro Sula, Cortés, 21104, Honduras"
    },
    {
      "lat": 15.478148210819814,
      "lon": -87.9914931094528,
      "geoinfo": {
        "display_name": "San Pedro Sula, Cortés, 21103, Honduras",
        "road": null,
        "house_number": null,
        "neighbourhood": null,
        "suburb": null,
        "city_district": null,
        "city": "San Pedro Sula",
        "state": "Cortés",
        "postcode": "21103",
        "country": "Honduras",
        "country_code": "hn"
      },
      "address": "712, San Pedro Sula, Cortés, 21103, Honduras"
    },
    {
      "lat": 15.5349991122176,
      "lon": -87.9977781034219,
      "geoinfo": {
        "display_name": "3era Avenida, Residencial Campisa, San Pedro Sula, Cortés, 21101, Honduras",
        "road": "3era Avenida",
        "house_number": null,
        "neighbourhood": "Residencial Campisa",
        "suburb": null,
        "city_district": null,
        "city": "San Pedro Sula",
        "state": "Cortés",
        "postcode": "21101",
        "country": "Honduras",
        "country_code": "hn"
      },
      "address": "3era Avenida, Residencial Campisa, San Pedro Sula, Cortés, 21101, Honduras"
    },
    {
      "lat": 15.52262128913798,
      "lon": -88.00316598648661,
      "geoinfo": {
        "display_name": "Segundo Anillo Periférico, San Pedro Sula, Cortés, 21101, Honduras",
        "road": "Segundo Anillo Periférico",
        "house_number": null,
        "neighbourhood": null,
        "suburb": null,
        "city_district": null,
        "city": "San Pedro Sula",
        "state": "Cortés",
        "postcode": "21101",
        "country": "Honduras",
        "country_code": "hn"
      },
      "address": "361, Segundo Anillo Periférico, San Pedro Sula, Cortés, 21101, Honduras"
    }
  ],
  "updated_at": "2025-10-19T04:12:26.265670+00:00",
  "_kind": "geo_samples"
}