{
  "country_code": "HN",
  "country": "Honduras",
  "city": "Tegucigalpa",
  "geonameid": 3600949,
  "target_addresses": 5,
  "samples": [
    {
      "lat": 14.08273266412172,
      "lon": -87.23485833344533,
      "geoinfo": {
        "display_name": "Colonia Fatima, Distrito Los Laureles 1, Tegucigalpa, Distrito Central, Francisco Morazán, 15012, Honduras",
        "road": null,
        "house_number": null,
        "neighbourhood": null,
        "suburb": null,
        "city_district": "Distrito Los Laureles 1",
        "city": "Tegucigalpa",
        "state": "Francisco Morazán",
        "postcode": "15012",
        "country": "Honduras",
        "country_code": "hn"
      },
      "address": "Distrito Los Laureles 1, Tegucigalpa, Francisco Morazán, Honduras"
    },
    {
      "lat": 14.08070203673151,
      "lon": -87.2398577975012,
      "geoinfo": {
        "display_name": "Pasaje 12, Colonia Arturo Quezada, Distrito Los Laureles 1, Tegucigalpa, Distrito Central, Francisco Morazán, 15012, Honduras",
        "road": "Pasaje 12",
        "house_number": null,
        "neighbourhood": "Colonia Arturo Quezada",
        "suburb": null,
        "city_district": "Distrito Los Laureles 1",
        "city": "Tegucigalpa",
        "state": "Francisco Morazán",
        "postcode": "15012",
        "country": "Honduras",
        "country_code": "hn"
      },
      "address": "Pasaje 12, Tegucigalpa, Francisco Morazán, Honduras"
    },
    {
      "lat": 14.052266160647934,
      "lon": -87.22230142349302,
      "geoinfo": {
        "display_name": "Colonia América, Distrito Toncontín, Tegucigalpa, Distrito Central, Francisco Morazán, 15012, Honduras",
        "road": null,
        "house_number": null,
        "neighbourhood": "Colonia América",
        "suburb": null,
        "city_district": "Distrito Toncontín",
        "city": "Tegucigalpa",
        "state": "Francisco Morazán",
        "postcode": "15012",
        "country": "Honduras",
        "country_code": "hn"
      },
      "address": "Colonia América, Tegucigalpa, Francisco Morazán, Honduras"
    },
    {
      "lat": 14.067305329680204,
      "lon": -87.22346983654236,
      "geoinfo": {
        "display_name": "Colonia Luis Andrés Zúñiga, Distrito Toncontín, Tegucigalpa, Distrito Central, Francisco Morazán, 15012, Honduras",
        "road": null,
        "house_number": null,
        "neighbourhood": "Colonia Luis Andrés Zúñiga",
        "suburb": null,
        "city_district": "Distrito Toncontín",
        "city": "Tegucigalpa",
        "state": "Francisco Morazán",
        "postcode": "15012",
        "country": "Honduras",
        "country_code": "hn"
      },
      "address": "Colonia Luis Andrés Zúñiga, Tegucigalpa, Francisco Morazán, Honduras"
    },
    {
      "lat": 14.083857174032838,
      "lon": -87.22301850414625,
      "geoinfo": {
        "display_name": "Avenida Boris Osorio, Colonia República de Venezuela 2, Distrito Toncontín, Tegucigalpa, Distrito Central, Francisco Morazán, 15012, Honduras",
        "road": "Avenida Boris Osorio",
        "house_number": null,
        "neighbourhood": "Colonia República de Venezuela 2",
        "suburb": null,
        "city_district": "Distrito Toncontín",
        "city": "Tegucigalpa",
        "state": "Francisco Morazán",
        "postcode": "15012",
        "country": "Honduras",
        "country_code": "hn"
      },
      "address": "Avenida Boris Osorio, Tegucigalpa, Francisco Morazán, Honduras"
    },
    {
      "lat": 14.06400676128663,
      "lon": -87.19718315503412,
      "geoinfo": {
        "display_name": "Distrito Kennedy, Tegucigalpa, Distrito Central, Francisco Morazán, 11100, Honduras",
        "road": null,
        "house_number": null,
        "neighbourhood": "Distrito Kennedy",
        "suburb": null,
        "city_district": null,
        "city": "Tegucigalpa",
        "state": "Francisco Morazán",
        "postcode": "11100",
        "country": "Honduras",
        "country_code": "hn"
      },
      "address": "617, Distrito Kennedy, Tegucigalpa, Distrito Central, Francisco Morazán, 11100, Honduras"
    },
    {
      "lat": 14.119438992598567,
      "lon": -87.20019445710005,
      "geoinfo": {
        "display_name": "El Picachito, Distrito El Picacho, Tegucigalpa, Distrito Central, Francisco Morazán, 11100, Honduras",
        "road": null,
        "house_number": null,
        "neighbourhood": "El Picachito",
        "suburb": null,
        "city_district": "Distrito El Picacho",
        "city": "Tegucigalpa",
        "state": "Francisco Morazán",
        "postcode": "11100",
        "country": "Honduras",
        "country_code": "hn"
      },
      "address": "101, El Picachito, Distrito El Picacho, Tegucigalpa, Distrito Central, Francisco Morazán, 11100, Honduras"
    },
    {
      "lat": 14.07624755390439,
      "lon": -87.17388223546831,
      "geoinfo": {
        "display_name": "Distrito Morazán, Tegucigalpa, Distrito Central, Francisco Morazán, 11100, Honduras",
        "road": null,
        "house_number": null,
        "neighbourhood": "Distrito Morazán",
        "suburb": null,
        "city_district": null,
        "city": "Tegucigalpa",
        "state": "Francisco Morazán",
        "postcode": "11100",
        "country": "Honduras",
        "country_code": "hn"
      },
      "address": "322, Distrito Morazán, Tegucigalpa, Distrito Central, Francisco Morazán, 11100, Honduras"
    },
    {
      "lat": 14.083742985751023,
      "lon": -87.16521204818616,
      "geoinfo": {
        "display_name": "Universidad Nacional Autónoma de Honduras, Boulevard Suyapa, Distrito Morazán, Tegucigalpa, Distrito Central, Francisco Morazán, 11001, Honduras",
        "road": "Boulevard Suyapa",
        "house_number": null,
        "neighbourhood": "Distrito Morazán",
        "suburb": null,
        "city_district": null,
        "city": "Tegucigalpa",
        "state": "Francisco Morazán",
        "postcode": "11001",
        "country": "Honduras",
        "country_code": "hn"
      },
      "address": "052, Boulevard Suyapa, Tegucigalpa, 11001 Francisco Morazán, Honduras"
    },
    {
      "lat": 14.056420584547258,
      "lon": -87.2391445804722,
      "geoinfo": {
        "display_name": "Calle Algarrobillo, Colonia Los Robles, Distrito Toncontín, Tegucigalpa, Distrito Central, Francisco Morazán, 15012, Honduras",
        "road": "Calle Algarrobillo",
        "house_number": null,
        "neighbourhood": "Colonia Los Robles",
        "suburb": null,
        "city_district": "Distrito Toncontín",
        "city": "Tegucigalpa",
        "state": "Francisco Morazán",
        "postcode": "15012",
        "country": "Honduras",
        "country_code": "hn"
      },
      "address": "124, Calle Algarrobillo, Colonia Los Robles, Distrito Toncontín, Tegucigalpa, Distrito Central, Francisco Morazán, 15012, Honduras"
    }
  ],
  "updated_at": "2025-10-19T04:39:58.472361+00:00",
  "_kind": "geo_samples"
}