{
  "country_code": "HN",
  "country": "Honduras",
  "city": "Tocoa",
  "geonameid": 3600704,
  "target_addresses": 5,
  "samples": [
    {
      "lat": 15.685799827345551,
      "lon": -86.03240456713841,
      "geoinfo": {
        "display_name": "Trujillo, Colón, Honduras",
        "road": null,
        "house_number": null,
        "neighbourhood": null,
        "suburb": null,
        "city_district": null,
        "city": "Trujillo",
        "state": "Colón",
        "postcode": null,
        "country": "Honduras",
        "country_code": "hn"
      },
      "address": "Tocoa, Colón, Honduras"
    },
    {
      "lat": 15.657987432232897,
      "lon": -85.98729480998925,
      "geoinfo": {
        "display_name": "19 Avenida NE, Tocoa, Colón, 32301, Honduras",
        "road": "19 Avenida NE",
        "house_number": null,
        "neighbourhood": null,
        "suburb": null,
        "city_district": null,
        "city": "Tocoa",
        "state": "Colón",
        "postcode": "32301",
        "country": "Honduras",
        "country_code": "hn"
      },
      "address": "19 Avenida NE, Tocoa, Colón, Honduras"
    },
    {
      "lat": 15.674817041856713,
      "lon": -86.005078829587,
      "geoinfo": {
        "display_name": "20 Calle NO, Tocoa, Colón, 32301, Honduras",
        "road": "20 Calle NO",
        "house_number": null,
        "neighbourhood": null,
        "suburb": null,
        "city_district": null,
        "city": "Tocoa",
        "state": "Colón",
        "postcode": "32301",
        "country": "Honduras",
        "country_code": "hn"
      },
      "address": "20 Calle NO, Tocoa, Colón, Honduras"
    },
    {
      "lat": 15.642730537634558,
      "lon": -86.00703390957992,
      "geoinfo": {
        "display_name": "1a Avenida SE, Tocoa, Colón, 32301, Honduras",
        "road": "1a Avenida SE",
        "house_number": null,
        "neighbourhood": null,
        "suburb": null,
        "city_district": null,
        "city": "Tocoa",
        "state": "Colón",
        "postcode": "32301",
        "country": "Honduras",
        "country_code": "hn"
      },
      "address": "1a Avenida SE, Tocoa, Colón, 32301, Honduras"
    },
    {
      "lat": 15.66475805672945,
      "lon": -86.02160321907611,
      "geoinfo": {
        "display_name": "Calle Central Oeste, Tocoa, Colón, 32301, Honduras",
        "road": "Calle Central Oeste",
        "house_number": null,
        "neighbourhood": null,
        "suburb": null,
        "city_district": null,
        "city": "Tocoa",
        "state": "Colón",
        "postcode": "32301",
        "country": "Honduras",
        "country_code": "hn"
      },
      "address": "402, Calle Central Oeste, Tocoa, Colón, 32301, Honduras"
    },
    {
      "lat": 15.657670482985178,
      "lon": -86.03694587288139,
      "geoinfo": {
        "display_name": "La Ceibita, Tocoa, Colón, 32301, Honduras",
        "road": null,
        "house_number": null,
        "neighbourhood": null,
        "suburb": null,
        "city_district": null,
        "city": "Tocoa",
        "state": "Colón",
        "postcode": "32301",
        "country": "Honduras",
        "country_code": "hn"
      },
      "address": "129, La Ceibita, Tocoa, Colón, 32301, Honduras"
    },
    {
      "lat": 15.645824035863358,
      "lon": -85.97963774568846,
      "geoinfo": {
        "display_name": "3a Calle SE, Tocoa, Colón, 32301, Honduras",
        "road": "3a Calle SE",
        "house_number": null,
        "neighbourhood": null,
        "suburb": null,
        "city_district": null,
        "city": "Tocoa",
        "state": "Colón",
        "postcode": "32301",
        "country": "Honduras",
        "country_code": "hn"
      },
      "address": "3a Calle SE, Tocoa, Colón, 32301, Honduras"
    },
    {
      "lat": 15.657334779236038,
      "lon": -85.99034665460641,
      "geoinfo": {
        "display_name": "15 Avenida NE, Tocoa, Colón, 32301, Honduras",
        "road": "15 Avenida NE",
        "house_number": null,
        "neighbourhood": null,
        "suburb": null,
        "city_district": null,
        "city": "Tocoa",
        "state": "Colón",
        "postcode": "32301",
        "country": "Honduras",
        "country_code": "hn"
      },
      "address": "15 Avenida NE, Tocoa, Colón, 32301, Honduras"
    }
  ],
  "updated_at": "2025-10-19T02:55:43.971591+00:00",
  "_kind": "geo_samples"
}