{
  "country_code": "HN",
  "country": "Honduras",
  "city": "Yoro",
  "geonameid": 3600195,
  "target_addresses": 5,
  "samples": [
    {
      "lat": 15.143335055613223,
      "lon": -87.16297309281278,
      "geoinfo": {
        "display_name": "Yoro, 23101, Honduras",
        "road": null,
        "house_number": null,
        "neighbourhood": null,
        "suburb": null,
        "city_district": null,
        "city": "Yoro",
        "state": "Yoro",
        "postcode": "23101",
        "country": "Honduras",
        "country_code": "hn"
      },
      "address": "Yoro, Yoro, Honduras"
    },
    {
      "lat": 15.131702969826746,
      "lon": -87.12471027976483,
      "geoinfo": {
        "display_name": "3a Avenida SE, Barrio Las Delicias, Yoro, 23101, Honduras",
        "road": "3a Avenida SE",
        "house_number": null,
        "neighbourhood": "Barrio Las Delicias",
        "suburb": null,
        "city_district": null,
        "city": "Yoro",
        "state": "Yoro",
        "postcode": "23101",
        "country": "Honduras",
        "country_code": "hn"
      },
      "address": "3a Avenida SE, Yoro, Yoro, Honduras"
    },
    {
      "lat": 15.154293094918675,
      "lon": -87.14517930388774,
      "geoinfo": {
        "display_name": "Colonia Canadá Hawit, Yoro, 23101, Honduras",
        "road": null,
        "house_number": null,
        "neighbourhood": "Colonia Canadá Hawit",
        "suburb": null,
        "city_district": null,
        "city": "Yoro",
        "state": "Yoro",
        "postcode": "23101",
        "country": "Honduras",
        "country_code": "hn"
      },
      "address": "Colonia Canadá Hawit, Yoro, Yoro, Honduras"
    },
    {
      "lat": 15.130801915262177,
      "lon": -87.1434967782886,
      "geoinfo": {
        "display_name": "Colonia Porfirio Martínez, Yoro, 23101, Honduras",
        "road": null,
        "house_number": null,
        "neighbourhood": "Colonia Porfirio Martínez",
        "suburb": null,
        "city_district": null,
        "city": "Yoro",
        "state": "Yoro",
        "postcode": "23101",
        "country": "Honduras",
        "country_code": "hn"
      },
      "address": "Colonia Porfirio Martínez, Yoro, Yoro, Honduras"
    },
    {
      "lat": 15.130197017815199,
      "lon": -87.14023229167147,
      "geoinfo": {
        "display_name": "8a Calle SO, Barrio Las Colinas, Yoro, 23101, Honduras",
        "road": "8a Calle SO",
        "house_number": null,
        "neighbourhood": "Barrio Las Colinas",
        "suburb": null,
        "city_district": null,
        "city": "Yoro",
        "state": "Yoro",
        "postcode": "23101",
        "country": "Honduras",
        "country_code": "hn"
      },
      "address": "8a Calle SO, Yoro, Yoro, Honduras"
    },
    {
      "lat": 15.109620928628303,
      "lon": -87.10636406729498,
      "geoinfo": {
        "display_name": "Colonia Altamira, Yoro, 23101, Honduras",
        "road": null,
        "house_number": null,
        "neighbourhood": "Colonia Altamira",
        "suburb": null,
        "city_district": null,
        "city": "Yoro",
        "state": "Yoro",
        "postcode": "23101",
        "country": "Honduras",
        "country_code": "hn"
      },
      "address": "329, Colonia Altamira, Yoro, 23101, Honduras"
    },
    {
      "lat": 15.127920651206358,
      "lon": -87.10887602748346,
      "geoinfo": {
        "display_name": "Colonia Altamira, Yoro, 23101, Honduras",
        "road": null,
        "house_number": null,
        "neighbourhood": "Colonia Altamira",
        "suburb": null,
        "city_district": null,
        "city": "Yoro",
        "state": "Yoro",
        "postcode": "23101",
        "country": "Honduras",
        "country_code": "hn"
      },
      "address": "812, Colonia Altamira, Yoro, 23101, Honduras"
    },
    {
      "lat": 15.131981586415982,
      "lon": -87.14603019701438,
      "geoinfo": {
        "display_name": "Carretera Yoro - Morazan, Colonia Rafael Díaz, Yoro, 23101, Honduras",
        "road": "Carretera Yoro - Morazan",
        "house_number": null,
        "neighbourhood": "Colonia Rafael Díaz",
        "suburb": null,
        "city_district": null,
        "city": "Yoro",
        "state": "Yoro",
        "postcode": "23101",
        "country": "Honduras",
        "country_code": "hn"
      },
      "address": "898, Carretera Yoro - Morazan, Colonia Rafael Díaz, Yoro, 23101, Honduras"
    },
    {
      "lat": 15.12946598930401,
      "lon": -87.10232494766883,
      "geoinfo": {
        "display_name": "Colonia Emmanuel, Yoro, 23101, Honduras",
        "road": null,
        "house_number": null,
        "neighbourhood": "Colonia Emmanuel",
        "suburb": null,
        "city_district": null,
        "city": "Yoro",
        "state": "Yoro",
        "postcode": "23101",
        "country": "Honduras",
        "country_code": "hn"
      },
      "address": "911, Colonia Emmanuel, Yoro, 23101, Honduras"
    },
    {
      "lat": 15.140945751952529,
      "lon": -87.14355711275614,
      "geoinfo": {
        "display_name": "Colonia Canadá Hawit, Yoro, 23101, Honduras",
        "road": null,
        "house_number": null,
        "neighbourhood": "Colonia Canadá Hawit",
        "suburb": null,
        "city_district": null,
        "city": "Yoro",
        "state": "Yoro",
        "postcode": "23101",
        "country": "Honduras",
        "country_code": "hn"
      },
      "address": "005, Colonia Canadá Hawit, Yoro, 23101, Honduras"
    }
  ],
  "updated_at": "2025-10-19T04:41:56.818204+00:00",
  "_kind": "geo_samples"
}