{
  "country_code": "MW",
  "country": "Malawi",
  "city": "Liwonde",
  "geonameid": 927834,
  "target_addresses": 5,
  "samples": [
    {
      "lat": -15.035484463815724,
      "lon": 35.236615973464524,
      "geoinfo": {
        "display_name": "Liwonde (city), Liwonde (Machinga), Machinga, Southern Region, Malawi, Malawi",
        "road": null,
        "house_number": null,
        "neighbourhood": null,
        "suburb": null,
        "city_district": null,
        "city": "Liwonde (city)",
        "state": "Machinga",
        "postcode": null,
        "country": "Malawi",
        "country_code": "mw"
      },
      "address": "Liwonde, Machinga, Malawi"
    },
    {
      "lat": -15.036806141748823,
      "lon": 35.22466301546979,
      "geoinfo": {
        "display_name": "Amidu, Balaka, Southern Region, Malawi, Malawi",
        "road": null,
        "house_number": null,
        "neighbourhood": null,
        "suburb": null,
        "city_district": null,
        "city": null,
        "state": "Balaka",
        "postcode": null,
        "country": "Malawi",
        "country_code": "mw"
      },
      "address": "Liwonde, Balaka, Malawi"
    },
    {
      "lat": -15.071323972326477,
      "lon": 35.260703263234156,
      "geoinfo": {
        "display_name": "Ntaja Road, Liwonde (city), Liwonde (Machinga), Machinga, Southern Region, Malawi, Malawi",
        "road": "Ntaja Road",
        "house_number": null,
        "neighbourhood": null,
        "suburb": null,
        "city_district": null,
        "city": "Liwonde (city)",
        "state": "Machinga",
        "postcode": null,
        "country": "Malawi",
        "country_code": "mw"
      },
      "address": "Ntaja Road, Liwonde, Machinga, Malawi"
    },
    {
      "lat": -15.06558974964502,
      "lon": 35.22622871684763,
      "geoinfo": {
        "display_name": "Liwonde (city), Liwonde (Machinga), Machinga, Southern Region, Malawi, Malawi",
        "road": null,
        "house_number": null,
        "neighbourhood": null,
        "suburb": null,
        "city_district": null,
        "city": "Liwonde (city)",
        "state": "Machinga",
        "postcode": null,
        "country": "Malawi",
        "country_code": "mw"
      },
      "address": "452, Liwonde (city), Liwonde (Machinga), Machinga, Southern Region, 15323 Malawi, Malawi"
    },
    {
      "lat": -15.105882895211836,
      "lon": 35.212275999675036,
      "geoinfo": {
        "display_name": "Sitola, Machinga, Southern Region, Malawi, Malawi",
        "road": null,
        "house_number": null,
        "neighbourhood": null,
        "suburb": null,
        "city_district": null,
        "city": null,
        "state": "Machinga",
        "postcode": null,
        "country": "Malawi",
        "country_code": "mw"
      },
      "address": "941, Liwonde, 25761 Machinga, Malawi"
    },
    {
      "lat": -15.103411642007515,
      "lon": 35.24119683734056,
      "geoinfo": {
        "display_name": "Sitola, Machinga, Southern Region, Malawi, Malawi",
        "road": null,
        "house_number": null,
        "neighbourhood": null,
        "suburb": null,
        "city_district": null,
        "city": null,
        "state": "Machinga",
        "postcode": null,
        "country": "Malawi",
        "country_code": "mw"
      },
      "address": "677, Liwonde, 17123 Machinga, Malawi"
    },
    {
      "lat": -15.057009768501649,
      "lon": 35.25042076995287,
      "geoinfo": {
        "display_name": "Liwonde (city), Liwonde (Machinga), Machinga, Southern Region, Malawi, Malawi",
        "road": null,
        "house_number": null,
        "neighbourhood": null,
        "suburb": null,
        "city_district": null,
        "city": "Liwonde (city)",
        "state": "Machinga",
        "postcode": null,
        "country": "Malawi",
        "country_code": "mw"
      },
      "address": "367, Liwonde (city), Liwonde (Machinga), Machinga, Southern Region, 85817 Malawi, Malawi"
    },
    {
      "lat": -15.093386727982933,
      "lon": 35.23342658224528,
      "geoinfo": {
        "display_name": "Sitola, Machinga, Southern Region, Malawi, Malawi",
        "road": null,
        "house_number": null,
        "neighbourhood": null,
        "suburb": null,
        "city_district": null,
        "city": null,
        "state": "Machinga",
        "postcode": null,
        "country": "Malawi",
        "country_code": "mw"
      },
      "address": "586, Liwonde, 23483 Machinga, Malawi"
    }
  ],
  "updated_at": "2025-10-19T04:26:21.650075+00:00",
  "_kind": "geo_samples"
}