{
  "country_code": "MW",
  "country": "Malawi",
  "city": "Rumphi",
  "geonameid": 924102,
  "target_addresses": 5,
  "samples": [
    {
      "lat": -11.03186819793696,
      "lon": 33.89902978084862,
      "geoinfo": {
        "display_name": "T305, N'gonga, Rumphi, Northern Region, Malawi, Malawi",
        "road": "T305",
        "house_number": null,
        "neighbourhood": null,
        "suburb": null,
        "city_district": null,
        "city": "N'gonga",
        "state": "Rumphi",
        "postcode": null,
        "country": "Malawi",
        "country_code": "mw"
      },
      "address": "T305, N'gonga, Rumphi, Northern Region, 21467 Malawi, Malawi"
    },
    {
      "lat": -10.987708216292114,
      "lon": 33.85526110463047,
      "geoinfo": {
        "display_name": "Rumphi, Northern Region, Malawi, Malawi",
        "road": null,
        "house_number": null,
        "neighbourhood": null,
        "suburb": null,
        "city_district": null,
        "city": "Rumphi",
        "state": "Rumphi",
        "postcode": null,
        "country": "Malawi",
        "country_code": "mw"
      },
      "address": "019, Rumphi, Northern Region, 05277 Malawi, Malawi"
    },
    {
      "lat": -11.001250747598322,
      "lon": 33.82219953256275,
      "geoinfo": {
        "display_name": "Wow, Rumphi, Northern Region, Malawi, Malawi",
        "road": null,
        "house_number": null,
        "neighbourhood": null,
        "suburb": null,
        "city_district": null,
        "city": "Wow",
        "state": "Rumphi",
        "postcode": null,
        "country": "Malawi",
        "country_code": "mw"
      },
      "address": "765, Wow, Rumphi, Northern Region, 32716 Malawi, Malawi"
    },
    {
      "lat": -10.99694374340779,
      "lon": 33.87675333031057,
      "geoinfo": {
        "display_name": "Chilambiro, Rumphi, Northern Region, Malawi, Malawi",
        "road": null,
        "house_number": null,
        "neighbourhood": null,
        "suburb": null,
        "city_district": null,
        "city": "Chilambiro",
        "state": "Rumphi",
        "postcode": null,
        "country": "Malawi",
        "country_code": "mw"
      },
      "address": "812, Chilambiro, Rumphi, Northern Region, 76341 Malawi, Malawi"
    },
    {
      "lat": -11.011866644776742,
      "lon": 33.838062430511314,
      "geoinfo": {
        "display_name": "Rumphi, Northern Region, Malawi, Malawi",
        "road": null,
        "house_number": null,
        "neighbourhood": null,
        "suburb": null,
        "city_district": null,
        "city": "Rumphi",
        "state": "Rumphi",
        "postcode": null,
        "country": "Malawi",
        "country_code": "mw"
      },
      "address": "018, Rumphi, Northern Region, 67746 Malawi, Malawi"
    }
  ],
  "updated_at": "2025-10-19T05:18:34.787015+00:00",
  "_kind": "geo_samples"
}