{
  "country_code": "BT",
  "country": "Bhutan",
  "city": "Phuntsholing",
  "geonameid": 1252484,
  "target_addresses": 25,
  "samples": [
    {
      "lat": 26.85400942705781,
      "lon": 89.41534806867557,
      "geoinfo": {
        "display_name": "Dophugchen Wangduegatshel, Phuentshogling Gewog, Chukha, Bhutan",
        "road": null,
        "house_number": null,
        "neighbourhood": null,
        "suburb": null,
        "city_district": null,
        "city": "Dophugchen Wangduegatshel",
        "state": "Chukha",
        "postcode": null,
        "country": "Bhutan",
        "country_code": "bt"
      },
      "address": "Phuntsholing, Chukha, Bhutan"
    },
    {
      "lat": 26.86019487131919,
      "lon": 89.40605900822979,
      "geoinfo": {
        "display_name": "Phuentsholing-Thimphu Asian Highway, Dophugchen Wangduegatshel, Phuentshogling Gewog, Chukha, Bhutan",
        "road": "Phuentsholing-Thimphu Asian Highway",
        "house_number": null,
        "neighbourhood": null,
        "suburb": null,
        "city_district": null,
        "city": "Dophugchen Wangduegatshel",
        "state": "Chukha",
        "postcode": null,
        "country": "Bhutan",
        "country_code": "bt"
      },
      "address": "Phuentsholing-Thimphu Asian Highway, Phuntsholing, Chukha, Bhutan"
    },
    {
      "lat": 26.875379022020873,
      "lon": 89.42435696797304,
      "geoinfo": {
        "display_name": "Thimphu to Phuentsholing Highway, Dophugchen Wangduegatshel, Phuentshogling Gewog, Chukha, Bhutan",
        "road": "Thimphu to Phuentsholing Highway",
        "house_number": null,
        "neighbourhood": null,
        "suburb": null,
        "city_district": null,
        "city": "Dophugchen Wangduegatshel",
        "state": "Chukha",
        "postcode": null,
        "country": "Bhutan",
        "country_code": "bt"
      },
      "address": "Thimphu to Phuentsholing Highway, Phuntsholing, Chukha, Bhutan"
    },
    {
      "lat": 26.86168439702732,
      "lon": 89.38315733919775,
      "geoinfo": {
        "display_name": "Maya Tshongkhang, AH-48, Phuntsholing, Dzongkhag Thromde, Phuentshogling Gewog, Chukha, Bhutan",
        "road": "AH-48",
        "house_number": null,
        "neighbourhood": null,
        "suburb": null,
        "city_district": null,
        "city": "Dzongkhag Thromde",
        "state": "Chukha",
        "postcode": null,
        "country": "Bhutan",
        "country_code": "bt"
      },
      "address": "AH-48, Phuntsholing, Chukha, Bhutan"
    },
    {
      "lat": 26.893876166403953,
      "lon": 89.39847558776768,
      "geoinfo": {
        "display_name": "Deling Marpji, Phuentshogling Gewog, Chukha, Bhutan",
        "road": null,
        "house_number": null,
        "neighbourhood": null,
        "suburb": null,
        "city_district": null,
        "city": "Deling Marpji",
        "state": "Chukha",
        "postcode": null,
        "country": "Bhutan",
        "country_code": "bt"
      },
      "address": "701, Phuntsholing, 77554 Chukha, Bhutan"
    },
    {
      "lat": 26.86853876525126,
      "lon": 89.40402284605744,
      "geoinfo": {
        "display_name": "Dophugchen Wangduegatshel, Phuentshogling Gewog, Chukha, Bhutan",
        "road": null,
        "house_number": null,
        "neighbourhood": null,
        "suburb": null,
        "city_district": null,
        "city": "Dophugchen Wangduegatshel",
        "state": "Chukha",
        "postcode": null,
        "country": "Bhutan",
        "country_code": "bt"
      },
      "address": "711, Phuntsholing, 23279 Chukha, Bhutan"
    },
    {
      "lat": 26.872732739227352,
      "lon": 89.4232420072074,
      "geoinfo": {
        "display_name": "Pekarling Rigzinling, Samphelling Gewog, Chukha, Bhutan",
        "road": null,
        "house_number": null,
        "neighbourhood": null,
        "suburb": null,
        "city_district": null,
        "city": "Pekarling Rigzinling",
        "state": "Chukha",
        "postcode": null,
        "country": "Bhutan",
        "country_code": "bt"
      },
      "address": "891, Phuntsholing, 10697 Chukha, Bhutan"
    },
    {
      "lat": 26.88237280047216,
      "lon": 89.38771520597192,
      "geoinfo": {
        "display_name": "Pachhu, Phuentshogling Gewog, Chukha, Bhutan",
        "road": null,
        "house_number": null,
        "neighbourhood": null,
        "suburb": null,
        "city_district": null,
        "city": "Pachhu",
        "state": "Chukha",
        "postcode": null,
        "country": "Bhutan",
        "country_code": "bt"
      },
      "address": "768, Phuntsholing, 36246 Chukha, Bhutan"
    },
    {
      "lat": 26.88927332164414,
      "lon": 89.36434228016323,
      "geoinfo": {
        "display_name": "Phuntsholing, Dzongkhag Thromde, Phuentshogling Gewog, Chukha, Bhutan",
        "road": null,
        "house_number": null,
        "neighbourhood": null,
        "suburb": null,
        "city_district": null,
        "city": "Dzongkhag Thromde",
        "state": "Chukha",
        "postcode": null,
        "country": "Bhutan",
        "country_code": "bt"
      },
      "address": "252, Phuntsholing, Dzongkhag Thromde, Phuentshogling Gewog, 31601 Chukha, Bhutan"
    },
    {
      "lat": 26.871104825642334,
      "lon": 89.42049600349614,
      "geoinfo": {
        "display_name": "Thimphu to Phuentsholing Highway, Dophugchen Wangduegatshel, Phuentshogling Gewog, Chukha, Bhutan",
        "road": "Thimphu to Phuentsholing Highway",
        "house_number": null,
        "neighbourhood": null,
        "suburb": null,
        "city_district": null,
        "city": "Dophugchen Wangduegatshel",
        "state": "Chukha",
        "postcode": null,
        "country": "Bhutan",
        "country_code": "bt"
      },
      "address": "572, Thimphu to Phuentsholing Highway, Dophugchen Wangduegatshel, Phuentshogling Gewog, 72519 Chukha, Bhutan"
    },
    {
      "lat": 26.855795977130192,
      "lon": 89.38886800782532,
      "geoinfo": {
        "display_name": "Phuntsholing, Dzongkhag Thromde, Phuentshogling Gewog, Chukha, Bhutan",
        "road": null,
        "house_number": null,
        "neighbourhood": null,
        "suburb": null,
        "city_district": null,
        "city": "Dzongkhag Thromde",
        "state": "Chukha",
        "postcode": null,
        "country": "Bhutan",
        "country_code": "bt"
      },
      "address": "492, Phuntsholing, Dzongkhag Thromde, Phuentshogling Gewog, 41595 Chukha, Bhutan"
    },
    {
      "lat": 26.870701051710643,
      "lon": 89.3831266794663,
      "geoinfo": {
        "display_name": "Phuntsholing, Dzongkhag Thromde, Phuentshogling Gewog, Chukha, Bhutan",
        "road": null,
        "house_number": null,
        "neighbourhood": null,
        "suburb": null,
        "city_district": null,
        "city": "Dzongkhag Thromde",
        "state": "Chukha",
        "postcode": null,
        "country": "Bhutan",
        "country_code": "bt"
      },
      "address": "508, Phuntsholing, Dzongkhag Thromde, Phuentshogling Gewog, 73715 Chukha, Bhutan"
    },
    {
      "lat": 26.855192073097218,
      "lon": 89.42961945733067,
      "geoinfo": {
        "display_name": "Balujora, Sengyegang Tsho-Chhoongna, Samphelling Gewog, Chukha, Bhutan",
        "road": null,
        "house_number": null,
        "neighbourhood": null,
        "suburb": null,
        "city_district": null,
        "city": "Sengyegang Tsho-Chhoongna",
        "state": "Chukha",
        "postcode": null,
        "country": "Bhutan",
        "country_code": "bt"
      },
      "address": "366, Phuntsholing, 02982 Chukha, Bhutan"
    },
    {
      "lat": 26.87559220845864,
      "lon": 89.42105742565131,
      "geoinfo": {
        "display_name": "Thimphu to Phuentsholing Highway, Dophugchen Wangduegatshel, Phuentshogling Gewog, Chukha, Bhutan",
        "road": "Thimphu to Phuentsholing Highway",
        "house_number": null,
        "neighbourhood": null,
        "suburb": null,
        "city_district": null,
        "city": "Dophugchen Wangduegatshel",
        "state": "Chukha",
        "postcode": null,
        "country": "Bhutan",
        "country_code": "bt"
      },
      "address": "812, Thimphu to Phuentsholing Highway, Dophugchen Wangduegatshel, Phuentshogling Gewog, 93474 Chukha, Bhutan"
    }
  ],
  "updated_at": "2025-10-19T01:32:12.715604+00:00",
  "_kind": "geo_samples"
}