{
  "country_code": "BT",
  "country": "Bhutan",
  "city": "Thimphu",
  "geonameid": 1252416,
  "target_addresses": 25,
  "samples": [
    {
      "lat": 27.443248804405513,
      "lon": 89.65254321177626,
      "geoinfo": {
        "display_name": "Tshalu Goenpa Lam, Thimphu, Chang Gewog, Thimphu District, 11001, Bhutan",
        "road": "Tshalu Goenpa Lam",
        "house_number": null,
        "neighbourhood": null,
        "suburb": null,
        "city_district": null,
        "city": "Thimphu",
        "state": "Thimphu District",
        "postcode": "11001",
        "country": "Bhutan",
        "country_code": "bt"
      },
      "address": "Tshalu Goenpa Lam, Thimphu, Thimphu District, Bhutan"
    },
    {
      "lat": 27.440103174637176,
      "lon": 89.660520762981,
      "geoinfo": {
        "display_name": "696, Tshalu Lam SE, Babesa, Thimphu, Chang Gewog, Thimphu, Thimphu District, 11001, Bhutan",
        "road": "Tshalu Lam SE",
        "house_number": "696",
        "neighbourhood": "Babesa",
        "suburb": null,
        "city_district": null,
        "city": "Thimphu",
        "state": "Thimphu District",
        "postcode": "11001",
        "country": "Bhutan",
        "country_code": "bt"
      },
      "address": "696 Tshalu Lam SE, Thimphu, Thimphu District, Bhutan"
    },
    {
      "lat": 27.47482403453742,
      "lon": 89.62683304943548,
      "geoinfo": {
        "display_name": "227, Kuenzangkhar Zur Lam 1 SW, Chang Gangkha, Thimphu, Chang Gewog, Thimphu, Thimphu District, 11001, Bhutan",
        "road": "Kuenzangkhar Zur Lam 1 SW",
        "house_number": "227",
        "neighbourhood": "Chang Gangkha",
        "suburb": null,
        "city_district": null,
        "city": "Thimphu",
        "state": "Thimphu District",
        "postcode": "11001",
        "country": "Bhutan",
        "country_code": "bt"
      },
      "address": "227 Kuenzangkhar Zur Lam 1 SW, Thimphu, Thimphu District, Bhutan"
    },
    {
      "lat": 27.483268457788128,
      "lon": 89.63779750237292,
      "geoinfo": {
        "display_name": "Desi Lam NE, Kawang Chhodzong, Zilungkha, Thimphu, Chang Gewog, Thimphu, Thimphu District, 11001, Bhutan",
        "road": "Desi Lam NE",
        "house_number": null,
        "neighbourhood": "Kawang Chhodzong",
        "suburb": null,
        "city_district": null,
        "city": "Thimphu",
        "state": "Thimphu District",
        "postcode": "11001",
        "country": "Bhutan",
        "country_code": "bt"
      },
      "address": "Desi Lam NE, Thimphu, Thimphu District, Bhutan"
    },
    {
      "lat": 27.49960133282708,
      "lon": 89.64562738766095,
      "geoinfo": {
        "display_name": "Khamtoe Lam NE, Ludrong Phakha, Thimphu, Chang Gewog, Thimphu, Thimphu District, 11002, Bhutan",
        "road": "Khamtoe Lam NE",
        "house_number": null,
        "neighbourhood": "Ludrong Phakha",
        "suburb": null,
        "city_district": null,
        "city": "Thimphu",
        "state": "Thimphu District",
        "postcode": "11002",
        "country": "Bhutan",
        "country_code": "bt"
      },
      "address": "Khamtoe Lam NE, Thimphu, Thimphu District, Bhutan"
    },
    {
      "lat": 27.47188521570477,
      "lon": 89.62999525216605,
      "geoinfo": {
        "display_name": "Youth development fund, Khimtshog Zur Lam 8 SW, Chang Genye, Thimphu, Chang Gewog, Thimphu, Thimphu District, 11001, Bhutan",
        "road": "Khimtshog Zur Lam 8 SW",
        "house_number": null,
        "neighbourhood": "Chang Genye",
        "suburb": null,
        "city_district": null,
        "city": "Thimphu",
        "state": "Thimphu District",
        "postcode": "11001",
        "country": "Bhutan",
        "country_code": "bt"
      },
      "address": "Khimtshog Zur Lam 8 SW, Thimphu, Thimphu District, Bhutan"
    },
    {
      "lat": 27.440716089587557,
      "lon": 89.64897039545258,
      "geoinfo": {
        "display_name": "Thimphu, Chang Gewog, Thimphu District, 11001, Bhutan",
        "road": null,
        "house_number": null,
        "neighbourhood": null,
        "suburb": null,
        "city_district": null,
        "city": "Thimphu",
        "state": "Thimphu District",
        "postcode": "11001",
        "country": "Bhutan",
        "country_code": "bt"
      },
      "address": "Thimphu, Thimphu District, Bhutan"
    },
    {
      "lat": 27.491016086584995,
      "lon": 89.6287704939492,
      "geoinfo": {
        "display_name": "315 Dotshangna Lam NW, Zilukha, Thimphu, 315, Dotshangna Lam NW, Zilukha, Zilungkha, Thimphu, Chang Gewog, Thimphu, Thimphu District, 11001, Bhutan",
        "road": "Dotshangna Lam NW",
        "house_number": "315",
        "neighbourhood": "Zilukha",
        "suburb": null,
        "city_district": null,
        "city": "Thimphu",
        "state": "Thimphu District",
        "postcode": "11001",
        "country": "Bhutan",
        "country_code": "bt"
      },
      "address": "315 Dotshangna Lam NW, Thimphu, Thimphu District, Bhutan"
    },
    {
      "lat": 27.441722975078275,
      "lon": 89.60559195455718,
      "geoinfo": {
        "display_name": "Trail from Peak to Buddha Point, Thimphu, Chang Gewog, Thimphu District, 11001, Bhutan",
        "road": "Trail from Peak to Buddha Point",
        "house_number": null,
        "neighbourhood": null,
        "suburb": null,
        "city_district": null,
        "city": "Thimphu",
        "state": "Thimphu District",
        "postcode": "11001",
        "country": "Bhutan",
        "country_code": "bt"
      },
      "address": "Trail from Peak to Buddha Point, Thimphu, Thimphu District, Bhutan"
    },
    {
      "lat": 27.450763090826204,
      "lon": 89.66515315575714,
      "geoinfo": {
        "display_name": "Lubding Zur Lam 87 SE, Lubding, Lungtenphu, Chang Gewog, Thimphu, Thimphu District, 11001, Bhutan",
        "road": "Lubding Zur Lam 87 SE",
        "house_number": null,
        "neighbourhood": "Lubding",
        "suburb": null,
        "city_district": null,
        "city": "Lungtenphu",
        "state": "Thimphu District",
        "postcode": "11001",
        "country": "Bhutan",
        "country_code": "bt"
      },
      "address": "Lubding Zur Lam 87 SE, Thimphu, Thimphu District, Bhutan"
    },
    {
      "lat": 27.454663408032253,
      "lon": 89.62732498787629,
      "geoinfo": {
        "display_name": "Gida Lam SW, Chang Gedhaphu, Thimphu, Chang Gewog, Thimphu, Thimphu District, 11001, Bhutan",
        "road": "Gida Lam SW",
        "house_number": null,
        "neighbourhood": "Chang Gedhaphu",
        "suburb": null,
        "city_district": null,
        "city": "Thimphu",
        "state": "Thimphu District",
        "postcode": "11001",
        "country": "Bhutan",
        "country_code": "bt"
      },
      "address": "Gida Lam SW, Thimphu, Thimphu District, Bhutan"
    },
    {
      "lat": 27.44163324208045,
      "lon": 89.67656152764575,
      "geoinfo": {
        "display_name": "Nakulo Lam, Tshatshobaykha, Nakulo, Yoedselpang, Chang Gewog, Thimphu, Thimphu District, 11001, Bhutan",
        "road": "Nakulo Lam",
        "house_number": null,
        "neighbourhood": "Tshatshobaykha",
        "suburb": null,
        "city_district": null,
        "city": "Yoedselpang",
        "state": "Thimphu District",
        "postcode": "11001",
        "country": "Bhutan",
        "country_code": "bt"
      },
      "address": "Nakulo Lam, Thimphu, Thimphu District, Bhutan"
    },
    {
      "lat": 27.46640696087242,
      "lon": 89.6271614490644,
      "geoinfo": {
        "display_name": "363, Lhendrub Lam SW, Chang Genye, Thimphu, Chang Gewog, Thimphu, Thimphu District, 11001, Bhutan",
        "road": "Lhendrub Lam SW",
        "house_number": "363",
        "neighbourhood": "Chang Genye",
        "suburb": null,
        "city_district": null,
        "city": "Thimphu",
        "state": "Thimphu District",
        "postcode": "11001",
        "country": "Bhutan",
        "country_code": "bt"
      },
      "address": "363 Lhendrub Lam SW, Thimphu, Thimphu District, Bhutan"
    },
    {
      "lat": 27.450218228641493,
      "lon": 89.640850715962,
      "geoinfo": {
        "display_name": "Kuenselphodrang Viewpoint, Gaki Lam SW, Chang Bangdu, Thimphu, Chang Gewog, Thimphu, Thimphu District, 11001, Bhutan",
        "road": "Gaki Lam SW",
        "house_number": null,
        "neighbourhood": "Chang Bangdu",
        "suburb": null,
        "city_district": null,
        "city": "Thimphu",
        "state": "Thimphu District",
        "postcode": "11001",
        "country": "Bhutan",
        "country_code": "bt"
      },
      "address": "Gaki Lam SW, Thimphu, Thimphu District, Bhutan"
    },
    {
      "lat": 27.491648182691343,
      "lon": 89.61778139893264,
      "geoinfo": {
        "display_name": "Sangay Lam, Motithang, Chhanda-Gang_Chhoekhortse_Phajoding, Kawang Gewog, Thimphu, Thimphu District, 11001, Bhutan",
        "road": "Sangay Lam",
        "house_number": null,
        "neighbourhood": "Motithang",
        "suburb": null,
        "city_district": null,
        "city": "Chhanda-Gang_Chhoekhortse_Phajoding",
        "state": "Thimphu District",
        "postcode": "11001",
        "country": "Bhutan",
        "country_code": "bt"
      },
      "address": "Sangay Lam, Thimphu, Thimphu District, Bhutan"
    },
    {
      "lat": 27.504179102056096,
      "lon": 89.63668006588274,
      "geoinfo": {
        "display_name": "Lhadrong, Thimphu, Chang Gewog, Thimphu, Thimphu District, 11002, Bhutan",
        "road": null,
        "house_number": null,
        "neighbourhood": "Lhadrong",
        "suburb": null,
        "city_district": null,
        "city": "Thimphu",
        "state": "Thimphu District",
        "postcode": "11002",
        "country": "Bhutan",
        "country_code": "bt"
      },
      "address": "Lhadrong, Thimphu, Thimphu District, Bhutan"
    },
    {
      "lat": 27.502534787497435,
      "lon": 89.64885271591487,
      "geoinfo": {
        "display_name": "Wangchuk Resort, Hanku Lam 4, Taba, Dazhi_Zhoshuel, Kawang Gewog, Thimphu, Thimphu District, 11002, Bhutan",
        "road": "Hanku Lam 4",
        "house_number": null,
        "neighbourhood": "Taba",
        "suburb": null,
        "city_district": null,
        "city": "Dazhi_Zhoshuel",
        "state": "Thimphu District",
        "postcode": "11002",
        "country": "Bhutan",
        "country_code": "bt"
      },
      "address": "Hanku Lam 4, Thimphu, Thimphu District, Bhutan"
    },
    {
      "lat": 27.456437297529963,
      "lon": 89.63560457406392,
      "geoinfo": {
        "display_name": "394, Gida Zur Lam 19 SW, Chang Gedhaphu, Thimphu, Chang Gewog, Thimphu, Thimphu District, 11001, Bhutan",
        "road": "Gida Zur Lam 19 SW",
        "house_number": "394",
        "neighbourhood": "Chang Gedhaphu",
        "suburb": null,
        "city_district": null,
        "city": "Thimphu",
        "state": "Thimphu District",
        "postcode": "11001",
        "country": "Bhutan",
        "country_code": "bt"
      },
      "address": "394 Gida Zur Lam 19 SW, Thimphu, Thimphu District, Bhutan"
    },
    {
      "lat": 27.470235478132512,
      "lon": 89.67191307877633,
      "geoinfo": {
        "display_name": "Thara Goenpa, Lungten Lam 1, Yoedselpang, Chang Gewog, Thimphu District, 11001, Bhutan",
        "road": "Lungten Lam 1",
        "house_number": null,
        "neighbourhood": null,
        "suburb": null,
        "city_district": null,
        "city": "Yoedselpang",
        "state": "Thimphu District",
        "postcode": "11001",
        "country": "Bhutan",
        "country_code": "bt"
      },
      "address": "Lungten Lam 1, Thimphu, Thimphu District, Bhutan"
    },
    {
      "lat": 27.49023856284163,
      "lon": 89.64201186451942,
      "geoinfo": {
        "display_name": "297, Khamtoe Zur Lam 128 NE, Ludrong Phakha, Thimphu, Chang Gewog, Thimphu, Thimphu District, 11001, Bhutan",
        "road": "Khamtoe Zur Lam 128 NE",
        "house_number": "297",
        "neighbourhood": "Ludrong Phakha",
        "suburb": null,
        "city_district": null,
        "city": "Thimphu",
        "state": "Thimphu District",
        "postcode": "11001",
        "country": "Bhutan",
        "country_code": "bt"
      },
      "address": "297 Khamtoe Zur Lam 128 NE, Thimphu, Thimphu District, Bhutan"
    },
    {
      "lat": 27.460088993169354,
      "lon": 89.65153385210374,
      "geoinfo": {
        "display_name": "Semezangkha Lam, Yangchenphu, Yoedselpang, Chang Gewog, Thimphu, Thimphu District, 11001, Bhutan",
        "road": "Semezangkha Lam",
        "house_number": null,
        "neighbourhood": "Yangchenphu",
        "suburb": null,
        "city_district": null,
        "city": "Yoedselpang",
        "state": "Thimphu District",
        "postcode": "11001",
        "country": "Bhutan",
        "country_code": "bt"
      },
      "address": "Semezangkha Lam, Thimphu, Thimphu District, Bhutan"
    },
    {
      "lat": 27.468088232724238,
      "lon": 89.62483672099697,
      "geoinfo": {
        "display_name": "Saley Gom Lam SW, Chang Gangkha, Thimphu, Chang Gewog, Thimphu, Thimphu District, 11001, Bhutan",
        "road": "Saley Gom Lam SW",
        "house_number": null,
        "neighbourhood": "Chang Gangkha",
        "suburb": null,
        "city_district": null,
        "city": "Thimphu",
        "state": "Thimphu District",
        "postcode": "11001",
        "country": "Bhutan",
        "country_code": "bt"
      },
      "address": "Saley Gom Lam SW, Thimphu, Thimphu District, Bhutan"
    },
    {
      "lat": 27.483262413789785,
      "lon": 89.59827486631333,
      "geoinfo": {
        "display_name": "Phading Lam, Chhanda-Gang_Chhoekhortse_Phajoding, Kawang Gewog, Thimphu District, 11001, Bhutan",
        "road": "Phading Lam",
        "house_number": null,
        "neighbourhood": null,
        "suburb": null,
        "city_district": null,
        "city": "Chhanda-Gang_Chhoekhortse_Phajoding",
        "state": "Thimphu District",
        "postcode": "11001",
        "country": "Bhutan",
        "country_code": "bt"
      },
      "address": "Phading Lam, Thimphu, Thimphu District, Bhutan"
    },
    {
      "lat": 27.476049683387643,
      "lon": 89.63624112779613,
      "geoinfo": {
        "display_name": "139 Jangchub Lam SE, Norzin, Thimphu, 139, Jangchub Lam SE, Norzin, Thimphu, Chang Gewog, Thimphu, Thimphu District, 11001, Bhutan",
        "road": "Jangchub Lam SE",
        "house_number": "139",
        "neighbourhood": "Norzin",
        "suburb": null,
        "city_district": null,
        "city": "Thimphu",
        "state": "Thimphu District",
        "postcode": "11001",
        "country": "Bhutan",
        "country_code": "bt"
      },
      "address": "139 Jangchub Lam SE, Thimphu, Thimphu District, Bhutan"
    },
    {
      "lat": 27.427382125999234,
      "lon": 89.63873168676376,
      "geoinfo": {
        "display_name": "22, Debsi Lam, Jazami, Thimphu, Chang Gewog, Thimphu District, 11001, Bhutan",
        "road": "Debsi Lam",
        "house_number": "22",
        "neighbourhood": null,
        "suburb": null,
        "city_district": null,
        "city": "Thimphu",
        "state": "Thimphu District",
        "postcode": "11001",
        "country": "Bhutan",
        "country_code": "bt"
      },
      "address": "22 Debsi Lam, Thimphu, Thimphu District, Bhutan"
    },
    {
      "lat": 27.439455294071873,
      "lon": 89.65122078780384,
      "geoinfo": {
        "display_name": "Tshalu Goenpa Lam, Thimphu, Chang Gewog, Thimphu District, 11001, Bhutan",
        "road": "Tshalu Goenpa Lam",
        "house_number": null,
        "neighbourhood": null,
        "suburb": null,
        "city_district": null,
        "city": "Thimphu",
        "state": "Thimphu District",
        "postcode": "11001",
        "country": "Bhutan",
        "country_code": "bt"
      },
      "address": "615, Tshalu Goenpa Lam, Thimphu, Chang Gewog, Thimphu District, 11001, Bhutan"
    },
    {
      "lat": 27.50008903072007,
      "lon": 89.6125927586242,
      "geoinfo": {
        "display_name": "Samten Lam NW, Jungzhina, Chhanda-Gang_Chhoekhortse_Phajoding, Kawang Gewog, Thimphu, Thimphu District, 11002, Bhutan",
        "road": "Samten Lam NW",
        "house_number": null,
        "neighbourhood": "Jungzhina",
        "suburb": null,
        "city_district": null,
        "city": "Chhanda-Gang_Chhoekhortse_Phajoding",
        "state": "Thimphu District",
        "postcode": "11002",
        "country": "Bhutan",
        "country_code": "bt"
      },
      "address": "985, Samten Lam NW, Jungzhina, Chhanda-Gang_Chhoekhortse_Phajoding, Kawang Gewog, Thimphu, Thimphu District, 11002, Bhutan"
    },
    {
      "lat": 27.453913498534803,
      "lon": 89.62119598026433,
      "geoinfo": {
        "display_name": "Thimphu, Chang Gewog, Thimphu, Thimphu District, 11001, Bhutan",
        "road": null,
        "house_number": null,
        "neighbourhood": null,
        "suburb": null,
        "city_district": null,
        "city": "Thimphu",
        "state": "Thimphu District",
        "postcode": "11001",
        "country": "Bhutan",
        "country_code": "bt"
      },
      "address": "722, Thimphu, Chang Gewog, Thimphu, Thimphu District, 11001, Bhutan"
    },
    {
      "lat": 27.462265497315464,
      "lon": 89.64148145568134,
      "geoinfo": {
        "display_name": "306, Doebum Zur Lam 151 SE, Chang Zamtok, Thimphu, Chang Gewog, Thimphu, Thimphu District, 11001, Bhutan",
        "road": "Doebum Zur Lam 151 SE",
        "house_number": "306",
        "neighbourhood": "Chang Zamtok",
        "suburb": null,
        "city_district": null,
        "city": "Thimphu",
        "state": "Thimphu District",
        "postcode": "11001",
        "country": "Bhutan",
        "country_code": "bt"
      },
      "address": "306, Doebum Zur Lam 151 SE, Chang Zamtok, Thimphu, Chang Gewog, Thimphu, Thimphu District, 11001, Bhutan"
    },
    {
      "lat": 27.509854899647237,
      "lon": 89.63851089978287,
      "geoinfo": {
        "display_name": "637, Gaykha Lam NE, Taba, Thimphu, Chang Gewog, Thimphu, Thimphu District, 11001, Bhutan",
        "road": "Gaykha Lam NE",
        "house_number": "637",
        "neighbourhood": "Taba",
        "suburb": null,
        "city_district": null,
        "city": "Thimphu",
        "state": "Thimphu District",
        "postcode": "11001",
        "country": "Bhutan",
        "country_code": "bt"
      },
      "address": "637, Gaykha Lam NE, Taba, Thimphu, Chang Gewog, Thimphu, Thimphu District, 11001, Bhutan"
    },
    {
      "lat": 27.510850658787955,
      "lon": 89.64185207534742,
      "geoinfo": {
        "display_name": "668, Inchu Zur Lam 10 NE, Taba, Thimphu, Chang Gewog, Thimphu, Thimphu District, 11001, Bhutan",
        "road": "Inchu Zur Lam 10 NE",
        "house_number": "668",
        "neighbourhood": "Taba",
        "suburb": null,
        "city_district": null,
        "city": "Thimphu",
        "state": "Thimphu District",
        "postcode": "11001",
        "country": "Bhutan",
        "country_code": "bt"
      },
      "address": "668, Inchu Zur Lam 10 NE, Taba, Thimphu, Chang Gewog, Thimphu, Thimphu District, 11001, Bhutan"
    },
    {
      "lat": 27.48283474452661,
      "lon": 89.67149906063854,
      "geoinfo": {
        "display_name": "Dazhi_Zhoshuel, Kawang Gewog, Thimphu District, Bhutan",
        "road": null,
        "house_number": null,
        "neighbourhood": null,
        "suburb": null,
        "city_district": null,
        "city": "Dazhi_Zhoshuel",
        "state": "Thimphu District",
        "postcode": null,
        "country": "Bhutan",
        "country_code": "bt"
      },
      "address": "350, Dazhi_Zhoshuel, Kawang Gewog, 14356 Thimphu District, Bhutan"
    },
    {
      "lat": 27.472240700195098,
      "lon": 89.59194508550783,
      "geoinfo": {
        "display_name": "Chhanda-Gang_Chhoekhortse_Phajoding, Kawang Gewog, Thimphu District, Bhutan",
        "road": null,
        "house_number": null,
        "neighbourhood": null,
        "suburb": null,
        "city_district": null,
        "city": "Chhanda-Gang_Chhoekhortse_Phajoding",
        "state": "Thimphu District",
        "postcode": null,
        "country": "Bhutan",
        "country_code": "bt"
      },
      "address": "087, Chhanda-Gang_Chhoekhortse_Phajoding, Kawang Gewog, 61231 Thimphu District, Bhutan"
    },
    {
      "lat": 27.446934899859837,
      "lon": 89.64528125649495,
      "geoinfo": {
        "display_name": "Gaki Lam SW, Chang Bangdu, Thimphu, Chang Gewog, Thimphu, Thimphu District, 11001, Bhutan",
        "road": "Gaki Lam SW",
        "house_number": null,
        "neighbourhood": "Chang Bangdu",
        "suburb": null,
        "city_district": null,
        "city": "Thimphu",
        "state": "Thimphu District",
        "postcode": "11001",
        "country": "Bhutan",
        "country_code": "bt"
      },
      "address": "275, Gaki Lam SW, Chang Bangdu, Thimphu, Chang Gewog, Thimphu, Thimphu District, 11001, Bhutan"
    },
    {
      "lat": 27.47574579557091,
      "lon": 89.62535193710416,
      "geoinfo": {
        "display_name": "271, Kuenzang Lam SW, Chang Gangkha, Thimphu, Chang Gewog, Thimphu, Thimphu District, 11001, Bhutan",
        "road": "Kuenzang Lam SW",
        "house_number": "271",
        "neighbourhood": "Chang Gangkha",
        "suburb": null,
        "city_district": null,
        "city": "Thimphu",
        "state": "Thimphu District",
        "postcode": "11001",
        "country": "Bhutan",
        "country_code": "bt"
      },
      "address": "271, Kuenzang Lam SW, Chang Gangkha, Thimphu, Chang Gewog, Thimphu, Thimphu District, 11001, Bhutan"
    },
    {
      "lat": 27.498909135661663,
      "lon": 89.6315190441353,
      "geoinfo": {
        "display_name": "Dechenphodrang Lam NW, Samteling, Zilungkha, Thimphu, Chang Gewog, Thimphu, Thimphu District, 11002, Bhutan",
        "road": "Dechenphodrang Lam NW",
        "house_number": null,
        "neighbourhood": "Samteling",
        "suburb": null,
        "city_district": null,
        "city": "Thimphu",
        "state": "Thimphu District",
        "postcode": "11002",
        "country": "Bhutan",
        "country_code": "bt"
      },
      "address": "746, Dechenphodrang Lam NW, Samteling, Zilungkha, Thimphu, Chang Gewog, Thimphu, Thimphu District, 11002, Bhutan"
    },
    {
      "lat": 27.454069134561426,
      "lon": 89.6668671702468,
      "geoinfo": {
        "display_name": "Lubding Zur Lam 89 SE, Lubding, Lungtenphu, Chang Gewog, Thimphu, Thimphu District, 11001, Bhutan",
        "road": "Lubding Zur Lam 89 SE",
        "house_number": null,
        "neighbourhood": "Lubding",
        "suburb": null,
        "city_district": null,
        "city": "Lungtenphu",
        "state": "Thimphu District",
        "postcode": "11001",
        "country": "Bhutan",
        "country_code": "bt"
      },
      "address": "Lubding Zur Lam 89 SE, Lubding, Lungtenphu, Chang Gewog, Thimphu, Thimphu District, 11001, Bhutan"
    },
    {
      "lat": 27.428356318152034,
      "lon": 89.6208742658628,
      "geoinfo": {
        "display_name": "Rama, Ramtogtog_Tsangrina, Chang Gewog, Thimphu District, 11001, Bhutan",
        "road": null,
        "house_number": null,
        "neighbourhood": null,
        "suburb": null,
        "city_district": null,
        "city": "Ramtogtog_Tsangrina",
        "state": "Thimphu District",
        "postcode": "11001",
        "country": "Bhutan",
        "country_code": "bt"
      },
      "address": "719, Rama, Ramtogtog_Tsangrina, Chang Gewog, Thimphu District, 11001, Bhutan"
    },
    {
      "lat": 27.48644093607713,
      "lon": 89.62729791345016,
      "geoinfo": {
        "display_name": "338 Gaden Lam NW, Zilukha, Thimphu, 338, Gaden Lam NW, Zilukha, Zilungkha, Thimphu, Chang Gewog, Thimphu, Thimphu District, 11001, Bhutan",
        "road": "Gaden Lam NW",
        "house_number": "338",
        "neighbourhood": "Zilukha",
        "suburb": null,
        "city_district": null,
        "city": "Thimphu",
        "state": "Thimphu District",
        "postcode": "11001",
        "country": "Bhutan",
        "country_code": "bt"
      },
      "address": "338, Gaden Lam NW, Thimphu, 11001 Thimphu District, Bhutan"
    },
    {
      "lat": 27.42805864515734,
      "lon": 89.62708724818035,
      "geoinfo": {
        "display_name": "Rama, Ramtogtog_Tsangrina, Chang Gewog, Thimphu District, 11001, Bhutan",
        "road": null,
        "house_number": null,
        "neighbourhood": null,
        "suburb": null,
        "city_district": null,
        "city": "Ramtogtog_Tsangrina",
        "state": "Thimphu District",
        "postcode": "11001",
        "country": "Bhutan",
        "country_code": "bt"
      },
      "address": "130, Rama, Ramtogtog_Tsangrina, Chang Gewog, Thimphu District, 11001, Bhutan"
    },
    {
      "lat": 27.444137174571736,
      "lon": 89.65238751063363,
      "geoinfo": {
        "display_name": "Thimphu, Chang Gewog, Thimphu District, 11001, Bhutan",
        "road": null,
        "house_number": null,
        "neighbourhood": null,
        "suburb": null,
        "city_district": null,
        "city": "Thimphu",
        "state": "Thimphu District",
        "postcode": "11001",
        "country": "Bhutan",
        "country_code": "bt"
      },
      "address": "005, Thimphu, Chang Gewog, Thimphu District, 11001, Bhutan"
    },
    {
      "lat": 27.463465467524724,
      "lon": 89.6184964964231,
      "geoinfo": {
        "display_name": "Motithang BoD, Chang Gangkha, Thimphu, Chang Gewog, Thimphu, Thimphu District, 11001, Bhutan",
        "road": null,
        "house_number": null,
        "neighbourhood": "Chang Gangkha",
        "suburb": null,
        "city_district": null,
        "city": "Thimphu",
        "state": "Thimphu District",
        "postcode": "11001",
        "country": "Bhutan",
        "country_code": "bt"
      },
      "address": "879, Motithang BoD, Chang Gangkha, Thimphu, Chang Gewog, Thimphu, Thimphu District, 11001, Bhutan"
    },
    {
      "lat": 27.43312533897414,
      "lon": 89.65864175483817,
      "geoinfo": {
        "display_name": "1046, Khamdo Lam  SE, Dolay Gang, Thimphu, Chang Gewog, Thimphu, Thimphu District, 11001, Bhutan",
        "road": "Khamdo Lam  SE",
        "house_number": "1046",
        "neighbourhood": "Dolay Gang",
        "suburb": null,
        "city_district": null,
        "city": "Thimphu",
        "state": "Thimphu District",
        "postcode": "11001",
        "country": "Bhutan",
        "country_code": "bt"
      },
      "address": "1046, Khamdo Lam  SE, Dolay Gang, Thimphu, Chang Gewog, Thimphu, Thimphu District, 11001, Bhutan"
    },
    {
      "lat": 27.4868489660934,
      "lon": 89.59841354846236,
      "geoinfo": {
        "display_name": "Phading Lam, Chhanda-Gang_Chhoekhortse_Phajoding, Kawang Gewog, Thimphu District, 11001, Bhutan",
        "road": "Phading Lam",
        "house_number": null,
        "neighbourhood": null,
        "suburb": null,
        "city_district": null,
        "city": "Chhanda-Gang_Chhoekhortse_Phajoding",
        "state": "Thimphu District",
        "postcode": "11001",
        "country": "Bhutan",
        "country_code": "bt"
      },
      "address": "922, Phading Lam, Chhanda-Gang_Chhoekhortse_Phajoding, Kawang Gewog, Thimphu District, 11001, Bhutan"
    },
    {
      "lat": 27.44244027989881,
      "lon": 89.61414258493573,
      "geoinfo": {
        "display_name": "Trail from Peak to Buddha Point, Thimphu, Chang Gewog, Thimphu District, 11001, Bhutan",
        "road": "Trail from Peak to Buddha Point",
        "house_number": null,
        "neighbourhood": null,
        "suburb": null,
        "city_district": null,
        "city": "Thimphu",
        "state": "Thimphu District",
        "postcode": "11001",
        "country": "Bhutan",
        "country_code": "bt"
      },
      "address": "499, Trail from Peak to Buddha Point, Thimphu, Chang Gewog, Thimphu District, 11001, Bhutan"
    },
    {
      "lat": 27.474626888296065,
      "lon": 89.65517260225903,
      "geoinfo": {
        "display_name": "Thadra Goenpa, Yoedselpang, Chang Gewog, Thimphu District, 11001, Bhutan",
        "road": null,
        "house_number": null,
        "neighbourhood": null,
        "suburb": null,
        "city_district": null,
        "city": "Yoedselpang",
        "state": "Thimphu District",
        "postcode": "11001",
        "country": "Bhutan",
        "country_code": "bt"
      },
      "address": "158, Thadra Goenpa, Yoedselpang, Chang Gewog, Thimphu District, 11001, Bhutan"
    },
    {
      "lat": 27.44860416907526,
      "lon": 89.61004371645058,
      "geoinfo": {
        "display_name": "Trail from Peak to Buddha Point, Thimphu, Chang Gewog, Thimphu District, 11001, Bhutan",
        "road": "Trail from Peak to Buddha Point",
        "house_number": null,
        "neighbourhood": null,
        "suburb": null,
        "city_district": null,
        "city": "Thimphu",
        "state": "Thimphu District",
        "postcode": "11001",
        "country": "Bhutan",
        "country_code": "bt"
      },
      "address": "737, Trail from Peak to Buddha Point, Thimphu, Chang Gewog, Thimphu District, 11001, Bhutan"
    },
    {
      "lat": 27.444166422552744,
      "lon": 89.65765301696972,
      "geoinfo": {
        "display_name": "Pelki Lam SW, Chang Jalu, Thimphu, Chang Gewog, Thimphu, Thimphu District, 11001, Bhutan",
        "road": "Pelki Lam SW",
        "house_number": null,
        "neighbourhood": "Chang Jalu",
        "suburb": null,
        "city_district": null,
        "city": "Thimphu",
        "state": "Thimphu District",
        "postcode": "11001",
        "country": "Bhutan",
        "country_code": "bt"
      },
      "address": "595, Pelki Lam SW, Chang Jalu, Thimphu, Chang Gewog, Thimphu, Thimphu District, 11001, Bhutan"
    },
    {
      "lat": 27.505011000899128,
      "lon": 89.62346230231344,
      "geoinfo": {
        "display_name": "Samten Lam NW, Jungzhina, Chhanda-Gang_Chhoekhortse_Phajoding, Kawang Gewog, Thimphu, Thimphu District, 11002, Bhutan",
        "road": "Samten Lam NW",
        "house_number": null,
        "neighbourhood": "Jungzhina",
        "suburb": null,
        "city_district": null,
        "city": "Chhanda-Gang_Chhoekhortse_Phajoding",
        "state": "Thimphu District",
        "postcode": "11002",
        "country": "Bhutan",
        "country_code": "bt"
      },
      "address": "193, Samten Lam NW, Jungzhina, Chhanda-Gang_Chhoekhortse_Phajoding, Kawang Gewog, Thimphu, Thimphu District, 11002, Bhutan"
    },
    {
      "lat": 27.473304991138885,
      "lon": 89.6544840308434,
      "geoinfo": {
        "display_name": "Yusipang, Yoedselpang, Chang Gewog, Thimphu District, Bhutan",
        "road": null,
        "house_number": null,
        "neighbourhood": null,
        "suburb": null,
        "city_district": null,
        "city": "Yoedselpang",
        "state": "Thimphu District",
        "postcode": null,
        "country": "Bhutan",
        "country_code": "bt"
      },
      "address": "612, Yusipang, Yoedselpang, Chang Gewog, 01040 Thimphu District, Bhutan"
    }
  ],
  "updated_at": "2025-10-19T03:05:07.567764+00:00",
  "_kind": "geo_samples"
}