{
  "country_code": "IM",
  "country": "Isle of Man",
  "city": "Douglas",
  "geonameid": 3042237,
  "target_addresses": 100,
  "samples": [
    {
      "lat": 54.13050259298915,
      "lon": -4.520094288685653,
      "geoinfo": {
        "display_name": "Marine Drive, Quine's Hill, Braddan, Middle, IM4 1BJ, Isle of Man",
        "road": "Marine Drive",
        "house_number": null,
        "neighbourhood": null,
        "suburb": null,
        "city_district": null,
        "city": "Braddan",
        "state": null,
        "postcode": "IM4 1BJ",
        "country": "Isle of Man",
        "country_code": "im"
      },
      "address": "Marine Drive, Douglas, Isle of Man"
    },
    {
      "lat": 54.17407707989456,
      "lon": -4.545959159188522,
      "geoinfo": {
        "display_name": "Peel Road, Glen Vine, Marown, Middle, IM4 4AT, Isle of Man",
        "road": "Peel Road",
        "house_number": null,
        "neighbourhood": null,
        "suburb": null,
        "city_district": null,
        "city": "Marown",
        "state": null,
        "postcode": "IM4 4AT",
        "country": "Isle of Man",
        "country_code": "im"
      },
      "address": "Peel Road, Douglas, Isle of Man"
    },
    {
      "lat": 54.14218773567278,
      "lon": -4.5272623819363265,
      "geoinfo": {
        "display_name": "Middle Park Industrial Estate, Ballakinnish, Braddan, Middle, IM4 1JH, Isle of Man",
        "road": null,
        "house_number": null,
        "neighbourhood": null,
        "suburb": null,
        "city_district": null,
        "city": "Braddan",
        "state": null,
        "postcode": "IM4 1JH",
        "country": "Isle of Man",
        "country_code": "im"
      },
      "address": "Douglas, Isle of Man"
    },
    {
      "lat": 54.171732744731386,
      "lon": -4.433059280157109,
      "geoinfo": {
        "display_name": "King Edward Bay Golf and Country Club, Groudle Road, Onchan, Middle, IM3 2JR, Isle of Man",
        "road": "Groudle Road",
        "house_number": null,
        "neighbourhood": null,
        "suburb": null,
        "city_district": null,
        "city": "Onchan",
        "state": null,
        "postcode": "IM3 2JR",
        "country": "Isle of Man",
        "country_code": "im"
      },
      "address": "Groudle Road, Douglas, Isle of Man"
    },
    {
      "lat": 54.14120784810859,
      "lon": -4.5392712594985225,
      "geoinfo": {
        "display_name": "Home of Rest for Old Horses, New Castletown Road, Ballakinnish, Braddan, Middle, IM4 1AZ, Isle of Man",
        "road": "New Castletown Road",
        "house_number": null,
        "neighbourhood": null,
        "suburb": null,
        "city_district": null,
        "city": "Braddan",
        "state": null,
        "postcode": "IM4 1AZ",
        "country": "Isle of Man",
        "country_code": "im"
      },
      "address": "New Castletown Road, Douglas, Isle of Man"
    },
    {
      "lat": 54.16597285371401,
      "lon": -4.502445516588113,
      "geoinfo": {
        "display_name": "Braddan School, Braddan Road, Braddan, Middle, IM4 4TQ, Isle of Man",
        "road": "Braddan Road",
        "house_number": null,
        "neighbourhood": null,
        "suburb": null,
        "city_district": null,
        "city": "Braddan",
        "state": null,
        "postcode": "IM4 4TQ",
        "country": "Isle of Man",
        "country_code": "im"
      },
      "address": "Braddan Road, Douglas, Isle of Man"
    },
    {
      "lat": 54.17308926049483,
      "lon": -4.489526892978617,
      "geoinfo": {
        "display_name": "The Retreat, Ballanard Road, Ballanard, Willaston, Douglas, Middle, IM2 5PN, Isle of Man",
        "road": "Ballanard Road",
        "house_number": null,
        "neighbourhood": null,
        "suburb": null,
        "city_district": null,
        "city": "Douglas",
        "state": null,
        "postcode": "IM2 5PN",
        "country": "Isle of Man",
        "country_code": "im"
      },
      "address": "Ballanard Road, Douglas, Isle of Man"
    },
    {
      "lat": 54.14896513445609,
      "lon": -4.482558525525186,
      "geoinfo": {
        "display_name": "27, Athol Street, Douglas, Middle, IM1 1LB, Isle of Man",
        "road": "Athol Street",
        "house_number": "27",
        "neighbourhood": null,
        "suburb": null,
        "city_district": null,
        "city": "Douglas",
        "state": null,
        "postcode": "IM1 1LB",
        "country": "Isle of Man",
        "country_code": "im"
      },
      "address": "27 Athol Street, Douglas, Isle of Man"
    },
    {
      "lat": 54.15830588054262,
      "lon": -4.518232752146983,
      "geoinfo": {
        "display_name": "Vicarage Road, Braddan, Middle, IM2 1QN, Isle of Man",
        "road": "Vicarage Road",
        "house_number": null,
        "neighbourhood": null,
        "suburb": null,
        "city_district": null,
        "city": "Braddan",
        "state": null,
        "postcode": "IM2 1QN",
        "country": "Isle of Man",
        "country_code": "im"
      },
      "address": "Vicarage Road, Douglas, Isle of Man"
    },
    {
      "lat": 54.17446079498839,
      "lon": -4.474290232371741,
      "geoinfo": {
        "display_name": "Hillberry Meadows, Willaston, Douglas, Middle, IM2 7BJ, Isle of Man",
        "road": "Hillberry Meadows",
        "house_number": null,
        "neighbourhood": null,
        "suburb": null,
        "city_district": null,
        "city": "Douglas",
        "state": null,
        "postcode": "IM2 7BJ",
        "country": "Isle of Man",
        "country_code": "im"
      },
      "address": "Hillberry Meadows, Douglas, Isle of Man"
    },
    {
      "lat": 54.15935477745223,
      "lon": -4.483570111012446,
      "geoinfo": {
        "display_name": "42, Murrays Road, Willaston, Douglas, Middle, IM2 3HW, Isle of Man",
        "road": "Murrays Road",
        "house_number": "42",
        "neighbourhood": null,
        "suburb": null,
        "city_district": null,
        "city": "Douglas",
        "state": null,
        "postcode": "IM2 3HW",
        "country": "Isle of Man",
        "country_code": "im"
      },
      "address": "42 Murrays Road, Douglas, Isle of Man"
    },
    {
      "lat": 54.14676593414132,
      "lon": -4.470520748717701,
      "geoinfo": {
        "display_name": "King Edward VIII Pier, Fort Anne Slipway, Douglas, Middle, IM1 5PD, Isle of Man",
        "road": "Fort Anne Slipway",
        "house_number": null,
        "neighbourhood": null,
        "suburb": null,
        "city_district": null,
        "city": "Douglas",
        "state": null,
        "postcode": "IM1 5PD",
        "country": "Isle of Man",
        "country_code": "im"
      },
      "address": "Fort Anne Slipway, Douglas, Isle of Man"
    },
    {
      "lat": 54.13692773514163,
      "lon": -4.514547630841222,
      "geoinfo": {
        "display_name": "Old Castletown Road, Kewaigue, Braddan, Middle, IM4 1AJ, Isle of Man",
        "road": "Old Castletown Road",
        "house_number": null,
        "neighbourhood": null,
        "suburb": null,
        "city_district": null,
        "city": "Braddan",
        "state": null,
        "postcode": "IM4 1AJ",
        "country": "Isle of Man",
        "country_code": "im"
      },
      "address": "Old Castletown Road, Douglas, Isle of Man"
    },
    {
      "lat": 54.169347550035035,
      "lon": -4.424417186784372,
      "geoinfo": {
        "display_name": "Housedrake Holiday Camp Shelter, King Edward Road, Onchan, Middle, IM3 2HZ, Isle of Man",
        "road": "King Edward Road",
        "house_number": null,
        "neighbourhood": null,
        "suburb": null,
        "city_district": null,
        "city": "Onchan",
        "state": null,
        "postcode": "IM3 2HZ",
        "country": "Isle of Man",
        "country_code": "im"
      },
      "address": "King Edward Road, Douglas, Isle of Man"
    },
    {
      "lat": 54.17849476890623,
      "lon": -4.4637600967292395,
      "geoinfo": {
        "display_name": "Hillberry Road / Birch Hill Crescent, Hillberry Road, Onchan, Middle, IM3 3BA, Isle of Man",
        "road": "Hillberry Road",
        "house_number": null,
        "neighbourhood": null,
        "suburb": null,
        "city_district": null,
        "city": "Onchan",
        "state": null,
        "postcode": "IM3 3BA",
        "country": "Isle of Man",
        "country_code": "im"
      },
      "address": "Hillberry Road, Douglas, Isle of Man"
    },
    {
      "lat": 54.18390237314317,
      "lon": -4.481750669902928,
      "geoinfo": {
        "display_name": "Scollag Road, Onchan, Middle, IM4 5BU, Isle of Man",
        "road": "Scollag Road",
        "house_number": null,
        "neighbourhood": null,
        "suburb": null,
        "city_district": null,
        "city": "Onchan",
        "state": null,
        "postcode": "IM4 5BU",
        "country": "Isle of Man",
        "country_code": "im"
      },
      "address": "Scollag Road, Douglas, Isle of Man"
    },
    {
      "lat": 54.181605710022,
      "lon": -4.528932976978946,
      "geoinfo": {
        "display_name": "Top Road, Braddan, Middle, IM4 4HL, Isle of Man",
        "road": "Top Road",
        "house_number": null,
        "neighbourhood": null,
        "suburb": null,
        "city_district": null,
        "city": "Braddan",
        "state": null,
        "postcode": "IM4 4HL",
        "country": "Isle of Man",
        "country_code": "im"
      },
      "address": "Top Road, Douglas, Isle of Man"
    },
    {
      "lat": 54.177241404305384,
      "lon": -4.471664545961199,
      "geoinfo": {
        "display_name": "Bemahague Road, Willaston, Douglas, Middle, IM2 7DL, Isle of Man",
        "road": "Bemahague Road",
        "house_number": null,
        "neighbourhood": null,
        "suburb": null,
        "city_district": null,
        "city": "Douglas",
        "state": null,
        "postcode": "IM2 7DL",
        "country": "Isle of Man",
        "country_code": "im"
      },
      "address": "Bemahague Road, Douglas, Isle of Man"
    },
    {
      "lat": 54.15358213768646,
      "lon": -4.463912980693647,
      "geoinfo": {
        "display_name": "Tower of Refuge, Queen Elizabeth II Quay, Douglas, Middle, IM1 2RF, Isle of Man",
        "road": "Queen Elizabeth II Quay",
        "house_number": null,
        "neighbourhood": null,
        "suburb": null,
        "city_district": null,
        "city": "Douglas",
        "state": null,
        "postcode": "IM1 2RF",
        "country": "Isle of Man",
        "country_code": "im"
      },
      "address": "Queen Elizabeth II Quay, Douglas, Isle of Man"
    },
    {
      "lat": 54.16629351383548,
      "lon": -4.475293387666106,
      "geoinfo": {
        "display_name": "Dukes Avenue, Willaston, Douglas, Middle, IM2 4RG, Isle of Man",
        "road": "Dukes Avenue",
        "house_number": null,
        "neighbourhood": null,
        "suburb": null,
        "city_district": null,
        "city": "Douglas",
        "state": null,
        "postcode": "IM2 4RG",
        "country": "Isle of Man",
        "country_code": "im"
      },
      "address": "Dukes Avenue, Douglas, Isle of Man"
    },
    {
      "lat": 54.164319731748655,
      "lon": -4.46486181058412,
      "geoinfo": {
        "display_name": "Queens Promenade, Willaston, Douglas, Middle, IM2 4NH, Isle of Man",
        "road": "Queens Promenade",
        "house_number": null,
        "neighbourhood": null,
        "suburb": null,
        "city_district": null,
        "city": "Douglas",
        "state": null,
        "postcode": "IM2 4NH",
        "country": "Isle of Man",
        "country_code": "im"
      },
      "address": "Queens Promenade, Douglas, Isle of Man"
    },
    {
      "lat": 54.15843875666051,
      "lon": -4.507076582420592,
      "geoinfo": {
        "display_name": "Saddle Road, The Milestone, Douglas, Middle, IM2 2RD, Isle of Man",
        "road": "Saddle Road",
        "house_number": null,
        "neighbourhood": "The Milestone",
        "suburb": null,
        "city_district": null,
        "city": "Douglas",
        "state": null,
        "postcode": "IM2 2RD",
        "country": "Isle of Man",
        "country_code": "im"
      },
      "address": "Saddle Road, Douglas, Isle of Man"
    },
    {
      "lat": 54.141126630915686,
      "lon": -4.513393152309559,
      "geoinfo": {
        "display_name": "Waters Edge, Kewaigue Hill, Kewaigue, Douglas, Middle, IM4 1AF, Isle of Man",
        "road": "Kewaigue Hill",
        "house_number": null,
        "neighbourhood": null,
        "suburb": null,
        "city_district": null,
        "city": "Douglas",
        "state": null,
        "postcode": "IM4 1AF",
        "country": "Isle of Man",
        "country_code": "im"
      },
      "address": "Kewaigue Hill, Douglas, Isle of Man"
    },
    {
      "lat": 54.153186954895226,
      "lon": -4.4937239899267265,
      "geoinfo": {
        "display_name": "Ballakermeen High School, Ballabrooie Way, The Milestone, Douglas, Middle, IM1 4BE, Isle of Man",
        "road": "Ballabrooie Way",
        "house_number": null,
        "neighbourhood": "The Milestone",
        "suburb": null,
        "city_district": null,
        "city": "Douglas",
        "state": null,
        "postcode": "IM1 4BE",
        "country": "Isle of Man",
        "country_code": "im"
      },
      "address": "Ballabrooie Way, Douglas, Isle of Man"
    },
    {
      "lat": 54.16822244019713,
      "lon": -4.467688862156242,
      "geoinfo": {
        "display_name": "Lucerne Court, Willaston, Douglas, Middle, IM2 6BJ, Isle of Man",
        "road": "Lucerne Court",
        "house_number": null,
        "neighbourhood": null,
        "suburb": null,
        "city_district": null,
        "city": "Douglas",
        "state": null,
        "postcode": "IM2 6BJ",
        "country": "Isle of Man",
        "country_code": "im"
      },
      "address": "Lucerne Court, Douglas, Isle of Man"
    },
    {
      "lat": 54.16297732602959,
      "lon": -4.483394215238979,
      "geoinfo": {
        "display_name": "Saint Mary's Roman Catholic School, Saint Mary's Road, Willaston, Douglas, Middle, IM2 5RB, Isle of Man",
        "road": "Saint Mary's Road",
        "house_number": null,
        "neighbourhood": null,
        "suburb": null,
        "city_district": null,
        "city": "Douglas",
        "state": null,
        "postcode": "IM2 5RB",
        "country": "Isle of Man",
        "country_code": "im"
      },
      "address": "Saint Mary's Road, Douglas, Isle of Man"
    },
    {
      "lat": 54.144351426909466,
      "lon": -4.5140984197071425,
      "geoinfo": {
        "display_name": "Douglas Golf Club, Pulrose Road, The Milestone, Douglas, Middle, IM2 1AE, Isle of Man",
        "road": "Pulrose Road",
        "house_number": null,
        "neighbourhood": "The Milestone",
        "suburb": null,
        "city_district": null,
        "city": "Douglas",
        "state": null,
        "postcode": "IM2 1AE",
        "country": "Isle of Man",
        "country_code": "im"
      },
      "address": "Pulrose Road, Douglas, Isle of Man"
    },
    {
      "lat": 54.14632504962186,
      "lon": -4.506237822392967,
      "geoinfo": {
        "display_name": "Middle River Industrial Estate, The Milestone, Douglas, Middle, IM2 1AL, Isle of Man",
        "road": "Middle River Industrial Estate",
        "house_number": null,
        "neighbourhood": "The Milestone",
        "suburb": null,
        "city_district": null,
        "city": "Douglas",
        "state": null,
        "postcode": "IM2 1AL",
        "country": "Isle of Man",
        "country_code": "im"
      },
      "address": "Middle River Industrial Estate, Douglas, Isle of Man"
    },
    {
      "lat": 54.15733106329849,
      "lon": -4.517076625144982,
      "geoinfo": {
        "display_name": "Ashberry Avenue, Douglas, Middle, IM2 1NQ, Isle of Man",
        "road": "Ashberry Avenue",
        "house_number": null,
        "neighbourhood": null,
        "suburb": null,
        "city_district": null,
        "city": "Douglas",
        "state": null,
        "postcode": "IM2 1NQ",
        "country": "Isle of Man",
        "country_code": "im"
      },
      "address": "Ashberry Avenue, Douglas, Isle of Man"
    },
    {
      "lat": 54.161798975537394,
      "lon": -4.492390269906677,
      "geoinfo": {
        "display_name": "Tromode Lane, Willaston, Douglas, Middle, IM2 3RH, Isle of Man",
        "road": "Tromode Lane",
        "house_number": null,
        "neighbourhood": null,
        "suburb": null,
        "city_district": null,
        "city": "Douglas",
        "state": null,
        "postcode": "IM2 3RH",
        "country": "Isle of Man",
        "country_code": "im"
      },
      "address": "Tromode Lane, Douglas, Isle of Man"
    },
    {
      "lat": 54.1809438226423,
      "lon": -4.4767240756304085,
      "geoinfo": {
        "display_name": "Campion Way, Willaston, Douglas, Middle, IM2 7DZ, Isle of Man",
        "road": "Campion Way",
        "house_number": null,
        "neighbourhood": null,
        "suburb": null,
        "city_district": null,
        "city": "Douglas",
        "state": null,
        "postcode": "IM2 7DZ",
        "country": "Isle of Man",
        "country_code": "im"
      },
      "address": "Campion Way, Douglas, Isle of Man"
    },
    {
      "lat": 54.15484296851419,
      "lon": -4.486029225662662,
      "geoinfo": {
        "display_name": "1, Wesley Terrace, Douglas, Middle, IM1 3HG, Isle of Man",
        "road": "Wesley Terrace",
        "house_number": "1",
        "neighbourhood": null,
        "suburb": null,
        "city_district": null,
        "city": "Douglas",
        "state": null,
        "postcode": "IM1 3HG",
        "country": "Isle of Man",
        "country_code": "im"
      },
      "address": "1 Wesley Terrace, Douglas, Isle of Man"
    },
    {
      "lat": 54.14851733856867,
      "lon": -4.4995753616821,
      "geoinfo": {
        "display_name": "Riverside Trading Estate, The Milestone, Douglas, Middle, IM2 1AB, Isle of Man",
        "road": "Riverside Trading Estate",
        "house_number": null,
        "neighbourhood": "The Milestone",
        "suburb": null,
        "city_district": null,
        "city": "Douglas",
        "state": null,
        "postcode": "IM2 1AB",
        "country": "Isle of Man",
        "country_code": "im"
      },
      "address": "Riverside Trading Estate, Douglas, Isle of Man"
    },
    {
      "lat": 54.15551309695193,
      "lon": -4.5084298347057,
      "geoinfo": {
        "display_name": "Ballaughton Manor Hill, The Milestone, Douglas, Middle, IM2 1PA, Isle of Man",
        "road": "Ballaughton Manor Hill",
        "house_number": null,
        "neighbourhood": "The Milestone",
        "suburb": null,
        "city_district": null,
        "city": "Douglas",
        "state": null,
        "postcode": "IM2 1PA",
        "country": "Isle of Man",
        "country_code": "im"
      },
      "address": "Ballaughton Manor Hill, Douglas, Isle of Man"
    },
    {
      "lat": 54.15162407982234,
      "lon": -4.509194946308216,
      "geoinfo": {
        "display_name": "Springfield Avenue, The Milestone, Douglas, Middle, IM2 1JG, Isle of Man",
        "road": "Springfield Avenue",
        "house_number": null,
        "neighbourhood": "The Milestone",
        "suburb": null,
        "city_district": null,
        "city": "Douglas",
        "state": null,
        "postcode": "IM2 1JG",
        "country": "Isle of Man",
        "country_code": "im"
      },
      "address": "Springfield Avenue, Douglas, Isle of Man"
    },
    {
      "lat": 54.16595304046843,
      "lon": -4.469045134512658,
      "geoinfo": {
        "display_name": "Victoria Road, Willaston, Douglas, Middle, IM2 4RE, Isle of Man",
        "road": "Victoria Road",
        "house_number": null,
        "neighbourhood": null,
        "suburb": null,
        "city_district": null,
        "city": "Douglas",
        "state": null,
        "postcode": "IM2 4RE",
        "country": "Isle of Man",
        "country_code": "im"
      },
      "address": "Victoria Road, Douglas, Isle of Man"
    },
    {
      "lat": 54.16566940711103,
      "lon": -4.490539540982907,
      "geoinfo": {
        "display_name": "Rearyt Carnane, Willaston, Douglas, Middle, IM2 5ET, Isle of Man",
        "road": "Rearyt Carnane",
        "house_number": null,
        "neighbourhood": null,
        "suburb": null,
        "city_district": null,
        "city": "Douglas",
        "state": null,
        "postcode": "IM2 5ET",
        "country": "Isle of Man",
        "country_code": "im"
      },
      "address": "Rearyt Carnane, Douglas, Isle of Man"
    },
    {
      "lat": 54.163215247197435,
      "lon": -4.476645232680549,
      "geoinfo": {
        "display_name": "Victoria Crescent, Willaston, Douglas, Middle, IM2 4AY, Isle of Man",
        "road": "Victoria Crescent",
        "house_number": null,
        "neighbourhood": null,
        "suburb": null,
        "city_district": null,
        "city": "Douglas",
        "state": null,
        "postcode": "IM2 4AY",
        "country": "Isle of Man",
        "country_code": "im"
      },
      "address": "Victoria Crescent, Douglas, Isle of Man"
    },
    {
      "lat": 54.14138761060818,
      "lon": -4.550571633244462,
      "geoinfo": {
        "display_name": "Speke Lane, Braddan, Middle, IM4 2JJ, Isle of Man",
        "road": "Speke Lane",
        "house_number": null,
        "neighbourhood": null,
        "suburb": null,
        "city_district": null,
        "city": "Braddan",
        "state": null,
        "postcode": "IM4 2JJ",
        "country": "Isle of Man",
        "country_code": "im"
      },
      "address": "Speke Lane, Douglas, Isle of Man"
    },
    {
      "lat": 54.154797974570094,
      "lon": -4.475766732395357,
      "geoinfo": {
        "display_name": "Harris Promenade, Douglas, Middle, IM1 2NH, Isle of Man",
        "road": "Harris Promenade",
        "house_number": null,
        "neighbourhood": null,
        "suburb": null,
        "city_district": null,
        "city": "Douglas",
        "state": null,
        "postcode": "IM1 2NH",
        "country": "Isle of Man",
        "country_code": "im"
      },
      "address": "Harris Promenade, Douglas, Isle of Man"
    },
    {
      "lat": 54.17478972913268,
      "lon": -4.482788314555002,
      "geoinfo": {
        "display_name": "Watterson Lane, Ballanard, Willaston, Douglas, Middle, IM2 6PH, Isle of Man",
        "road": "Watterson Lane",
        "house_number": null,
        "neighbourhood": null,
        "suburb": null,
        "city_district": null,
        "city": "Douglas",
        "state": null,
        "postcode": "IM2 6PH",
        "country": "Isle of Man",
        "country_code": "im"
      },
      "address": "Watterson Lane, Douglas, Isle of Man"
    },
    {
      "lat": 54.14209120142163,
      "lon": -4.486079770988398,
      "geoinfo": {
        "display_name": "The Arch, Douglas, Middle, IM1 5AJ, Isle of Man",
        "road": "The Arch",
        "house_number": null,
        "neighbourhood": null,
        "suburb": null,
        "city_district": null,
        "city": "Douglas",
        "state": null,
        "postcode": "IM1 5AJ",
        "country": "Isle of Man",
        "country_code": "im"
      },
      "address": "The Arch, Douglas, Isle of Man"
    },
    {
      "lat": 54.15057905232842,
      "lon": -4.475762986679366,
      "geoinfo": {
        "display_name": "Loch Promenade, Douglas, Middle, IM1 2LY, Isle of Man",
        "road": "Loch Promenade",
        "house_number": null,
        "neighbourhood": null,
        "suburb": null,
        "city_district": null,
        "city": "Douglas",
        "state": null,
        "postcode": "IM1 2LY",
        "country": "Isle of Man",
        "country_code": "im"
      },
      "address": "Loch Promenade, Douglas, Isle of Man"
    },
    {
      "lat": 54.17759135145732,
      "lon": -4.495083115138254,
      "geoinfo": {
        "display_name": "The Castleward Green, Ballanard, Willaston, Douglas, Middle, IM2 5PS, Isle of Man",
        "road": "The Castleward Green",
        "house_number": null,
        "neighbourhood": null,
        "suburb": null,
        "city_district": null,
        "city": "Douglas",
        "state": null,
        "postcode": "IM2 5PS",
        "country": "Isle of Man",
        "country_code": "im"
      },
      "address": "The Castleward Green, Douglas, Isle of Man"
    },
    {
      "lat": 54.17356869478015,
      "lon": -4.459259967053636,
      "geoinfo": {
        "display_name": "27, Governor's Road, Onchan, Middle, IM3 4AD, Isle of Man",
        "road": "Governor's Road",
        "house_number": "27",
        "neighbourhood": null,
        "suburb": null,
        "city_district": null,
        "city": "Onchan",
        "state": null,
        "postcode": "IM3 4AD",
        "country": "Isle of Man",
        "country_code": "im"
      },
      "address": "27 Governor's Road, Douglas, Isle of Man"
    },
    {
      "lat": 54.15583493488393,
      "lon": -4.49118664056077,
      "geoinfo": {
        "display_name": "Alexander Drive, The Milestone, Douglas, Middle, IM2 3QJ, Isle of Man",
        "road": "Alexander Drive",
        "house_number": null,
        "neighbourhood": "The Milestone",
        "suburb": null,
        "city_district": null,
        "city": "Douglas",
        "state": null,
        "postcode": "IM2 3QJ",
        "country": "Isle of Man",
        "country_code": "im"
      },
      "address": "Alexander Drive, Douglas, Isle of Man"
    },
    {
      "lat": 54.16967671410259,
      "lon": -4.490171795494058,
      "geoinfo": {
        "display_name": "Tromode Park, Willaston, Douglas, Middle, IM2 5LU, Isle of Man",
        "road": "Tromode Park",
        "house_number": null,
        "neighbourhood": null,
        "suburb": null,
        "city_district": null,
        "city": "Douglas",
        "state": null,
        "postcode": "IM2 5LU",
        "country": "Isle of Man",
        "country_code": "im"
      },
      "address": "Tromode Park, Douglas, Isle of Man"
    },
    {
      "lat": 54.16280455293384,
      "lon": -4.490586513547737,
      "geoinfo": {
        "display_name": "Port-E-Chee-Avenue, Willaston, Douglas, Middle, IM2 5ET, Isle of Man",
        "road": "Port-E-Chee-Avenue",
        "house_number": null,
        "neighbourhood": null,
        "suburb": null,
        "city_district": null,
        "city": "Douglas",
        "state": null,
        "postcode": "IM2 5ET",
        "country": "Isle of Man",
        "country_code": "im"
      },
      "address": "Port-E-Chee-Avenue, Douglas, Isle of Man"
    },
    {
      "lat": 54.1633669381722,
      "lon": -4.524702197581382,
      "geoinfo": {
        "display_name": "Cronk Road, Braddan, Middle, IM4 4NQ, Isle of Man",
        "road": "Cronk Road",
        "house_number": null,
        "neighbourhood": null,
        "suburb": null,
        "city_district": null,
        "city": "Braddan",
        "state": null,
        "postcode": "IM4 4NQ",
        "country": "Isle of Man",
        "country_code": "im"
      },
      "address": "Cronk Road, Douglas, Isle of Man"
    },
    {
      "lat": 54.15752931113402,
      "lon": -4.473900064956981,
      "geoinfo": {
        "display_name": "Central Promenade, Willaston, Douglas, Middle, IM2 4EE, Isle of Man",
        "road": "Central Promenade",
        "house_number": null,
        "neighbourhood": null,
        "suburb": null,
        "city_district": null,
        "city": "Douglas",
        "state": null,
        "postcode": "IM2 4EE",
        "country": "Isle of Man",
        "country_code": "im"
      },
      "address": "Central Promenade, Douglas, Isle of Man"
    },
    {
      "lat": 54.17193682109003,
      "lon": -4.494850499415433,
      "geoinfo": {
        "display_name": "SLS Optics, Estate Road, Tromode, Onchan, Middle, IM4 4TB, Isle of Man",
        "road": "Estate Road",
        "house_number": null,
        "neighbourhood": null,
        "suburb": null,
        "city_district": null,
        "city": "Tromode",
        "state": null,
        "postcode": "IM4 4TB",
        "country": "Isle of Man",
        "country_code": "im"
      },
      "address": "Estate Road, Douglas, Isle of Man"
    },
    {
      "lat": 54.1828532606356,
      "lon": -4.478782232607329,
      "geoinfo": {
        "display_name": "Johnny Watterson's Lane, Willaston, Douglas, Middle, IM2 7ED, Isle of Man",
        "road": "Johnny Watterson's Lane",
        "house_number": null,
        "neighbourhood": null,
        "suburb": null,
        "city_district": null,
        "city": "Douglas",
        "state": null,
        "postcode": "IM2 7ED",
        "country": "Isle of Man",
        "country_code": "im"
      },
      "address": "Johnny Watterson's Lane, Douglas, Isle of Man"
    },
    {
      "lat": 54.15526666659846,
      "lon": -4.512109943025162,
      "geoinfo": {
        "display_name": "Harcroft Avenue, Douglas, Middle, IM2 1PL, Isle of Man",
        "road": "Harcroft Avenue",
        "house_number": null,
        "neighbourhood": null,
        "suburb": null,
        "city_district": null,
        "city": "Douglas",
        "state": null,
        "postcode": "IM2 1PL",
        "country": "Isle of Man",
        "country_code": "im"
      },
      "address": "Harcroft Avenue, Douglas, Isle of Man"
    },
    {
      "lat": 54.17708363650273,
      "lon": -4.476207348963277,
      "geoinfo": {
        "display_name": "Berry Woods Grove, Willaston, Douglas, Middle, IM2 7BX, Isle of Man",
        "road": "Berry Woods Grove",
        "house_number": null,
        "neighbourhood": null,
        "suburb": null,
        "city_district": null,
        "city": "Douglas",
        "state": null,
        "postcode": "IM2 7BX",
        "country": "Isle of Man",
        "country_code": "im"
      },
      "address": "Berry Woods Grove, Douglas, Isle of Man"
    },
    {
      "lat": 54.16856960111783,
      "lon": -4.484237367358516,
      "geoinfo": {
        "display_name": "Peveril Road, Ballanard, Willaston, Douglas, Middle, IM2 6PQ, Isle of Man",
        "road": "Peveril Road",
        "house_number": null,
        "neighbourhood": null,
        "suburb": null,
        "city_district": null,
        "city": "Douglas",
        "state": null,
        "postcode": "IM2 6PQ",
        "country": "Isle of Man",
        "country_code": "im"
      },
      "address": "Peveril Road, Douglas, Isle of Man"
    },
    {
      "lat": 54.15366774574725,
      "lon": -4.487528491996563,
      "geoinfo": {
        "display_name": "Kensington Road, The Milestone, Douglas, Middle, IM1 3ET, Isle of Man",
        "road": "Kensington Road",
        "house_number": null,
        "neighbourhood": "The Milestone",
        "suburb": null,
        "city_district": null,
        "city": "Douglas",
        "state": null,
        "postcode": "IM1 3ET",
        "country": "Isle of Man",
        "country_code": "im"
      },
      "address": "Kensington Road, Douglas, Isle of Man"
    },
    {
      "lat": 54.14690718291932,
      "lon": -4.461079756138919,
      "geoinfo": {
        "display_name": "Princess Alexandra Pier, Battery Pier, Douglas, Middle, IM1 5BS, Isle of Man",
        "road": "Battery Pier",
        "house_number": null,
        "neighbourhood": null,
        "suburb": null,
        "city_district": null,
        "city": "Douglas",
        "state": null,
        "postcode": "IM1 5BS",
        "country": "Isle of Man",
        "country_code": "im"
      },
      "address": "Battery Pier, Douglas, Isle of Man"
    },
    {
      "lat": 54.1528215396134,
      "lon": -4.5101993321136185,
      "geoinfo": {
        "display_name": "Harcroft Meadow / New Castletown Road, Spring Valley Road, The Milestone, Douglas, Middle, IM2 1JE, Isle of Man",
        "road": "Spring Valley Road",
        "house_number": null,
        "neighbourhood": "The Milestone",
        "suburb": null,
        "city_district": null,
        "city": "Douglas",
        "state": null,
        "postcode": "IM2 1JE",
        "country": "Isle of Man",
        "country_code": "im"
      },
      "address": "Spring Valley Road, Douglas, Isle of Man"
    },
    {
      "lat": 54.14740916468861,
      "lon": -4.483552035002193,
      "geoinfo": {
        "display_name": "Douglas Inner Harbour Marina, North Quay, Douglas, Middle, IM1 4LA, Isle of Man",
        "road": "North Quay",
        "house_number": null,
        "neighbourhood": null,
        "suburb": null,
        "city_district": null,
        "city": "Douglas",
        "state": null,
        "postcode": "IM1 4LA",
        "country": "Isle of Man",
        "country_code": "im"
      },
      "address": "North Quay, Douglas, Isle of Man"
    },
    {
      "lat": 54.13922008259914,
      "lon": -4.461692806287306,
      "geoinfo": {
        "display_name": "Douglas Head Lighthouse, Douglas Head, Douglas, Middle, IM1 5BX, Isle of Man",
        "road": "Douglas Head",
        "house_number": null,
        "neighbourhood": null,
        "suburb": null,
        "city_district": null,
        "city": "Douglas",
        "state": null,
        "postcode": "IM1 5BX",
        "country": "Isle of Man",
        "country_code": "im"
      },
      "address": "Douglas Head, Douglas, Isle of Man"
    },
    {
      "lat": 54.18133829506571,
      "lon": -4.429496365207078,
      "geoinfo": {
        "display_name": "A11, Onchan, Middle, IM3 2JY, Isle of Man",
        "road": "A11",
        "house_number": null,
        "neighbourhood": null,
        "suburb": null,
        "city_district": null,
        "city": "Onchan",
        "state": null,
        "postcode": "IM3 2JY",
        "country": "Isle of Man",
        "country_code": "im"
      },
      "address": "A11, Douglas, Isle of Man"
    },
    {
      "lat": 54.15409925248322,
      "lon": -4.525300344201093,
      "geoinfo": {
        "display_name": "Stevenson Way, Douglas, Middle, IM2 2PB, Isle of Man",
        "road": "Stevenson Way",
        "house_number": null,
        "neighbourhood": null,
        "suburb": null,
        "city_district": null,
        "city": "Douglas",
        "state": null,
        "postcode": "IM2 2PB",
        "country": "Isle of Man",
        "country_code": "im"
      },
      "address": "Stevenson Way, Douglas, Isle of Man"
    },
    {
      "lat": 54.1479726770595,
      "lon": -4.520364321804262,
      "geoinfo": {
        "display_name": "Tramman Park, Douglas, Middle, IM2 2DN, Isle of Man",
        "road": "Tramman Park",
        "house_number": null,
        "neighbourhood": null,
        "suburb": null,
        "city_district": null,
        "city": "Douglas",
        "state": null,
        "postcode": "IM2 2DN",
        "country": "Isle of Man",
        "country_code": "im"
      },
      "address": "Tramman Park, Douglas, Isle of Man"
    },
    {
      "lat": 54.14708764965725,
      "lon": -4.476879896375846,
      "geoinfo": {
        "display_name": "Douglas Harbour Lifting Bridge, Douglas, Middle, IM1 5BR, Isle of Man",
        "road": "Douglas Harbour Lifting Bridge",
        "house_number": null,
        "neighbourhood": null,
        "suburb": null,
        "city_district": null,
        "city": "Douglas",
        "state": null,
        "postcode": "IM1 5BR",
        "country": "Isle of Man",
        "country_code": "im"
      },
      "address": "Douglas Harbour Lifting Bridge, Douglas, Isle of Man"
    },
    {
      "lat": 54.17147333817958,
      "lon": -4.473901551392874,
      "geoinfo": {
        "display_name": "Second Avenue, Willaston, Douglas, Middle, IM2 6AP, Isle of Man",
        "road": "Second Avenue",
        "house_number": null,
        "neighbourhood": null,
        "suburb": null,
        "city_district": null,
        "city": "Douglas",
        "state": null,
        "postcode": "IM2 6AP",
        "country": "Isle of Man",
        "country_code": "im"
      },
      "address": "Second Avenue, Douglas, Isle of Man"
    },
    {
      "lat": 54.146744651538185,
      "lon": -4.48312070917487,
      "geoinfo": {
        "display_name": "South Quay, Douglas, Middle, IM1 4LB, Isle of Man",
        "road": "South Quay",
        "house_number": null,
        "neighbourhood": null,
        "suburb": null,
        "city_district": null,
        "city": "Douglas",
        "state": null,
        "postcode": "IM1 4LB",
        "country": "Isle of Man",
        "country_code": "im"
      },
      "address": "South Quay, Douglas, Isle of Man"
    },
    {
      "lat": 54.1696437978602,
      "lon": -4.465054903545791,
      "geoinfo": {
        "display_name": "Isle of Man Camping, Blackberry Lane, Douglas, Middle, IM2 4PE, Isle of Man",
        "road": "Blackberry Lane",
        "house_number": null,
        "neighbourhood": null,
        "suburb": null,
        "city_district": null,
        "city": "Douglas",
        "state": null,
        "postcode": "IM2 4PE",
        "country": "Isle of Man",
        "country_code": "im"
      },
      "address": "Blackberry Lane, Douglas, Isle of Man"
    },
    {
      "lat": 54.18143713035333,
      "lon": -4.475582744387347,
      "geoinfo": {
        "display_name": "Heather Lane, Willaston, Douglas, Middle, IM2 7EF, Isle of Man",
        "road": "Heather Lane",
        "house_number": null,
        "neighbourhood": null,
        "suburb": null,
        "city_district": null,
        "city": "Douglas",
        "state": null,
        "postcode": "IM2 7EF",
        "country": "Isle of Man",
        "country_code": "im"
      },
      "address": "Heather Lane, Douglas, Isle of Man"
    },
    {
      "lat": 54.152634145952334,
      "lon": -4.513163179685041,
      "geoinfo": {
        "display_name": "Harcroft Meadow, Douglas, Middle, IM2 1JG, Isle of Man",
        "road": "Harcroft Meadow",
        "house_number": null,
        "neighbourhood": null,
        "suburb": null,
        "city_district": null,
        "city": "Douglas",
        "state": null,
        "postcode": "IM2 1JG",
        "country": "Isle of Man",
        "country_code": "im"
      },
      "address": "Harcroft Meadow, Douglas, Isle of Man"
    },
    {
      "lat": 54.14840324331748,
      "lon": -4.480874417194898,
      "geoinfo": {
        "display_name": "Lord Street, Douglas, Middle, IM1 1LE, Isle of Man",
        "road": "Lord Street",
        "house_number": null,
        "neighbourhood": null,
        "suburb": null,
        "city_district": null,
        "city": "Douglas",
        "state": null,
        "postcode": "IM1 1LE",
        "country": "Isle of Man",
        "country_code": "im"
      },
      "address": "Lord Street, Douglas, Isle of Man"
    },
    {
      "lat": 54.166873929371235,
      "lon": -4.484206353878331,
      "geoinfo": {
        "display_name": "Norwood Drive, Willaston, Douglas, Middle, IM2 5HR, Isle of Man",
        "road": "Norwood Drive",
        "house_number": null,
        "neighbourhood": null,
        "suburb": null,
        "city_district": null,
        "city": "Douglas",
        "state": null,
        "postcode": "IM2 5HR",
        "country": "Isle of Man",
        "country_code": "im"
      },
      "address": "Norwood Drive, Douglas, Isle of Man"
    },
    {
      "lat": 54.15443611477061,
      "lon": -4.5264005778833285,
      "geoinfo": {
        "display_name": "Farmhill Meadows, Douglas, Middle, IM2 2PB, Isle of Man",
        "road": "Farmhill Meadows",
        "house_number": null,
        "neighbourhood": null,
        "suburb": null,
        "city_district": null,
        "city": "Douglas",
        "state": null,
        "postcode": "IM2 2PB",
        "country": "Isle of Man",
        "country_code": "im"
      },
      "address": "Farmhill Meadows, Douglas, Isle of Man"
    },
    {
      "lat": 54.14836186475705,
      "lon": -4.480205340084004,
      "geoinfo": {
        "display_name": "Silva Consulting, 16-18, Ridgeway Street, Douglas, Middle, IM1 1EN, Isle of Man",
        "road": "Ridgeway Street",
        "house_number": "16-18",
        "neighbourhood": null,
        "suburb": null,
        "city_district": null,
        "city": "Douglas",
        "state": null,
        "postcode": "IM1 1EN",
        "country": "Isle of Man",
        "country_code": "im"
      },
      "address": "16-18 Ridgeway Street, Douglas, Isle of Man"
    },
    {
      "lat": 54.12853218779384,
      "lon": -4.5035623704321095,
      "geoinfo": {
        "display_name": "Marine Drive, Braddan, Middle, IM4 1AQ, Isle of Man",
        "road": "Marine Drive",
        "house_number": null,
        "neighbourhood": null,
        "suburb": null,
        "city_district": null,
        "city": "Braddan",
        "state": null,
        "postcode": "IM4 1AQ",
        "country": "Isle of Man",
        "country_code": "im"
      },
      "address": "455, Marine Drive, IM4 1AQ Douglas, Isle of Man"
    },
    {
      "lat": 54.1358987470664,
      "lon": -4.451640202978721,
      "geoinfo": {
        "display_name": "Douglas Head, Douglas, Middle, IM1 5BX, Isle of Man",
        "road": null,
        "house_number": null,
        "neighbourhood": null,
        "suburb": null,
        "city_district": null,
        "city": "Douglas",
        "state": null,
        "postcode": "IM1 5BX",
        "country": "Isle of Man",
        "country_code": "im"
      },
      "address": "Douglas Head, Douglas, Middle, IM1 5BX, Isle of Man"
    },
    {
      "lat": 54.1513254253327,
      "lon": -4.517928104987771,
      "geoinfo": {
        "display_name": "Appledene Court, Douglas, Middle, IM2 2BU, Isle of Man",
        "road": "Appledene Court",
        "house_number": null,
        "neighbourhood": null,
        "suburb": null,
        "city_district": null,
        "city": "Douglas",
        "state": null,
        "postcode": "IM2 2BU",
        "country": "Isle of Man",
        "country_code": "im"
      },
      "address": "Appledene Court, Douglas, Middle, IM2 2BU, Isle of Man"
    },
    {
      "lat": 54.14233400934769,
      "lon": -4.538457251171106,
      "geoinfo": {
        "display_name": "New Castletown Road, Ballakinnish, Braddan, Middle, IM4 1AZ, Isle of Man",
        "road": "New Castletown Road",
        "house_number": null,
        "neighbourhood": null,
        "suburb": null,
        "city_district": null,
        "city": "Braddan",
        "state": null,
        "postcode": "IM4 1AZ",
        "country": "Isle of Man",
        "country_code": "im"
      },
      "address": "101, New Castletown Road, IM4 1AZ Douglas, Isle of Man"
    },
    {
      "lat": 54.15590733000954,
      "lon": -4.469605822193669,
      "geoinfo": {
        "display_name": "Tower of Refuge, Queen Elizabeth II Quay, Douglas, Middle, IM1 2RF, Isle of Man",
        "road": "Queen Elizabeth II Quay",
        "house_number": null,
        "neighbourhood": null,
        "suburb": null,
        "city_district": null,
        "city": "Douglas",
        "state": null,
        "postcode": "IM1 2RF",
        "country": "Isle of Man",
        "country_code": "im"
      },
      "address": "Tower of Refuge, Queen Elizabeth II Quay, Douglas, Middle, IM1 2RF, Isle of Man"
    },
    {
      "lat": 54.130230988512174,
      "lon": -4.48825216148223,
      "geoinfo": {
        "display_name": "Marine Drive, Braddan, Middle, IM1 5AN, Isle of Man",
        "road": "Marine Drive",
        "house_number": null,
        "neighbourhood": null,
        "suburb": null,
        "city_district": null,
        "city": "Braddan",
        "state": null,
        "postcode": "IM1 5AN",
        "country": "Isle of Man",
        "country_code": "im"
      },
      "address": "466, Marine Drive, IM1 5AN Douglas, Isle of Man"
    },
    {
      "lat": 54.16189148302958,
      "lon": -4.460252059358044,
      "geoinfo": {
        "display_name": "King Edward Road, Willaston, Douglas, Middle, IM2 4NR, Isle of Man",
        "road": "King Edward Road",
        "house_number": null,
        "neighbourhood": null,
        "suburb": null,
        "city_district": null,
        "city": "Douglas",
        "state": null,
        "postcode": "IM2 4NR",
        "country": "Isle of Man",
        "country_code": "im"
      },
      "address": "King Edward Road, Willaston, Douglas, Middle, IM2 4NR, Isle of Man"
    },
    {
      "lat": 54.13195049740927,
      "lon": -4.537937350964807,
      "geoinfo": {
        "display_name": "Old Castletown Road, Quine's Hill, Braddan, Middle, IM4 1BA, Isle of Man",
        "road": "Old Castletown Road",
        "house_number": null,
        "neighbourhood": null,
        "suburb": null,
        "city_district": null,
        "city": "Braddan",
        "state": null,
        "postcode": "IM4 1BA",
        "country": "Isle of Man",
        "country_code": "im"
      },
      "address": "524, Old Castletown Road, IM4 1BA Douglas, Isle of Man"
    },
    {
      "lat": 54.13252378356961,
      "lon": -4.493493087217919,
      "geoinfo": {
        "display_name": "Marine Drive, Braddan, Middle, IM4 1AQ, Isle of Man",
        "road": "Marine Drive",
        "house_number": null,
        "neighbourhood": null,
        "suburb": null,
        "city_district": null,
        "city": "Braddan",
        "state": null,
        "postcode": "IM4 1AQ",
        "country": "Isle of Man",
        "country_code": "im"
      },
      "address": "503, Marine Drive, IM4 1AQ Douglas, Isle of Man"
    },
    {
      "lat": 54.145264029702176,
      "lon": -4.5354710605861435,
      "geoinfo": {
        "display_name": "New Castletown Road, Ballakinnish, Braddan, Middle, IM4 1AZ, Isle of Man",
        "road": "New Castletown Road",
        "house_number": null,
        "neighbourhood": null,
        "suburb": null,
        "city_district": null,
        "city": "Braddan",
        "state": null,
        "postcode": "IM4 1AZ",
        "country": "Isle of Man",
        "country_code": "im"
      },
      "address": "232, New Castletown Road, IM4 1AZ Douglas, Isle of Man"
    },
    {
      "lat": 54.15570224767122,
      "lon": -4.481598526248272,
      "geoinfo": {
        "display_name": "Cambridge Terrace, Cambridge Terrace Lane, Douglas, Middle, IM1 3LL, Isle of Man",
        "road": "Cambridge Terrace Lane",
        "house_number": null,
        "neighbourhood": null,
        "suburb": null,
        "city_district": null,
        "city": "Douglas",
        "state": null,
        "postcode": "IM1 3LL",
        "country": "Isle of Man",
        "country_code": "im"
      },
      "address": "Cambridge Terrace, Cambridge Terrace Lane, Douglas, Middle, IM1 3LL, Isle of Man"
    },
    {
      "lat": 54.168743152190245,
      "lon": -4.424171474131375,
      "geoinfo": {
        "display_name": "Housedrake Holiday Camp Shelter, King Edward Road, Onchan, Middle, IM3 2HZ, Isle of Man",
        "road": "King Edward Road",
        "house_number": null,
        "neighbourhood": null,
        "suburb": null,
        "city_district": null,
        "city": "Onchan",
        "state": null,
        "postcode": "IM3 2HZ",
        "country": "Isle of Man",
        "country_code": "im"
      },
      "address": "038, King Edward Road, IM3 2HZ Douglas, Isle of Man"
    },
    {
      "lat": 54.166441986713416,
      "lon": -4.485546821062807,
      "geoinfo": {
        "display_name": "Port-E-Chee-Avenue, Willaston, Douglas, Middle, IM2 5ET, Isle of Man",
        "road": "Port-E-Chee-Avenue",
        "house_number": null,
        "neighbourhood": null,
        "suburb": null,
        "city_district": null,
        "city": "Douglas",
        "state": null,
        "postcode": "IM2 5ET",
        "country": "Isle of Man",
        "country_code": "im"
      },
      "address": "Port-E-Chee-Avenue, Willaston, Douglas, Middle, IM2 5ET, Isle of Man"
    },
    {
      "lat": 54.14489355950493,
      "lon": -4.50865878748757,
      "geoinfo": {
        "display_name": "Douglas Golf Club, Pulrose Road, The Milestone, Douglas, Middle, IM2 1AE, Isle of Man",
        "road": "Pulrose Road",
        "house_number": null,
        "neighbourhood": "The Milestone",
        "suburb": null,
        "city_district": null,
        "city": "Douglas",
        "state": null,
        "postcode": "IM2 1AE",
        "country": "Isle of Man",
        "country_code": "im"
      },
      "address": "Douglas Golf Club, Pulrose Road, The Milestone, Douglas, Middle, IM2 1AE, Isle of Man"
    },
    {
      "lat": 54.12861305980901,
      "lon": -4.50552001204575,
      "geoinfo": {
        "display_name": "Marine Drive, Quine's Hill, Braddan, Middle, IM4 1AH, Isle of Man",
        "road": "Marine Drive",
        "house_number": null,
        "neighbourhood": null,
        "suburb": null,
        "city_district": null,
        "city": "Braddan",
        "state": null,
        "postcode": "IM4 1AH",
        "country": "Isle of Man",
        "country_code": "im"
      },
      "address": "040, Marine Drive, IM4 1AH Douglas, Isle of Man"
    },
    {
      "lat": 54.15260843043538,
      "lon": -4.476986026088809,
      "geoinfo": {
        "display_name": "Loch Promenade, Douglas, Middle, IM1 2LY, Isle of Man",
        "road": "Loch Promenade",
        "house_number": null,
        "neighbourhood": null,
        "suburb": null,
        "city_district": null,
        "city": "Douglas",
        "state": null,
        "postcode": "IM1 2LY",
        "country": "Isle of Man",
        "country_code": "im"
      },
      "address": "Loch Promenade, Douglas, Middle, IM1 2LY, Isle of Man"
    },
    {
      "lat": 54.13196267477243,
      "lon": -4.50027931807263,
      "geoinfo": {
        "display_name": "Marine Drive, Braddan, Middle, IM4 1AQ, Isle of Man",
        "road": "Marine Drive",
        "house_number": null,
        "neighbourhood": null,
        "suburb": null,
        "city_district": null,
        "city": "Braddan",
        "state": null,
        "postcode": "IM4 1AQ",
        "country": "Isle of Man",
        "country_code": "im"
      },
      "address": "738, Marine Drive, IM4 1AQ Douglas, Isle of Man"
    },
    {
      "lat": 54.17781399775992,
      "lon": -4.474612376842674,
      "geoinfo": {
        "display_name": "Hailwood Avenue, Willaston, Douglas, Middle, IM2 7AG, Isle of Man",
        "road": "Hailwood Avenue",
        "house_number": null,
        "neighbourhood": null,
        "suburb": null,
        "city_district": null,
        "city": "Douglas",
        "state": null,
        "postcode": "IM2 7AG",
        "country": "Isle of Man",
        "country_code": "im"
      },
      "address": "Hailwood Avenue, Willaston, Douglas, Middle, IM2 7AG, Isle of Man"
    },
    {
      "lat": 54.15757359819325,
      "lon": -4.495252260973838,
      "geoinfo": {
        "display_name": "Woodlands, Alexander Drive, The Milestone, Douglas, Middle, IM2 3QU, Isle of Man",
        "road": "Alexander Drive",
        "house_number": null,
        "neighbourhood": "The Milestone",
        "suburb": null,
        "city_district": null,
        "city": "Douglas",
        "state": null,
        "postcode": "IM2 3QU",
        "country": "Isle of Man",
        "country_code": "im"
      },
      "address": "Woodlands, Alexander Drive, The Milestone, Douglas, Middle, IM2 3QU, Isle of Man"
    },
    {
      "lat": 54.135282837390044,
      "lon": -4.530663619987964,
      "geoinfo": {
        "display_name": "Old Castletown Road, Quine's Hill, Braddan, Middle, IM4 1BB, Isle of Man",
        "road": "Old Castletown Road",
        "house_number": null,
        "neighbourhood": null,
        "suburb": null,
        "city_district": null,
        "city": "Braddan",
        "state": null,
        "postcode": "IM4 1BB",
        "country": "Isle of Man",
        "country_code": "im"
      },
      "address": "587, Old Castletown Road, IM4 1BB Douglas, Isle of Man"
    },
    {
      "lat": 54.13645683074054,
      "lon": -4.489771359386617,
      "geoinfo": {
        "display_name": "Marine Drive, Braddan, Middle, IM1 5AN, Isle of Man",
        "road": "Marine Drive",
        "house_number": null,
        "neighbourhood": null,
        "suburb": null,
        "city_district": null,
        "city": "Braddan",
        "state": null,
        "postcode": "IM1 5AN",
        "country": "Isle of Man",
        "country_code": "im"
      },
      "address": "545, Marine Drive, IM1 5AN Douglas, Isle of Man"
    },
    {
      "lat": 54.15754324479117,
      "lon": -4.49578504453686,
      "geoinfo": {
        "display_name": "Woodlands, Alexander Drive, The Milestone, Douglas, Middle, IM2 3QU, Isle of Man",
        "road": "Alexander Drive",
        "house_number": null,
        "neighbourhood": "The Milestone",
        "suburb": null,
        "city_district": null,
        "city": "Douglas",
        "state": null,
        "postcode": "IM2 3QU",
        "country": "Isle of Man",
        "country_code": "im"
      },
      "address": "774, Alexander Drive, IM2 3QU Douglas, Isle of Man"
    },
    {
      "lat": 54.170174738759364,
      "lon": -4.482568665525491,
      "geoinfo": {
        "display_name": "School Road, Ballanard, Willaston, Douglas, Middle, IM2 6PQ, Isle of Man",
        "road": "School Road",
        "house_number": null,
        "neighbourhood": null,
        "suburb": null,
        "city_district": null,
        "city": "Douglas",
        "state": null,
        "postcode": "IM2 6PQ",
        "country": "Isle of Man",
        "country_code": "im"
      },
      "address": "School Road, Ballanard, Willaston, Douglas, Middle, IM2 6PQ, Isle of Man"
    },
    {
      "lat": 54.17697261578059,
      "lon": -4.4827578747775325,
      "geoinfo": {
        "display_name": "Johnny Watterson's Lane, Ballanard, Willaston, Douglas, Middle, IM2 6PH, Isle of Man",
        "road": "Johnny Watterson's Lane",
        "house_number": null,
        "neighbourhood": null,
        "suburb": null,
        "city_district": null,
        "city": "Douglas",
        "state": null,
        "postcode": "IM2 6PH",
        "country": "Isle of Man",
        "country_code": "im"
      },
      "address": "Johnny Watterson's Lane, Ballanard, Willaston, Douglas, Middle, IM2 6PH, Isle of Man"
    },
    {
      "lat": 54.13242109530664,
      "lon": -4.516089495562524,
      "geoinfo": {
        "display_name": "Old Castletown Road, Kewaigue, Braddan, Middle, IM4 1AJ, Isle of Man",
        "road": "Old Castletown Road",
        "house_number": null,
        "neighbourhood": null,
        "suburb": null,
        "city_district": null,
        "city": "Braddan",
        "state": null,
        "postcode": "IM4 1AJ",
        "country": "Isle of Man",
        "country_code": "im"
      },
      "address": "593, Old Castletown Road, IM4 1AJ Douglas, Isle of Man"
    },
    {
      "lat": 54.135325656218505,
      "lon": -4.488393196928439,
      "geoinfo": {
        "display_name": "Marine Drive, Braddan, Middle, IM1 5AN, Isle of Man",
        "road": "Marine Drive",
        "house_number": null,
        "neighbourhood": null,
        "suburb": null,
        "city_district": null,
        "city": "Braddan",
        "state": null,
        "postcode": "IM1 5AN",
        "country": "Isle of Man",
        "country_code": "im"
      },
      "address": "323, Marine Drive, IM1 5AN Douglas, Isle of Man"
    },
    {
      "lat": 54.171739926559034,
      "lon": -4.493139548002925,
      "geoinfo": {
        "display_name": "Cedar Walk, Ballanard, Willaston, Douglas, Middle, IM2 5NQ, Isle of Man",
        "road": "Cedar Walk",
        "house_number": null,
        "neighbourhood": null,
        "suburb": null,
        "city_district": null,
        "city": "Douglas",
        "state": null,
        "postcode": "IM2 5NQ",
        "country": "Isle of Man",
        "country_code": "im"
      },
      "address": "Cedar Walk, Ballanard, Willaston, Douglas, Middle, IM2 5NQ, Isle of Man"
    },
    {
      "lat": 54.12581805513806,
      "lon": -4.522547780377733,
      "geoinfo": {
        "display_name": "Marine Drive, Quine's Hill, Braddan, Middle, IM4 1BJ, Isle of Man",
        "road": "Marine Drive",
        "house_number": null,
        "neighbourhood": null,
        "suburb": null,
        "city_district": null,
        "city": "Braddan",
        "state": null,
        "postcode": "IM4 1BJ",
        "country": "Isle of Man",
        "country_code": "im"
      },
      "address": "835, Marine Drive, IM4 1BJ Douglas, Isle of Man"
    },
    {
      "lat": 54.15685176001724,
      "lon": -4.525063298329523,
      "geoinfo": {
        "display_name": "Manor Road, Douglas, Middle, IM2 2NZ, Isle of Man",
        "road": "Manor Road",
        "house_number": null,
        "neighbourhood": null,
        "suburb": null,
        "city_district": null,
        "city": "Douglas",
        "state": null,
        "postcode": "IM2 2NZ",
        "country": "Isle of Man",
        "country_code": "im"
      },
      "address": "Manor Road, Douglas, Middle, IM2 2NZ, Isle of Man"
    },
    {
      "lat": 54.17364396354505,
      "lon": -4.541884153048218,
      "geoinfo": {
        "display_name": "Peel Road, Glen Vine, Marown, Middle, IM4 4AT, Isle of Man",
        "road": "Peel Road",
        "house_number": null,
        "neighbourhood": null,
        "suburb": null,
        "city_district": null,
        "city": "Marown",
        "state": null,
        "postcode": "IM4 4AT",
        "country": "Isle of Man",
        "country_code": "im"
      },
      "address": "572, Peel Road, IM4 4AT Douglas, Isle of Man"
    },
    {
      "lat": 54.117479546935414,
      "lon": -4.53026723608011,
      "geoinfo": {
        "display_name": "Heroes On The Water, Marine Drive, Braddan, Middle, IM4 1BE, Isle of Man",
        "road": "Marine Drive",
        "house_number": null,
        "neighbourhood": null,
        "suburb": null,
        "city_district": null,
        "city": "Braddan",
        "state": null,
        "postcode": "IM4 1BE",
        "country": "Isle of Man",
        "country_code": "im"
      },
      "address": "685, Marine Drive, IM4 1BE Douglas, Isle of Man"
    },
    {
      "lat": 54.18040520343763,
      "lon": -4.477659366806759,
      "geoinfo": {
        "display_name": "Foxglove Close, Willaston, Douglas, Middle, IM2 7EG, Isle of Man",
        "road": "Foxglove Close",
        "house_number": null,
        "neighbourhood": null,
        "suburb": null,
        "city_district": null,
        "city": "Douglas",
        "state": null,
        "postcode": "IM2 7EG",
        "country": "Isle of Man",
        "country_code": "im"
      },
      "address": "Foxglove Close, Willaston, Douglas, Middle, IM2 7EG, Isle of Man"
    },
    {
      "lat": 54.133883844177376,
      "lon": -4.550523544669744,
      "geoinfo": {
        "display_name": "New Castletown Road, Ballakinnish, Braddan, Middle, IM4 1AZ, Isle of Man",
        "road": "New Castletown Road",
        "house_number": null,
        "neighbourhood": null,
        "suburb": null,
        "city_district": null,
        "city": "Braddan",
        "state": null,
        "postcode": "IM4 1AZ",
        "country": "Isle of Man",
        "country_code": "im"
      },
      "address": "752, New Castletown Road, IM4 1AZ Douglas, Isle of Man"
    },
    {
      "lat": 54.14131542470372,
      "lon": -4.481478665495555,
      "geoinfo": {
        "display_name": "Marine Drive, Braddan, Middle, IM1 5BY, Isle of Man",
        "road": "Marine Drive",
        "house_number": null,
        "neighbourhood": null,
        "suburb": null,
        "city_district": null,
        "city": "Braddan",
        "state": null,
        "postcode": "IM1 5BY",
        "country": "Isle of Man",
        "country_code": "im"
      },
      "address": "919, Marine Drive, IM1 5BY Douglas, Isle of Man"
    },
    {
      "lat": 54.153860240234565,
      "lon": -4.4739270202317885,
      "geoinfo": {
        "display_name": "Loch Promenade, Douglas, Middle, IM1 2LY, Isle of Man",
        "road": "Loch Promenade",
        "house_number": null,
        "neighbourhood": null,
        "suburb": null,
        "city_district": null,
        "city": "Douglas",
        "state": null,
        "postcode": "IM1 2LY",
        "country": "Isle of Man",
        "country_code": "im"
      },
      "address": "814, Loch Promenade, IM1 2LY Douglas, Isle of Man"
    },
    {
      "lat": 54.16080694596543,
      "lon": -4.487479305355211,
      "geoinfo": {
        "display_name": "Thorny Road, Willaston, Douglas, Middle, IM2 3LA, Isle of Man",
        "road": "Thorny Road",
        "house_number": null,
        "neighbourhood": null,
        "suburb": null,
        "city_district": null,
        "city": "Douglas",
        "state": null,
        "postcode": "IM2 3LA",
        "country": "Isle of Man",
        "country_code": "im"
      },
      "address": "Thorny Road, Willaston, Douglas, Middle, IM2 3LA, Isle of Man"
    },
    {
      "lat": 54.13098137257913,
      "lon": -4.489073400463545,
      "geoinfo": {
        "display_name": "Marine Drive, Braddan, Middle, IM1 5AN, Isle of Man",
        "road": "Marine Drive",
        "house_number": null,
        "neighbourhood": null,
        "suburb": null,
        "city_district": null,
        "city": "Braddan",
        "state": null,
        "postcode": "IM1 5AN",
        "country": "Isle of Man",
        "country_code": "im"
      },
      "address": "338, Marine Drive, IM1 5AN Douglas, Isle of Man"
    },
    {
      "lat": 54.164013061642756,
      "lon": -4.488181444820391,
      "geoinfo": {
        "display_name": "Inner Circle, Willaston, Douglas, Middle, IM2 5BE, Isle of Man",
        "road": "Inner Circle",
        "house_number": null,
        "neighbourhood": null,
        "suburb": null,
        "city_district": null,
        "city": "Douglas",
        "state": null,
        "postcode": "IM2 5BE",
        "country": "Isle of Man",
        "country_code": "im"
      },
      "address": "Inner Circle, Willaston, Douglas, Middle, IM2 5BE, Isle of Man"
    }
  ],
  "updated_at": "2025-10-19T06:09:16.330097+00:00",
  "_kind": "geo_samples"
}