{
  "country_code": "RE",
  "country": "Reunion",
  "city": "Saint-André",
  "geonameid": 935268,
  "target_addresses": 8,
  "samples": [
    {
      "lat": -20.98596727443487,
      "lon": 55.62637525484089,
      "geoinfo": {
        "display_name": "Ruelle Bras Songe, Saint-André, Saint-Benoît, Réunion, 97440, France",
        "road": "Ruelle Bras Songe",
        "house_number": null,
        "neighbourhood": null,
        "suburb": null,
        "city_district": null,
        "city": "Saint-André",
        "state": "Réunion",
        "postcode": "97440",
        "country": "France",
        "country_code": "fr"
      },
      "address": "Ruelle Bras Songe, Saint-André, Réunion, Reunion"
    },
    {
      "lat": -20.983351955841066,
      "lon": 55.65501927601826,
      "geoinfo": {
        "display_name": "N 2, Bras-Panon, Saint-Benoît, Réunion, 97412, France",
        "road": "N 2",
        "house_number": null,
        "neighbourhood": null,
        "suburb": null,
        "city_district": null,
        "city": "Bras-Panon",
        "state": "Réunion",
        "postcode": "97412",
        "country": "France",
        "country_code": "fr"
      },
      "address": "N 2, Saint-André, Réunion, Reunion"
    },
    {
      "lat": -20.96182754715482,
      "lon": 55.62544441408122,
      "geoinfo": {
        "display_name": "Menciol, Saint-André, Saint-Benoît, Réunion, 97440, France",
        "road": null,
        "house_number": null,
        "neighbourhood": null,
        "suburb": null,
        "city_district": null,
        "city": "Saint-André",
        "state": "Réunion",
        "postcode": "97440",
        "country": "France",
        "country_code": "fr"
      },
      "address": "Saint-André, Réunion, Reunion"
    },
    {
      "lat": -20.938208148078925,
      "lon": 55.646618072790005,
      "geoinfo": {
        "display_name": "Avenue des Mascareignes, Saint-André, Saint-Benoît, Réunion, 97440, France",
        "road": "Avenue des Mascareignes",
        "house_number": null,
        "neighbourhood": null,
        "suburb": null,
        "city_district": null,
        "city": "Saint-André",
        "state": "Réunion",
        "postcode": "97440",
        "country": "France",
        "country_code": "fr"
      },
      "address": "Avenue des Mascareignes, Saint-André, Réunion, Reunion"
    },
    {
      "lat": -20.951997991354055,
      "lon": 55.676336861639854,
      "geoinfo": {
        "display_name": "Ruelle des Maraichers, Secteur Rio, Saint-André, Saint-Benoît, Réunion, 97440, France",
        "road": "Ruelle des Maraichers",
        "house_number": null,
        "neighbourhood": null,
        "suburb": null,
        "city_district": null,
        "city": "Saint-André",
        "state": "Réunion",
        "postcode": "97440",
        "country": "France",
        "country_code": "fr"
      },
      "address": "Ruelle des Maraichers, Saint-André, Réunion, Reunion"
    },
    {
      "lat": -20.922686036932546,
      "lon": 55.63066220013892,
      "geoinfo": {
        "display_name": "Picard, Avenue Mahatma Gandhi, Sainte-Suzanne, Saint-Denis, Réunion, 97441, France",
        "road": "Avenue Mahatma Gandhi",
        "house_number": null,
        "neighbourhood": null,
        "suburb": null,
        "city_district": null,
        "city": "Sainte-Suzanne",
        "state": "Réunion",
        "postcode": "97441",
        "country": "France",
        "country_code": "fr"
      },
      "address": "Avenue Mahatma Gandhi, Saint-André, Réunion, Reunion"
    },
    {
      "lat": -20.99376250641185,
      "lon": 55.6184894930186,
      "geoinfo": {
        "display_name": "Ruelle Bras Citronniers, Saint-André, Saint-Benoît, Réunion, 97440, France",
        "road": "Ruelle Bras Citronniers",
        "house_number": null,
        "neighbourhood": null,
        "suburb": null,
        "city_district": null,
        "city": "Saint-André",
        "state": "Réunion",
        "postcode": "97440",
        "country": "France",
        "country_code": "fr"
      },
      "address": "Ruelle Bras Citronniers, Saint-André, Réunion, Reunion"
    },
    {
      "lat": -20.980938771341116,
      "lon": 55.64815287529263,
      "geoinfo": {
        "display_name": "D 48.1, Les Badamiers, Bras-Panon, Saint-Benoît, Réunion, 97412, France",
        "road": "D 48.1",
        "house_number": null,
        "neighbourhood": null,
        "suburb": "Les Badamiers",
        "city_district": null,
        "city": "Bras-Panon",
        "state": "Réunion",
        "postcode": "97412",
        "country": "France",
        "country_code": "fr"
      },
      "address": "D 48.1, Saint-André, Réunion, Reunion"
    },
    {
      "lat": -20.958297437751018,
      "lon": 55.62796656153964,
      "geoinfo": {
        "display_name": "Lotissement Falo, Menciol, Saint-André, Saint-Benoît, Réunion, 97440, France",
        "road": null,
        "house_number": null,
        "neighbourhood": "Lotissement Falo",
        "suburb": null,
        "city_district": null,
        "city": "Saint-André",
        "state": "Réunion",
        "postcode": "97440",
        "country": "France",
        "country_code": "fr"
      },
      "address": "677, Lotissement Falo, Saint-André, 97440 Réunion, Reunion"
    },
    {
      "lat": -20.96924921052347,
      "lon": 55.641534464816566,
      "geoinfo": {
        "display_name": "Rue Payet, Bras des Chevrettes, Saint-André, Saint-Benoît, Réunion, 97440, France",
        "road": "Rue Payet",
        "house_number": null,
        "neighbourhood": null,
        "suburb": null,
        "city_district": null,
        "city": "Saint-André",
        "state": "Réunion",
        "postcode": "97440",
        "country": "France",
        "country_code": "fr"
      },
      "address": "402, Rue Payet, Saint-André, 97440 Réunion, Reunion"
    },
    {
      "lat": -20.968566023251437,
      "lon": 55.67039193398626,
      "geoinfo": {
        "display_name": "Patelin, Saint-André, Saint-Benoît, Réunion, 97440, France",
        "road": null,
        "house_number": null,
        "neighbourhood": null,
        "suburb": null,
        "city_district": null,
        "city": "Saint-André",
        "state": "Réunion",
        "postcode": "97440",
        "country": "France",
        "country_code": "fr"
      },
      "address": "468, Saint-André, 97440 Réunion, Reunion"
    },
    {
      "lat": -20.976651149425713,
      "lon": 55.62645037713068,
      "geoinfo": {
        "display_name": "Chemin Dioré, Bras des Chevrettes, Saint-André, Saint-Benoît, Réunion, 97440, France",
        "road": "Chemin Dioré",
        "house_number": null,
        "neighbourhood": null,
        "suburb": null,
        "city_district": null,
        "city": "Saint-André",
        "state": "Réunion",
        "postcode": "97440",
        "country": "France",
        "country_code": "fr"
      },
      "address": "759, Chemin Dioré, Saint-André, 97440 Réunion, Reunion"
    },
    {
      "lat": -20.94969925119983,
      "lon": 55.667483643726115,
      "geoinfo": {
        "display_name": "Chemin Fantaisie, Secteur Rio, Saint-André, Saint-Benoît, Réunion, 97440, France",
        "road": "Chemin Fantaisie",
        "house_number": null,
        "neighbourhood": null,
        "suburb": null,
        "city_district": null,
        "city": "Saint-André",
        "state": "Réunion",
        "postcode": "97440",
        "country": "France",
        "country_code": "fr"
      },
      "address": "759, Chemin Fantaisie, Saint-André, 97440 Réunion, Reunion"
    },
    {
      "lat": -20.972551694760654,
      "lon": 55.66765692212918,
      "geoinfo": {
        "display_name": "Chemin Canal Moreau, Patelin, Saint-André, Saint-Benoît, Réunion, 97440, France",
        "road": "Chemin Canal Moreau",
        "house_number": null,
        "neighbourhood": null,
        "suburb": null,
        "city_district": null,
        "city": "Saint-André",
        "state": "Réunion",
        "postcode": "97440",
        "country": "France",
        "country_code": "fr"
      },
      "address": "715, Chemin Canal Moreau, Saint-André, 97440 Réunion, Reunion"
    },
    {
      "lat": -20.92107349050411,
      "lon": 55.65532793028471,
      "geoinfo": {
        "display_name": "Ruelle Tamarins, Saint-André, Saint-Benoît, Réunion, 97440, France",
        "road": "Ruelle Tamarins",
        "house_number": null,
        "neighbourhood": null,
        "suburb": null,
        "city_district": null,
        "city": "Saint-André",
        "state": "Réunion",
        "postcode": "97440",
        "country": "France",
        "country_code": "fr"
      },
      "address": "563, Ruelle Tamarins, Saint-André, 97440 Réunion, Reunion"
    },
    {
      "lat": -20.96834856181192,
      "lon": 55.68540116278679,
      "geoinfo": {
        "display_name": "Chemin Patelin, Patelin, Saint-André, Saint-Benoît, Réunion, 97440, France",
        "road": "Chemin Patelin",
        "house_number": null,
        "neighbourhood": null,
        "suburb": null,
        "city_district": null,
        "city": "Saint-André",
        "state": "Réunion",
        "postcode": "97440",
        "country": "France",
        "country_code": "fr"
      },
      "address": "572, Chemin Patelin, Saint-André, 97440 Réunion, Reunion"
    }
  ],
  "updated_at": "2025-10-19T06:19:17.701048+00:00",
  "_kind": "geo_samples"
}