{
  "country_code": "RE",
  "country": "Reunion",
  "city": "Sainte-Marie",
  "geonameid": 935255,
  "target_addresses": 8,
  "samples": [
    {
      "lat": -20.916737799513907,
      "lon": 55.562280142262416,
      "geoinfo": {
        "display_name": "Chemin Beaufond, La Ressource Barau, Sainte-Marie, Saint-Denis, Réunion, 97438, France",
        "road": "Chemin Beaufond",
        "house_number": null,
        "neighbourhood": null,
        "suburb": null,
        "city_district": null,
        "city": "Sainte-Marie",
        "state": "Réunion",
        "postcode": "97438",
        "country": "France",
        "country_code": "fr"
      },
      "address": "Chemin Beaufond, Sainte-Marie, Réunion, Reunion"
    },
    {
      "lat": -20.87907762822888,
      "lon": 55.52095391970539,
      "geoinfo": {
        "display_name": "La Mare, Sainte-Marie, Saint-Denis, Réunion, 97438, France",
        "road": null,
        "house_number": null,
        "neighbourhood": null,
        "suburb": null,
        "city_district": null,
        "city": "Sainte-Marie",
        "state": "Réunion",
        "postcode": "97438",
        "country": "France",
        "country_code": "fr"
      },
      "address": "Sainte-Marie, Réunion, Reunion"
    },
    {
      "lat": -20.936428601548187,
      "lon": 55.536425556954754,
      "geoinfo": {
        "display_name": "Impasse Ancien Séminaire, La Ressource, Sainte-Marie, Saint-Denis, Réunion, 97438, France",
        "road": "Impasse Ancien Séminaire",
        "house_number": null,
        "neighbourhood": null,
        "suburb": null,
        "city_district": null,
        "city": "Sainte-Marie",
        "state": "Réunion",
        "postcode": "97438",
        "country": "France",
        "country_code": "fr"
      },
      "address": "Impasse Ancien Séminaire, Sainte-Marie, Réunion, Reunion"
    },
    {
      "lat": -20.889039648858528,
      "lon": 55.50633179369749,
      "geoinfo": {
        "display_name": "Impasse Henri Fabre, Sainte-Marie, Saint-Denis, Réunion, 97438, France",
        "road": "Impasse Henri Fabre",
        "house_number": null,
        "neighbourhood": null,
        "suburb": null,
        "city_district": null,
        "city": "Sainte-Marie",
        "state": "Réunion",
        "postcode": "97438",
        "country": "France",
        "country_code": "fr"
      },
      "address": "Impasse Henri Fabre, Sainte-Marie, Réunion, Reunion"
    },
    {
      "lat": -20.918359600564724,
      "lon": 55.56638945256634,
      "geoinfo": {
        "display_name": "Route de Bagatelle, Ravine des Chèvres les Hauts, Sainte-Marie, Saint-Denis, Réunion, 97438, France",
        "road": "Route de Bagatelle",
        "house_number": null,
        "neighbourhood": null,
        "suburb": null,
        "city_district": null,
        "city": "Sainte-Marie",
        "state": "Réunion",
        "postcode": "97438",
        "country": "France",
        "country_code": "fr"
      },
      "address": "Route de Bagatelle, Sainte-Marie, Réunion, Reunion"
    },
    {
      "lat": -20.888232136119388,
      "lon": 55.503387217077005,
      "geoinfo": {
        "display_name": "Site de broyage du SYDNE, Sentier Littoral Nord, Saint-Denis, Réunion, 97743, France",
        "road": "Sentier Littoral Nord",
        "house_number": null,
        "neighbourhood": null,
        "suburb": null,
        "city_district": null,
        "city": "Saint-Denis",
        "state": "Réunion",
        "postcode": "97743",
        "country": "France",
        "country_code": "fr"
      },
      "address": "Sentier Littoral Nord, Sainte-Marie, Réunion, Reunion"
    },
    {
      "lat": -20.877893457797526,
      "lon": 55.575521662674525,
      "geoinfo": {
        "display_name": "Ravine des Chèvres les Bas, La Convenance, Sainte-Marie, Saint-Denis, Réunion, 97438, France",
        "road": null,
        "house_number": null,
        "neighbourhood": null,
        "suburb": "La Convenance",
        "city_district": null,
        "city": "Sainte-Marie",
        "state": "Réunion",
        "postcode": "97438",
        "country": "France",
        "country_code": "fr"
      },
      "address": "La Convenance, Sainte-Marie, Réunion, Reunion"
    },
    {
      "lat": -20.88414956898211,
      "lon": 55.56977706593503,
      "geoinfo": {
        "display_name": "Les Cafés, Sainte-Marie, Saint-Denis, Réunion, 97438, France",
        "road": null,
        "house_number": null,
        "neighbourhood": null,
        "suburb": "Les Cafés",
        "city_district": null,
        "city": "Sainte-Marie",
        "state": "Réunion",
        "postcode": "97438",
        "country": "France",
        "country_code": "fr"
      },
      "address": "Les Cafés, Sainte-Marie, Réunion, Reunion"
    },
    {
      "lat": -20.908133910642142,
      "lon": 55.56835871962086,
      "geoinfo": {
        "display_name": "Rue Aurore, Ravine des Chèvres les Hauts, Sainte-Marie, Saint-Denis, Réunion, 97438, France",
        "road": "Rue Aurore",
        "house_number": null,
        "neighbourhood": null,
        "suburb": null,
        "city_district": null,
        "city": "Sainte-Marie",
        "state": "Réunion",
        "postcode": "97438",
        "country": "France",
        "country_code": "fr"
      },
      "address": "218, Rue Aurore, Sainte-Marie, 97438 Réunion, Reunion"
    },
    {
      "lat": -20.870050870904958,
      "lon": 55.52285273690497,
      "geoinfo": {
        "display_name": "Réunion, France",
        "road": null,
        "house_number": null,
        "neighbourhood": null,
        "suburb": null,
        "city_district": null,
        "city": null,
        "state": "Réunion",
        "postcode": null,
        "country": "France",
        "country_code": "fr"
      },
      "address": "661, Sainte-Marie, 00265 Réunion, Reunion"
    },
    {
      "lat": -20.872381859709066,
      "lon": 55.533177666620404,
      "geoinfo": {
        "display_name": "Réunion, France",
        "road": null,
        "house_number": null,
        "neighbourhood": null,
        "suburb": null,
        "city_district": null,
        "city": null,
        "state": "Réunion",
        "postcode": null,
        "country": "France",
        "country_code": "fr"
      },
      "address": "221, Sainte-Marie, 83131 Réunion, Reunion"
    },
    {
      "lat": -20.881910673193996,
      "lon": 55.58766148287849,
      "geoinfo": {
        "display_name": "Réunion, France",
        "road": null,
        "house_number": null,
        "neighbourhood": null,
        "suburb": null,
        "city_district": null,
        "city": null,
        "state": "Réunion",
        "postcode": null,
        "country": "France",
        "country_code": "fr"
      },
      "address": "857, Sainte-Marie, 63422 Réunion, Reunion"
    },
    {
      "lat": -20.875861095703804,
      "lon": 55.57367199661804,
      "geoinfo": {
        "display_name": "Ravine des Chèvres les Bas, La Convenance, Sainte-Marie, Saint-Denis, Réunion, 97438, France",
        "road": null,
        "house_number": null,
        "neighbourhood": null,
        "suburb": "La Convenance",
        "city_district": null,
        "city": "Sainte-Marie",
        "state": "Réunion",
        "postcode": "97438",
        "country": "France",
        "country_code": "fr"
      },
      "address": "959, La Convenance, Sainte-Marie, 97438 Réunion, Reunion"
    },
    {
      "lat": -20.863360790524627,
      "lon": 55.536150423160144,
      "geoinfo": {
        "display_name": "Réunion, France",
        "road": null,
        "house_number": null,
        "neighbourhood": null,
        "suburb": null,
        "city_district": null,
        "city": null,
        "state": "Réunion",
        "postcode": null,
        "country": "France",
        "country_code": "fr"
      },
      "address": "881, Sainte-Marie, 20130 Réunion, Reunion"
    },
    {
      "lat": -20.88905182357539,
      "lon": 55.54332662129767,
      "geoinfo": {
        "display_name": "Sentier Littoral Nord, Sainte-Marie, Saint-Denis, Réunion, 97438, France",
        "road": "Sentier Littoral Nord",
        "house_number": null,
        "neighbourhood": null,
        "suburb": null,
        "city_district": null,
        "city": "Sainte-Marie",
        "state": "Réunion",
        "postcode": "97438",
        "country": "France",
        "country_code": "fr"
      },
      "address": "348, Sentier Littoral Nord, Sainte-Marie, 97438 Réunion, Reunion"
    },
    {
      "lat": -20.93619441792095,
      "lon": 55.56735002687669,
      "geoinfo": {
        "display_name": "Chemin Rural N14C, La Ressource Barau, Sainte-Marie, Saint-Denis, Réunion, 97438, France",
        "road": "Chemin Rural N14C",
        "house_number": null,
        "neighbourhood": null,
        "suburb": null,
        "city_district": null,
        "city": "Sainte-Marie",
        "state": "Réunion",
        "postcode": "97438",
        "country": "France",
        "country_code": "fr"
      },
      "address": "Chemin Rural N14C, Sainte-Marie, 97438 Réunion, Reunion"
    }
  ],
  "updated_at": "2025-10-19T06:44:29.998270+00:00",
  "_kind": "geo_samples"
}