{
  "country_code": "RE",
  "country": "Reunion",
  "city": "Saint-Pierre",
  "geonameid": 935214,
  "target_addresses": 8,
  "samples": [
    {
      "lat": -21.351137001516395,
      "lon": 55.47054265236751,
      "geoinfo": {
        "display_name": "Place Napoléon Hoarau, Terre Sainte, Saint-Pierre, Réunion, 97410, France",
        "road": null,
        "house_number": null,
        "neighbourhood": null,
        "suburb": null,
        "city_district": null,
        "city": "Saint-Pierre",
        "state": "Réunion",
        "postcode": "97410",
        "country": "France",
        "country_code": "fr"
      },
      "address": "Saint-Pierre, Réunion, Reunion"
    },
    {
      "lat": -21.369699309107105,
      "lon": 55.44394546784125,
      "geoinfo": {
        "display_name": "La Ravine Blanche, Saint-Pierre, Réunion, 97448, France",
        "road": null,
        "house_number": null,
        "neighbourhood": null,
        "suburb": "La Ravine Blanche",
        "city_district": null,
        "city": "Saint-Pierre",
        "state": "Réunion",
        "postcode": "97448",
        "country": "France",
        "country_code": "fr"
      },
      "address": "La Ravine Blanche, Saint-Pierre, Réunion, Reunion"
    },
    {
      "lat": -21.306649768311384,
      "lon": 55.495072069953856,
      "geoinfo": {
        "display_name": "Rue de Mn Caprice, Ligne des Bambous, Saint-Pierre, Réunion, 97432, France",
        "road": "Rue de Mn Caprice",
        "house_number": null,
        "neighbourhood": null,
        "suburb": null,
        "city_district": null,
        "city": "Saint-Pierre",
        "state": "Réunion",
        "postcode": "97432",
        "country": "France",
        "country_code": "fr"
      },
      "address": "Rue de Mn Caprice, Saint-Pierre, Réunion, Reunion"
    },
    {
      "lat": -21.351902161970187,
      "lon": 55.51478907320654,
      "geoinfo": {
        "display_name": "Allée de la Palmeraie, Grands-Bois, Saint-Pierre, Réunion, 97410, France",
        "road": "Allée de la Palmeraie",
        "house_number": null,
        "neighbourhood": null,
        "suburb": null,
        "city_district": null,
        "city": "Saint-Pierre",
        "state": "Réunion",
        "postcode": "97410",
        "country": "France",
        "country_code": "fr"
      },
      "address": "Allée de la Palmeraie, Saint-Pierre, Réunion, Reunion"
    },
    {
      "lat": -21.310818320641264,
      "lon": 55.45616340145789,
      "geoinfo": {
        "display_name": "Chemin Badamier, Mon Repos, Bois d'Olives, Saint-Pierre, Réunion, 97455, France",
        "road": "Chemin Badamier",
        "house_number": null,
        "neighbourhood": null,
        "suburb": null,
        "city_district": null,
        "city": "Saint-Pierre",
        "state": "Réunion",
        "postcode": "97455",
        "country": "France",
        "country_code": "fr"
      },
      "address": "Chemin Badamier, Saint-Pierre, Réunion, Reunion"
    },
    {
      "lat": -21.336111486643357,
      "lon": 55.46615860114081,
      "geoinfo": {
        "display_name": "Allée des Marguerites, Casabona, La Ravine Blanche, Saint-Pierre, Réunion, 97448, France",
        "road": "Allée des Marguerites",
        "house_number": null,
        "neighbourhood": null,
        "suburb": "La Ravine Blanche",
        "city_district": null,
        "city": "Saint-Pierre",
        "state": "Réunion",
        "postcode": "97448",
        "country": "France",
        "country_code": "fr"
      },
      "address": "Allée des Marguerites, Saint-Pierre, Réunion, Reunion"
    },
    {
      "lat": -21.345953921446007,
      "lon": 55.506302121012105,
      "geoinfo": {
        "display_name": "Chemin Canas, Grands-Bois, Saint-Pierre, Réunion, 97410, France",
        "road": "Chemin Canas",
        "house_number": null,
        "neighbourhood": null,
        "suburb": null,
        "city_district": null,
        "city": "Saint-Pierre",
        "state": "Réunion",
        "postcode": "97410",
        "country": "France",
        "country_code": "fr"
      },
      "address": "Chemin Canas, Saint-Pierre, Réunion, Reunion"
    },
    {
      "lat": -21.315800743456624,
      "lon": 55.476013879868425,
      "geoinfo": {
        "display_name": "Chemin la Salette, Z.I. n°2, Bois d'Olives, Saint-Pierre, Réunion, 97455, France",
        "road": "Chemin la Salette",
        "house_number": null,
        "neighbourhood": null,
        "suburb": null,
        "city_district": null,
        "city": "Saint-Pierre",
        "state": "Réunion",
        "postcode": "97455",
        "country": "France",
        "country_code": "fr"
      },
      "address": "Chemin la Salette, Saint-Pierre, Réunion, Reunion"
    },
    {
      "lat": -21.32219395869278,
      "lon": 55.51302757332846,
      "geoinfo": {
        "display_name": "Saint-Pierre, Réunion, 97410, France",
        "road": null,
        "house_number": null,
        "neighbourhood": null,
        "suburb": null,
        "city_district": null,
        "city": "Saint-Pierre",
        "state": "Réunion",
        "postcode": "97410",
        "country": "France",
        "country_code": "fr"
      },
      "address": "587, Saint-Pierre, 97410 Réunion, Reunion"
    },
    {
      "lat": -21.363217895445025,
      "lon": 55.44322004980988,
      "geoinfo": {
        "display_name": "La Ravine Blanche, Saint-Pierre, Réunion, 97448, France",
        "road": null,
        "house_number": null,
        "neighbourhood": null,
        "suburb": "La Ravine Blanche",
        "city_district": null,
        "city": "Saint-Pierre",
        "state": "Réunion",
        "postcode": "97448",
        "country": "France",
        "country_code": "fr"
      },
      "address": "620, La Ravine Blanche, Saint-Pierre, 97448 Réunion, Reunion"
    },
    {
      "lat": -21.36158804955804,
      "lon": 55.504984830461915,
      "geoinfo": {
        "display_name": "Grands-Bois, Saint-Pierre, Réunion, 97429, France",
        "road": null,
        "house_number": null,
        "neighbourhood": null,
        "suburb": null,
        "city_district": null,
        "city": "Saint-Pierre",
        "state": "Réunion",
        "postcode": "97429",
        "country": "France",
        "country_code": "fr"
      },
      "address": "264, Saint-Pierre, 97429 Réunion, Reunion"
    },
    {
      "lat": -21.366533818796515,
      "lon": 55.49405356934472,
      "geoinfo": {
        "display_name": "Terre Sainte, Saint-Pierre, Réunion, 97410, France",
        "road": null,
        "house_number": null,
        "neighbourhood": null,
        "suburb": null,
        "city_district": null,
        "city": "Saint-Pierre",
        "state": "Réunion",
        "postcode": "97410",
        "country": "France",
        "country_code": "fr"
      },
      "address": "242, Saint-Pierre, 97410 Réunion, Reunion"
    },
    {
      "lat": -21.365656855263488,
      "lon": 55.48366739491751,
      "geoinfo": {
        "display_name": "Terre Sainte, Saint-Pierre, Réunion, 97410, France",
        "road": null,
        "house_number": null,
        "neighbourhood": null,
        "suburb": null,
        "city_district": null,
        "city": "Saint-Pierre",
        "state": "Réunion",
        "postcode": "97410",
        "country": "France",
        "country_code": "fr"
      },
      "address": "408, Saint-Pierre, 97410 Réunion, Reunion"
    },
    {
      "lat": -21.336266951166156,
      "lon": 55.50055699519132,
      "geoinfo": {
        "display_name": "Chemin Bassin Plat, Terre Sainte, Saint-Pierre, Réunion, 97410, France",
        "road": "Chemin Bassin Plat",
        "house_number": null,
        "neighbourhood": null,
        "suburb": null,
        "city_district": null,
        "city": "Saint-Pierre",
        "state": "Réunion",
        "postcode": "97410",
        "country": "France",
        "country_code": "fr"
      },
      "address": "510, Chemin Bassin Plat, Saint-Pierre, 97410 Réunion, Reunion"
    },
    {
      "lat": -21.306567581154077,
      "lon": 55.47554895366069,
      "geoinfo": {
        "display_name": "Chemin Esther, Bois d'Olives, Saint-Pierre, Réunion, 97432, France",
        "road": "Chemin Esther",
        "house_number": null,
        "neighbourhood": null,
        "suburb": null,
        "city_district": null,
        "city": "Saint-Pierre",
        "state": "Réunion",
        "postcode": "97432",
        "country": "France",
        "country_code": "fr"
      },
      "address": "682, Chemin Esther, Saint-Pierre, 97432 Réunion, Reunion"
    },
    {
      "lat": -21.35360037178465,
      "lon": 55.52255211680779,
      "geoinfo": {
        "display_name": "Anse les Bas, Saint-Pierre, Réunion, 97429, France",
        "road": null,
        "house_number": null,
        "neighbourhood": null,
        "suburb": null,
        "city_district": null,
        "city": "Saint-Pierre",
        "state": "Réunion",
        "postcode": "97429",
        "country": "France",
        "country_code": "fr"
      },
      "address": "894, Saint-Pierre, 97429 Réunion, Reunion"
    }
  ],
  "updated_at": "2025-10-19T05:18:52.030661+00:00",
  "_kind": "geo_samples"
}