{
  "country_code": "RE",
  "country": "Reunion",
  "city": "Saint-Benoît",
  "geonameid": 935267,
  "target_addresses": 8,
  "samples": [
    {
      "lat": -21.040658204557463,
      "lon": 55.67806717188772,
      "geoinfo": {
        "display_name": "Chemin Jacques, L'Abondance, Saint-Benoît, Réunion, 97470, France",
        "road": "Chemin Jacques",
        "house_number": null,
        "neighbourhood": null,
        "suburb": null,
        "city_district": null,
        "city": "Saint-Benoît",
        "state": "Réunion",
        "postcode": "97470",
        "country": "France",
        "country_code": "fr"
      },
      "address": "Chemin Jacques, Saint-Benoît, Réunion, Reunion"
    },
    {
      "lat": -21.04065055141739,
      "lon": 55.717917600633506,
      "geoinfo": {
        "display_name": "Rue Léopold Ycard, Bras-Fusil, Saint-Benoît, Réunion, 97470, France",
        "road": "Rue Léopold Ycard",
        "house_number": null,
        "neighbourhood": null,
        "suburb": null,
        "city_district": null,
        "city": "Saint-Benoît",
        "state": "Réunion",
        "postcode": "97470",
        "country": "France",
        "country_code": "fr"
      },
      "address": "Rue Léopold Ycard, Saint-Benoît, Réunion, Reunion"
    },
    {
      "lat": -21.053335261217043,
      "lon": 55.67194301009506,
      "geoinfo": {
        "display_name": "Chemin Safer, L'Oasis, Le Cratère, Saint-Benoît, Réunion, 97470, France",
        "road": "Chemin Safer",
        "house_number": null,
        "neighbourhood": null,
        "suburb": "L'Oasis",
        "city_district": null,
        "city": "Saint-Benoît",
        "state": "Réunion",
        "postcode": "97470",
        "country": "France",
        "country_code": "fr"
      },
      "address": "Chemin Safer, Saint-Benoît, Réunion, Reunion"
    },
    {
      "lat": -21.017963788892548,
      "lon": 55.70080353832356,
      "geoinfo": {
        "display_name": "Rue Jean Champierre de Villeneuve, Saint-Benoît, Réunion, 97470, France",
        "road": "Rue Jean Champierre de Villeneuve",
        "house_number": null,
        "neighbourhood": null,
        "suburb": null,
        "city_district": null,
        "city": "Saint-Benoît",
        "state": "Réunion",
        "postcode": "97470",
        "country": "France",
        "country_code": "fr"
      },
      "address": "Rue Jean Champierre de Villeneuve, Saint-Benoît, Réunion, Reunion"
    },
    {
      "lat": -21.05708432877967,
      "lon": 55.756454982373526,
      "geoinfo": {
        "display_name": "Saint-François, Saint-Benoît, Réunion, 97437, France",
        "road": null,
        "house_number": null,
        "neighbourhood": null,
        "suburb": null,
        "city_district": null,
        "city": "Saint-Benoît",
        "state": "Réunion",
        "postcode": "97437",
        "country": "France",
        "country_code": "fr"
      },
      "address": "Saint-Benoît, Réunion, Reunion"
    },
    {
      "lat": -21.03466674976243,
      "lon": 55.69121704012772,
      "geoinfo": {
        "display_name": "Chemin Bellier, Bourbier les Hauts, L'Abondance, Saint-Benoît, Réunion, 97470, France",
        "road": "Chemin Bellier",
        "house_number": null,
        "neighbourhood": null,
        "suburb": null,
        "city_district": null,
        "city": "Saint-Benoît",
        "state": "Réunion",
        "postcode": "97470",
        "country": "France",
        "country_code": "fr"
      },
      "address": "Chemin Bellier, Saint-Benoît, Réunion, Reunion"
    },
    {
      "lat": -21.05045042285993,
      "lon": 55.67828460451155,
      "geoinfo": {
        "display_name": "Chemin Chatel, Le Cratère, Saint-Benoît, Réunion, 97470, France",
        "road": "Chemin Chatel",
        "house_number": null,
        "neighbourhood": null,
        "suburb": "Le Cratère",
        "city_district": null,
        "city": "Saint-Benoît",
        "state": "Réunion",
        "postcode": "97470",
        "country": "France",
        "country_code": "fr"
      },
      "address": "Chemin Chatel, Saint-Benoît, Réunion, Reunion"
    },
    {
      "lat": -21.07083642126882,
      "lon": 55.69729777151759,
      "geoinfo": {
        "display_name": "Allée des Cocos, La Confiance, Saint-Benoît, Réunion, 97437, France",
        "road": "Allée des Cocos",
        "house_number": null,
        "neighbourhood": null,
        "suburb": null,
        "city_district": null,
        "city": "Saint-Benoît",
        "state": "Réunion",
        "postcode": "97437",
        "country": "France",
        "country_code": "fr"
      },
      "address": "Allée des Cocos, Saint-Benoît, Réunion, Reunion"
    },
    {
      "lat": -20.999672646981193,
      "lon": 55.708490419056446,
      "geoinfo": {
        "display_name": "Rivière des Roches, Bras-Panon, Saint-Benoît, Réunion, 97412, France",
        "road": null,
        "house_number": null,
        "neighbourhood": null,
        "suburb": null,
        "city_district": null,
        "city": "Bras-Panon",
        "state": "Réunion",
        "postcode": "97412",
        "country": "France",
        "country_code": "fr"
      },
      "address": "642, Saint-Benoît, 97412 Réunion, Reunion"
    },
    {
      "lat": -21.064166471719012,
      "lon": 55.68140160898103,
      "geoinfo": {
        "display_name": "Saint-Benoît, Réunion, 97437, France",
        "road": null,
        "house_number": null,
        "neighbourhood": null,
        "suburb": null,
        "city_district": null,
        "city": "Saint-Benoît",
        "state": "Réunion",
        "postcode": "97437",
        "country": "France",
        "country_code": "fr"
      },
      "address": "314, Saint-Benoît, 97437 Réunion, Reunion"
    },
    {
      "lat": -21.035933140483596,
      "lon": 55.67317798653925,
      "geoinfo": {
        "display_name": "Chemin Grand Fond, L'Abondance, Saint-Benoît, Réunion, 97470, France",
        "road": "Chemin Grand Fond",
        "house_number": null,
        "neighbourhood": null,
        "suburb": null,
        "city_district": null,
        "city": "Saint-Benoît",
        "state": "Réunion",
        "postcode": "97470",
        "country": "France",
        "country_code": "fr"
      },
      "address": "399, Chemin Grand Fond, Saint-Benoît, 97470 Réunion, Reunion"
    },
    {
      "lat": -21.009302712266358,
      "lon": 55.707488499928886,
      "geoinfo": {
        "display_name": "La Marine, Saint-Benoît, Réunion, 97470, France",
        "road": null,
        "house_number": null,
        "neighbourhood": null,
        "suburb": null,
        "city_district": null,
        "city": "Saint-Benoît",
        "state": "Réunion",
        "postcode": "97470",
        "country": "France",
        "country_code": "fr"
      },
      "address": "998, Saint-Benoît, 97470 Réunion, Reunion"
    },
    {
      "lat": -21.019273769204915,
      "lon": 55.67846690879813,
      "geoinfo": {
        "display_name": "L'Abondance, Saint-Benoît, Réunion, 97470, France",
        "road": null,
        "house_number": null,
        "neighbourhood": null,
        "suburb": null,
        "city_district": null,
        "city": "Saint-Benoît",
        "state": "Réunion",
        "postcode": "97470",
        "country": "France",
        "country_code": "fr"
      },
      "address": "527, Saint-Benoît, 97470 Réunion, Reunion"
    },
    {
      "lat": -21.036019589948758,
      "lon": 55.719895842513125,
      "geoinfo": {
        "display_name": "Rue des Vacoas, Bras-Fusil, Saint-Benoît, Réunion, 97470, France",
        "road": "Rue des Vacoas",
        "house_number": null,
        "neighbourhood": null,
        "suburb": null,
        "city_district": null,
        "city": "Saint-Benoît",
        "state": "Réunion",
        "postcode": "97470",
        "country": "France",
        "country_code": "fr"
      },
      "address": "719, Rue des Vacoas, Saint-Benoît, 97470 Réunion, Reunion"
    },
    {
      "lat": -21.042660235866546,
      "lon": 55.74542147790672,
      "geoinfo": {
        "display_name": "Saint-François, Saint-Benoît, Réunion, 97437, France",
        "road": null,
        "house_number": null,
        "neighbourhood": null,
        "suburb": null,
        "city_district": null,
        "city": "Saint-Benoît",
        "state": "Réunion",
        "postcode": "97437",
        "country": "France",
        "country_code": "fr"
      },
      "address": "955, Saint-Benoît, 97437 Réunion, Reunion"
    },
    {
      "lat": -21.03586820546501,
      "lon": 55.73160754304857,
      "geoinfo": {
        "display_name": "Beaufond, Bras-Fusil, Saint-Benoît, Réunion, 97470, France",
        "road": null,
        "house_number": null,
        "neighbourhood": null,
        "suburb": null,
        "city_district": null,
        "city": "Saint-Benoît",
        "state": "Réunion",
        "postcode": "97470",
        "country": "France",
        "country_code": "fr"
      },
      "address": "410, Saint-Benoît, 97470 Réunion, Reunion"
    }
  ],
  "updated_at": "2025-10-19T09:23:50.586278+00:00",
  "_kind": "geo_samples"
}