{
  "country_code": "CU",
  "country": "Cuba",
  "city": "Palmira",
  "geonameid": 3545040,
  "target_addresses": 4,
  "samples": [
    {
      "lat": 22.253354384794214,
      "lon": -80.3770606689003,
      "geoinfo": {
        "display_name": "Carretera Palmira - Cruces, Pueblo de Palmira, Palmira, Cienfuegos, 57300, Cuba",
        "road": "Carretera Palmira - Cruces",
        "house_number": null,
        "neighbourhood": null,
        "suburb": null,
        "city_district": "Pueblo de Palmira",
        "city": "Palmira",
        "state": "Cienfuegos",
        "postcode": "57300",
        "country": "Cuba",
        "country_code": "cu"
      },
      "address": "Carretera Palmira - Cruces, Palmira, Cienfuegos, Cuba"
    },
    {
      "lat": 22.259922386450253,
      "lon": -80.37467665664751,
      "geoinfo": {
        "display_name": "Cherepa, Palmira, Cienfuegos, 57300, Cuba",
        "road": null,
        "house_number": null,
        "neighbourhood": null,
        "suburb": null,
        "city_district": null,
        "city": "Palmira",
        "state": "Cienfuegos",
        "postcode": "57300",
        "country": "Cuba",
        "country_code": "cu"
      },
      "address": "876, Cherepa, Palmira, Cienfuegos, 57300, Cuba"
    },
    {
      "lat": 22.246941100216446,
      "lon": -80.41685029210053,
      "geoinfo": {
        "display_name": "Recurso, Palmira, Cienfuegos, 57300, Cuba",
        "road": null,
        "house_number": null,
        "neighbourhood": null,
        "suburb": null,
        "city_district": null,
        "city": "Palmira",
        "state": "Cienfuegos",
        "postcode": "57300",
        "country": "Cuba",
        "country_code": "cu"
      },
      "address": "578, Recurso, Palmira, Cienfuegos, 57300, Cuba"
    },
    {
      "lat": 22.252736165365928,
      "lon": -80.40477474244825,
      "geoinfo": {
        "display_name": "Palmira, Cienfuegos, 57300, Cuba",
        "road": null,
        "house_number": null,
        "neighbourhood": null,
        "suburb": null,
        "city_district": null,
        "city": "Palmira",
        "state": "Cienfuegos",
        "postcode": "57300",
        "country": "Cuba",
        "country_code": "cu"
      },
      "address": "067, Palmira, Cienfuegos, 57300, Cuba"
    }
  ],
  "updated_at": "2025-10-19T03:52:31.560650+00:00",
  "_kind": "geo_samples"
}