{
  "country_code": "HT",
  "country": "Haiti",
  "city": "Cap-Haïtien",
  "geonameid": 3728474,
  "target_addresses": 4,
  "samples": [
    {
      "lat": 19.798256386157657,
      "lon": -72.18705700716185,
      "geoinfo": {
        "display_name": "Vigie, 2e Haut du Cap, Cap-Haitien, Commune Cap-Haïtien, Arrondissement de Cap-Haïtien, Département du Nord, 1110, Haiti",
        "road": null,
        "house_number": null,
        "neighbourhood": null,
        "suburb": "Vigie",
        "city_district": null,
        "city": "Cap-Haitien",
        "state": "Département du Nord",
        "postcode": "1110",
        "country": "Haiti",
        "country_code": "ht"
      },
      "address": "Vigie, Cap-Haïtien, Département du Nord, Haiti"
    },
    {
      "lat": 19.75259043149217,
      "lon": -72.21444014964185,
      "geoinfo": {
        "display_name": "1re Bande du Nord, Village Charleus Timeus, Commune Cap-Haïtien, Arrondissement de Cap-Haïtien, Département du Nord, 1114, Haiti",
        "road": null,
        "house_number": null,
        "neighbourhood": null,
        "suburb": "1re Bande du Nord",
        "city_district": null,
        "city": "Commune Cap-Haïtien",
        "state": "Département du Nord",
        "postcode": "1114",
        "country": "Haiti",
        "country_code": "ht"
      },
      "address": "1re Bande du Nord, Cap-Haïtien, Département du Nord, Haiti"
    },
    {
      "lat": 19.79407965764571,
      "lon": -72.21610050197307,
      "geoinfo": {
        "display_name": "Cormier, Commune Cap-Haïtien, Arrondissement de Cap-Haïtien, Département du Nord, 1100, Haiti",
        "road": null,
        "house_number": null,
        "neighbourhood": null,
        "suburb": null,
        "city_district": null,
        "city": "Commune Cap-Haïtien",
        "state": "Département du Nord",
        "postcode": "1100",
        "country": "Haiti",
        "country_code": "ht"
      },
      "address": "Cap-Haïtien, Département du Nord, Haiti"
    },
    {
      "lat": 19.78105646601913,
      "lon": -72.21933491971647,
      "geoinfo": {
        "display_name": "Route Départementale 105, 1re Bande du Nord, Cormier, Commune Cap-Haïtien, Arrondissement de Cap-Haïtien, Département du Nord, 1110, Haiti",
        "road": "Route Départementale 105",
        "house_number": null,
        "neighbourhood": null,
        "suburb": "1re Bande du Nord",
        "city_district": null,
        "city": "Commune Cap-Haïtien",
        "state": "Département du Nord",
        "postcode": "1110",
        "country": "Haiti",
        "country_code": "ht"
      },
      "address": "Route Départementale 105, Cap-Haïtien, Département du Nord, Haiti"
    },
    {
      "lat": 19.77499648848261,
      "lon": -72.16624285448357,
      "geoinfo": {
        "display_name": "Quartier-Morin, Commune Quartier-Morin, Arrondissement de Cap-Haïtien, Département du Nord, 1121, Haiti",
        "road": null,
        "house_number": null,
        "neighbourhood": null,
        "suburb": null,
        "city_district": null,
        "city": "Commune Quartier-Morin",
        "state": "Département du Nord",
        "postcode": "1121",
        "country": "Haiti",
        "country_code": "ht"
      },
      "address": "735, Quartier-Morin, Commune Quartier-Morin, Arrondissement de Cap-Haïtien, Département du Nord, 1121, Haiti"
    },
    {
      "lat": 19.74177004824739,
      "lon": -72.1710831956412,
      "geoinfo": {
        "display_name": "3e Petite Anse, Village Notre-Dame, Commune Cap-Haïtien, Arrondissement de Cap-Haïtien, Département du Nord, 1110, Haiti",
        "road": null,
        "house_number": null,
        "neighbourhood": null,
        "suburb": "3e Petite Anse",
        "city_district": null,
        "city": "Commune Cap-Haïtien",
        "state": "Département du Nord",
        "postcode": "1110",
        "country": "Haiti",
        "country_code": "ht"
      },
      "address": "3e Petite Anse, Cap-Haïtien, 1110 Département du Nord, Haiti"
    },
    {
      "lat": 19.745571953230115,
      "lon": -72.21997610091668,
      "geoinfo": {
        "display_name": "Camford, 2e Haut du Cap, Village Charleus Timeus, Commune Cap-Haïtien, Arrondissement de Cap-Haïtien, Département du Nord, 1114, Haiti",
        "road": null,
        "house_number": null,
        "neighbourhood": null,
        "suburb": "Camford",
        "city_district": null,
        "city": "Commune Cap-Haïtien",
        "state": "Département du Nord",
        "postcode": "1114",
        "country": "Haiti",
        "country_code": "ht"
      },
      "address": "Camford, 2e Haut du Cap, Village Charleus Timeus, Commune Cap-Haïtien, Arrondissement de Cap-Haïtien, Département du Nord, 1114, Haiti"
    },
    {
      "lat": 19.759609751987426,
      "lon": -72.16021414134728,
      "geoinfo": {
        "display_name": "Village Emmanuel 2, Commune Quartier-Morin, Arrondissement de Cap-Haïtien, Département du Nord, 1121, Haiti",
        "road": null,
        "house_number": null,
        "neighbourhood": null,
        "suburb": null,
        "city_district": null,
        "city": "Commune Quartier-Morin",
        "state": "Département du Nord",
        "postcode": "1121",
        "country": "Haiti",
        "country_code": "ht"
      },
      "address": "Village Emmanuel 2, Commune Quartier-Morin, Arrondissement de Cap-Haïtien, Département du Nord, 1121, Haiti"
    }
  ],
  "updated_at": "2025-10-19T02:58:39.779630+00:00",
  "_kind": "geo_samples"
}