{
  "country_code": "HT",
  "country": "Haiti",
  "city": "Croix-des-Bouquets",
  "geonameid": 3727135,
  "target_addresses": 4,
  "samples": [
    {
      "lat": 18.60890470574066,
      "lon": -72.21527622363016,
      "geoinfo": {
        "display_name": "Rue Lahoux I, 5e Petit Bois, Lahoux, Commune Croix-des-Bouquets, Arrondissement de Croix-des-Bouquets, West, Haiti",
        "road": "Rue Lahoux I",
        "house_number": null,
        "neighbourhood": null,
        "suburb": "5e Petit Bois",
        "city_district": null,
        "city": "Commune Croix-des-Bouquets",
        "state": "West",
        "postcode": null,
        "country": "Haiti",
        "country_code": "ht"
      },
      "address": "Rue Lahoux I, Croix-des-Bouquets, West, Haiti"
    },
    {
      "lat": 18.603519730445083,
      "lon": -72.21461521228075,
      "geoinfo": {
        "display_name": "Rue Rigaud (Beudet 12), 5e Petit Bois, Mayer, Commune Croix-des-Bouquets, Arrondissement de Croix-des-Bouquets, West, Haiti",
        "road": "Rue Rigaud (Beudet 12)",
        "house_number": null,
        "neighbourhood": null,
        "suburb": "5e Petit Bois",
        "city_district": null,
        "city": "Commune Croix-des-Bouquets",
        "state": "West",
        "postcode": null,
        "country": "Haiti",
        "country_code": "ht"
      },
      "address": "Rue Rigaud (Beudet 12), Croix-des-Bouquets, West, Haiti"
    },
    {
      "lat": 18.588982843314746,
      "lon": -72.24925630556653,
      "geoinfo": {
        "display_name": "Santo 22, 2e des Varreux, Duval, Commune Croix-des-Bouquets, Arrondissement de Croix-des-Bouquets, West, 6312, Haiti",
        "road": "Santo 22",
        "house_number": null,
        "neighbourhood": null,
        "suburb": "2e des Varreux",
        "city_district": null,
        "city": "Commune Croix-des-Bouquets",
        "state": "West",
        "postcode": "6312",
        "country": "Haiti",
        "country_code": "ht"
      },
      "address": "Santo 22, Croix-des-Bouquets, West, Haiti"
    },
    {
      "lat": 18.56810116423728,
      "lon": -72.23743247328532,
      "geoinfo": {
        "display_name": "3e Petit Bois, Croix-des-Bouquets, Commune Croix-des-Bouquets, Arrondissement de Croix-des-Bouquets, West, Haiti",
        "road": null,
        "house_number": null,
        "neighbourhood": null,
        "suburb": "3e Petit Bois",
        "city_district": null,
        "city": "Croix-des-Bouquets",
        "state": "West",
        "postcode": null,
        "country": "Haiti",
        "country_code": "ht"
      },
      "address": "3e Petit Bois, Croix-des-Bouquets, West, Haiti"
    },
    {
      "lat": 18.589772588565076,
      "lon": -72.21083146444094,
      "geoinfo": {
        "display_name": "5e Petit Bois, Bellanton, Commune Croix-des-Bouquets, Arrondissement de Croix-des-Bouquets, West, Haiti",
        "road": null,
        "house_number": null,
        "neighbourhood": null,
        "suburb": "5e Petit Bois",
        "city_district": null,
        "city": "Commune Croix-des-Bouquets",
        "state": "West",
        "postcode": null,
        "country": "Haiti",
        "country_code": "ht"
      },
      "address": "5e Petit Bois, Croix-des-Bouquets, 19656 West, Haiti"
    },
    {
      "lat": 18.574913268669786,
      "lon": -72.21025159455311,
      "geoinfo": {
        "display_name": "5e Petit Bois, Bellanton, Commune Croix-des-Bouquets, Arrondissement de Croix-des-Bouquets, West, Haiti",
        "road": null,
        "house_number": null,
        "neighbourhood": null,
        "suburb": "5e Petit Bois",
        "city_district": null,
        "city": "Commune Croix-des-Bouquets",
        "state": "West",
        "postcode": null,
        "country": "Haiti",
        "country_code": "ht"
      },
      "address": "5e Petit Bois, Croix-des-Bouquets, 46549 West, Haiti"
    },
    {
      "lat": 18.540631235660488,
      "lon": -72.2346093300117,
      "geoinfo": {
        "display_name": "Soissons, 7e Bellevue Chardonnières, Petyonvil, Port-au-Prince Arrondissement, West, 6141, Haiti",
        "road": null,
        "house_number": null,
        "neighbourhood": null,
        "suburb": "Soissons",
        "city_district": "Petyonvil",
        "city": "Port-au-Prince Arrondissement",
        "state": "West",
        "postcode": "6141",
        "country": "Haiti",
        "country_code": "ht"
      },
      "address": "Soissons, 7e Bellevue Chardonnières, Petyonvil, Port-au-Prince Arrondissement, West, 6141, Haiti"
    },
    {
      "lat": 18.540384873009685,
      "lon": -72.24025393089047,
      "geoinfo": {
        "display_name": "Rue P. Benoît, Torcelle, 4e Bellevue, Commune de Tabarre, Port-au-Prince Arrondissement, West, 6141, Haiti",
        "road": "Rue P. Benoît",
        "house_number": null,
        "neighbourhood": null,
        "suburb": "Torcelle",
        "city_district": "Commune de Tabarre",
        "city": "Port-au-Prince Arrondissement",
        "state": "West",
        "postcode": "6141",
        "country": "Haiti",
        "country_code": "ht"
      },
      "address": "Rue P. Benoît, Torcelle, 4e Bellevue, Commune de Tabarre, Port-au-Prince Arrondissement, West, 6141, Haiti"
    }
  ],
  "updated_at": "2025-10-19T04:42:48.674813+00:00",
  "_kind": "geo_samples"
}