{
  "country_code": "HT",
  "country": "Haiti",
  "city": "Désarmes",
  "geonameid": 3726674,
  "target_addresses": 4,
  "samples": [
    {
      "lat": 18.972773208268,
      "lon": -72.40542282739041,
      "geoinfo": {
        "display_name": "Degrave, 4e Désarmes, Christian, Commune de Verrettes, Arrondissement de Saint-Marc, Artibonite Department, Haiti",
        "road": null,
        "house_number": null,
        "neighbourhood": null,
        "suburb": "4e Désarmes",
        "city_district": null,
        "city": "Commune de Verrettes",
        "state": "Artibonite Department",
        "postcode": null,
        "country": "Haiti",
        "country_code": "ht"
      },
      "address": "4e Désarmes, Désarmes, Artibonite Department, Haiti"
    },
    {
      "lat": 19.01228160328922,
      "lon": -72.3927573239116,
      "geoinfo": {
        "display_name": "3ème Guillaume Mogé, Désarmes, Commune de Verrettes, Arrondissement de Saint-Marc, Artibonite Department, Haiti",
        "road": null,
        "house_number": null,
        "neighbourhood": null,
        "suburb": "3ème Guillaume Mogé",
        "city_district": null,
        "city": "Commune de Verrettes",
        "state": "Artibonite Department",
        "postcode": null,
        "country": "Haiti",
        "country_code": "ht"
      },
      "address": "3ème Guillaume Mogé, Désarmes, Artibonite Department, Haiti"
    },
    {
      "lat": 18.982363832927163,
      "lon": -72.37258831746435,
      "geoinfo": {
        "display_name": "Duval, 1re Martineau, Basse Mory, Commune La Chapelle, Arrondissement de Saint-Marc, Artibonite Department, Haiti",
        "road": null,
        "house_number": null,
        "neighbourhood": null,
        "suburb": "1re Martineau",
        "city_district": null,
        "city": "Commune La Chapelle",
        "state": "Artibonite Department",
        "postcode": null,
        "country": "Haiti",
        "country_code": "ht"
      },
      "address": "1re Martineau, Désarmes, Artibonite Department, Haiti"
    },
    {
      "lat": 19.012122782351323,
      "lon": -72.40663527654696,
      "geoinfo": {
        "display_name": "Route Départementale 101, Allaïe, 3ème Guillaume Mogé, Verrettes, Commune de Verrettes, Arrondissement de Saint-Marc, Artibonite Department, Haiti",
        "road": "Route Départementale 101",
        "house_number": null,
        "neighbourhood": null,
        "suburb": "3ème Guillaume Mogé",
        "city_district": null,
        "city": "Commune de Verrettes",
        "state": "Artibonite Department",
        "postcode": null,
        "country": "Haiti",
        "country_code": "ht"
      },
      "address": "Route Départementale 101, Désarmes, Artibonite Department, Haiti"
    },
    {
      "lat": 19.00799818376627,
      "lon": -72.37933627217524,
      "geoinfo": {
        "display_name": "Duval, 3ème Guillaume Mogé, Désarmes, Commune de Verrettes, Arrondissement de Saint-Marc, Artibonite Department, Haiti",
        "road": null,
        "house_number": null,
        "neighbourhood": null,
        "suburb": "3ème Guillaume Mogé",
        "city_district": null,
        "city": "Commune de Verrettes",
        "state": "Artibonite Department",
        "postcode": null,
        "country": "Haiti",
        "country_code": "ht"
      },
      "address": "003, Duval, 3ème Guillaume Mogé, Désarmes, Commune de Verrettes, Arrondissement de Saint-Marc, Artibonite Department, Haiti"
    },
    {
      "lat": 18.97685736242278,
      "lon": -72.37005852380454,
      "geoinfo": {
        "display_name": "Ti Place, 1re Martineau, Commune La Chapelle, Arrondissement de Saint-Marc, Artibonite Department, Haiti",
        "road": null,
        "house_number": null,
        "neighbourhood": null,
        "suburb": "1re Martineau",
        "city_district": null,
        "city": "Commune La Chapelle",
        "state": "Artibonite Department",
        "postcode": null,
        "country": "Haiti",
        "country_code": "ht"
      },
      "address": "438, Ti Place, 1re Martineau, Commune La Chapelle, Arrondissement de Saint-Marc, Artibonite Department, Haiti"
    },
    {
      "lat": 18.992053438873693,
      "lon": -72.42511502275232,
      "geoinfo": {
        "display_name": "4e Désarmes, Valeureux, Commune de Verrettes, Arrondissement de Saint-Marc, Artibonite Department, Haiti",
        "road": null,
        "house_number": null,
        "neighbourhood": null,
        "suburb": "4e Désarmes",
        "city_district": null,
        "city": "Commune de Verrettes",
        "state": "Artibonite Department",
        "postcode": null,
        "country": "Haiti",
        "country_code": "ht"
      },
      "address": "4e Désarmes, Désarmes, 30966 Artibonite Department, Haiti"
    },
    {
      "lat": 19.008520192216086,
      "lon": -72.39346998222399,
      "geoinfo": {
        "display_name": "3ème Guillaume Mogé, Désarmes, Commune de Verrettes, Arrondissement de Saint-Marc, Artibonite Department, Haiti",
        "road": null,
        "house_number": null,
        "neighbourhood": null,
        "suburb": "3ème Guillaume Mogé",
        "city_district": null,
        "city": "Commune de Verrettes",
        "state": "Artibonite Department",
        "postcode": null,
        "country": "Haiti",
        "country_code": "ht"
      },
      "address": "3ème Guillaume Mogé, Désarmes, Commune de Verrettes, Arrondissement de Saint-Marc, 84227 Artibonite Department, Haiti"
    }
  ],
  "updated_at": "2025-10-19T02:58:23.774967+00:00",
  "_kind": "geo_samples"
}