{
  "country_code": "HT",
  "country": "Haiti",
  "city": "Jacmel",
  "geonameid": 3723779,
  "target_addresses": 4,
  "samples": [
    {
      "lat": 18.193494921031583,
      "lon": -72.54141081078734,
      "geoinfo": {
        "display_name": "Cap Jacmel, Menan, Haiti",
        "road": null,
        "house_number": null,
        "neighbourhood": null,
        "suburb": null,
        "city_district": null,
        "city": "Menan",
        "state": null,
        "postcode": null,
        "country": "Haiti",
        "country_code": "ht"
      },
      "address": "Jacmel, Haiti"
    },
    {
      "lat": 18.259474128138844,
      "lon": -72.52027732169435,
      "geoinfo": {
        "display_name": "Bois Larue, 1re Bas Cap Rouge, Jacmel, Commune Jacmel, Arrondissement de Jacmel, South-East, Haiti",
        "road": null,
        "house_number": null,
        "neighbourhood": null,
        "suburb": "1re Bas Cap Rouge",
        "city_district": null,
        "city": "Jacmel",
        "state": "South-East",
        "postcode": null,
        "country": "Haiti",
        "country_code": "ht"
      },
      "address": "1re Bas Cap Rouge, Jacmel, South-East, Haiti"
    },
    {
      "lat": 18.205599019960726,
      "lon": -72.52025685224605,
      "geoinfo": {
        "display_name": "Lan Mandou, 1re Bas Cap Rouge, Jacmel, Commune Jacmel, Arrondissement de Jacmel, South-East, 9110, Haiti",
        "road": null,
        "house_number": null,
        "neighbourhood": null,
        "suburb": "Lan Mandou",
        "city_district": null,
        "city": "Jacmel",
        "state": "South-East",
        "postcode": "9110",
        "country": "Haiti",
        "country_code": "ht"
      },
      "address": "Lan Mandou, Jacmel, South-East, Haiti"
    },
    {
      "lat": 18.25104365086202,
      "lon": -72.54482807411934,
      "geoinfo": {
        "display_name": "Texaco, Avenue de la Liberté, Portail Leogane, 6e Montagne La Voûte, Jacmel, Commune Jacmel, Arrondissement de Jacmel, South-East, 9110, Haiti",
        "road": "Avenue de la Liberté",
        "house_number": null,
        "neighbourhood": null,
        "suburb": "Portail Leogane",
        "city_district": null,
        "city": "Jacmel",
        "state": "South-East",
        "postcode": "9110",
        "country": "Haiti",
        "country_code": "ht"
      },
      "address": "Avenue de la Liberté, Jacmel, South-East, Haiti"
    },
    {
      "lat": 18.215514716883078,
      "lon": -72.5094838002814,
      "geoinfo": {
        "display_name": "Cap des Maréchaux Prolongée, Lan Mandou, 1re Bas Cap Rouge, Jacmel, Commune Jacmel, Arrondissement de Jacmel, South-East, Haiti",
        "road": "Cap des Maréchaux Prolongée",
        "house_number": null,
        "neighbourhood": null,
        "suburb": "Lan Mandou",
        "city_district": null,
        "city": "Jacmel",
        "state": "South-East",
        "postcode": null,
        "country": "Haiti",
        "country_code": "ht"
      },
      "address": "257, Cap des Maréchaux Prolongée, Lan Mandou, 1re Bas Cap Rouge, Jacmel, Commune Jacmel, Arrondissement de Jacmel, South-East, Haiti"
    },
    {
      "lat": 18.22100131035697,
      "lon": -72.56473518926319,
      "geoinfo": {
        "display_name": "Route Communale 400B, 11e La Montagne, Ca Titi, Commune Jacmel, Arrondissement de Jacmel, South-East, 9110, Haiti",
        "road": "Route Communale 400B",
        "house_number": null,
        "neighbourhood": null,
        "suburb": "11e La Montagne",
        "city_district": null,
        "city": "Commune Jacmel",
        "state": "South-East",
        "postcode": "9110",
        "country": "Haiti",
        "country_code": "ht"
      },
      "address": "Route Communale 400B, 11e La Montagne, Ca Titi, Commune Jacmel, Arrondissement de Jacmel, South-East, 9110, Haiti"
    },
    {
      "lat": 18.23032751198194,
      "lon": -72.56340462655562,
      "geoinfo": {
        "display_name": "Route Communale 400B, 11e La Montagne, Jacmel, Commune Jacmel, Arrondissement de Jacmel, South-East, 9110, Haiti",
        "road": "Route Communale 400B",
        "house_number": null,
        "neighbourhood": null,
        "suburb": "11e La Montagne",
        "city_district": null,
        "city": "Jacmel",
        "state": "South-East",
        "postcode": "9110",
        "country": "Haiti",
        "country_code": "ht"
      },
      "address": "Route Communale 400B, 11e La Montagne, Jacmel, Commune Jacmel, Arrondissement de Jacmel, South-East, 9110, Haiti"
    },
    {
      "lat": 18.262414525400573,
      "lon": -72.55430913750486,
      "geoinfo": {
        "display_name": "ecole national de pasquette, route la voute, 6e Montagne La Voûte, Bassin Caiman, Commune Jacmel, Arrondissement de Jacmel, South-East, 9110, Haiti",
        "road": "route la voute",
        "house_number": null,
        "neighbourhood": null,
        "suburb": "6e Montagne La Voûte",
        "city_district": null,
        "city": "Commune Jacmel",
        "state": "South-East",
        "postcode": "9110",
        "country": "Haiti",
        "country_code": "ht"
      },
      "address": "ecole national de pasquette, route la voute, 6e Montagne La Voûte, Bassin Caiman, Commune Jacmel, Arrondissement de Jacmel, South-East, 9110, Haiti"
    }
  ],
  "updated_at": "2025-10-19T04:41:03.401337+00:00",
  "_kind": "geo_samples"
}