{
  "country_code": "HT",
  "country": "Haiti",
  "city": "Lenbe",
  "geonameid": 3722124,
  "target_addresses": 4,
  "samples": [
    {
      "lat": 19.7154533246351,
      "lon": -72.4194597092886,
      "geoinfo": {
        "display_name": "RD 104, 5e Ravine Desroches, Commune Limbé, Arrondissement Limbé, Département du Nord, Haiti",
        "road": "RD 104",
        "house_number": null,
        "neighbourhood": null,
        "suburb": "5e Ravine Desroches",
        "city_district": null,
        "city": "Commune Limbé",
        "state": "Département du Nord",
        "postcode": null,
        "country": "Haiti",
        "country_code": "ht"
      },
      "address": "RD 104, Lenbe, Département du Nord, Haiti"
    },
    {
      "lat": 19.68106914334784,
      "lon": -72.38173434308375,
      "geoinfo": {
        "display_name": "1re Acul Jeannot, Commune Limbé, Arrondissement Limbé, Département du Nord, Haiti",
        "road": null,
        "house_number": null,
        "neighbourhood": null,
        "suburb": "1re Acul Jeannot",
        "city_district": null,
        "city": "Commune Limbé",
        "state": "Département du Nord",
        "postcode": null,
        "country": "Haiti",
        "country_code": "ht"
      },
      "address": "1re Acul Jeannot, Lenbe, Département du Nord, Haiti"
    },
    {
      "lat": 19.73588171562246,
      "lon": -72.40594357958311,
      "geoinfo": {
        "display_name": "2e Petit Howars, Commune Bas-Limbé, Arrondissement Limbé, Département du Nord, Haiti",
        "road": null,
        "house_number": null,
        "neighbourhood": null,
        "suburb": "2e Petit Howars",
        "city_district": null,
        "city": "Commune Bas-Limbé",
        "state": "Département du Nord",
        "postcode": null,
        "country": "Haiti",
        "country_code": "ht"
      },
      "address": "2e Petit Howars, Lenbe, Département du Nord, Haiti"
    },
    {
      "lat": 19.68927485582693,
      "lon": -72.42890995228291,
      "geoinfo": {
        "display_name": "2e Chabotte, Commune Limbé, Arrondissement Limbé, Département du Nord, Haiti",
        "road": null,
        "house_number": null,
        "neighbourhood": null,
        "suburb": "2e Chabotte",
        "city_district": null,
        "city": "Commune Limbé",
        "state": "Département du Nord",
        "postcode": null,
        "country": "Haiti",
        "country_code": "ht"
      },
      "address": "2e Chabotte, Lenbe, Département du Nord, Haiti"
    },
    {
      "lat": 19.67483699384683,
      "lon": -72.43600175993205,
      "geoinfo": {
        "display_name": "2e Chabotte, Commune Limbé, Arrondissement Limbé, Département du Nord, Haiti",
        "road": null,
        "house_number": null,
        "neighbourhood": null,
        "suburb": "2e Chabotte",
        "city_district": null,
        "city": "Commune Limbé",
        "state": "Département du Nord",
        "postcode": null,
        "country": "Haiti",
        "country_code": "ht"
      },
      "address": "2e Chabotte, Lenbe, 82457 Département du Nord, Haiti"
    },
    {
      "lat": 19.67560033537282,
      "lon": -72.40997073345703,
      "geoinfo": {
        "display_name": "2e Chabotte, Commune Limbé, Arrondissement Limbé, Département du Nord, Haiti",
        "road": null,
        "house_number": null,
        "neighbourhood": null,
        "suburb": "2e Chabotte",
        "city_district": null,
        "city": "Commune Limbé",
        "state": "Département du Nord",
        "postcode": null,
        "country": "Haiti",
        "country_code": "ht"
      },
      "address": "2e Chabotte, Lenbe, 08857 Département du Nord, Haiti"
    },
    {
      "lat": 19.7046232411143,
      "lon": -72.3875238616996,
      "geoinfo": {
        "display_name": "Route Nationale # 1, 1re Acul Jeannot, Commune Limbé, Arrondissement Limbé, Département du Nord, Haiti",
        "road": "Route Nationale # 1",
        "house_number": null,
        "neighbourhood": null,
        "suburb": "1re Acul Jeannot",
        "city_district": null,
        "city": "Commune Limbé",
        "state": "Département du Nord",
        "postcode": null,
        "country": "Haiti",
        "country_code": "ht"
      },
      "address": "Route Nationale # 1, Lenbe, 80562 Département du Nord, Haiti"
    },
    {
      "lat": 19.693553861597184,
      "lon": -72.41220402923537,
      "geoinfo": {
        "display_name": "2e Chabotte, La Croix, Commune Limbé, Arrondissement Limbé, Département du Nord, Haiti",
        "road": null,
        "house_number": null,
        "neighbourhood": null,
        "suburb": "2e Chabotte",
        "city_district": null,
        "city": "Commune Limbé",
        "state": "Département du Nord",
        "postcode": null,
        "country": "Haiti",
        "country_code": "ht"
      },
      "address": "2e Chabotte, La Croix, Commune Limbé, Arrondissement Limbé, 93685 Département du Nord, Haiti"
    }
  ],
  "updated_at": "2025-10-19T02:58:05.755127+00:00",
  "_kind": "geo_samples"
}