{
  "country_code": "HT",
  "country": "Haiti",
  "city": "Pétionville",
  "geonameid": 3719028,
  "target_addresses": 4,
  "samples": [
    {
      "lat": 18.52477855160143,
      "lon": -72.30090869197674,
      "geoinfo": {
        "display_name": "Juvenat, 2e aux Cadets, Petyonvil, Port-au-Prince Arrondissement, West, 6120, Haiti",
        "road": null,
        "house_number": null,
        "neighbourhood": null,
        "suburb": "Juvenat",
        "city_district": "Petyonvil",
        "city": "Port-au-Prince Arrondissement",
        "state": "West",
        "postcode": "6120",
        "country": "Haiti",
        "country_code": "ht"
      },
      "address": "Juvenat, Pétionville, West, Haiti"
    },
    {
      "lat": 18.47982542359687,
      "lon": -72.27339446741583,
      "geoinfo": {
        "display_name": "3e Étang-du-Jong, Petyonvil, Port-au-Prince Arrondissement, West, 6150, Haiti",
        "road": null,
        "house_number": null,
        "neighbourhood": null,
        "suburb": "3e Étang-du-Jong",
        "city_district": "Petyonvil",
        "city": "Port-au-Prince Arrondissement",
        "state": "West",
        "postcode": "6150",
        "country": "Haiti",
        "country_code": "ht"
      },
      "address": "3e Étang-du-Jong, Pétionville, West, Haiti"
    },
    {
      "lat": 18.46955858395773,
      "lon": -72.27425590772611,
      "geoinfo": {
        "display_name": "Route de Fort Jacques, 3e Étang-du-Jong, Petyonvil, Port-au-Prince Arrondissement, West, 6150, Haiti",
        "road": "Route de Fort Jacques",
        "house_number": null,
        "neighbourhood": null,
        "suburb": "3e Étang-du-Jong",
        "city_district": "Petyonvil",
        "city": "Port-au-Prince Arrondissement",
        "state": "West",
        "postcode": "6150",
        "country": "Haiti",
        "country_code": "ht"
      },
      "address": "Route de Fort Jacques, Pétionville, West, Haiti"
    },
    {
      "lat": 18.503114644824375,
      "lon": -72.31979859451415,
      "geoinfo": {
        "display_name": "2e aux Cadets, Petyonvil, Port-au-Prince Arrondissement, West, 6142, Haiti",
        "road": null,
        "house_number": null,
        "neighbourhood": null,
        "suburb": "2e aux Cadets",
        "city_district": "Petyonvil",
        "city": "Port-au-Prince Arrondissement",
        "state": "West",
        "postcode": "6142",
        "country": "Haiti",
        "country_code": "ht"
      },
      "address": "2e aux Cadets, Pétionville, West, Haiti"
    },
    {
      "lat": 18.534797170236722,
      "lon": -72.24696562015832,
      "geoinfo": {
        "display_name": "Soissons, 7e Bellevue Chardonnières, Petyonvil, Port-au-Prince Arrondissement, West, 6141, Haiti",
        "road": null,
        "house_number": null,
        "neighbourhood": null,
        "suburb": "Soissons",
        "city_district": "Petyonvil",
        "city": "Port-au-Prince Arrondissement",
        "state": "West",
        "postcode": "6141",
        "country": "Haiti",
        "country_code": "ht"
      },
      "address": "Soissons, 7e Bellevue Chardonnières, Petyonvil, Port-au-Prince Arrondissement, West, 6141, Haiti"
    },
    {
      "lat": 18.497446569168346,
      "lon": -72.30315632661312,
      "geoinfo": {
        "display_name": "Pèlerin, 2e aux Cadets, Petyonvil, Port-au-Prince Arrondissement, West, 6142, Haiti",
        "road": null,
        "house_number": null,
        "neighbourhood": null,
        "suburb": "Pèlerin",
        "city_district": "Petyonvil",
        "city": "Port-au-Prince Arrondissement",
        "state": "West",
        "postcode": "6142",
        "country": "Haiti",
        "country_code": "ht"
      },
      "address": "Pèlerin, 2e aux Cadets, Petyonvil, Port-au-Prince Arrondissement, West, 6142, Haiti"
    },
    {
      "lat": 18.478483007921742,
      "lon": -72.27175380613,
      "geoinfo": {
        "display_name": "3e Étang-du-Jong, Petyonvil, Port-au-Prince Arrondissement, West, 6150, Haiti",
        "road": null,
        "house_number": null,
        "neighbourhood": null,
        "suburb": "3e Étang-du-Jong",
        "city_district": "Petyonvil",
        "city": "Port-au-Prince Arrondissement",
        "state": "West",
        "postcode": "6150",
        "country": "Haiti",
        "country_code": "ht"
      },
      "address": "3e Étang-du-Jong, Petyonvil, Port-au-Prince Arrondissement, West, 6150, Haiti"
    },
    {
      "lat": 18.551583409467778,
      "lon": -72.28556826027575,
      "geoinfo": {
        "display_name": "Zone Predailler, 1re Saint-Martin, Delmas, Ouest, Port-au-Prince Arrondissement, West, 6120, Haiti",
        "road": null,
        "house_number": null,
        "neighbourhood": null,
        "suburb": "Zone Predailler",
        "city_district": null,
        "city": "Delmas, Ouest",
        "state": "West",
        "postcode": "6120",
        "country": "Haiti",
        "country_code": "ht"
      },
      "address": "Zone Predailler, 1re Saint-Martin, Delmas, Ouest, Port-au-Prince Arrondissement, West, 6120, Haiti"
    }
  ],
  "updated_at": "2025-10-19T04:18:27.704084+00:00",
  "_kind": "geo_samples"
}