{
  "country_code": "HT",
  "country": "Haiti",
  "city": "Saint-Michel de l'Atalaye",
  "geonameid": 3717560,
  "target_addresses": 16,
  "samples": [
    {
      "lat": 19.382030085894275,
      "lon": -72.31674719004513,
      "geoinfo": {
        "display_name": "Route Saint-Francisque, Saint Michel de l’Attalaye, 3e Bas de Sault, Saint-Michel-de-l'Attalaye, Commune de Saint-Michel-de-l'Attalaye, Arrondissement de Marmelade, Artibonite Department, 4520, Haiti",
        "road": "Route Saint-Francisque",
        "house_number": null,
        "neighbourhood": null,
        "suburb": "3e Bas de Sault",
        "city_district": null,
        "city": "Saint-Michel-de-l'Attalaye",
        "state": "Artibonite Department",
        "postcode": "4520",
        "country": "Haiti",
        "country_code": "ht"
      },
      "address": "Route Saint-Francisque, Saint Michel de l’Attalaye, 3e Bas de Sault, Saint-Michel-de-l'Attalaye, Commune de Saint-Michel-de-l'Attalaye, Arrondissement de Marmelade, Artibonite Department, 4520, Haiti"
    },
    {
      "lat": 19.33240368191502,
      "lon": -72.33308244189526,
      "geoinfo": {
        "display_name": "Route Dessalines-Saint-Michel, Saint Michel de l’Attalaye, 8e l'Attalaye, Paul, Commune de Saint-Michel-de-l'Attalaye, Arrondissement de Marmelade, Artibonite Department, Haiti",
        "road": "Route Dessalines-Saint-Michel",
        "house_number": null,
        "neighbourhood": null,
        "suburb": "8e l'Attalaye",
        "city_district": null,
        "city": "Commune de Saint-Michel-de-l'Attalaye",
        "state": "Artibonite Department",
        "postcode": null,
        "country": "Haiti",
        "country_code": "ht"
      },
      "address": "Route Dessalines-Saint-Michel, Saint Michel de l’Attalaye, 8e l'Attalaye, Paul, Commune de Saint-Michel-de-l'Attalaye, Arrondissement de Marmelade, Artibonite Department, Haiti"
    },
    {
      "lat": 19.398225160288217,
      "lon": -72.31188065259448,
      "geoinfo": {
        "display_name": "Route Lalomas, 3e Bas de Sault, Saint-Michel-de-l'Attalaye, Commune de Saint-Michel-de-l'Attalaye, Arrondissement de Marmelade, Artibonite Department, 4520, Haiti",
        "road": "Route Lalomas",
        "house_number": null,
        "neighbourhood": null,
        "suburb": "3e Bas de Sault",
        "city_district": null,
        "city": "Saint-Michel-de-l'Attalaye",
        "state": "Artibonite Department",
        "postcode": "4520",
        "country": "Haiti",
        "country_code": "ht"
      },
      "address": "Route Lalomas, 3e Bas de Sault, Saint-Michel-de-l'Attalaye, Commune de Saint-Michel-de-l'Attalaye, Arrondissement de Marmelade, Artibonite Department, 4520, Haiti"
    },
    {
      "lat": 19.333939220588938,
      "lon": -72.34081107343316,
      "geoinfo": {
        "display_name": "Route Dessalines-Saint-Michel, Saint Michel de l’Attalaye, 1re Platana, Paul, Commune de Saint-Michel-de-l'Attalaye, Arrondissement de Marmelade, Artibonite Department, Haiti",
        "road": "Route Dessalines-Saint-Michel",
        "house_number": null,
        "neighbourhood": null,
        "suburb": "1re Platana",
        "city_district": null,
        "city": "Commune de Saint-Michel-de-l'Attalaye",
        "state": "Artibonite Department",
        "postcode": null,
        "country": "Haiti",
        "country_code": "ht"
      },
      "address": "811, Route Dessalines-Saint-Michel, Saint Michel de l’Attalaye, 1re Platana, Paul, Commune de Saint-Michel-de-l'Attalaye, Arrondissement de Marmelade, Artibonite Department, Haiti"
    },
    {
      "lat": 19.391535734625485,
      "lon": -72.32075456551674,
      "geoinfo": {
        "display_name": "Route Lalomas, 3e Bas de Sault, Saint-Michel-de-l'Attalaye, Commune de Saint-Michel-de-l'Attalaye, Arrondissement de Marmelade, Artibonite Department, 4520, Haiti",
        "road": "Route Lalomas",
        "house_number": null,
        "neighbourhood": null,
        "suburb": "3e Bas de Sault",
        "city_district": null,
        "city": "Saint-Michel-de-l'Attalaye",
        "state": "Artibonite Department",
        "postcode": "4520",
        "country": "Haiti",
        "country_code": "ht"
      },
      "address": "Route Lalomas, 3e Bas de Sault, Saint-Michel-de-l'Attalaye, Commune de Saint-Michel-de-l'Attalaye, Arrondissement de Marmelade, Artibonite Department, 4520, Haiti"
    },
    {
      "lat": 19.408444983252927,
      "lon": -72.34551673718767,
      "geoinfo": {
        "display_name": "3e Bas de Sault, Commune de Saint-Michel-de-l'Attalaye, Arrondissement de Marmelade, Artibonite Department, 4520, Haiti",
        "road": null,
        "house_number": null,
        "neighbourhood": null,
        "suburb": "3e Bas de Sault",
        "city_district": null,
        "city": "Commune de Saint-Michel-de-l'Attalaye",
        "state": "Artibonite Department",
        "postcode": "4520",
        "country": "Haiti",
        "country_code": "ht"
      },
      "address": "3e Bas de Sault, Commune de Saint-Michel-de-l'Attalaye, Arrondissement de Marmelade, Artibonite Department, 4520, Haiti"
    },
    {
      "lat": 19.350876262953918,
      "lon": -72.3262403513418,
      "geoinfo": {
        "display_name": "Route de l'Ermitage (5ème Section), Saint Michel de l’Attalaye, 8e l'Attalaye, Saint-Michel-de-l'Attalaye, Commune de Saint-Michel-de-l'Attalaye, Arrondissement de Marmelade, Artibonite Department, 4520, Haiti",
        "road": "Route de l'Ermitage (5ème Section)",
        "house_number": null,
        "neighbourhood": null,
        "suburb": "8e l'Attalaye",
        "city_district": null,
        "city": "Saint-Michel-de-l'Attalaye",
        "state": "Artibonite Department",
        "postcode": "4520",
        "country": "Haiti",
        "country_code": "ht"
      },
      "address": "Route de l'Ermitage (5ème Section), Saint Michel de l’Attalaye, 8e l'Attalaye, Saint-Michel-de-l'Attalaye, Commune de Saint-Michel-de-l'Attalaye, Arrondissement de Marmelade, Artibonite Department, 4520, Haiti"
    },
    {
      "lat": 19.369511793203884,
      "lon": -72.33757717113163,
      "geoinfo": {
        "display_name": "Cité Diedonne, Saint Michel de l’Attalaye, 3e Bas de Sault, Saint-Michel-de-l'Attalaye, Commune de Saint-Michel-de-l'Attalaye, Arrondissement de Marmelade, Artibonite Department, 4520, Haiti",
        "road": "Cité Diedonne",
        "house_number": null,
        "neighbourhood": null,
        "suburb": "3e Bas de Sault",
        "city_district": null,
        "city": "Saint-Michel-de-l'Attalaye",
        "state": "Artibonite Department",
        "postcode": "4520",
        "country": "Haiti",
        "country_code": "ht"
      },
      "address": "Cité Diedonne, Saint Michel de l’Attalaye, 3e Bas de Sault, Saint-Michel-de-l'Attalaye, Commune de Saint-Michel-de-l'Attalaye, Arrondissement de Marmelade, Artibonite Department, 4520, Haiti"
    },
    {
      "lat": 19.362898192126778,
      "lon": -72.345697915524,
      "geoinfo": {
        "display_name": "Route de Platana, Saint Michel de l’Attalaye, 1re Platana, Saint-Michel-de-l'Attalaye, Commune de Saint-Michel-de-l'Attalaye, Arrondissement de Marmelade, Artibonite Department, 4520, Haiti",
        "road": "Route de Platana",
        "house_number": null,
        "neighbourhood": null,
        "suburb": "1re Platana",
        "city_district": null,
        "city": "Saint-Michel-de-l'Attalaye",
        "state": "Artibonite Department",
        "postcode": "4520",
        "country": "Haiti",
        "country_code": "ht"
      },
      "address": "Route de Platana, Saint Michel de l’Attalaye, 1re Platana, Saint-Michel-de-l'Attalaye, Commune de Saint-Michel-de-l'Attalaye, Arrondissement de Marmelade, Artibonite Department, 4520, Haiti"
    },
    {
      "lat": 19.388735085710707,
      "lon": -72.34432137918078,
      "geoinfo": {
        "display_name": "Rue Guerrier, Saint Michel de l’Attalaye, 3e Bas de Sault, Saint-Michel-de-l'Attalaye, Commune de Saint-Michel-de-l'Attalaye, Arrondissement de Marmelade, Artibonite Department, 4520, Haiti",
        "road": "Rue Guerrier",
        "house_number": null,
        "neighbourhood": null,
        "suburb": "3e Bas de Sault",
        "city_district": null,
        "city": "Saint-Michel-de-l'Attalaye",
        "state": "Artibonite Department",
        "postcode": "4520",
        "country": "Haiti",
        "country_code": "ht"
      },
      "address": "Rue Guerrier, Saint Michel de l’Attalaye, 3e Bas de Sault, Saint-Michel-de-l'Attalaye, Commune de Saint-Michel-de-l'Attalaye, Arrondissement de Marmelade, Artibonite Department, 4520, Haiti"
    },
    {
      "lat": 19.392576232962856,
      "lon": -72.30672528053405,
      "geoinfo": {
        "display_name": "8e l'Attalaye, Commune de Saint-Michel-de-l'Attalaye, Arrondissement de Marmelade, Artibonite Department, Haiti",
        "road": null,
        "house_number": null,
        "neighbourhood": null,
        "suburb": "8e l'Attalaye",
        "city_district": null,
        "city": "Commune de Saint-Michel-de-l'Attalaye",
        "state": "Artibonite Department",
        "postcode": null,
        "country": "Haiti",
        "country_code": "ht"
      },
      "address": "8e l'Attalaye, Commune de Saint-Michel-de-l'Attalaye, Arrondissement de Marmelade, 65925 Artibonite Department, Haiti"
    },
    {
      "lat": 19.38709792795552,
      "lon": -72.30669907812984,
      "geoinfo": {
        "display_name": "8e l'Attalaye, Commune de Saint-Michel-de-l'Attalaye, Arrondissement de Marmelade, Artibonite Department, Haiti",
        "road": null,
        "house_number": null,
        "neighbourhood": null,
        "suburb": "8e l'Attalaye",
        "city_district": null,
        "city": "Commune de Saint-Michel-de-l'Attalaye",
        "state": "Artibonite Department",
        "postcode": null,
        "country": "Haiti",
        "country_code": "ht"
      },
      "address": "8e l'Attalaye, Commune de Saint-Michel-de-l'Attalaye, Arrondissement de Marmelade, 11455 Artibonite Department, Haiti"
    },
    {
      "lat": 19.38048282876191,
      "lon": -72.37477754284805,
      "geoinfo": {
        "display_name": "2e Camathe, Commune de Saint-Michel-de-l'Attalaye, Arrondissement de Marmelade, Artibonite Department, Haiti",
        "road": null,
        "house_number": null,
        "neighbourhood": null,
        "suburb": "2e Camathe",
        "city_district": null,
        "city": "Commune de Saint-Michel-de-l'Attalaye",
        "state": "Artibonite Department",
        "postcode": null,
        "country": "Haiti",
        "country_code": "ht"
      },
      "address": "2e Camathe, Commune de Saint-Michel-de-l'Attalaye, Arrondissement de Marmelade, 03351 Artibonite Department, Haiti"
    },
    {
      "lat": 19.372243288749118,
      "lon": -72.33980272422845,
      "geoinfo": {
        "display_name": "Rue de Bonne Espérance, Saint Michel de l’Attalaye, 3e Bas de Sault, Saint-Michel-de-l'Attalaye, Commune de Saint-Michel-de-l'Attalaye, Arrondissement de Marmelade, Artibonite Department, 4520, Haiti",
        "road": "Rue de Bonne Espérance",
        "house_number": null,
        "neighbourhood": null,
        "suburb": "3e Bas de Sault",
        "city_district": null,
        "city": "Saint-Michel-de-l'Attalaye",
        "state": "Artibonite Department",
        "postcode": "4520",
        "country": "Haiti",
        "country_code": "ht"
      },
      "address": "Rue de Bonne Espérance, Saint Michel de l’Attalaye, 3e Bas de Sault, Saint-Michel-de-l'Attalaye, Commune de Saint-Michel-de-l'Attalaye, Arrondissement de Marmelade, Artibonite Department, 4520, Haiti"
    },
    {
      "lat": 19.35462882490609,
      "lon": -72.31490344293896,
      "geoinfo": {
        "display_name": "Route Départementale 304, 8e l'Attalaye, Savane Dianne, Commune de Saint-Michel-de-l'Attalaye, Arrondissement de Marmelade, Artibonite Department, 4520, Haiti",
        "road": "Route Départementale 304",
        "house_number": null,
        "neighbourhood": null,
        "suburb": "8e l'Attalaye",
        "city_district": null,
        "city": "Commune de Saint-Michel-de-l'Attalaye",
        "state": "Artibonite Department",
        "postcode": "4520",
        "country": "Haiti",
        "country_code": "ht"
      },
      "address": "Route Départementale 304, 8e l'Attalaye, Savane Dianne, Commune de Saint-Michel-de-l'Attalaye, Arrondissement de Marmelade, Artibonite Department, 4520, Haiti"
    },
    {
      "lat": 19.3694217763635,
      "lon": -72.30368806483875,
      "geoinfo": {
        "display_name": "Route Départementale 103, Saint Michel de l’Attalaye, 8e l'Attalaye, Saint-Michel-de-l'Attalaye, Commune de Saint-Michel-de-l'Attalaye, Arrondissement de Marmelade, Artibonite Department, Haiti",
        "road": "Route Départementale 103",
        "house_number": null,
        "neighbourhood": null,
        "suburb": "8e l'Attalaye",
        "city_district": null,
        "city": "Saint-Michel-de-l'Attalaye",
        "state": "Artibonite Department",
        "postcode": null,
        "country": "Haiti",
        "country_code": "ht"
      },
      "address": "Route Départementale 103, Saint Michel de l’Attalaye, 8e l'Attalaye, Saint-Michel-de-l'Attalaye, Commune de Saint-Michel-de-l'Attalaye, Arrondissement de Marmelade, Artibonite Department, Haiti"
    },
    {
      "lat": 19.38313030499198,
      "lon": -72.33725295441032,
      "geoinfo": {
        "display_name": "Saint Michel de l’Attalaye, 3e Bas de Sault, Saint-Michel-de-l'Attalaye, Commune de Saint-Michel-de-l'Attalaye, Arrondissement de Marmelade, Artibonite Department, 4520, Haiti",
        "road": null,
        "house_number": null,
        "neighbourhood": null,
        "suburb": "3e Bas de Sault",
        "city_district": null,
        "city": "Saint-Michel-de-l'Attalaye",
        "state": "Artibonite Department",
        "postcode": "4520",
        "country": "Haiti",
        "country_code": "ht"
      },
      "address": "Saint Michel de l’Attalaye, 3e Bas de Sault, Saint-Michel-de-l'Attalaye, Commune de Saint-Michel-de-l'Attalaye, Arrondissement de Marmelade, Artibonite Department, 4520, Haiti"
    }
  ],
  "updated_at": "2025-10-19T04:44:28.622424+00:00",
  "_kind": "geo_samples"
}