{
  "country_code": "HT",
  "country": "Haiti",
  "city": "Saint-Marc",
  "geonameid": 3717588,
  "target_addresses": 4,
  "samples": [
    {
      "lat": 19.076004565503972,
      "lon": -72.70164531815566,
      "geoinfo": {
        "display_name": "Jeanton, La Colline, 2e Bois Neuf, Jeanton I, Commune de Saint-Marc, Arrondissement de Saint-Marc, Artibonite Department, Haiti",
        "road": "Jeanton",
        "house_number": null,
        "neighbourhood": "La Colline",
        "suburb": "2e Bois Neuf",
        "city_district": null,
        "city": "Commune de Saint-Marc",
        "state": "Artibonite Department",
        "postcode": null,
        "country": "Haiti",
        "country_code": "ht"
      },
      "address": "Jeanton, Saint-Marc, Artibonite Department, Haiti"
    },
    {
      "lat": 19.11851113271924,
      "lon": -72.66911429619903,
      "geoinfo": {
        "display_name": "4e Lalouère, Saint-Marc, Commune de Saint-Marc, Arrondissement de Saint-Marc, Artibonite Department, Haiti",
        "road": null,
        "house_number": null,
        "neighbourhood": null,
        "suburb": "4e Lalouère",
        "city_district": null,
        "city": "Saint-Marc",
        "state": "Artibonite Department",
        "postcode": null,
        "country": "Haiti",
        "country_code": "ht"
      },
      "address": "4e Lalouère, Saint-Marc, Artibonite Department, Haiti"
    },
    {
      "lat": 19.120787353651583,
      "lon": -72.73190430165731,
      "geoinfo": {
        "display_name": "Frécineau, Commune de Saint-Marc, Arrondissement de Saint-Marc, Artibonite Department, Haiti",
        "road": null,
        "house_number": null,
        "neighbourhood": null,
        "suburb": null,
        "city_district": null,
        "city": "Commune de Saint-Marc",
        "state": "Artibonite Department",
        "postcode": null,
        "country": "Haiti",
        "country_code": "ht"
      },
      "address": "Saint-Marc, Artibonite Department, Haiti"
    },
    {
      "lat": 19.118486438999838,
      "lon": -72.69958758953926,
      "geoinfo": {
        "display_name": "373 B, Rue Louverture, Portail Guêpe, 5e Bocozelle, Saint-Marc, Commune de Saint-Marc, Arrondissement de Saint-Marc, Artibonite Department, Haiti",
        "road": "Rue Louverture",
        "house_number": "373 B",
        "neighbourhood": null,
        "suburb": "Portail Guêpe",
        "city_district": null,
        "city": "Saint-Marc",
        "state": "Artibonite Department",
        "postcode": null,
        "country": "Haiti",
        "country_code": "ht"
      },
      "address": "373 B Rue Louverture, Saint-Marc, Artibonite Department, Haiti"
    },
    {
      "lat": 19.13962261915439,
      "lon": -72.6710467542154,
      "geoinfo": {
        "display_name": "5e Bocozelle, Pont Leocan, Commune de Saint-Marc, Arrondissement de Saint-Marc, Artibonite Department, Haiti",
        "road": null,
        "house_number": null,
        "neighbourhood": null,
        "suburb": "5e Bocozelle",
        "city_district": null,
        "city": "Commune de Saint-Marc",
        "state": "Artibonite Department",
        "postcode": null,
        "country": "Haiti",
        "country_code": "ht"
      },
      "address": "5e Bocozelle, Pont Leocan, Commune de Saint-Marc, Arrondissement de Saint-Marc, 32000 Artibonite Department, Haiti"
    },
    {
      "lat": 19.14981742795896,
      "lon": -72.72526268058819,
      "geoinfo": {
        "display_name": "5e Bocozelle, Commune de Saint-Marc, Arrondissement de Saint-Marc, Artibonite Department, Haiti",
        "road": null,
        "house_number": null,
        "neighbourhood": null,
        "suburb": "5e Bocozelle",
        "city_district": null,
        "city": "Commune de Saint-Marc",
        "state": "Artibonite Department",
        "postcode": null,
        "country": "Haiti",
        "country_code": "ht"
      },
      "address": "5e Bocozelle, Commune de Saint-Marc, Arrondissement de Saint-Marc, 01339 Artibonite Department, Haiti"
    },
    {
      "lat": 19.138797046199638,
      "lon": -72.68395594464772,
      "geoinfo": {
        "display_name": "5e Bocozelle, Commune de Saint-Marc, Arrondissement de Saint-Marc, Artibonite Department, Haiti",
        "road": null,
        "house_number": null,
        "neighbourhood": null,
        "suburb": "5e Bocozelle",
        "city_district": null,
        "city": "Commune de Saint-Marc",
        "state": "Artibonite Department",
        "postcode": null,
        "country": "Haiti",
        "country_code": "ht"
      },
      "address": "5e Bocozelle, Commune de Saint-Marc, Arrondissement de Saint-Marc, 79172 Artibonite Department, Haiti"
    },
    {
      "lat": 19.145756704149797,
      "lon": -72.70375756005612,
      "geoinfo": {
        "display_name": "5e Bocozelle, Commune de Saint-Marc, Arrondissement de Saint-Marc, Artibonite Department, Haiti",
        "road": null,
        "house_number": null,
        "neighbourhood": null,
        "suburb": "5e Bocozelle",
        "city_district": null,
        "city": "Commune de Saint-Marc",
        "state": "Artibonite Department",
        "postcode": null,
        "country": "Haiti",
        "country_code": "ht"
      },
      "address": "5e Bocozelle, Commune de Saint-Marc, Arrondissement de Saint-Marc, 66428 Artibonite Department, Haiti"
    }
  ],
  "updated_at": "2025-10-19T04:18:14.873334+00:00",
  "_kind": "geo_samples"
}