{
  "country_code": "HT",
  "country": "Haiti",
  "city": "Saint-Raphaël",
  "geonameid": 3717546,
  "target_addresses": 4,
  "samples": [
    {
      "lat": 19.4494909491422,
      "lon": -72.20540998170316,
      "geoinfo": {
        "display_name": "Route Nationale # 3, Habitation Opon, 4e Sanyago, Saint-Raphaël, Commune Saint-Raphaël, Arrondissement Saint-Raphaël, Département du Nord, Haiti",
        "road": "Route Nationale # 3",
        "house_number": null,
        "neighbourhood": null,
        "suburb": "4e Sanyago",
        "city_district": null,
        "city": "Commune Saint-Raphaël",
        "state": "Département du Nord",
        "postcode": null,
        "country": "Haiti",
        "country_code": "ht"
      },
      "address": "Route Nationale # 3, Saint-Raphaël, Département du Nord, Haiti"
    },
    {
      "lat": 19.424362461718076,
      "lon": -72.19492834984548,
      "geoinfo": {
        "display_name": "4e Sanyago, Saint-Raphaël, Commune Saint-Raphaël, Arrondissement Saint-Raphaël, Département du Nord, Haiti",
        "road": null,
        "house_number": null,
        "neighbourhood": null,
        "suburb": "4e Sanyago",
        "city_district": null,
        "city": "Commune Saint-Raphaël",
        "state": "Département du Nord",
        "postcode": null,
        "country": "Haiti",
        "country_code": "ht"
      },
      "address": "4e Sanyago, Saint-Raphaël, Département du Nord, Haiti"
    },
    {
      "lat": 19.432864771353284,
      "lon": -72.21730529834592,
      "geoinfo": {
        "display_name": "1re Bois Neuf, Commune Saint-Raphaël, Arrondissement Saint-Raphaël, Département du Nord, Haiti",
        "road": null,
        "house_number": null,
        "neighbourhood": null,
        "suburb": "1re Bois Neuf",
        "city_district": null,
        "city": "Commune Saint-Raphaël",
        "state": "Département du Nord",
        "postcode": null,
        "country": "Haiti",
        "country_code": "ht"
      },
      "address": "1re Bois Neuf, Saint-Raphaël, Département du Nord, Haiti"
    },
    {
      "lat": 19.461269919551913,
      "lon": -72.18713514067709,
      "geoinfo": {
        "display_name": "2e Mathurin, Commune Saint-Raphaël, Arrondissement Saint-Raphaël, Département du Nord, Haiti",
        "road": null,
        "house_number": null,
        "neighbourhood": null,
        "suburb": "2e Mathurin",
        "city_district": null,
        "city": "Commune Saint-Raphaël",
        "state": "Département du Nord",
        "postcode": null,
        "country": "Haiti",
        "country_code": "ht"
      },
      "address": "2e Mathurin, Saint-Raphaël, Département du Nord, Haiti"
    },
    {
      "lat": 19.471362707905882,
      "lon": -72.19111976166636,
      "geoinfo": {
        "display_name": "2e Mathurin, Commune Saint-Raphaël, Arrondissement Saint-Raphaël, Département du Nord, Haiti",
        "road": null,
        "house_number": null,
        "neighbourhood": null,
        "suburb": "2e Mathurin",
        "city_district": null,
        "city": "Commune Saint-Raphaël",
        "state": "Département du Nord",
        "postcode": null,
        "country": "Haiti",
        "country_code": "ht"
      },
      "address": "2e Mathurin, Commune Saint-Raphaël, Arrondissement Saint-Raphaël, 55600 Département du Nord, Haiti"
    },
    {
      "lat": 19.442857472728107,
      "lon": -72.16213615367002,
      "geoinfo": {
        "display_name": "Route de Mathurin, 2e Mathurin, Saint-Raphaël, Commune Saint-Raphaël, Arrondissement Saint-Raphaël, Département du Nord, Haiti",
        "road": "Route de Mathurin",
        "house_number": null,
        "neighbourhood": null,
        "suburb": "2e Mathurin",
        "city_district": null,
        "city": "Commune Saint-Raphaël",
        "state": "Département du Nord",
        "postcode": null,
        "country": "Haiti",
        "country_code": "ht"
      },
      "address": "208, Route de Mathurin, 2e Mathurin, Saint-Raphaël, Commune Saint-Raphaël, Arrondissement Saint-Raphaël, Département du Nord, Haiti"
    },
    {
      "lat": 19.420320913476747,
      "lon": -72.15902674243661,
      "geoinfo": {
        "display_name": "Nord garden, route source la messi, Buénabite, 3e Bouyaha, Commune Saint-Raphaël, Arrondissement Saint-Raphaël, Département du Nord, Haiti",
        "road": "route source la messi",
        "house_number": null,
        "neighbourhood": null,
        "suburb": "3e Bouyaha",
        "city_district": null,
        "city": "Commune Saint-Raphaël",
        "state": "Département du Nord",
        "postcode": null,
        "country": "Haiti",
        "country_code": "ht"
      },
      "address": "830, route source la messi, Saint-Raphaël, 25456 Département du Nord, Haiti"
    },
    {
      "lat": 19.462417283290037,
      "lon": -72.218721690894,
      "geoinfo": {
        "display_name": "1re Bois Neuf, Commune Saint-Raphaël, Arrondissement Saint-Raphaël, Département du Nord, Haiti",
        "road": null,
        "house_number": null,
        "neighbourhood": null,
        "suburb": "1re Bois Neuf",
        "city_district": null,
        "city": "Commune Saint-Raphaël",
        "state": "Département du Nord",
        "postcode": null,
        "country": "Haiti",
        "country_code": "ht"
      },
      "address": "1re Bois Neuf, Commune Saint-Raphaël, Arrondissement Saint-Raphaël, 19611 Département du Nord, Haiti"
    }
  ],
  "updated_at": "2025-10-19T04:38:36.065464+00:00",
  "_kind": "geo_samples"
}