{
  "country_code": "AE",
  "country": "United Arab Emirates",
  "city": "Ar Ruways",
  "geonameid": 292688,
  "target_addresses": 2,
  "samples": [
    {
      "lat": 24.144450727752893,
      "lon": 52.74922423735765,
      "geoinfo": {
        "display_name": "Avenue C, Ruwais Industry Complex, Al Ruwais, Al Ruways Industrial City, Al Dhafrah Region, Abu Dhabi Emirate, United Arab Emirates",
        "road": "Avenue C",
        "house_number": null,
        "neighbourhood": null,
        "suburb": null,
        "city_district": null,
        "city": "Al Ruways Industrial City",
        "state": "Abu Dhabi Emirate",
        "postcode": null,
        "country": "United Arab Emirates",
        "country_code": "ae"
      },
      "address": "Avenue C, Ar Ruways, Abu Dhabi Emirate, United Arab Emirates"
    },
    {
      "lat": 24.08054090210345,
      "lon": 52.71041980496979,
      "geoinfo": {
        "display_name": "Al Dhannah, Al Dhafrah Region, Abu Dhabi Emirate, United Arab Emirates",
        "road": null,
        "house_number": null,
        "neighbourhood": null,
        "suburb": null,
        "city_district": null,
        "city": "Al Dhannah",
        "state": "Abu Dhabi Emirate",
        "postcode": null,
        "country": "United Arab Emirates",
        "country_code": "ae"
      },
      "address": "Ar Ruways, Abu Dhabi Emirate, United Arab Emirates"
    },
    {
      "lat": 24.10489656495149,
      "lon": 52.75805533366967,
      "geoinfo": {
        "display_name": "Al Ruways Industrial City, Al Dhafrah Region, Abu Dhabi Emirate, United Arab Emirates",
        "road": null,
        "house_number": null,
        "neighbourhood": null,
        "suburb": null,
        "city_district": null,
        "city": "Al Ruways Industrial City",
        "state": "Abu Dhabi Emirate",
        "postcode": null,
        "country": "United Arab Emirates",
        "country_code": "ae"
      },
      "address": "316, Al Ruways Industrial City, Al Dhafrah Region, 03790 Abu Dhabi Emirate, United Arab Emirates"
    },
    {
      "lat": 24.133627985666006,
      "lon": 52.76812696153414,
      "geoinfo": {
        "display_name": "Al Ruwais, Al Ruways Industrial City, Al Dhafrah Region, Abu Dhabi Emirate, United Arab Emirates",
        "road": null,
        "house_number": null,
        "neighbourhood": null,
        "suburb": null,
        "city_district": null,
        "city": "Al Ruways Industrial City",
        "state": "Abu Dhabi Emirate",
        "postcode": null,
        "country": "United Arab Emirates",
        "country_code": "ae"
      },
      "address": "264, Al Ruwais, Al Ruways Industrial City, Al Dhafrah Region, 97950 Abu Dhabi Emirate, United Arab Emirates"
    }
  ],
  "updated_at": "2025-10-19T02:25:10.200016+00:00",
  "_kind": "geo_samples"
}