{
  "country_code": "AE",
  "country": "United Arab Emirates",
  "city": "Dubai Festival City",
  "geonameid": 8541937,
  "target_addresses": 2,
  "samples": [
    {
      "lat": 25.22015738013274,
      "lon": 55.37990163109273,
      "geoinfo": {
        "display_name": "201 Road, Nadd Shamma, Al Rashidiya, Dubai, United Arab Emirates",
        "road": "201 Road",
        "house_number": null,
        "neighbourhood": null,
        "suburb": "Nadd Shamma",
        "city_district": null,
        "city": "Dubai",
        "state": "Dubai",
        "postcode": null,
        "country": "United Arab Emirates",
        "country_code": "ae"
      },
      "address": "201 Road, Dubai Festival City, Dubai, United Arab Emirates"
    },
    {
      "lat": 25.23238984881128,
      "lon": 55.336890987506095,
      "geoinfo": {
        "display_name": "Al Garhoud Bridge, Deira, Umm Hurair 2, Umm Hurair, Dubai, United Arab Emirates",
        "road": "Al Garhoud Bridge",
        "house_number": null,
        "neighbourhood": "Deira",
        "suburb": "Umm Hurair",
        "city_district": null,
        "city": "Dubai",
        "state": "Dubai",
        "postcode": null,
        "country": "United Arab Emirates",
        "country_code": "ae"
      },
      "address": "Al Garhoud Bridge, Dubai Festival City, Dubai, United Arab Emirates"
    },
    {
      "lat": 25.248114125130083,
      "lon": 55.33062752699505,
      "geoinfo": {
        "display_name": "Baniyas Road, Deira, Port Saeed, Dubai, United Arab Emirates",
        "road": "Baniyas Road",
        "house_number": null,
        "neighbourhood": "Deira",
        "suburb": "Port Saeed",
        "city_district": null,
        "city": "Dubai",
        "state": "Dubai",
        "postcode": null,
        "country": "United Arab Emirates",
        "country_code": "ae"
      },
      "address": "125, Baniyas Road, Deira, Port Saeed, 12356 Dubai, United Arab Emirates"
    },
    {
      "lat": 25.237442580496364,
      "lon": 55.32544074483704,
      "geoinfo": {
        "display_name": "Riyadh Street, Bur Dubai, Umm Hurair, Dubai, United Arab Emirates",
        "road": "Riyadh Street",
        "house_number": null,
        "neighbourhood": "Bur Dubai",
        "suburb": "Umm Hurair",
        "city_district": null,
        "city": "Dubai",
        "state": "Dubai",
        "postcode": null,
        "country": "United Arab Emirates",
        "country_code": "ae"
      },
      "address": "224, Riyadh Street, Bur Dubai, Umm Hurair, 61059 Dubai, United Arab Emirates"
    }
  ],
  "updated_at": "2025-10-19T02:24:21.353941+00:00",
  "_kind": "geo_samples"
}