{
  "country_code": "AE",
  "country": "United Arab Emirates",
  "city": "Kalbā",
  "geonameid": 291763,
  "target_addresses": 2,
  "samples": [
    {
      "lat": 25.075076917280903,
      "lon": 56.38548232365926,
      "geoinfo": {
        "display_name": "Al Bhaies, Kalba, Sharjah Emirate, United Arab Emirates",
        "road": null,
        "house_number": null,
        "neighbourhood": null,
        "suburb": "Al Bhaies",
        "city_district": null,
        "city": "Kalba",
        "state": "Sharjah Emirate",
        "postcode": null,
        "country": "United Arab Emirates",
        "country_code": "ae"
      },
      "address": "Al Bhaies, Kalbā, Sharjah Emirate, United Arab Emirates"
    },
    {
      "lat": 25.08127329630062,
      "lon": 56.35278510093086,
      "geoinfo": {
        "display_name": "Dhyatt, Tarif Kalba, Kalba, Sharjah Emirate, United Arab Emirates",
        "road": null,
        "house_number": null,
        "neighbourhood": null,
        "suburb": "Dhyatt",
        "city_district": null,
        "city": "Kalba",
        "state": "Sharjah Emirate",
        "postcode": null,
        "country": "United Arab Emirates",
        "country_code": "ae"
      },
      "address": "Dhyatt, Kalbā, Sharjah Emirate, United Arab Emirates"
    },
    {
      "lat": 25.033064277813843,
      "lon": 56.37365179189469,
      "geoinfo": {
        "display_name": "Kalba Beach Road, Khawr Kalba, Kalba, Sharjah Emirate, United Arab Emirates",
        "road": "Kalba Beach Road",
        "house_number": null,
        "neighbourhood": null,
        "suburb": "Khawr Kalba",
        "city_district": null,
        "city": "Kalba",
        "state": "Sharjah Emirate",
        "postcode": null,
        "country": "United Arab Emirates",
        "country_code": "ae"
      },
      "address": "413, Kalba Beach Road, Khawr Kalba, Kalba, 72938 Sharjah Emirate, United Arab Emirates"
    },
    {
      "lat": 25.06543129964993,
      "lon": 56.31268956113953,
      "geoinfo": {
        "display_name": "Mohammed Bin Zayed City, Fujairah Emirate, United Arab Emirates",
        "road": null,
        "house_number": null,
        "neighbourhood": null,
        "suburb": null,
        "city_district": null,
        "city": null,
        "state": "Fujairah Emirate",
        "postcode": null,
        "country": "United Arab Emirates",
        "country_code": "ae"
      },
      "address": "477, Mohammed Bin Zayed City, 11927 Fujairah Emirate, United Arab Emirates"
    }
  ],
  "updated_at": "2025-10-19T00:46:49.001787+00:00",
  "_kind": "geo_samples"
}