{
  "country_code": "AE",
  "country": "United Arab Emirates",
  "city": "Lahbab",
  "geonameid": 13118439,
  "target_addresses": 2,
  "samples": [
    {
      "lat": 25.040974156029908,
      "lon": 55.546572752446274,
      "geoinfo": {
        "display_name": "Dubai, United Arab Emirates",
        "road": null,
        "house_number": null,
        "neighbourhood": null,
        "suburb": null,
        "city_district": null,
        "city": null,
        "state": "Dubai",
        "postcode": null,
        "country": "United Arab Emirates",
        "country_code": "ae"
      },
      "address": "Lahbab, Dubai, United Arab Emirates"
    },
    {
      "lat": 25.062824015556128,
      "lon": 55.56455612900724,
      "geoinfo": {
        "display_name": "Lehbab 2, Lahbab, Dubai, United Arab Emirates",
        "road": null,
        "house_number": null,
        "neighbourhood": null,
        "suburb": "Lehbab 2",
        "city_district": null,
        "city": "Lahbab",
        "state": "Dubai",
        "postcode": null,
        "country": "United Arab Emirates",
        "country_code": "ae"
      },
      "address": "Lehbab 2, Lahbab, Dubai, United Arab Emirates"
    },
    {
      "lat": 25.04461155303886,
      "lon": 55.59549235937079,
      "geoinfo": {
        "display_name": "Lahbab, Dubai, United Arab Emirates",
        "road": null,
        "house_number": null,
        "neighbourhood": null,
        "suburb": null,
        "city_district": null,
        "city": "Lahbab",
        "state": "Dubai",
        "postcode": null,
        "country": "United Arab Emirates",
        "country_code": "ae"
      },
      "address": "984, Lahbab, 12901 Dubai, United Arab Emirates"
    },
    {
      "lat": 25.0564003925722,
      "lon": 55.579648465098415,
      "geoinfo": {
        "display_name": "Lahbab, Dubai, United Arab Emirates",
        "road": null,
        "house_number": null,
        "neighbourhood": null,
        "suburb": null,
        "city_district": null,
        "city": "Lahbab",
        "state": "Dubai",
        "postcode": null,
        "country": "United Arab Emirates",
        "country_code": "ae"
      },
      "address": "350, Lahbab, 88645 Dubai, United Arab Emirates"
    }
  ],
  "updated_at": "2025-10-19T02:40:53.891657+00:00",
  "_kind": "geo_samples"
}