{
  "country_code": "AE",
  "country": "United Arab Emirates",
  "city": "Musaffah",
  "geonameid": 12042053,
  "target_addresses": 2,
  "samples": [
    {
      "lat": 24.381866798952412,
      "lon": 54.44193249386024,
      "geoinfo": {
        "display_name": "Al Hidayriyyat, Abu Dhabi, Abu Dhabi Emirate, United Arab Emirates",
        "road": null,
        "house_number": null,
        "neighbourhood": null,
        "suburb": null,
        "city_district": null,
        "city": "Al Hidayriyyat",
        "state": "Abu Dhabi Emirate",
        "postcode": null,
        "country": "United Arab Emirates",
        "country_code": "ae"
      },
      "address": "Musaffah, Abu Dhabi Emirate, United Arab Emirates"
    },
    {
      "lat": 24.342551658808027,
      "lon": 54.51419849988362,
      "geoinfo": {
        "display_name": "Al Hayal Street, ICAD I, Musaffah, Abu Dhabi, Abu Dhabi Emirate, United Arab Emirates",
        "road": "Al Hayal Street",
        "house_number": null,
        "neighbourhood": null,
        "suburb": "ICAD I",
        "city_district": null,
        "city": "Musaffah",
        "state": "Abu Dhabi Emirate",
        "postcode": null,
        "country": "United Arab Emirates",
        "country_code": "ae"
      },
      "address": "Al Hayal Street, Musaffah, Abu Dhabi Emirate, United Arab Emirates"
    },
    {
      "lat": 24.33362289130555,
      "lon": 54.50902002044825,
      "geoinfo": {
        "display_name": "Musaffah Industrial Area, Abu Dhabi Industrial City, Abu Dhabi, Abu Dhabi Emirate, United Arab Emirates",
        "road": null,
        "house_number": null,
        "neighbourhood": null,
        "suburb": "Musaffah Industrial Area",
        "city_district": null,
        "city": "Abu Dhabi Industrial City",
        "state": "Abu Dhabi Emirate",
        "postcode": null,
        "country": "United Arab Emirates",
        "country_code": "ae"
      },
      "address": "384, Musaffah Industrial Area, Musaffah, 74824 Abu Dhabi Emirate, United Arab Emirates"
    },
    {
      "lat": 24.373873865365788,
      "lon": 54.468639382538946,
      "geoinfo": {
        "display_name": "Sultan Bin Mohammed Al Qubaisi Street, Musaffah, Abu Dhabi, Abu Dhabi Emirate, United Arab Emirates",
        "road": "Sultan Bin Mohammed Al Qubaisi Street",
        "house_number": null,
        "neighbourhood": null,
        "suburb": "Musaffah",
        "city_district": null,
        "city": "Musaffah",
        "state": "Abu Dhabi Emirate",
        "postcode": null,
        "country": "United Arab Emirates",
        "country_code": "ae"
      },
      "address": "776, Sultan Bin Mohammed Al Qubaisi Street, Musaffah, Abu Dhabi, 46899 Abu Dhabi Emirate, United Arab Emirates"
    }
  ],
  "updated_at": "2025-10-19T00:47:39.531105+00:00",
  "_kind": "geo_samples"
}