{
  "country_code": "AE",
  "country": "United Arab Emirates",
  "city": "Ţarīf Kalbā",
  "geonameid": 290680,
  "target_addresses": 12,
  "samples": [
    {
      "lat": 25.062378348353654,
      "lon": 56.32480406258671,
      "geoinfo": {
        "display_name": "Tarif Kalba, Kalba, Sharjah Emirate, United Arab Emirates",
        "road": null,
        "house_number": null,
        "neighbourhood": null,
        "suburb": null,
        "city_district": null,
        "city": "Kalba",
        "state": "Sharjah Emirate",
        "postcode": null,
        "country": "United Arab Emirates",
        "country_code": "ae"
      },
      "address": "Ţarīf Kalbā, Sharjah Emirate, United Arab Emirates"
    },
    {
      "lat": 25.05079524830872,
      "lon": 56.369193815261866,
      "geoinfo": {
        "display_name": "Al Bardi, Kalba, Sharjah Emirate, United Arab Emirates",
        "road": null,
        "house_number": null,
        "neighbourhood": null,
        "suburb": "Al Bardi",
        "city_district": null,
        "city": "Kalba",
        "state": "Sharjah Emirate",
        "postcode": null,
        "country": "United Arab Emirates",
        "country_code": "ae"
      },
      "address": "Al Bardi, Ţarīf Kalbā, Sharjah Emirate, United Arab Emirates"
    },
    {
      "lat": 25.062422010498505,
      "lon": 56.328411184672014,
      "geoinfo": {
        "display_name": "Tarif Kalba, Kalba, Sharjah Emirate, United Arab Emirates",
        "road": null,
        "house_number": null,
        "neighbourhood": null,
        "suburb": null,
        "city_district": null,
        "city": "Kalba",
        "state": "Sharjah Emirate",
        "postcode": null,
        "country": "United Arab Emirates",
        "country_code": "ae"
      },
      "address": "Ţarīf Kalbā, 21083 Sharjah Emirate, United Arab Emirates"
    },
    {
      "lat": 25.09529634955293,
      "lon": 56.323483815991246,
      "geoinfo": {
        "display_name": "Kalba, Sharjah Emirate, United Arab Emirates",
        "road": null,
        "house_number": null,
        "neighbourhood": null,
        "suburb": null,
        "city_district": null,
        "city": "Kalba",
        "state": "Sharjah Emirate",
        "postcode": null,
        "country": "United Arab Emirates",
        "country_code": "ae"
      },
      "address": "Ţarīf Kalbā, 53458 Sharjah Emirate, United Arab Emirates"
    },
    {
      "lat": 25.08783744695014,
      "lon": 56.323575131675994,
      "geoinfo": {
        "display_name": "Kalba, Sharjah Emirate, United Arab Emirates",
        "road": null,
        "house_number": null,
        "neighbourhood": null,
        "suburb": null,
        "city_district": null,
        "city": "Kalba",
        "state": "Sharjah Emirate",
        "postcode": null,
        "country": "United Arab Emirates",
        "country_code": "ae"
      },
      "address": "Kalba, 17230 Sharjah Emirate, United Arab Emirates"
    },
    {
      "lat": 25.05999624196726,
      "lon": 56.305538279449976,
      "geoinfo": {
        "display_name": "Mohammed Bin Zayed City, Ihfarah, Fujairah Emirate, United Arab Emirates",
        "road": "Mohammed Bin Zayed City",
        "house_number": null,
        "neighbourhood": null,
        "suburb": null,
        "city_district": null,
        "city": "Ihfarah",
        "state": "Fujairah Emirate",
        "postcode": null,
        "country": "United Arab Emirates",
        "country_code": "ae"
      },
      "address": "Mohammed Bin Zayed City, Ihfarah, 64091 Fujairah Emirate, United Arab Emirates"
    },
    {
      "lat": 25.0732483522419,
      "lon": 56.30332441194219,
      "geoinfo": {
        "display_name": "Mohammed Bin Zayed City, Al Heel, Fujairah Emirate, United Arab Emirates",
        "road": null,
        "house_number": null,
        "neighbourhood": null,
        "suburb": null,
        "city_district": null,
        "city": "Al Heel",
        "state": "Fujairah Emirate",
        "postcode": null,
        "country": "United Arab Emirates",
        "country_code": "ae"
      },
      "address": "361, Mohammed Bin Zayed City, Al Heel, 46990 Fujairah Emirate, United Arab Emirates"
    },
    {
      "lat": 25.06067388573936,
      "lon": 56.36813236636915,
      "geoinfo": {
        "display_name": "Hitteen, Kalba, Sharjah Emirate, United Arab Emirates",
        "road": null,
        "house_number": null,
        "neighbourhood": null,
        "suburb": "Hitteen",
        "city_district": null,
        "city": "Kalba",
        "state": "Sharjah Emirate",
        "postcode": null,
        "country": "United Arab Emirates",
        "country_code": "ae"
      },
      "address": "840, Hitteen, Kalba, 94116 Sharjah Emirate, United Arab Emirates"
    },
    {
      "lat": 25.03146140382227,
      "lon": 56.34601049692635,
      "geoinfo": {
        "display_name": "Al Mafraq, Kalba, Sharjah Emirate, United Arab Emirates",
        "road": null,
        "house_number": null,
        "neighbourhood": null,
        "suburb": "Al Mafraq",
        "city_district": null,
        "city": "Kalba",
        "state": "Sharjah Emirate",
        "postcode": null,
        "country": "United Arab Emirates",
        "country_code": "ae"
      },
      "address": "071, Al Mafraq, Kalba, 37168 Sharjah Emirate, United Arab Emirates"
    },
    {
      "lat": 25.032690365310025,
      "lon": 56.321797357844105,
      "geoinfo": {
        "display_name": "Al Ghail, Kalba, Sharjah Emirate, United Arab Emirates",
        "road": null,
        "house_number": null,
        "neighbourhood": null,
        "suburb": "Al Ghail",
        "city_district": null,
        "city": "Kalba",
        "state": "Sharjah Emirate",
        "postcode": null,
        "country": "United Arab Emirates",
        "country_code": "ae"
      },
      "address": "539, Al Ghail, Kalba, 58240 Sharjah Emirate, United Arab Emirates"
    },
    {
      "lat": 25.07615863275787,
      "lon": 56.333761543653594,
      "geoinfo": {
        "display_name": "Al Mughaider, Tarif Kalba, Kalba, Sharjah Emirate, United Arab Emirates",
        "road": null,
        "house_number": null,
        "neighbourhood": null,
        "suburb": "Al Mughaider",
        "city_district": null,
        "city": "Kalba",
        "state": "Sharjah Emirate",
        "postcode": null,
        "country": "United Arab Emirates",
        "country_code": "ae"
      },
      "address": "209, Al Mughaider, Tarif Kalba, Kalba, 24695 Sharjah Emirate, United Arab Emirates"
    },
    {
      "lat": 25.108042962464676,
      "lon": 56.30635347221814,
      "geoinfo": {
        "display_name": "Airport Road, Fujairah City, Fujairah Emirate, United Arab Emirates",
        "road": "Airport Road",
        "house_number": null,
        "neighbourhood": null,
        "suburb": null,
        "city_district": null,
        "city": "Fujairah City",
        "state": "Fujairah Emirate",
        "postcode": null,
        "country": "United Arab Emirates",
        "country_code": "ae"
      },
      "address": "259, Airport Road, Fujairah City, 08138 Fujairah Emirate, United Arab Emirates"
    }
  ],
  "updated_at": "2025-10-19T03:03:29.624444+00:00",
  "_kind": "geo_samples"
}