{
  "country_code": "VI",
  "country": "U.S. Virgin Islands",
  "city": "Charlotte Amalie",
  "geonameid": 4795467,
  "target_addresses": 50,
  "samples": [
    {
      "lat": 18.337949035010872,
      "lon": -64.97526877967557,
      "geoinfo": {
        "display_name": "Airport Road, Charlotte Amalie West, Charlotte Amalie, Saint Thomas - Saint John District, United States Virgin Islands, 00803, United States",
        "road": "Airport Road",
        "house_number": null,
        "neighbourhood": null,
        "suburb": null,
        "city_district": null,
        "city": "Charlotte Amalie",
        "state": "United States Virgin Islands",
        "postcode": "00803",
        "country": "United States",
        "country_code": "us"
      },
      "address": "Airport Road, Charlotte Amalie, United States Virgin Islands, U.S. Virgin Islands"
    },
    {
      "lat": 18.35279206086753,
      "lon": -64.94710733656598,
      "geoinfo": {
        "display_name": "Lionel Pierre Berry Scenic Drive, Charlotte Amalie West, Saint Thomas - Saint John District, United States Virgin Islands, 00803, United States",
        "road": "Lionel Pierre Berry Scenic Drive",
        "house_number": null,
        "neighbourhood": null,
        "suburb": null,
        "city_district": null,
        "city": "Charlotte Amalie West",
        "state": "United States Virgin Islands",
        "postcode": "00803",
        "country": "United States",
        "country_code": "us"
      },
      "address": "Lionel Pierre Berry Scenic Drive, Charlotte Amalie, United States Virgin Islands, U.S. Virgin Islands"
    },
    {
      "lat": 18.305535221259394,
      "lon": -64.90966346438243,
      "geoinfo": {
        "display_name": "Charlotte Amalie West, Saint Thomas - Saint John District, United States Virgin Islands, 00803, United States",
        "road": null,
        "house_number": null,
        "neighbourhood": null,
        "suburb": null,
        "city_district": null,
        "city": "Charlotte Amalie West",
        "state": "United States Virgin Islands",
        "postcode": "00803",
        "country": "United States",
        "country_code": "us"
      },
      "address": "Charlotte Amalie, United States Virgin Islands, U.S. Virgin Islands"
    },
    {
      "lat": 18.33824922489115,
      "lon": -64.92405568915477,
      "geoinfo": {
        "display_name": "Veterans Drive, Charlotte Amalie Historic District, Charlotte Amalie, Saint Thomas - Saint John District, United States Virgin Islands, 00801, United States",
        "road": "Veterans Drive",
        "house_number": null,
        "neighbourhood": "Charlotte Amalie Historic District",
        "suburb": null,
        "city_district": null,
        "city": "Charlotte Amalie",
        "state": "United States Virgin Islands",
        "postcode": "00801",
        "country": "United States",
        "country_code": "us"
      },
      "address": "Veterans Drive, Charlotte Amalie, United States Virgin Islands, U.S. Virgin Islands"
    },
    {
      "lat": 18.326321225635006,
      "lon": -64.93368951582113,
      "geoinfo": {
        "display_name": "Cowell's Trail & Officers Quarter Trail, Charlotte Amalie West, Saint Thomas - Saint John District, United States Virgin Islands, 00804, United States",
        "road": "Cowell's Trail & Officers Quarter Trail",
        "house_number": null,
        "neighbourhood": null,
        "suburb": null,
        "city_district": null,
        "city": "Charlotte Amalie West",
        "state": "United States Virgin Islands",
        "postcode": "00804",
        "country": "United States",
        "country_code": "us"
      },
      "address": "Cowell's Trail & Officers Quarter Trail, Charlotte Amalie, United States Virgin Islands, U.S. Virgin Islands"
    },
    {
      "lat": 18.35619611400245,
      "lon": -64.95113336158876,
      "geoinfo": {
        "display_name": "Lilliendal & Marienhoj Street, Charlotte Amalie West, Saint Thomas - Saint John District, United States Virgin Islands, 00803, United States",
        "road": "Lilliendal & Marienhoj Street",
        "house_number": null,
        "neighbourhood": null,
        "suburb": null,
        "city_district": null,
        "city": "Charlotte Amalie West",
        "state": "United States Virgin Islands",
        "postcode": "00803",
        "country": "United States",
        "country_code": "us"
      },
      "address": "Lilliendal & Marienhoj Street, Charlotte Amalie, United States Virgin Islands, U.S. Virgin Islands"
    },
    {
      "lat": 18.338219454058294,
      "lon": -64.94847906513388,
      "geoinfo": {
        "display_name": "Keswick Insurance, 3017, Judy M. Gomez Highway, Charlotte Amalie West, Charlotte Amalie, Saint Thomas - Saint John District, United States Virgin Islands, 00802, United States",
        "road": "Judy M. Gomez Highway",
        "house_number": "3017",
        "neighbourhood": null,
        "suburb": null,
        "city_district": null,
        "city": "Charlotte Amalie",
        "state": "United States Virgin Islands",
        "postcode": "00802",
        "country": "United States",
        "country_code": "us"
      },
      "address": "3017 Judy M. Gomez Highway, Charlotte Amalie, United States Virgin Islands, U.S. Virgin Islands"
    },
    {
      "lat": 18.307036996948163,
      "lon": -64.9598405184383,
      "geoinfo": {
        "display_name": "Limestone Road, Saint Thomas - Saint John District, United States Virgin Islands, 00803, United States",
        "road": "Limestone Road",
        "house_number": null,
        "neighbourhood": null,
        "suburb": null,
        "city_district": null,
        "city": null,
        "state": "United States Virgin Islands",
        "postcode": "00803",
        "country": "United States",
        "country_code": "us"
      },
      "address": "Limestone Road, Charlotte Amalie, United States Virgin Islands, U.S. Virgin Islands"
    },
    {
      "lat": 18.33903893474887,
      "lon": -64.93462967078943,
      "geoinfo": {
        "display_name": "John de Jongh Promenade, Charlotte Amalie Historic District, Charlotte Amalie West, Charlotte Amalie, Saint Thomas - Saint John District, United States Virgin Islands, 00801, United States",
        "road": "John de Jongh Promenade",
        "house_number": null,
        "neighbourhood": "Charlotte Amalie Historic District",
        "suburb": null,
        "city_district": null,
        "city": "Charlotte Amalie",
        "state": "United States Virgin Islands",
        "postcode": "00801",
        "country": "United States",
        "country_code": "us"
      },
      "address": "John de Jongh Promenade, Charlotte Amalie, United States Virgin Islands, U.S. Virgin Islands"
    },
    {
      "lat": 18.323340406318117,
      "lon": -64.9564032237272,
      "geoinfo": {
        "display_name": "West Gregerie Road, Charlotte Amalie West, Saint Thomas - Saint John District, United States Virgin Islands, 00803, United States",
        "road": "West Gregerie Road",
        "house_number": null,
        "neighbourhood": null,
        "suburb": null,
        "city_district": null,
        "city": "Charlotte Amalie West",
        "state": "United States Virgin Islands",
        "postcode": "00803",
        "country": "United States",
        "country_code": "us"
      },
      "address": "West Gregerie Road, Charlotte Amalie, United States Virgin Islands, U.S. Virgin Islands"
    },
    {
      "lat": 18.32844495787867,
      "lon": -64.94004984581197,
      "geoinfo": {
        "display_name": "Sandy Point Rock Road, Charlotte Amalie West, Saint Thomas - Saint John District, United States Virgin Islands, 00803, United States",
        "road": "Sandy Point Rock Road",
        "house_number": null,
        "neighbourhood": null,
        "suburb": null,
        "city_district": null,
        "city": "Charlotte Amalie West",
        "state": "United States Virgin Islands",
        "postcode": "00803",
        "country": "United States",
        "country_code": "us"
      },
      "address": "Sandy Point Rock Road, Charlotte Amalie, United States Virgin Islands, U.S. Virgin Islands"
    },
    {
      "lat": 18.34295618502818,
      "lon": -64.96139467394555,
      "geoinfo": {
        "display_name": "Lavida Lane, Charlotte Amalie West, Charlotte Amalie, Saint Thomas - Saint John District, United States Virgin Islands, 00803, United States",
        "road": "Lavida Lane",
        "house_number": null,
        "neighbourhood": null,
        "suburb": null,
        "city_district": null,
        "city": "Charlotte Amalie",
        "state": "United States Virgin Islands",
        "postcode": "00803",
        "country": "United States",
        "country_code": "us"
      },
      "address": "Lavida Lane, Charlotte Amalie, United States Virgin Islands, U.S. Virgin Islands"
    },
    {
      "lat": 18.323048608269147,
      "lon": -64.94191947307951,
      "geoinfo": {
        "display_name": "Sand Bay Road, Charlotte Amalie West, Saint Thomas - Saint John District, United States Virgin Islands, 00803, United States",
        "road": "Sand Bay Road",
        "house_number": null,
        "neighbourhood": null,
        "suburb": null,
        "city_district": null,
        "city": "Charlotte Amalie West",
        "state": "United States Virgin Islands",
        "postcode": "00803",
        "country": "United States",
        "country_code": "us"
      },
      "address": "Sand Bay Road, Charlotte Amalie, United States Virgin Islands, U.S. Virgin Islands"
    },
    {
      "lat": 18.343679257678033,
      "lon": -64.92904303459076,
      "geoinfo": {
        "display_name": "433, Lille Taarne Gade, Charlotte Amalie Historic District, Charlotte Amalie, Saint Thomas - Saint John District, United States Virgin Islands, 00801, United States",
        "road": "Lille Taarne Gade",
        "house_number": "433",
        "neighbourhood": "Charlotte Amalie Historic District",
        "suburb": null,
        "city_district": null,
        "city": "Charlotte Amalie",
        "state": "United States Virgin Islands",
        "postcode": "00801",
        "country": "United States",
        "country_code": "us"
      },
      "address": "433 Lille Taarne Gade, Charlotte Amalie, United States Virgin Islands, U.S. Virgin Islands"
    },
    {
      "lat": 18.348820722406572,
      "lon": -64.88403683241563,
      "geoinfo": {
        "display_name": "B Street, Anna's Retreat, Saint Thomas - Saint John District, United States Virgin Islands, 00802, United States",
        "road": "B Street",
        "house_number": null,
        "neighbourhood": null,
        "suburb": null,
        "city_district": null,
        "city": "Anna's Retreat",
        "state": "United States Virgin Islands",
        "postcode": "00802",
        "country": "United States",
        "country_code": "us"
      },
      "address": "B Street, Charlotte Amalie, United States Virgin Islands, U.S. Virgin Islands"
    },
    {
      "lat": 18.367553099606734,
      "lon": -64.96934803283851,
      "geoinfo": {
        "display_name": "Neltjeberg Road, Charlotte Amalie West, Saint Thomas - Saint John District, United States Virgin Islands, 00803, United States",
        "road": "Neltjeberg Road",
        "house_number": null,
        "neighbourhood": null,
        "suburb": null,
        "city_district": null,
        "city": "Charlotte Amalie West",
        "state": "United States Virgin Islands",
        "postcode": "00803",
        "country": "United States",
        "country_code": "us"
      },
      "address": "Neltjeberg Road, Charlotte Amalie, United States Virgin Islands, U.S. Virgin Islands"
    },
    {
      "lat": 18.335662593655993,
      "lon": -64.91530065831634,
      "geoinfo": {
        "display_name": "Rumer Road, Charlotte Amalie, Saint Thomas - Saint John District, United States Virgin Islands, 00802, United States",
        "road": "Rumer Road",
        "house_number": null,
        "neighbourhood": null,
        "suburb": null,
        "city_district": null,
        "city": "Charlotte Amalie",
        "state": "United States Virgin Islands",
        "postcode": "00802",
        "country": "United States",
        "country_code": "us"
      },
      "address": "Rumer Road, Charlotte Amalie, United States Virgin Islands, U.S. Virgin Islands"
    },
    {
      "lat": 18.344356567559196,
      "lon": -64.95506717894729,
      "geoinfo": {
        "display_name": "51, Crown Mountain Road, Charlotte Amalie West, Charlotte Amalie, Saint Thomas - Saint John District, United States Virgin Islands, 00802, United States",
        "road": "Crown Mountain Road",
        "house_number": "51",
        "neighbourhood": null,
        "suburb": null,
        "city_district": null,
        "city": "Charlotte Amalie",
        "state": "United States Virgin Islands",
        "postcode": "00802",
        "country": "United States",
        "country_code": "us"
      },
      "address": "51 Crown Mountain Road, Charlotte Amalie, United States Virgin Islands, U.S. Virgin Islands"
    },
    {
      "lat": 18.35132218467146,
      "lon": -64.960483904802,
      "geoinfo": {
        "display_name": "2, Crown Mountain Road, Charlotte Amalie West, Saint Thomas - Saint John District, United States Virgin Islands, 00802, United States",
        "road": "Crown Mountain Road",
        "house_number": "2",
        "neighbourhood": null,
        "suburb": null,
        "city_district": null,
        "city": "Charlotte Amalie West",
        "state": "United States Virgin Islands",
        "postcode": "00802",
        "country": "United States",
        "country_code": "us"
      },
      "address": "2 Crown Mountain Road, Charlotte Amalie, United States Virgin Islands, U.S. Virgin Islands"
    },
    {
      "lat": 18.354659229455972,
      "lon": -64.93321311327351,
      "geoinfo": {
        "display_name": "Hull Bay Road, Charlotte Amalie West, Saint Thomas - Saint John District, United States Virgin Islands, 00804, United States",
        "road": "Hull Bay Road",
        "house_number": null,
        "neighbourhood": null,
        "suburb": null,
        "city_district": null,
        "city": "Charlotte Amalie West",
        "state": "United States Virgin Islands",
        "postcode": "00804",
        "country": "United States",
        "country_code": "us"
      },
      "address": "Hull Bay Road, Charlotte Amalie, United States Virgin Islands, U.S. Virgin Islands"
    },
    {
      "lat": 18.342121781370107,
      "lon": -64.95298213830384,
      "geoinfo": {
        "display_name": "Contant Street, Charlotte Amalie West, Charlotte Amalie, Saint Thomas - Saint John District, United States Virgin Islands, 00803, United States",
        "road": "Contant Street",
        "house_number": null,
        "neighbourhood": null,
        "suburb": null,
        "city_district": null,
        "city": "Charlotte Amalie",
        "state": "United States Virgin Islands",
        "postcode": "00803",
        "country": "United States",
        "country_code": "us"
      },
      "address": "Contant Street, Charlotte Amalie, United States Virgin Islands, U.S. Virgin Islands"
    },
    {
      "lat": 18.34931832597059,
      "lon": -64.92594806057538,
      "geoinfo": {
        "display_name": "Charlotte Amalie Historic District, Charlotte Amalie, Saint Thomas - Saint John District, United States Virgin Islands, 00802, United States",
        "road": null,
        "house_number": null,
        "neighbourhood": "Charlotte Amalie Historic District",
        "suburb": null,
        "city_district": null,
        "city": "Charlotte Amalie",
        "state": "United States Virgin Islands",
        "postcode": "00802",
        "country": "United States",
        "country_code": "us"
      },
      "address": "Charlotte Amalie Historic District, Charlotte Amalie, United States Virgin Islands, U.S. Virgin Islands"
    },
    {
      "lat": 18.325529668201465,
      "lon": -64.90494182953036,
      "geoinfo": {
        "display_name": "Hawk Hill Road, Saint Thomas - Saint John District, United States Virgin Islands, 00802, United States",
        "road": "Hawk Hill Road",
        "house_number": null,
        "neighbourhood": null,
        "suburb": null,
        "city_district": null,
        "city": null,
        "state": "United States Virgin Islands",
        "postcode": "00802",
        "country": "United States",
        "country_code": "us"
      },
      "address": "Hawk Hill Road, Charlotte Amalie, United States Virgin Islands, U.S. Virgin Islands"
    },
    {
      "lat": 18.359646160091504,
      "lon": -64.94707340061768,
      "geoinfo": {
        "display_name": "Saint Peter Mountain Road, Charlotte Amalie West, Saint Thomas - Saint John District, United States Virgin Islands, 00804, United States",
        "road": "Saint Peter Mountain Road",
        "house_number": null,
        "neighbourhood": null,
        "suburb": null,
        "city_district": null,
        "city": "Charlotte Amalie West",
        "state": "United States Virgin Islands",
        "postcode": "00804",
        "country": "United States",
        "country_code": "us"
      },
      "address": "Saint Peter Mountain Road, Charlotte Amalie, United States Virgin Islands, U.S. Virgin Islands"
    },
    {
      "lat": 18.33772749377842,
      "lon": -64.9709390345877,
      "geoinfo": {
        "display_name": "Cyril E King Airport, Julian Jackson Drive, Charlotte Amalie West, Charlotte Amalie, Saint Thomas - Saint John District, United States Virgin Islands, 00803, United States",
        "road": "Julian Jackson Drive",
        "house_number": null,
        "neighbourhood": null,
        "suburb": null,
        "city_district": null,
        "city": "Charlotte Amalie",
        "state": "United States Virgin Islands",
        "postcode": "00803",
        "country": "United States",
        "country_code": "us"
      },
      "address": "Julian Jackson Drive, Charlotte Amalie, United States Virgin Islands, U.S. Virgin Islands"
    },
    {
      "lat": 18.34029839984007,
      "lon": -64.97562823426172,
      "geoinfo": {
        "display_name": "University of the Virgin Islands Saint Thomas Campus, 2, Julian Jackson Drive, Charlotte Amalie West, Charlotte Amalie, Saint Thomas - Saint John District, United States Virgin Islands, 00803, United States",
        "road": "Julian Jackson Drive",
        "house_number": "2",
        "neighbourhood": null,
        "suburb": null,
        "city_district": null,
        "city": "Charlotte Amalie",
        "state": "United States Virgin Islands",
        "postcode": "00803",
        "country": "United States",
        "country_code": "us"
      },
      "address": "2 Julian Jackson Drive, Charlotte Amalie, United States Virgin Islands, U.S. Virgin Islands"
    },
    {
      "lat": 18.313821495517782,
      "lon": -64.94524669389669,
      "geoinfo": {
        "display_name": "Limestone Bay Road, Charlotte Amalie West, Saint Thomas - Saint John District, United States Virgin Islands, 00803, United States",
        "road": "Limestone Bay Road",
        "house_number": null,
        "neighbourhood": null,
        "suburb": null,
        "city_district": null,
        "city": "Charlotte Amalie West",
        "state": "United States Virgin Islands",
        "postcode": "00803",
        "country": "United States",
        "country_code": "us"
      },
      "address": "Limestone Bay Road, Charlotte Amalie, United States Virgin Islands, U.S. Virgin Islands"
    },
    {
      "lat": 18.321267290606492,
      "lon": -64.9568314374739,
      "geoinfo": {
        "display_name": "Main Road, Charlotte Amalie West, Saint Thomas - Saint John District, United States Virgin Islands, 00803, United States",
        "road": "Main Road",
        "house_number": null,
        "neighbourhood": null,
        "suburb": null,
        "city_district": null,
        "city": "Charlotte Amalie West",
        "state": "United States Virgin Islands",
        "postcode": "00803",
        "country": "United States",
        "country_code": "us"
      },
      "address": "Main Road, Charlotte Amalie, United States Virgin Islands, U.S. Virgin Islands"
    },
    {
      "lat": 18.34178907797119,
      "lon": -64.94512934258756,
      "geoinfo": {
        "display_name": "Mahogany Estate Road, Charlotte Amalie West, Charlotte Amalie, Saint Thomas - Saint John District, United States Virgin Islands, 00803, United States",
        "road": "Mahogany Estate Road",
        "house_number": null,
        "neighbourhood": null,
        "suburb": null,
        "city_district": null,
        "city": "Charlotte Amalie",
        "state": "United States Virgin Islands",
        "postcode": "00803",
        "country": "United States",
        "country_code": "us"
      },
      "address": "Mahogany Estate Road, Charlotte Amalie, United States Virgin Islands, U.S. Virgin Islands"
    },
    {
      "lat": 18.35694336516072,
      "lon": -64.95496189413826,
      "geoinfo": {
        "display_name": "George A. Mena Scenic Drive, Charlotte Amalie West, Saint Thomas - Saint John District, United States Virgin Islands, 00803, United States",
        "road": "George A. Mena Scenic Drive",
        "house_number": null,
        "neighbourhood": null,
        "suburb": null,
        "city_district": null,
        "city": "Charlotte Amalie West",
        "state": "United States Virgin Islands",
        "postcode": "00803",
        "country": "United States",
        "country_code": "us"
      },
      "address": "George A. Mena Scenic Drive, Charlotte Amalie, United States Virgin Islands, U.S. Virgin Islands"
    },
    {
      "lat": 18.3333921312357,
      "lon": -64.9009229335287,
      "geoinfo": {
        "display_name": "New Herrnhut Moravian Church, Dorothy \"Dotsy\" Lockhart Elskoe Drive, Saint Thomas - Saint John District, United States Virgin Islands, 00802, United States",
        "road": "Dorothy \"Dotsy\" Lockhart Elskoe Drive",
        "house_number": null,
        "neighbourhood": null,
        "suburb": null,
        "city_district": null,
        "city": null,
        "state": "United States Virgin Islands",
        "postcode": "00802",
        "country": "United States",
        "country_code": "us"
      },
      "address": "Dorothy \"Dotsy\" Lockhart Elskoe Drive, Charlotte Amalie, United States Virgin Islands, U.S. Virgin Islands"
    },
    {
      "lat": 18.334765483967576,
      "lon": -64.95978413278115,
      "geoinfo": {
        "display_name": "100, Subbase Road, Charlotte Amalie West, Charlotte Amalie, Saint Thomas - Saint John District, United States Virgin Islands, 00802, United States",
        "road": "Subbase Road",
        "house_number": "100",
        "neighbourhood": null,
        "suburb": null,
        "city_district": null,
        "city": "Charlotte Amalie",
        "state": "United States Virgin Islands",
        "postcode": "00802",
        "country": "United States",
        "country_code": "us"
      },
      "address": "100 Subbase Road, Charlotte Amalie, United States Virgin Islands, U.S. Virgin Islands"
    },
    {
      "lat": 18.312751581629573,
      "lon": -64.95425178677564,
      "geoinfo": {
        "display_name": "84, Flamingo Road, Charlotte Amalie West, Saint Thomas - Saint John District, United States Virgin Islands, 00802, United States",
        "road": "Flamingo Road",
        "house_number": "84",
        "neighbourhood": null,
        "suburb": null,
        "city_district": null,
        "city": "Charlotte Amalie West",
        "state": "United States Virgin Islands",
        "postcode": "00802",
        "country": "United States",
        "country_code": "us"
      },
      "address": "84 Flamingo Road, Charlotte Amalie, United States Virgin Islands, U.S. Virgin Islands"
    },
    {
      "lat": 18.324007440727474,
      "lon": -64.93900303328464,
      "geoinfo": {
        "display_name": "Hassel View Lane, Charlotte Amalie West, Saint Thomas - Saint John District, United States Virgin Islands, 00803, United States",
        "road": "Hassel View Lane",
        "house_number": null,
        "neighbourhood": null,
        "suburb": null,
        "city_district": null,
        "city": "Charlotte Amalie West",
        "state": "United States Virgin Islands",
        "postcode": "00803",
        "country": "United States",
        "country_code": "us"
      },
      "address": "Hassel View Lane, Charlotte Amalie, United States Virgin Islands, U.S. Virgin Islands"
    },
    {
      "lat": 18.3601393172437,
      "lon": -64.96177634921611,
      "geoinfo": {
        "display_name": "Dorothea Road, Charlotte Amalie West, Saint Thomas - Saint John District, United States Virgin Islands, 00803, United States",
        "road": "Dorothea Road",
        "house_number": null,
        "neighbourhood": null,
        "suburb": null,
        "city_district": null,
        "city": "Charlotte Amalie West",
        "state": "United States Virgin Islands",
        "postcode": "00803",
        "country": "United States",
        "country_code": "us"
      },
      "address": "Dorothea Road, Charlotte Amalie, United States Virgin Islands, U.S. Virgin Islands"
    },
    {
      "lat": 18.33593933263432,
      "lon": -64.91949684633794,
      "geoinfo": {
        "display_name": "Edward Wilmot Blyden Boulevard, Charlotte Amalie, Saint Thomas - Saint John District, United States Virgin Islands, 00802, United States",
        "road": "Edward Wilmot Blyden Boulevard",
        "house_number": null,
        "neighbourhood": null,
        "suburb": null,
        "city_district": null,
        "city": "Charlotte Amalie",
        "state": "United States Virgin Islands",
        "postcode": "00802",
        "country": "United States",
        "country_code": "us"
      },
      "address": "Edward Wilmot Blyden Boulevard, Charlotte Amalie, United States Virgin Islands, U.S. Virgin Islands"
    },
    {
      "lat": 18.33728546201269,
      "lon": -64.94820821436298,
      "geoinfo": {
        "display_name": "Sea Chest, Veterans Drive West, Charlotte Amalie West, Charlotte Amalie, Saint Thomas - Saint John District, United States Virgin Islands, 00803, United States",
        "road": "Veterans Drive West",
        "house_number": null,
        "neighbourhood": null,
        "suburb": null,
        "city_district": null,
        "city": "Charlotte Amalie",
        "state": "United States Virgin Islands",
        "postcode": "00803",
        "country": "United States",
        "country_code": "us"
      },
      "address": "Veterans Drive West, Charlotte Amalie, United States Virgin Islands, U.S. Virgin Islands"
    },
    {
      "lat": 18.349630966799836,
      "lon": -64.88638754878255,
      "geoinfo": {
        "display_name": "L Street, Anna's Retreat, Saint Thomas - Saint John District, United States Virgin Islands, 00802, United States",
        "road": "L Street",
        "house_number": null,
        "neighbourhood": null,
        "suburb": null,
        "city_district": null,
        "city": "Anna's Retreat",
        "state": "United States Virgin Islands",
        "postcode": "00802",
        "country": "United States",
        "country_code": "us"
      },
      "address": "L Street, Charlotte Amalie, United States Virgin Islands, U.S. Virgin Islands"
    },
    {
      "lat": 18.371013794074383,
      "lon": -64.96161165194246,
      "geoinfo": {
        "display_name": "Dorothea Bay Road, Charlotte Amalie West, Saint Thomas - Saint John District, United States Virgin Islands, 00803, United States",
        "road": "Dorothea Bay Road",
        "house_number": null,
        "neighbourhood": null,
        "suburb": null,
        "city_district": null,
        "city": "Charlotte Amalie West",
        "state": "United States Virgin Islands",
        "postcode": "00803",
        "country": "United States",
        "country_code": "us"
      },
      "address": "Dorothea Bay Road, Charlotte Amalie, United States Virgin Islands, U.S. Virgin Islands"
    },
    {
      "lat": 18.34351334996073,
      "lon": -64.9373766132983,
      "geoinfo": {
        "display_name": "1, Norde Tvær Gade, Charlotte Amalie West, Charlotte Amalie, Saint Thomas - Saint John District, United States Virgin Islands, 00802, United States",
        "road": "Norde Tvær Gade",
        "house_number": "1",
        "neighbourhood": null,
        "suburb": null,
        "city_district": null,
        "city": "Charlotte Amalie",
        "state": "United States Virgin Islands",
        "postcode": "00802",
        "country": "United States",
        "country_code": "us"
      },
      "address": "1 Norde Tvær Gade, Charlotte Amalie, United States Virgin Islands, U.S. Virgin Islands"
    },
    {
      "lat": 18.325970974068408,
      "lon": -64.96040961179087,
      "geoinfo": {
        "display_name": "Grambokola Hill Road, Charlotte Amalie West, Charlotte Amalie, Saint Thomas - Saint John District, United States Virgin Islands, 00803, United States",
        "road": "Grambokola Hill Road",
        "house_number": null,
        "neighbourhood": null,
        "suburb": null,
        "city_district": null,
        "city": "Charlotte Amalie",
        "state": "United States Virgin Islands",
        "postcode": "00803",
        "country": "United States",
        "country_code": "us"
      },
      "address": "Grambokola Hill Road, Charlotte Amalie, United States Virgin Islands, U.S. Virgin Islands"
    },
    {
      "lat": 18.333079563051577,
      "lon": -64.94190931353641,
      "geoinfo": {
        "display_name": "Rue de Chez Reuben, Charlotte Amalie West, Charlotte Amalie, Saint Thomas - Saint John District, United States Virgin Islands, 00804, United States",
        "road": "Rue de Chez Reuben",
        "house_number": null,
        "neighbourhood": null,
        "suburb": null,
        "city_district": null,
        "city": "Charlotte Amalie",
        "state": "United States Virgin Islands",
        "postcode": "00804",
        "country": "United States",
        "country_code": "us"
      },
      "address": "Rue de Chez Reuben, Charlotte Amalie, United States Virgin Islands, U.S. Virgin Islands"
    },
    {
      "lat": 18.316510529168838,
      "lon": -64.96180816404646,
      "geoinfo": {
        "display_name": "Druif Point Road, Charlotte Amalie West, Saint Thomas - Saint John District, United States Virgin Islands, 00803, United States",
        "road": "Druif Point Road",
        "house_number": null,
        "neighbourhood": null,
        "suburb": null,
        "city_district": null,
        "city": "Charlotte Amalie West",
        "state": "United States Virgin Islands",
        "postcode": "00803",
        "country": "United States",
        "country_code": "us"
      },
      "address": "Druif Point Road, Charlotte Amalie, United States Virgin Islands, U.S. Virgin Islands"
    },
    {
      "lat": 18.347263455634973,
      "lon": -64.93119127974597,
      "geoinfo": {
        "display_name": "High Road, Charlotte Amalie Historic District, Charlotte Amalie West, Charlotte Amalie, Saint Thomas - Saint John District, United States Virgin Islands, 00804, United States",
        "road": "High Road",
        "house_number": null,
        "neighbourhood": "Charlotte Amalie Historic District",
        "suburb": null,
        "city_district": null,
        "city": "Charlotte Amalie",
        "state": "United States Virgin Islands",
        "postcode": "00804",
        "country": "United States",
        "country_code": "us"
      },
      "address": "High Road, Charlotte Amalie, United States Virgin Islands, U.S. Virgin Islands"
    },
    {
      "lat": 18.353216032994467,
      "lon": -64.96809824809908,
      "geoinfo": {
        "display_name": "Crown Mountain Road, Charlotte Amalie West, Saint Thomas - Saint John District, United States Virgin Islands, 00803, United States",
        "road": "Crown Mountain Road",
        "house_number": null,
        "neighbourhood": null,
        "suburb": null,
        "city_district": null,
        "city": "Charlotte Amalie West",
        "state": "United States Virgin Islands",
        "postcode": "00803",
        "country": "United States",
        "country_code": "us"
      },
      "address": "Crown Mountain Road, Charlotte Amalie, United States Virgin Islands, U.S. Virgin Islands"
    },
    {
      "lat": 18.33305034058734,
      "lon": -64.95062755276963,
      "geoinfo": {
        "display_name": "Athniel C. \"Addie\" Ottley Drive, Charlotte Amalie West, Charlotte Amalie, Saint Thomas - Saint John District, United States Virgin Islands, 00803, United States",
        "road": "Athniel C. \"Addie\" Ottley Drive",
        "house_number": null,
        "neighbourhood": null,
        "suburb": null,
        "city_district": null,
        "city": "Charlotte Amalie",
        "state": "United States Virgin Islands",
        "postcode": "00803",
        "country": "United States",
        "country_code": "us"
      },
      "address": "Athniel C. \"Addie\" Ottley Drive, Charlotte Amalie, United States Virgin Islands, U.S. Virgin Islands"
    },
    {
      "lat": 18.374980545255564,
      "lon": -64.93897108040964,
      "geoinfo": {
        "display_name": "Saint Thomas - Saint John District, United States Virgin Islands, 00804, United States",
        "road": null,
        "house_number": null,
        "neighbourhood": null,
        "suburb": null,
        "city_district": null,
        "city": null,
        "state": "United States Virgin Islands",
        "postcode": "00804",
        "country": "United States",
        "country_code": "us"
      },
      "address": "366, Charlotte Amalie, 00804 United States Virgin Islands, U.S. Virgin Islands"
    },
    {
      "lat": 18.36444655504534,
      "lon": -64.9708504121408,
      "geoinfo": {
        "display_name": "Charlotte Amalie West, Saint Thomas - Saint John District, United States Virgin Islands, 00803, United States",
        "road": null,
        "house_number": null,
        "neighbourhood": null,
        "suburb": null,
        "city_district": null,
        "city": "Charlotte Amalie West",
        "state": "United States Virgin Islands",
        "postcode": "00803",
        "country": "United States",
        "country_code": "us"
      },
      "address": "723, Charlotte Amalie, 00803 United States Virgin Islands, U.S. Virgin Islands"
    },
    {
      "lat": 18.351182874738722,
      "lon": -64.97555425371576,
      "geoinfo": {
        "display_name": "Charlotte Amalie West, Saint Thomas - Saint John District, United States Virgin Islands, 00803, United States",
        "road": null,
        "house_number": null,
        "neighbourhood": null,
        "suburb": null,
        "city_district": null,
        "city": "Charlotte Amalie West",
        "state": "United States Virgin Islands",
        "postcode": "00803",
        "country": "United States",
        "country_code": "us"
      },
      "address": "959, Charlotte Amalie, 00803 United States Virgin Islands, U.S. Virgin Islands"
    },
    {
      "lat": 18.30786099989634,
      "lon": -64.92237969997012,
      "geoinfo": {
        "display_name": "Charlotte Amalie West, Saint Thomas - Saint John District, United States Virgin Islands, 00803, United States",
        "road": null,
        "house_number": null,
        "neighbourhood": null,
        "suburb": null,
        "city_district": null,
        "city": "Charlotte Amalie West",
        "state": "United States Virgin Islands",
        "postcode": "00803",
        "country": "United States",
        "country_code": "us"
      },
      "address": "462, Charlotte Amalie, 00803 United States Virgin Islands, U.S. Virgin Islands"
    },
    {
      "lat": 18.347587231926397,
      "lon": -64.88987783469092,
      "geoinfo": {
        "display_name": "Anna's Retreat, Saint Thomas - Saint John District, United States Virgin Islands, 00802, United States",
        "road": null,
        "house_number": null,
        "neighbourhood": null,
        "suburb": null,
        "city_district": null,
        "city": "Anna's Retreat",
        "state": "United States Virgin Islands",
        "postcode": "00802",
        "country": "United States",
        "country_code": "us"
      },
      "address": "330, Charlotte Amalie, 00802 United States Virgin Islands, U.S. Virgin Islands"
    },
    {
      "lat": 18.31820778116338,
      "lon": -64.91763813413303,
      "geoinfo": {
        "display_name": "Saint Thomas - Saint John District, United States Virgin Islands, 00801, United States",
        "road": null,
        "house_number": null,
        "neighbourhood": null,
        "suburb": null,
        "city_district": null,
        "city": null,
        "state": "United States Virgin Islands",
        "postcode": "00801",
        "country": "United States",
        "country_code": "us"
      },
      "address": "172, Charlotte Amalie, 00801 United States Virgin Islands, U.S. Virgin Islands"
    },
    {
      "lat": 18.383673452973667,
      "lon": -64.93404990806117,
      "geoinfo": {
        "display_name": "Saint Thomas - Saint John District, United States Virgin Islands, 00804, United States",
        "road": null,
        "house_number": null,
        "neighbourhood": null,
        "suburb": null,
        "city_district": null,
        "city": null,
        "state": "United States Virgin Islands",
        "postcode": "00804",
        "country": "United States",
        "country_code": "us"
      },
      "address": "506, Charlotte Amalie, 00804 United States Virgin Islands, U.S. Virgin Islands"
    },
    {
      "lat": 18.310309299151953,
      "lon": -64.94395303625589,
      "geoinfo": {
        "display_name": "Charlotte Amalie West, Saint Thomas - Saint John District, United States Virgin Islands, 00803, United States",
        "road": null,
        "house_number": null,
        "neighbourhood": null,
        "suburb": null,
        "city_district": null,
        "city": "Charlotte Amalie West",
        "state": "United States Virgin Islands",
        "postcode": "00803",
        "country": "United States",
        "country_code": "us"
      },
      "address": "613, Charlotte Amalie, 00803 United States Virgin Islands, U.S. Virgin Islands"
    },
    {
      "lat": 18.334774796290258,
      "lon": -64.96560949793235,
      "geoinfo": {
        "display_name": "Lindberg Beach, Airport Road, Charlotte Amalie West, Charlotte Amalie, Saint Thomas - Saint John District, United States Virgin Islands, 00803, United States",
        "road": "Airport Road",
        "house_number": null,
        "neighbourhood": null,
        "suburb": null,
        "city_district": null,
        "city": "Charlotte Amalie",
        "state": "United States Virgin Islands",
        "postcode": "00803",
        "country": "United States",
        "country_code": "us"
      },
      "address": "355, Airport Road, Charlotte Amalie, 00803 United States Virgin Islands, U.S. Virgin Islands"
    },
    {
      "lat": 18.354104987734335,
      "lon": -64.96845215968189,
      "geoinfo": {
        "display_name": "Charlotte Amalie West, Saint Thomas - Saint John District, United States Virgin Islands, 00803, United States",
        "road": null,
        "house_number": null,
        "neighbourhood": null,
        "suburb": null,
        "city_district": null,
        "city": "Charlotte Amalie West",
        "state": "United States Virgin Islands",
        "postcode": "00803",
        "country": "United States",
        "country_code": "us"
      },
      "address": "664, Charlotte Amalie, 00803 United States Virgin Islands, U.S. Virgin Islands"
    },
    {
      "lat": 18.30994666119829,
      "lon": -64.91536591154585,
      "geoinfo": {
        "display_name": "Charlotte Amalie West, Saint Thomas - Saint John District, United States Virgin Islands, 00803, United States",
        "road": null,
        "house_number": null,
        "neighbourhood": null,
        "suburb": null,
        "city_district": null,
        "city": "Charlotte Amalie West",
        "state": "United States Virgin Islands",
        "postcode": "00803",
        "country": "United States",
        "country_code": "us"
      },
      "address": "826, Charlotte Amalie, 00803 United States Virgin Islands, U.S. Virgin Islands"
    },
    {
      "lat": 18.376161112326777,
      "lon": -64.94075047086118,
      "geoinfo": {
        "display_name": "Saint Thomas - Saint John District, United States Virgin Islands, 00804, United States",
        "road": null,
        "house_number": null,
        "neighbourhood": null,
        "suburb": null,
        "city_district": null,
        "city": null,
        "state": "United States Virgin Islands",
        "postcode": "00804",
        "country": "United States",
        "country_code": "us"
      },
      "address": "485, Charlotte Amalie, 00804 United States Virgin Islands, U.S. Virgin Islands"
    },
    {
      "lat": 18.360174970186105,
      "lon": -64.93278447813539,
      "geoinfo": {
        "display_name": "Charlotte Amalie West, Saint Thomas - Saint John District, United States Virgin Islands, 00804, United States",
        "road": null,
        "house_number": null,
        "neighbourhood": null,
        "suburb": null,
        "city_district": null,
        "city": "Charlotte Amalie West",
        "state": "United States Virgin Islands",
        "postcode": "00804",
        "country": "United States",
        "country_code": "us"
      },
      "address": "832, Charlotte Amalie, 00804 United States Virgin Islands, U.S. Virgin Islands"
    },
    {
      "lat": 18.340882038860375,
      "lon": -64.97466865290748,
      "geoinfo": {
        "display_name": "University of the Virgin Islands Saint Thomas Campus, 2, Julian Jackson Drive, Charlotte Amalie West, Charlotte Amalie, Saint Thomas - Saint John District, United States Virgin Islands, 00803, United States",
        "road": "Julian Jackson Drive",
        "house_number": "2",
        "neighbourhood": null,
        "suburb": null,
        "city_district": null,
        "city": "Charlotte Amalie",
        "state": "United States Virgin Islands",
        "postcode": "00803",
        "country": "United States",
        "country_code": "us"
      },
      "address": "2, Julian Jackson Drive, Charlotte Amalie, 00803 United States Virgin Islands, U.S. Virgin Islands"
    },
    {
      "lat": 18.33045147713756,
      "lon": -64.95905760274394,
      "geoinfo": {
        "display_name": "Haypiece Hill Road, Charlotte Amalie West, Charlotte Amalie, Saint Thomas - Saint John District, United States Virgin Islands, 00803, United States",
        "road": "Haypiece Hill Road",
        "house_number": null,
        "neighbourhood": null,
        "suburb": null,
        "city_district": null,
        "city": "Charlotte Amalie",
        "state": "United States Virgin Islands",
        "postcode": "00803",
        "country": "United States",
        "country_code": "us"
      },
      "address": "291, Haypiece Hill Road, Charlotte Amalie, 00803 United States Virgin Islands, U.S. Virgin Islands"
    },
    {
      "lat": 18.31288801044489,
      "lon": -64.96372427118277,
      "geoinfo": {
        "display_name": "Druif Point Road, Charlotte Amalie West, Saint Thomas - Saint John District, United States Virgin Islands, 00803, United States",
        "road": "Druif Point Road",
        "house_number": null,
        "neighbourhood": null,
        "suburb": null,
        "city_district": null,
        "city": "Charlotte Amalie West",
        "state": "United States Virgin Islands",
        "postcode": "00803",
        "country": "United States",
        "country_code": "us"
      },
      "address": "467, Druif Point Road, Charlotte Amalie, 00803 United States Virgin Islands, U.S. Virgin Islands"
    },
    {
      "lat": 18.316089583104628,
      "lon": -64.9523331978286,
      "geoinfo": {
        "display_name": "Limestone Road, Charlotte Amalie West, Saint Thomas - Saint John District, United States Virgin Islands, 00803, United States",
        "road": "Limestone Road",
        "house_number": null,
        "neighbourhood": null,
        "suburb": null,
        "city_district": null,
        "city": "Charlotte Amalie West",
        "state": "United States Virgin Islands",
        "postcode": "00803",
        "country": "United States",
        "country_code": "us"
      },
      "address": "939, Limestone Road, Charlotte Amalie, 00803 United States Virgin Islands, U.S. Virgin Islands"
    },
    {
      "lat": 18.36014464986217,
      "lon": -64.95993295788051,
      "geoinfo": {
        "display_name": "Dorothea Road, Charlotte Amalie West, Saint Thomas - Saint John District, United States Virgin Islands, 00803, United States",
        "road": "Dorothea Road",
        "house_number": null,
        "neighbourhood": null,
        "suburb": null,
        "city_district": null,
        "city": "Charlotte Amalie West",
        "state": "United States Virgin Islands",
        "postcode": "00803",
        "country": "United States",
        "country_code": "us"
      },
      "address": "699, Dorothea Road, Charlotte Amalie, 00803 United States Virgin Islands, U.S. Virgin Islands"
    },
    {
      "lat": 18.383909567506077,
      "lon": -64.9168818419855,
      "geoinfo": {
        "display_name": "Charlotte Amalie West, Saint Thomas - Saint John District, United States Virgin Islands, 00803, United States",
        "road": null,
        "house_number": null,
        "neighbourhood": null,
        "suburb": null,
        "city_district": null,
        "city": "Charlotte Amalie West",
        "state": "United States Virgin Islands",
        "postcode": "00803",
        "country": "United States",
        "country_code": "us"
      },
      "address": "756, Charlotte Amalie, 00803 United States Virgin Islands, U.S. Virgin Islands"
    },
    {
      "lat": 18.330399620332944,
      "lon": -64.90349218914174,
      "geoinfo": {
        "display_name": "Saint Thomas - Saint John District, United States Virgin Islands, 00802, United States",
        "road": null,
        "house_number": null,
        "neighbourhood": null,
        "suburb": null,
        "city_district": null,
        "city": null,
        "state": "United States Virgin Islands",
        "postcode": "00802",
        "country": "United States",
        "country_code": "us"
      },
      "address": "057, Charlotte Amalie, 00802 United States Virgin Islands, U.S. Virgin Islands"
    },
    {
      "lat": 18.377100614551516,
      "lon": -64.95888847889024,
      "geoinfo": {
        "display_name": "Charlotte Amalie West, Saint Thomas - Saint John District, United States Virgin Islands, 00803, United States",
        "road": null,
        "house_number": null,
        "neighbourhood": null,
        "suburb": null,
        "city_district": null,
        "city": "Charlotte Amalie West",
        "state": "United States Virgin Islands",
        "postcode": "00803",
        "country": "United States",
        "country_code": "us"
      },
      "address": "106, Charlotte Amalie, 00803 United States Virgin Islands, U.S. Virgin Islands"
    },
    {
      "lat": 18.340051218434663,
      "lon": -64.96853947373991,
      "geoinfo": {
        "display_name": "Julian Jackson Drive, Charlotte Amalie West, Charlotte Amalie, Saint Thomas - Saint John District, United States Virgin Islands, 00803, United States",
        "road": "Julian Jackson Drive",
        "house_number": null,
        "neighbourhood": null,
        "suburb": null,
        "city_district": null,
        "city": "Charlotte Amalie",
        "state": "United States Virgin Islands",
        "postcode": "00803",
        "country": "United States",
        "country_code": "us"
      },
      "address": "411, Julian Jackson Drive, Charlotte Amalie, 00803 United States Virgin Islands, U.S. Virgin Islands"
    },
    {
      "lat": 18.372392275516813,
      "lon": -64.95360694540936,
      "geoinfo": {
        "display_name": "Hull Bay Road, Saint Thomas - Saint John District, United States Virgin Islands, 00804, United States",
        "road": "Hull Bay Road",
        "house_number": null,
        "neighbourhood": null,
        "suburb": null,
        "city_district": null,
        "city": null,
        "state": "United States Virgin Islands",
        "postcode": "00804",
        "country": "United States",
        "country_code": "us"
      },
      "address": "409, Hull Bay Road, Charlotte Amalie, 00804 United States Virgin Islands, U.S. Virgin Islands"
    },
    {
      "lat": 18.320727966540503,
      "lon": -64.96722754824901,
      "geoinfo": {
        "display_name": "Charlotte Amalie West, Charlotte Amalie, Saint Thomas - Saint John District, United States Virgin Islands, 00803, United States",
        "road": null,
        "house_number": null,
        "neighbourhood": null,
        "suburb": null,
        "city_district": null,
        "city": "Charlotte Amalie",
        "state": "United States Virgin Islands",
        "postcode": "00803",
        "country": "United States",
        "country_code": "us"
      },
      "address": "830, Charlotte Amalie, 00803 United States Virgin Islands, U.S. Virgin Islands"
    },
    {
      "lat": 18.32117276064249,
      "lon": -64.96802447347767,
      "geoinfo": {
        "display_name": "Charlotte Amalie West, Charlotte Amalie, Saint Thomas - Saint John District, United States Virgin Islands, 00803, United States",
        "road": null,
        "house_number": null,
        "neighbourhood": null,
        "suburb": null,
        "city_district": null,
        "city": "Charlotte Amalie",
        "state": "United States Virgin Islands",
        "postcode": "00803",
        "country": "United States",
        "country_code": "us"
      },
      "address": "470, Charlotte Amalie, 00803 United States Virgin Islands, U.S. Virgin Islands"
    },
    {
      "lat": 18.325389392476094,
      "lon": -64.9629877545374,
      "geoinfo": {
        "display_name": "Charlotte Amalie West, Charlotte Amalie, Saint Thomas - Saint John District, United States Virgin Islands, 00803, United States",
        "road": null,
        "house_number": null,
        "neighbourhood": null,
        "suburb": null,
        "city_district": null,
        "city": "Charlotte Amalie",
        "state": "United States Virgin Islands",
        "postcode": "00803",
        "country": "United States",
        "country_code": "us"
      },
      "address": "515, Charlotte Amalie, 00803 United States Virgin Islands, U.S. Virgin Islands"
    },
    {
      "lat": 18.341111377129494,
      "lon": -64.93754870557272,
      "geoinfo": {
        "display_name": "Saints Peter and Paul Cathedral, 20-21A, Kronprindsens Gade, Charlotte Amalie Historic District, Charlotte Amalie West, Charlotte Amalie, Saint Thomas - Saint John District, United States Virgin Islands, 00804, United States",
        "road": "Kronprindsens Gade",
        "house_number": "20-21A",
        "neighbourhood": "Charlotte Amalie Historic District",
        "suburb": null,
        "city_district": null,
        "city": "Charlotte Amalie",
        "state": "United States Virgin Islands",
        "postcode": "00804",
        "country": "United States",
        "country_code": "us"
      },
      "address": "20-21A, Kronprindsens Gade, Charlotte Amalie, 00804 United States Virgin Islands, U.S. Virgin Islands"
    },
    {
      "lat": 18.336948794323874,
      "lon": -64.9047327732061,
      "geoinfo": {
        "display_name": "Cost U Less, Dorothy \"Dotsy\" Lockhart Elskoe Drive, Saint Thomas - Saint John District, United States Virgin Islands, 00802, United States",
        "road": "Dorothy \"Dotsy\" Lockhart Elskoe Drive",
        "house_number": null,
        "neighbourhood": null,
        "suburb": null,
        "city_district": null,
        "city": null,
        "state": "United States Virgin Islands",
        "postcode": "00802",
        "country": "United States",
        "country_code": "us"
      },
      "address": "848, Dorothy \"Dotsy\" Lockhart Elskoe Drive, Charlotte Amalie, 00802 United States Virgin Islands, U.S. Virgin Islands"
    },
    {
      "lat": 18.312831499011164,
      "lon": -64.9616622844712,
      "geoinfo": {
        "display_name": "Druif Point Road, Charlotte Amalie West, Saint Thomas - Saint John District, United States Virgin Islands, 00803, United States",
        "road": "Druif Point Road",
        "house_number": null,
        "neighbourhood": null,
        "suburb": null,
        "city_district": null,
        "city": "Charlotte Amalie West",
        "state": "United States Virgin Islands",
        "postcode": "00803",
        "country": "United States",
        "country_code": "us"
      },
      "address": "291, Druif Point Road, Charlotte Amalie, 00803 United States Virgin Islands, U.S. Virgin Islands"
    },
    {
      "lat": 18.342230582070783,
      "lon": -64.92341373294984,
      "geoinfo": {
        "display_name": "676, Alton Adams Senior Drive, Charlotte Amalie Historic District, Charlotte Amalie, Saint Thomas - Saint John District, United States Virgin Islands, 00801, United States",
        "road": "Alton Adams Senior Drive",
        "house_number": "676",
        "neighbourhood": "Charlotte Amalie Historic District",
        "suburb": null,
        "city_district": null,
        "city": "Charlotte Amalie",
        "state": "United States Virgin Islands",
        "postcode": "00801",
        "country": "United States",
        "country_code": "us"
      },
      "address": "676, Alton Adams Senior Drive, Charlotte Amalie, 00801 United States Virgin Islands, U.S. Virgin Islands"
    },
    {
      "lat": 18.2999069000995,
      "lon": -64.91734174396854,
      "geoinfo": {
        "display_name": "Charlotte Amalie West, Saint Thomas - Saint John District, United States Virgin Islands, 00803, United States",
        "road": null,
        "house_number": null,
        "neighbourhood": null,
        "suburb": null,
        "city_district": null,
        "city": "Charlotte Amalie West",
        "state": "United States Virgin Islands",
        "postcode": "00803",
        "country": "United States",
        "country_code": "us"
      },
      "address": "440, Charlotte Amalie, 00803 United States Virgin Islands, U.S. Virgin Islands"
    },
    {
      "lat": 18.335136682970436,
      "lon": -64.90892977161981,
      "geoinfo": {
        "display_name": "Dorothy \"Dotsy\" Lockhart Elskoe Drive, Saint Thomas - Saint John District, United States Virgin Islands, 00802, United States",
        "road": "Dorothy \"Dotsy\" Lockhart Elskoe Drive",
        "house_number": null,
        "neighbourhood": null,
        "suburb": null,
        "city_district": null,
        "city": null,
        "state": "United States Virgin Islands",
        "postcode": "00802",
        "country": "United States",
        "country_code": "us"
      },
      "address": "840, Dorothy \"Dotsy\" Lockhart Elskoe Drive, Charlotte Amalie, 00802 United States Virgin Islands, U.S. Virgin Islands"
    },
    {
      "lat": 18.36529067912639,
      "lon": -64.93141458889902,
      "geoinfo": {
        "display_name": "Charlotte Amalie West, Saint Thomas - Saint John District, United States Virgin Islands, 00803, United States",
        "road": null,
        "house_number": null,
        "neighbourhood": null,
        "suburb": null,
        "city_district": null,
        "city": "Charlotte Amalie West",
        "state": "United States Virgin Islands",
        "postcode": "00803",
        "country": "United States",
        "country_code": "us"
      },
      "address": "833, Charlotte Amalie, 00803 United States Virgin Islands, U.S. Virgin Islands"
    },
    {
      "lat": 18.367781238569393,
      "lon": -64.95844420031635,
      "geoinfo": {
        "display_name": "Dorothea Bay Road, Charlotte Amalie West, Saint Thomas - Saint John District, United States Virgin Islands, 00803, United States",
        "road": "Dorothea Bay Road",
        "house_number": null,
        "neighbourhood": null,
        "suburb": null,
        "city_district": null,
        "city": "Charlotte Amalie West",
        "state": "United States Virgin Islands",
        "postcode": "00803",
        "country": "United States",
        "country_code": "us"
      },
      "address": "259, Dorothea Bay Road, Charlotte Amalie, 00803 United States Virgin Islands, U.S. Virgin Islands"
    },
    {
      "lat": 18.34589426733831,
      "lon": -64.92139988976892,
      "geoinfo": {
        "display_name": "Rose Trail South, Charlotte Amalie, Saint Thomas - Saint John District, United States Virgin Islands, 00802, United States",
        "road": "Rose Trail South",
        "house_number": null,
        "neighbourhood": null,
        "suburb": null,
        "city_district": null,
        "city": "Charlotte Amalie",
        "state": "United States Virgin Islands",
        "postcode": "00802",
        "country": "United States",
        "country_code": "us"
      },
      "address": "664, Rose Trail South, Charlotte Amalie, 00802 United States Virgin Islands, U.S. Virgin Islands"
    },
    {
      "lat": 18.33865747608613,
      "lon": -64.92281382777189,
      "geoinfo": {
        "display_name": "de Beltjen Road, Charlotte Amalie Historic District, Charlotte Amalie, Saint Thomas - Saint John District, United States Virgin Islands, 00801, United States",
        "road": "de Beltjen Road",
        "house_number": null,
        "neighbourhood": "Charlotte Amalie Historic District",
        "suburb": null,
        "city_district": null,
        "city": "Charlotte Amalie",
        "state": "United States Virgin Islands",
        "postcode": "00801",
        "country": "United States",
        "country_code": "us"
      },
      "address": "200, de Beltjen Road, Charlotte Amalie, 00801 United States Virgin Islands, U.S. Virgin Islands"
    }
  ],
  "updated_at": "2025-10-19T11:32:04.325530+00:00",
  "_kind": "geo_samples"
}