{
  "country_code": "EG",
  "country": "Egypt",
  "city": "Mīt Abū Ghālib",
  "geonameid": 352250,
  "target_addresses": 3,
  "samples": [
    {
      "lat": 31.277653503481236,
      "lon": 31.68304328691344,
      "geoinfo": {
        "display_name": "Al Cornish Street, Damietta, 34716, Egypt",
        "road": "Al Cornish Street",
        "house_number": null,
        "neighbourhood": null,
        "suburb": null,
        "city_district": null,
        "city": null,
        "state": "Damietta",
        "postcode": "34716",
        "country": "Egypt",
        "country_code": "eg"
      },
      "address": "Al Cornish Street, Damietta, 34716, Egypt"
    },
    {
      "lat": 31.30290942096558,
      "lon": 31.664828600334847,
      "geoinfo": {
        "display_name": "Ezbet Shakl Street, Damietta, 34716, Egypt",
        "road": "Ezbet Shakl Street",
        "house_number": null,
        "neighbourhood": null,
        "suburb": null,
        "city_district": null,
        "city": null,
        "state": "Damietta",
        "postcode": "34716",
        "country": "Egypt",
        "country_code": "eg"
      },
      "address": "684, Ezbet Shakl Street, Damietta, 34716, Egypt"
    },
    {
      "lat": 31.28645875142906,
      "lon": 31.643688831905187,
      "geoinfo": {
        "display_name": "Al Shahid Gawad Hosny Street, Damietta, 34723, Egypt",
        "road": "Al Shahid Gawad Hosny Street",
        "house_number": null,
        "neighbourhood": null,
        "suburb": null,
        "city_district": null,
        "city": null,
        "state": "Damietta",
        "postcode": "34723",
        "country": "Egypt",
        "country_code": "eg"
      },
      "address": "529, Al Shahid Gawad Hosny Street, Damietta, 34723, Egypt"
    }
  ],
  "updated_at": "2025-10-19T04:18:06.826449+00:00",
  "_kind": "geo_samples"
}