{
  "country_code": "SI",
  "country": "Slovenia",
  "city": "Celje",
  "geonameid": 3202781,
  "target_addresses": 12,
  "samples": [
    {
      "lat": 46.248126821604814,
      "lon": 15.300185738297984,
      "geoinfo": {
        "display_name": "Leskovec, Celje, 3221, Slovenia",
        "road": null,
        "house_number": null,
        "neighbourhood": null,
        "suburb": null,
        "city_district": null,
        "city": "Celje",
        "state": null,
        "postcode": "3221",
        "country": "Slovenia",
        "country_code": "si"
      },
      "address": "Celje, Slovenia"
    },
    {
      "lat": 46.24715830046567,
      "lon": 15.26371027737059,
      "geoinfo": {
        "display_name": "Dobrova, Šmarjeta pri Celju, Celje, 3000, Slovenia",
        "road": null,
        "house_number": null,
        "neighbourhood": null,
        "suburb": "Dobrova",
        "city_district": null,
        "city": "Celje",
        "state": null,
        "postcode": "3000",
        "country": "Slovenia",
        "country_code": "si"
      },
      "address": "Dobrova, Celje, Slovenia"
    },
    {
      "lat": 46.22558923053901,
      "lon": 15.214285186593148,
      "geoinfo": {
        "display_name": "12, Partizanska cesta, Lisce, Žalec, 3301, Slovenia",
        "road": "Partizanska cesta",
        "house_number": "12",
        "neighbourhood": null,
        "suburb": "Lisce",
        "city_district": null,
        "city": "Žalec",
        "state": null,
        "postcode": "3301",
        "country": "Slovenia",
        "country_code": "si"
      },
      "address": "12 Partizanska cesta, Celje, Slovenia"
    },
    {
      "lat": 46.260243997841066,
      "lon": 15.286565167318884,
      "geoinfo": {
        "display_name": "Hudinja, Šmarjeta pri Celju, Celje, 3211, Slovenia",
        "road": null,
        "house_number": null,
        "neighbourhood": null,
        "suburb": "Hudinja",
        "city_district": null,
        "city": "Celje",
        "state": null,
        "postcode": "3211",
        "country": "Slovenia",
        "country_code": "si"
      },
      "address": "Hudinja, Celje, Slovenia"
    },
    {
      "lat": 46.225142117743204,
      "lon": 15.301253930063348,
      "geoinfo": {
        "display_name": "Teharje, Slance, Teharje, Celje, 3221, Slovenia",
        "road": "Teharje",
        "house_number": null,
        "neighbourhood": null,
        "suburb": null,
        "city_district": null,
        "city": "Celje",
        "state": null,
        "postcode": "3221",
        "country": "Slovenia",
        "country_code": "si"
      },
      "address": "Teharje, Celje, Slovenia"
    },
    {
      "lat": 46.26794604847097,
      "lon": 15.274069448158578,
      "geoinfo": {
        "display_name": "Prekorje, Celje, 3211, Slovenia",
        "road": "Prekorje",
        "house_number": null,
        "neighbourhood": null,
        "suburb": null,
        "city_district": null,
        "city": "Celje",
        "state": null,
        "postcode": "3211",
        "country": "Slovenia",
        "country_code": "si"
      },
      "address": "Prekorje, Celje, Slovenia"
    },
    {
      "lat": 46.23001364473761,
      "lon": 15.249245464516745,
      "geoinfo": {
        "display_name": "Partizanska cesta, Lisce, Celje, 3104, Slovenia",
        "road": "Partizanska cesta",
        "house_number": null,
        "neighbourhood": null,
        "suburb": "Lisce",
        "city_district": null,
        "city": "Celje",
        "state": null,
        "postcode": "3104",
        "country": "Slovenia",
        "country_code": "si"
      },
      "address": "Partizanska cesta, Celje, Slovenia"
    },
    {
      "lat": 46.22232516502875,
      "lon": 15.263865386670547,
      "geoinfo": {
        "display_name": "Stražni/razgledni stolp na Miklavževem hribu, Maistrova ulica, Breg, Celje, 3104, Slovenia",
        "road": "Maistrova ulica",
        "house_number": null,
        "neighbourhood": null,
        "suburb": "Breg",
        "city_district": null,
        "city": "Celje",
        "state": null,
        "postcode": "3104",
        "country": "Slovenia",
        "country_code": "si"
      },
      "address": "Maistrova ulica, Celje, Slovenia"
    },
    {
      "lat": 46.24773012165042,
      "lon": 15.318054735243532,
      "geoinfo": {
        "display_name": "74, A1, Začret, Celje, 3202, Slovenia",
        "road": "A1",
        "house_number": "74",
        "neighbourhood": null,
        "suburb": null,
        "city_district": null,
        "city": "Celje",
        "state": null,
        "postcode": "3202",
        "country": "Slovenia",
        "country_code": "si"
      },
      "address": "74 A1, Celje, Slovenia"
    },
    {
      "lat": 46.25171973516441,
      "lon": 15.228659637713813,
      "geoinfo": {
        "display_name": "37, Medlog, Lopata, Celje, 3000, Slovenia",
        "road": "Medlog",
        "house_number": "37",
        "neighbourhood": null,
        "suburb": "Medlog",
        "city_district": null,
        "city": "Celje",
        "state": null,
        "postcode": "3000",
        "country": "Slovenia",
        "country_code": "si"
      },
      "address": "37 Medlog, Celje, Slovenia"
    },
    {
      "lat": 46.22191893904375,
      "lon": 15.285365949080855,
      "geoinfo": {
        "display_name": "45, Zvodno, Zagrad, Zvodno, Celje, 3000, Slovenia",
        "road": "Zvodno",
        "house_number": "45",
        "neighbourhood": null,
        "suburb": "Zagrad",
        "city_district": null,
        "city": "Celje",
        "state": null,
        "postcode": "3000",
        "country": "Slovenia",
        "country_code": "si"
      },
      "address": "45 Zvodno, Celje, Slovenia"
    },
    {
      "lat": 46.263863923988865,
      "lon": 15.235857581684781,
      "geoinfo": {
        "display_name": "Ostrožno, Lopata, Celje, 3201, Slovenia",
        "road": null,
        "house_number": null,
        "neighbourhood": null,
        "suburb": "Ostrožno",
        "city_district": null,
        "city": "Celje",
        "state": null,
        "postcode": "3201",
        "country": "Slovenia",
        "country_code": "si"
      },
      "address": "Ostrožno, Celje, Slovenia"
    }
  ],
  "updated_at": "2025-10-16T22:57:30.966566+00:00",
  "_kind": "geo_samples"
}