{
  "country_code": "SI",
  "country": "Slovenia",
  "city": "Kranj",
  "geonameid": 3197378,
  "target_addresses": 12,
  "samples": [
    {
      "lat": 46.278008988456705,
      "lon": 14.35482361113408,
      "geoinfo": {
        "display_name": "Srakovlje, Bobovek, Kranj, 4000, Slovenia",
        "road": "Srakovlje",
        "house_number": null,
        "neighbourhood": null,
        "suburb": null,
        "city_district": null,
        "city": "Kranj",
        "state": null,
        "postcode": "4000",
        "country": "Slovenia",
        "country_code": "si"
      },
      "address": "Srakovlje, Kranj, Slovenia"
    },
    {
      "lat": 46.232965989405386,
      "lon": 14.315446566965877,
      "geoinfo": {
        "display_name": "MTB poligon Borovničke, Zgornje Bitnje, Kranj, 4209, Slovenia",
        "road": "MTB poligon Borovničke",
        "house_number": null,
        "neighbourhood": null,
        "suburb": null,
        "city_district": null,
        "city": "Kranj",
        "state": null,
        "postcode": "4209",
        "country": "Slovenia",
        "country_code": "si"
      },
      "address": "MTB poligon Borovničke, Kranj, Slovenia"
    },
    {
      "lat": 46.20860039159302,
      "lon": 14.349687116167734,
      "geoinfo": {
        "display_name": "Čirče, Spodnje Bitnje, Kranj, 4209, Slovenia",
        "road": null,
        "house_number": null,
        "neighbourhood": null,
        "suburb": "Čirče",
        "city_district": null,
        "city": "Kranj",
        "state": null,
        "postcode": "4209",
        "country": "Slovenia",
        "country_code": "si"
      },
      "address": "Čirče, Kranj, Slovenia"
    },
    {
      "lat": 46.23638934216471,
      "lon": 14.405430195047105,
      "geoinfo": {
        "display_name": "A2, Šenčur, 4208, Slovenia",
        "road": "A2",
        "house_number": null,
        "neighbourhood": null,
        "suburb": null,
        "city_district": null,
        "city": "Šenčur",
        "state": null,
        "postcode": "4208",
        "country": "Slovenia",
        "country_code": "si"
      },
      "address": "A2, Kranj, Slovenia"
    },
    {
      "lat": 46.19940360576995,
      "lon": 14.378366562972888,
      "geoinfo": {
        "display_name": "Skladišče Drulovka, 211, Drulovka, Breg ob Savi, Kranj, 4211, Slovenia",
        "road": "211",
        "house_number": null,
        "neighbourhood": null,
        "suburb": "Drulovka",
        "city_district": null,
        "city": "Kranj",
        "state": null,
        "postcode": "4211",
        "country": "Slovenia",
        "country_code": "si"
      },
      "address": "211, Kranj, Slovenia"
    },
    {
      "lat": 46.23040763365958,
      "lon": 14.332166757003227,
      "geoinfo": {
        "display_name": "7, Laze, Stražišče, Zgornje Bitnje, Kranj, 4000, Slovenia",
        "road": "Laze",
        "house_number": "7",
        "neighbourhood": null,
        "suburb": "Stražišče",
        "city_district": null,
        "city": "Kranj",
        "state": null,
        "postcode": "4000",
        "country": "Slovenia",
        "country_code": "si"
      },
      "address": "7 Laze, Kranj, Slovenia"
    },
    {
      "lat": 46.22464855259365,
      "lon": 14.369573336568171,
      "geoinfo": {
        "display_name": "36, Staretova ulica, Čirče, Hrastje, Kranj, 4000, Slovenia",
        "road": "Staretova ulica",
        "house_number": "36",
        "neighbourhood": null,
        "suburb": "Čirče",
        "city_district": null,
        "city": "Kranj",
        "state": null,
        "postcode": "4000",
        "country": "Slovenia",
        "country_code": "si"
      },
      "address": "36 Staretova ulica, Kranj, Slovenia"
    },
    {
      "lat": 46.268245307787474,
      "lon": 14.359692700597705,
      "geoinfo": {
        "display_name": "30, Cesta na Brdo, Rupa, Kokrica, Kranj, 4000, Slovenia",
        "road": "Cesta na Brdo",
        "house_number": "30",
        "neighbourhood": null,
        "suburb": "Rupa",
        "city_district": null,
        "city": "Kranj",
        "state": null,
        "postcode": "4000",
        "country": "Slovenia",
        "country_code": "si"
      },
      "address": "30 Cesta na Brdo, Kranj, Slovenia"
    },
    {
      "lat": 46.243075604190594,
      "lon": 14.294967479495025,
      "geoinfo": {
        "display_name": "Javornik, Kranj, 4201, Slovenia",
        "road": null,
        "house_number": null,
        "neighbourhood": null,
        "suburb": null,
        "city_district": null,
        "city": "Kranj",
        "state": null,
        "postcode": "4201",
        "country": "Slovenia",
        "country_code": "si"
      },
      "address": "Kranj, Slovenia"
    },
    {
      "lat": 46.22177507522512,
      "lon": 14.361611823800166,
      "geoinfo": {
        "display_name": "17, Kutinova ulica, Orehek, Kranj, 4000, Slovenia",
        "road": "Kutinova ulica",
        "house_number": "17",
        "neighbourhood": null,
        "suburb": "Orehek",
        "city_district": null,
        "city": "Kranj",
        "state": null,
        "postcode": "4000",
        "country": "Slovenia",
        "country_code": "si"
      },
      "address": "17 Kutinova ulica, Kranj, Slovenia"
    },
    {
      "lat": 46.224439610343495,
      "lon": 14.34453336895208,
      "geoinfo": {
        "display_name": "110, Križnarjeva pot, Stražišče, Zgornje Bitnje, Kranj, 4000, Slovenia",
        "road": "Križnarjeva pot",
        "house_number": "110",
        "neighbourhood": null,
        "suburb": "Stražišče",
        "city_district": null,
        "city": "Kranj",
        "state": null,
        "postcode": "4000",
        "country": "Slovenia",
        "country_code": "si"
      },
      "address": "110 Križnarjeva pot, Kranj, Slovenia"
    },
    {
      "lat": 46.26318312937779,
      "lon": 14.39495022536123,
      "geoinfo": {
        "display_name": "Milje, Kranj, 4212, Slovenia",
        "road": "Milje",
        "house_number": null,
        "neighbourhood": null,
        "suburb": null,
        "city_district": null,
        "city": "Kranj",
        "state": null,
        "postcode": "4212",
        "country": "Slovenia",
        "country_code": "si"
      },
      "address": "Milje, Kranj, Slovenia"
    },
    {
      "lat": 46.20351320778545,
      "lon": 14.371055063291083,
      "geoinfo": {
        "display_name": "Drulovka, Breg ob Savi, Kranj, 4211, Slovenia",
        "road": null,
        "house_number": null,
        "neighbourhood": null,
        "suburb": "Drulovka",
        "city_district": null,
        "city": "Kranj",
        "state": null,
        "postcode": "4211",
        "country": "Slovenia",
        "country_code": "si"
      },
      "address": "911, Drulovka, Breg ob Savi, Kranj, 4211, Slovenia"
    },
    {
      "lat": 46.19648213006616,
      "lon": 14.35587517855259,
      "geoinfo": {
        "display_name": "Spodnje Bitnje, Kranj, 4211, Slovenia",
        "road": null,
        "house_number": null,
        "neighbourhood": null,
        "suburb": null,
        "city_district": null,
        "city": "Kranj",
        "state": null,
        "postcode": "4211",
        "country": "Slovenia",
        "country_code": "si"
      },
      "address": "163, Spodnje Bitnje, Kranj, 4211, Slovenia"
    },
    {
      "lat": 46.203296750427604,
      "lon": 14.320597842500236,
      "geoinfo": {
        "display_name": "100, Šutna, Žabnica, Kranj, 4209, Slovenia",
        "road": "Šutna",
        "house_number": "100",
        "neighbourhood": null,
        "suburb": null,
        "city_district": null,
        "city": "Kranj",
        "state": null,
        "postcode": "4209",
        "country": "Slovenia",
        "country_code": "si"
      },
      "address": "100, Šutna, Žabnica, Kranj, 4209, Slovenia"
    },
    {
      "lat": 46.273845199643475,
      "lon": 14.344516178815208,
      "geoinfo": {
        "display_name": "Mlaka pri Kranju, Mlaka, Kranj, 4000, Slovenia",
        "road": "Mlaka pri Kranju",
        "house_number": null,
        "neighbourhood": null,
        "suburb": null,
        "city_district": null,
        "city": "Kranj",
        "state": null,
        "postcode": "4000",
        "country": "Slovenia",
        "country_code": "si"
      },
      "address": "808, Mlaka pri Kranju, Mlaka, Kranj, 4000, Slovenia"
    },
    {
      "lat": 46.26645384976817,
      "lon": 14.377923949041362,
      "geoinfo": {
        "display_name": "Predoslje, Ilovka, Predoslje, Kranj, 4000, Slovenia",
        "road": "Predoslje",
        "house_number": null,
        "neighbourhood": null,
        "suburb": null,
        "city_district": null,
        "city": "Kranj",
        "state": null,
        "postcode": "4000",
        "country": "Slovenia",
        "country_code": "si"
      },
      "address": "282, Predoslje, Ilovka, Predoslje, Kranj, 4000, Slovenia"
    },
    {
      "lat": 46.22240369927975,
      "lon": 14.299335344382026,
      "geoinfo": {
        "display_name": "Zakladnik, Kranj, 4209, Slovenia",
        "road": null,
        "house_number": null,
        "neighbourhood": null,
        "suburb": null,
        "city_district": null,
        "city": "Kranj",
        "state": null,
        "postcode": "4209",
        "country": "Slovenia",
        "country_code": "si"
      },
      "address": "352, Zakladnik, Kranj, 4209, Slovenia"
    },
    {
      "lat": 46.233678738623105,
      "lon": 14.39270231263267,
      "geoinfo": {
        "display_name": "Kranj-Sencur, Primskovo, Kranj, 4000, Slovenia",
        "road": "Kranj-Sencur",
        "house_number": null,
        "neighbourhood": null,
        "suburb": "Primskovo",
        "city_district": null,
        "city": "Kranj",
        "state": null,
        "postcode": "4000",
        "country": "Slovenia",
        "country_code": "si"
      },
      "address": "017, Kranj-Sencur, Primskovo, Kranj, 4000, Slovenia"
    },
    {
      "lat": 46.21195732800823,
      "lon": 14.309642119721879,
      "geoinfo": {
        "display_name": "Zakladnik, Kranj, 4209, Slovenia",
        "road": null,
        "house_number": null,
        "neighbourhood": null,
        "suburb": null,
        "city_district": null,
        "city": "Kranj",
        "state": null,
        "postcode": "4209",
        "country": "Slovenia",
        "country_code": "si"
      },
      "address": "609, Zakladnik, Kranj, 4209, Slovenia"
    },
    {
      "lat": 46.20189657309095,
      "lon": 14.387474065239147,
      "geoinfo": {
        "display_name": "Praše, Jama, Kranj, 4211, Slovenia",
        "road": null,
        "house_number": null,
        "neighbourhood": null,
        "suburb": null,
        "city_district": null,
        "city": "Kranj",
        "state": null,
        "postcode": "4211",
        "country": "Slovenia",
        "country_code": "si"
      },
      "address": "370, Praše, Jama, Kranj, 4211, Slovenia"
    },
    {
      "lat": 46.201408531777744,
      "lon": 14.369249413256384,
      "geoinfo": {
        "display_name": "211, Drulovka, Breg ob Savi, Kranj, 4211, Slovenia",
        "road": "211",
        "house_number": null,
        "neighbourhood": null,
        "suburb": "Drulovka",
        "city_district": null,
        "city": "Kranj",
        "state": null,
        "postcode": "4211",
        "country": "Slovenia",
        "country_code": "si"
      },
      "address": "211, Drulovka, Breg ob Savi, Kranj, 4211, Slovenia"
    },
    {
      "lat": 46.22756630370058,
      "lon": 14.297492728666763,
      "geoinfo": {
        "display_name": "Zakladnik, Kranj, 4209, Slovenia",
        "road": null,
        "house_number": null,
        "neighbourhood": null,
        "suburb": null,
        "city_district": null,
        "city": "Kranj",
        "state": null,
        "postcode": "4209",
        "country": "Slovenia",
        "country_code": "si"
      },
      "address": "450, Zakladnik, Kranj, 4209, Slovenia"
    },
    {
      "lat": 46.24712059634318,
      "lon": 14.381924231354802,
      "geoinfo": {
        "display_name": "210, Gorenje, Britof, Kranj, 4000, Slovenia",
        "road": "210",
        "house_number": null,
        "neighbourhood": null,
        "suburb": "Gorenje",
        "city_district": null,
        "city": "Kranj",
        "state": null,
        "postcode": "4000",
        "country": "Slovenia",
        "country_code": "si"
      },
      "address": "210, Gorenje, Britof, Kranj, 4000, Slovenia"
    }
  ],
  "updated_at": "2025-10-19T06:35:37.630845+00:00",
  "_kind": "geo_samples"
}