{
  "country_code": "SI",
  "country": "Slovenia",
  "city": "Ljubljana",
  "geonameid": 3196359,
  "target_addresses": 12,
  "samples": [
    {
      "lat": 46.049096326627776,
      "lon": 14.484106668410908,
      "geoinfo": {
        "display_name": "16, Rožna dolina Cesta V, Rožna dolina, Četrtna skupnost Rožnik, Ljubljana, Upravna Enota Ljubljana, 1102, Slovenia",
        "road": "Rožna dolina Cesta V",
        "house_number": "16",
        "neighbourhood": null,
        "suburb": "Četrtna skupnost Rožnik",
        "city_district": null,
        "city": "Ljubljana",
        "state": null,
        "postcode": "1102",
        "country": "Slovenia",
        "country_code": "si"
      },
      "address": "16 Rožna dolina Cesta V, Ljubljana, Slovenia"
    },
    {
      "lat": 46.07194256403875,
      "lon": 14.4739325628323,
      "geoinfo": {
        "display_name": "40, Ulica bratov Učakar, Zgornja Šiška, Četrtna skupnost Šiška, Ljubljana, Upravna Enota Ljubljana, 1000, Slovenia",
        "road": "Ulica bratov Učakar",
        "house_number": "40",
        "neighbourhood": "Zgornja Šiška",
        "suburb": "Četrtna skupnost Šiška",
        "city_district": null,
        "city": "Ljubljana",
        "state": null,
        "postcode": "1000",
        "country": "Slovenia",
        "country_code": "si"
      },
      "address": "40 Ulica bratov Učakar, Ljubljana, Slovenia"
    },
    {
      "lat": 46.02590324664533,
      "lon": 14.49669697903149,
      "geoinfo": {
        "display_name": "Južna obvoznica, Sibirija, Četrtna skupnost Trnovo, Ljubljana, Upravna Enota Ljubljana, 1127, Slovenia",
        "road": "Južna obvoznica",
        "house_number": null,
        "neighbourhood": null,
        "suburb": "Četrtna skupnost Trnovo",
        "city_district": null,
        "city": "Ljubljana",
        "state": null,
        "postcode": "1127",
        "country": "Slovenia",
        "country_code": "si"
      },
      "address": "Južna obvoznica, Ljubljana, Slovenia"
    },
    {
      "lat": 46.051689615821424,
      "lon": 14.44956460856499,
      "geoinfo": {
        "display_name": "Lesnina Brdo, 40, Cesta na Bokalce, Bokalce, Četrtna skupnost Rožnik, Žuleva vas, Ljubljana, Upravna Enota Ljubljana, 1000, Slovenia",
        "road": "Cesta na Bokalce",
        "house_number": "40",
        "neighbourhood": null,
        "suburb": "Bokalce",
        "city_district": null,
        "city": "Ljubljana",
        "state": null,
        "postcode": "1000",
        "country": "Slovenia",
        "country_code": "si"
      },
      "address": "40 Cesta na Bokalce, Ljubljana, Slovenia"
    },
    {
      "lat": 46.080290313051044,
      "lon": 14.488029258924628,
      "geoinfo": {
        "display_name": "9E, Drabosnjakova ulica, Zgornja Šiška, Četrtna skupnost Šiška, Ljubljana, Upravna Enota Ljubljana, 1000, Slovenia",
        "road": "Drabosnjakova ulica",
        "house_number": "9E",
        "neighbourhood": "Zgornja Šiška",
        "suburb": "Četrtna skupnost Šiška",
        "city_district": null,
        "city": "Ljubljana",
        "state": null,
        "postcode": "1000",
        "country": "Slovenia",
        "country_code": "si"
      },
      "address": "9E Drabosnjakova ulica, Ljubljana, Slovenia"
    },
    {
      "lat": 46.00973967005954,
      "lon": 14.483542933389007,
      "geoinfo": {
        "display_name": "Črna vas, Četrtna skupnost Rudnik, Črna vas, Ljubljana, Upravna Enota Ljubljana, 1127, Slovenia",
        "road": "Črna vas",
        "house_number": null,
        "neighbourhood": null,
        "suburb": "Četrtna skupnost Rudnik",
        "city_district": null,
        "city": "Ljubljana",
        "state": null,
        "postcode": "1127",
        "country": "Slovenia",
        "country_code": "si"
      },
      "address": "Črna vas, Ljubljana, Slovenia"
    },
    {
      "lat": 46.07485177463866,
      "lon": 14.53838928116575,
      "geoinfo": {
        "display_name": "83, Jarška cesta, Nove Jarše, Četrtna skupnost Jarše, Ljubljana, Upravna Enota Ljubljana, 1000, Slovenia",
        "road": "Jarška cesta",
        "house_number": "83",
        "neighbourhood": null,
        "suburb": "Četrtna skupnost Jarše",
        "city_district": null,
        "city": "Ljubljana",
        "state": null,
        "postcode": "1000",
        "country": "Slovenia",
        "country_code": "si"
      },
      "address": "83 Jarška cesta, Ljubljana, Slovenia"
    },
    {
      "lat": 46.071137582650174,
      "lon": 14.504920791612355,
      "geoinfo": {
        "display_name": "3, Velikovška ulica, Četrtna skupnost Bežigrad, Ljubljana, Upravna Enota Ljubljana, 1000, Slovenia",
        "road": "Velikovška ulica",
        "house_number": "3",
        "neighbourhood": null,
        "suburb": "Četrtna skupnost Bežigrad",
        "city_district": null,
        "city": "Ljubljana",
        "state": null,
        "postcode": "1000",
        "country": "Slovenia",
        "country_code": "si"
      },
      "address": "3 Velikovška ulica, Ljubljana, Slovenia"
    },
    {
      "lat": 46.01791086932648,
      "lon": 14.512825288917025,
      "geoinfo": {
        "display_name": "281b, Ižanska cesta, Četrtna skupnost Rudnik, Črna vas, Ljubljana, Upravna Enota Ljubljana, 1000, Slovenia",
        "road": "Ižanska cesta",
        "house_number": "281b",
        "neighbourhood": null,
        "suburb": "Četrtna skupnost Rudnik",
        "city_district": null,
        "city": "Ljubljana",
        "state": null,
        "postcode": "1000",
        "country": "Slovenia",
        "country_code": "si"
      },
      "address": "281b Ižanska cesta, Ljubljana, Slovenia"
    },
    {
      "lat": 46.046226564740394,
      "lon": 14.453773062158527,
      "geoinfo": {
        "display_name": "8, Cesta na Bokalce, Vrhovci, Četrtna skupnost Rožnik, Žuleva vas, Ljubljana, Upravna Enota Ljubljana, 1126, Slovenia",
        "road": "Cesta na Bokalce",
        "house_number": "8",
        "neighbourhood": null,
        "suburb": "Četrtna skupnost Rožnik",
        "city_district": null,
        "city": "Ljubljana",
        "state": null,
        "postcode": "1126",
        "country": "Slovenia",
        "country_code": "si"
      },
      "address": "8 Cesta na Bokalce, Ljubljana, Slovenia"
    },
    {
      "lat": 46.035722988473005,
      "lon": 14.4604103363959,
      "geoinfo": {
        "display_name": "Cesta v Gorice, Dolgi most, Četrtna skupnost Vič, Ljubljana, Upravna Enota Ljubljana, 1115, Slovenia",
        "road": "Cesta v Gorice",
        "house_number": null,
        "neighbourhood": "Dolgi most",
        "suburb": "Četrtna skupnost Vič",
        "city_district": null,
        "city": "Ljubljana",
        "state": null,
        "postcode": "1115",
        "country": "Slovenia",
        "country_code": "si"
      },
      "address": "Cesta v Gorice, Ljubljana, Slovenia"
    },
    {
      "lat": 46.055667217827114,
      "lon": 14.509125690626414,
      "geoinfo": {
        "display_name": "Kolodvor, Tabor, Četrtna skupnost Center, Ljubljana, Upravna Enota Ljubljana, 1000, Slovenia",
        "road": "Kolodvor",
        "house_number": null,
        "neighbourhood": "Tabor",
        "suburb": "Četrtna skupnost Center",
        "city_district": null,
        "city": "Ljubljana",
        "state": null,
        "postcode": "1000",
        "country": "Slovenia",
        "country_code": "si"
      },
      "address": "Kolodvor, Ljubljana, Slovenia"
    },
    {
      "lat": 46.01873457437736,
      "lon": 14.48721063144175,
      "geoinfo": {
        "display_name": "Hrošč puščavnik, Južna obvoznica, Sibirija, Četrtna skupnost Trnovo, Ljubljana, Upravna Enota Ljubljana, 1127, Slovenia",
        "road": "Južna obvoznica",
        "house_number": null,
        "neighbourhood": null,
        "suburb": "Četrtna skupnost Trnovo",
        "city_district": null,
        "city": "Ljubljana",
        "state": null,
        "postcode": "1127",
        "country": "Slovenia",
        "country_code": "si"
      },
      "address": "487, Južna obvoznica, 1127 Ljubljana, Slovenia"
    },
    {
      "lat": 46.08127386011118,
      "lon": 14.498044566949194,
      "geoinfo": {
        "display_name": "Ulica Alme Sodnik, Zgornja Šiška, Četrtna skupnost Šiška, Ljubljana, Upravna Enota Ljubljana, 1132, Slovenia",
        "road": "Ulica Alme Sodnik",
        "house_number": null,
        "neighbourhood": "Zgornja Šiška",
        "suburb": "Četrtna skupnost Šiška",
        "city_district": null,
        "city": "Ljubljana",
        "state": null,
        "postcode": "1132",
        "country": "Slovenia",
        "country_code": "si"
      },
      "address": "641, Ulica Alme Sodnik, Zgornja Šiška, Četrtna skupnost Šiška, Ljubljana, Upravna Enota Ljubljana, 1132, Slovenia"
    },
    {
      "lat": 46.03490945794554,
      "lon": 14.513074030258844,
      "geoinfo": {
        "display_name": "83, Ižanska cesta, Livada, Ilovica, Četrtna skupnost Rudnik, Ljubljana, Upravna Enota Ljubljana, 1000, Slovenia",
        "road": "Ižanska cesta",
        "house_number": "83",
        "neighbourhood": "Livada",
        "suburb": "Četrtna skupnost Rudnik",
        "city_district": null,
        "city": "Ljubljana",
        "state": null,
        "postcode": "1000",
        "country": "Slovenia",
        "country_code": "si"
      },
      "address": "83, Ižanska cesta, Livada, Ilovica, Četrtna skupnost Rudnik, Ljubljana, Upravna Enota Ljubljana, 1000, Slovenia"
    },
    {
      "lat": 46.088563111109245,
      "lon": 14.523425419799771,
      "geoinfo": {
        "display_name": "Pr'konju, Stožice, Četrtna skupnost Posavje, Ljubljana, Upravna Enota Ljubljana, 1131, Slovenia",
        "road": "Stožice",
        "house_number": null,
        "neighbourhood": null,
        "suburb": "Četrtna skupnost Posavje",
        "city_district": null,
        "city": "Ljubljana",
        "state": null,
        "postcode": "1131",
        "country": "Slovenia",
        "country_code": "si"
      },
      "address": "818, Stožice, 1131 Ljubljana, Slovenia"
    },
    {
      "lat": 46.018672540531554,
      "lon": 14.542782944485001,
      "geoinfo": {
        "display_name": "159, Dolenjska cesta, Stari Rudnik, Četrtna skupnost Rudnik, Ljubljana, Upravna Enota Ljubljana, 1000, Slovenia",
        "road": "Dolenjska cesta",
        "house_number": "159",
        "neighbourhood": "Stari Rudnik",
        "suburb": "Četrtna skupnost Rudnik",
        "city_district": null,
        "city": "Ljubljana",
        "state": null,
        "postcode": "1000",
        "country": "Slovenia",
        "country_code": "si"
      },
      "address": "159, Dolenjska cesta, Stari Rudnik, Četrtna skupnost Rudnik, Ljubljana, Upravna Enota Ljubljana, 1000, Slovenia"
    },
    {
      "lat": 46.053235873965306,
      "lon": 14.508869348690553,
      "geoinfo": {
        "display_name": "Kolodvorska ulica, Grajski grič, Četrtna skupnost Center, Ljubljana, Upravna Enota Ljubljana, 1000, Slovenia",
        "road": "Kolodvorska ulica",
        "house_number": null,
        "neighbourhood": null,
        "suburb": "Četrtna skupnost Center",
        "city_district": null,
        "city": "Ljubljana",
        "state": null,
        "postcode": "1000",
        "country": "Slovenia",
        "country_code": "si"
      },
      "address": "372, Kolodvorska ulica, Grajski grič, Četrtna skupnost Center, Ljubljana, Upravna Enota Ljubljana, 1000, Slovenia"
    },
    {
      "lat": 46.05014147758062,
      "lon": 14.529739296659569,
      "geoinfo": {
        "display_name": "Ulica Carla Benza, Kodeljevo, Četrtna skupnost Moste, Ljubljana, Upravna Enota Ljubljana, 1104, Slovenia",
        "road": "Ulica Carla Benza",
        "house_number": null,
        "neighbourhood": null,
        "suburb": "Četrtna skupnost Moste",
        "city_district": null,
        "city": "Ljubljana",
        "state": null,
        "postcode": "1104",
        "country": "Slovenia",
        "country_code": "si"
      },
      "address": "150, Ulica Carla Benza, Kodeljevo, Četrtna skupnost Moste, Ljubljana, Upravna Enota Ljubljana, 1104, Slovenia"
    },
    {
      "lat": 46.043348031483845,
      "lon": 14.512795828376063,
      "geoinfo": {
        "display_name": "Karlovška cesta, Prule, Četrtna skupnost Center, Ljubljana, Upravna Enota Ljubljana, 1104, Slovenia",
        "road": "Karlovška cesta",
        "house_number": null,
        "neighbourhood": null,
        "suburb": "Četrtna skupnost Center",
        "city_district": null,
        "city": "Ljubljana",
        "state": null,
        "postcode": "1104",
        "country": "Slovenia",
        "country_code": "si"
      },
      "address": "463, Karlovška cesta, Prule, Četrtna skupnost Center, Ljubljana, Upravna Enota Ljubljana, 1104, Slovenia"
    },
    {
      "lat": 46.08266512591947,
      "lon": 14.47942884317953,
      "geoinfo": {
        "display_name": "3, Kumerdejeva ulica, Industrijska cona Stegne, Četrtna skupnost Dravlje, Ljubljana, Upravna Enota Ljubljana, 1001, Slovenia",
        "road": "Kumerdejeva ulica",
        "house_number": "3",
        "neighbourhood": null,
        "suburb": "Četrtna skupnost Dravlje",
        "city_district": null,
        "city": "Ljubljana",
        "state": null,
        "postcode": "1001",
        "country": "Slovenia",
        "country_code": "si"
      },
      "address": "3, Kumerdejeva ulica, Industrijska cona Stegne, Četrtna skupnost Dravlje, Ljubljana, Upravna Enota Ljubljana, 1001, Slovenia"
    },
    {
      "lat": 46.07919790005203,
      "lon": 14.499641959152013,
      "geoinfo": {
        "display_name": "LEK Parking, Verovškova ulica, Spodnja Šiška, Četrtna skupnost Šiška, Ljubljana, Upravna Enota Ljubljana, 1131, Slovenia",
        "road": "Verovškova ulica",
        "house_number": null,
        "neighbourhood": "Spodnja Šiška",
        "suburb": "Četrtna skupnost Šiška",
        "city_district": null,
        "city": "Ljubljana",
        "state": null,
        "postcode": "1131",
        "country": "Slovenia",
        "country_code": "si"
      },
      "address": "189, Verovškova ulica, 1131 Ljubljana, Slovenia"
    },
    {
      "lat": 46.06237629566581,
      "lon": 14.544572885550922,
      "geoinfo": {
        "display_name": "P11, Latinski trg, BTC, Četrtna skupnost Jarše, Ljubljana, Upravna Enota Ljubljana, 1533, Slovenia",
        "road": "Latinski trg",
        "house_number": null,
        "neighbourhood": null,
        "suburb": "Četrtna skupnost Jarše",
        "city_district": null,
        "city": "Ljubljana",
        "state": null,
        "postcode": "1533",
        "country": "Slovenia",
        "country_code": "si"
      },
      "address": "P11, Latinski trg, BTC, Četrtna skupnost Jarše, Ljubljana, Upravna Enota Ljubljana, 1533, Slovenia"
    },
    {
      "lat": 46.0268091137225,
      "lon": 14.54859370541021,
      "geoinfo": {
        "display_name": "Golovec Trails, Spodnji Rudnik II, Spodnji Rudnik, Četrtna skupnost Rudnik, Ljubljana, Upravna Enota Ljubljana, 1108, Slovenia",
        "road": "Spodnji Rudnik II",
        "house_number": null,
        "neighbourhood": "Spodnji Rudnik",
        "suburb": "Četrtna skupnost Rudnik",
        "city_district": null,
        "city": "Ljubljana",
        "state": null,
        "postcode": "1108",
        "country": "Slovenia",
        "country_code": "si"
      },
      "address": "353, Spodnji Rudnik II, 1108 Ljubljana, Slovenia"
    }
  ],
  "updated_at": "2025-10-19T07:02:05.569216+00:00",
  "_kind": "geo_samples"
}