{
  "country_code": "SI",
  "country": "Slovenia",
  "city": "Maribor",
  "geonameid": 3195506,
  "target_addresses": 12,
  "samples": [
    {
      "lat": 46.55320060450645,
      "lon": 15.58973701293175,
      "geoinfo": {
        "display_name": "Limbuška cesta, Pekre, Bresternica, Maribor, 2341, Slovenia",
        "road": "Limbuška cesta",
        "house_number": null,
        "neighbourhood": null,
        "suburb": "Pekre",
        "city_district": null,
        "city": "Maribor",
        "state": null,
        "postcode": "2341",
        "country": "Slovenia",
        "country_code": "si"
      },
      "address": "Limbuška cesta, Maribor, Slovenia"
    },
    {
      "lat": 46.52902388149231,
      "lon": 15.614633809919772,
      "geoinfo": {
        "display_name": "Kurirska pot, Spodnje Radvanje, Maribor, 2000, Slovenia",
        "road": "Kurirska pot",
        "house_number": null,
        "neighbourhood": null,
        "suburb": "Spodnje Radvanje",
        "city_district": null,
        "city": "Maribor",
        "state": null,
        "postcode": "2000",
        "country": "Slovenia",
        "country_code": "si"
      },
      "address": "Kurirska pot, Maribor, Slovenia"
    },
    {
      "lat": 46.52346269357848,
      "lon": 15.655404709407406,
      "geoinfo": {
        "display_name": "Dinos, Ledina, Maribor, 2001, Slovenia",
        "road": "Ledina",
        "house_number": null,
        "neighbourhood": null,
        "suburb": "Ledina",
        "city_district": null,
        "city": "Maribor",
        "state": null,
        "postcode": "2001",
        "country": "Slovenia",
        "country_code": "si"
      },
      "address": "Ledina, Maribor, Slovenia"
    },
    {
      "lat": 46.58482091108313,
      "lon": 15.625586325677887,
      "geoinfo": {
        "display_name": "50, Rošpoh, Maribor, Kungota, 2351, Slovenia",
        "road": "Rošpoh",
        "house_number": "50",
        "neighbourhood": null,
        "suburb": null,
        "city_district": null,
        "city": "Maribor",
        "state": null,
        "postcode": "2351",
        "country": "Slovenia",
        "country_code": "si"
      },
      "address": "50 Rošpoh, Maribor, Slovenia"
    },
    {
      "lat": 46.52759682567616,
      "lon": 15.62351779948603,
      "geoinfo": {
        "display_name": "Pot na Okope, Spodnje Radvanje, Maribor, 2000, Slovenia",
        "road": "Pot na Okope",
        "house_number": null,
        "neighbourhood": null,
        "suburb": "Spodnje Radvanje",
        "city_district": null,
        "city": "Maribor",
        "state": null,
        "postcode": "2000",
        "country": "Slovenia",
        "country_code": "si"
      },
      "address": "Pot na Okope, Maribor, Slovenia"
    },
    {
      "lat": 46.55989453950029,
      "lon": 15.69013869691102,
      "geoinfo": {
        "display_name": "Malečnik, Maribor, 2229, Slovenia",
        "road": null,
        "house_number": null,
        "neighbourhood": null,
        "suburb": null,
        "city_district": null,
        "city": "Maribor",
        "state": null,
        "postcode": "2229",
        "country": "Slovenia",
        "country_code": "si"
      },
      "address": "Maribor, Slovenia"
    },
    {
      "lat": 46.55553741343113,
      "lon": 15.619190014533709,
      "geoinfo": {
        "display_name": "4, Ulica Janka Mlakarja, Studenci, Maribor, 2000, Slovenia",
        "road": "Ulica Janka Mlakarja",
        "house_number": "4",
        "neighbourhood": null,
        "suburb": "Studenci",
        "city_district": null,
        "city": "Maribor",
        "state": null,
        "postcode": "2000",
        "country": "Slovenia",
        "country_code": "si"
      },
      "address": "4 Ulica Janka Mlakarja, Maribor, Slovenia"
    },
    {
      "lat": 46.57641558612019,
      "lon": 15.597757693952335,
      "geoinfo": {
        "display_name": "Bresterniški vrh, Damiševo naselje, Kamnica, Maribor, 2351, Slovenia",
        "road": "Bresterniški vrh",
        "house_number": null,
        "neighbourhood": null,
        "suburb": "Damiševo naselje",
        "city_district": null,
        "city": "Maribor",
        "state": null,
        "postcode": "2351",
        "country": "Slovenia",
        "country_code": "si"
      },
      "address": "Bresterniški vrh, Maribor, Slovenia"
    },
    {
      "lat": 46.5561427979123,
      "lon": 15.645595559737167,
      "geoinfo": {
        "display_name": "Stari most, Vojašniška ulica, Lent, Magdalena, Maribor, 2000, Slovenia",
        "road": "Vojašniška ulica",
        "house_number": null,
        "neighbourhood": null,
        "suburb": "Magdalena",
        "city_district": null,
        "city": "Maribor",
        "state": null,
        "postcode": "2000",
        "country": "Slovenia",
        "country_code": "si"
      },
      "address": "Vojašniška ulica, Maribor, Slovenia"
    },
    {
      "lat": 46.53496156329626,
      "lon": 15.599505038810545,
      "geoinfo": {
        "display_name": "11, Naveršnikova ulica, Zgornje Radvanje, Maribor, 2000, Slovenia",
        "road": "Naveršnikova ulica",
        "house_number": "11",
        "neighbourhood": null,
        "suburb": "Zgornje Radvanje",
        "city_district": null,
        "city": "Maribor",
        "state": null,
        "postcode": "2000",
        "country": "Slovenia",
        "country_code": "si"
      },
      "address": "11 Naveršnikova ulica, Maribor, Slovenia"
    },
    {
      "lat": 46.540028904454566,
      "lon": 15.70030629701241,
      "geoinfo": {
        "display_name": "A1, Brezje, Zrkovci, Maribor, 2000, Slovenia",
        "road": "A1",
        "house_number": null,
        "neighbourhood": null,
        "suburb": "Brezje",
        "city_district": null,
        "city": "Maribor",
        "state": null,
        "postcode": "2000",
        "country": "Slovenia",
        "country_code": "si"
      },
      "address": "A1, Maribor, Slovenia"
    },
    {
      "lat": 46.556551547188384,
      "lon": 15.646753683563443,
      "geoinfo": {
        "display_name": "5, Usnjarska ulica, Lent, Center, Maribor, 2000, Slovenia",
        "road": "Usnjarska ulica",
        "house_number": "5",
        "neighbourhood": null,
        "suburb": "Center",
        "city_district": null,
        "city": "Maribor",
        "state": null,
        "postcode": "2000",
        "country": "Slovenia",
        "country_code": "si"
      },
      "address": "5 Usnjarska ulica, Maribor, Slovenia"
    },
    {
      "lat": 46.546173350705736,
      "lon": 15.658139229219247,
      "geoinfo": {
        "display_name": "5, Makedonska ulica, Greenwich, Maribor, 2000, Slovenia",
        "road": "Makedonska ulica",
        "house_number": "5",
        "neighbourhood": null,
        "suburb": "Greenwich",
        "city_district": null,
        "city": "Maribor",
        "state": null,
        "postcode": "2000",
        "country": "Slovenia",
        "country_code": "si"
      },
      "address": "5, Makedonska ulica, Greenwich, Maribor, 2000, Slovenia"
    },
    {
      "lat": 46.590601731820044,
      "lon": 15.654365554384501,
      "geoinfo": {
        "display_name": "Počehova, Maribor, 2211, Slovenia",
        "road": "Počehova",
        "house_number": null,
        "neighbourhood": null,
        "suburb": null,
        "city_district": null,
        "city": "Maribor",
        "state": null,
        "postcode": "2211",
        "country": "Slovenia",
        "country_code": "si"
      },
      "address": "481, Počehova, Maribor, 2211, Slovenia"
    },
    {
      "lat": 46.56526409128878,
      "lon": 15.628741699583424,
      "geoinfo": {
        "display_name": "19, Hermankova ulica, Koroška vrata, Kamnica, Maribor, 2000, Slovenia",
        "road": "Hermankova ulica",
        "house_number": "19",
        "neighbourhood": null,
        "suburb": "Koroška vrata",
        "city_district": null,
        "city": "Maribor",
        "state": null,
        "postcode": "2000",
        "country": "Slovenia",
        "country_code": "si"
      },
      "address": "19, Hermankova ulica, Koroška vrata, Kamnica, Maribor, 2000, Slovenia"
    },
    {
      "lat": 46.54978499106818,
      "lon": 15.587968212306219,
      "geoinfo": {
        "display_name": "6, Ulica 30. maja, Limbuš, Maribor, 2341, Slovenia",
        "road": "Ulica 30. maja",
        "house_number": "6",
        "neighbourhood": null,
        "suburb": "Limbuš",
        "city_district": null,
        "city": "Maribor",
        "state": null,
        "postcode": "2341",
        "country": "Slovenia",
        "country_code": "si"
      },
      "address": "6, Ulica 30. maja, Limbuš, Maribor, 2341, Slovenia"
    },
    {
      "lat": 46.52171351540292,
      "lon": 15.627329657699802,
      "geoinfo": {
        "display_name": "Pri Habakuku, Habakuk, Razvanje, Maribor, 2103, Slovenia",
        "road": "Pri Habakuku",
        "house_number": null,
        "neighbourhood": null,
        "suburb": null,
        "city_district": null,
        "city": "Maribor",
        "state": null,
        "postcode": "2103",
        "country": "Slovenia",
        "country_code": "si"
      },
      "address": "214, Pri Habakuku, Habakuk, Razvanje, Maribor, 2103, Slovenia"
    },
    {
      "lat": 46.56715672682442,
      "lon": 15.673910349395983,
      "geoinfo": {
        "display_name": "Meljski hrib, Košaki, Maribor, 2000, Slovenia",
        "road": "Meljski hrib",
        "house_number": null,
        "neighbourhood": null,
        "suburb": "Košaki",
        "city_district": null,
        "city": "Maribor",
        "state": null,
        "postcode": "2000",
        "country": "Slovenia",
        "country_code": "si"
      },
      "address": "731, Meljski hrib, Košaki, Maribor, 2000, Slovenia"
    },
    {
      "lat": 46.56389100121028,
      "lon": 15.670444462861013,
      "geoinfo": {
        "display_name": "Meljski hrib, Melje, Maribor, 2000, Slovenia",
        "road": "Meljski hrib",
        "house_number": null,
        "neighbourhood": null,
        "suburb": "Melje",
        "city_district": null,
        "city": "Maribor",
        "state": null,
        "postcode": "2000",
        "country": "Slovenia",
        "country_code": "si"
      },
      "address": "570, Meljski hrib, Melje, Maribor, 2000, Slovenia"
    },
    {
      "lat": 46.557522216112645,
      "lon": 15.678305007185617,
      "geoinfo": {
        "display_name": "Malečniški most, Greenwich, Malečnik, Maribor, 2009, Slovenia",
        "road": "Malečniški most",
        "house_number": null,
        "neighbourhood": null,
        "suburb": "Greenwich",
        "city_district": null,
        "city": "Maribor",
        "state": null,
        "postcode": "2009",
        "country": "Slovenia",
        "country_code": "si"
      },
      "address": "410, Malečniški most, Greenwich, Malečnik, Maribor, 2009, Slovenia"
    },
    {
      "lat": 46.53054251950081,
      "lon": 15.634078353418671,
      "geoinfo": {
        "display_name": "Streliška cesta, Betnava, Maribor, 2111, Slovenia",
        "road": "Streliška cesta",
        "house_number": null,
        "neighbourhood": null,
        "suburb": "Betnava",
        "city_district": null,
        "city": "Maribor",
        "state": null,
        "postcode": "2111",
        "country": "Slovenia",
        "country_code": "si"
      },
      "address": "433, Streliška cesta, Betnava, Maribor, 2111, Slovenia"
    },
    {
      "lat": 46.54876305082282,
      "lon": 15.684638268422061,
      "geoinfo": {
        "display_name": "Tezno, Malečnik, Maribor, 2112, Slovenia",
        "road": null,
        "house_number": null,
        "neighbourhood": null,
        "suburb": "Tezno",
        "city_district": null,
        "city": "Maribor",
        "state": null,
        "postcode": "2112",
        "country": "Slovenia",
        "country_code": "si"
      },
      "address": "241, Tezno, 2112 Maribor, Slovenia"
    },
    {
      "lat": 46.53862243995248,
      "lon": 15.601242140719048,
      "geoinfo": {
        "display_name": "Ulica Kraljeva, Zgornje Radvanje, Maribor, 2000, Slovenia",
        "road": "Ulica Kraljeva",
        "house_number": null,
        "neighbourhood": null,
        "suburb": "Zgornje Radvanje",
        "city_district": null,
        "city": "Maribor",
        "state": null,
        "postcode": "2000",
        "country": "Slovenia",
        "country_code": "si"
      },
      "address": "166, Ulica Kraljeva, Zgornje Radvanje, Maribor, 2000, Slovenia"
    },
    {
      "lat": 46.585793091861284,
      "lon": 15.60847893694486,
      "geoinfo": {
        "display_name": "Lucijin breg, Maribor, 2351, Slovenia",
        "road": "Lucijin breg",
        "house_number": null,
        "neighbourhood": null,
        "suburb": null,
        "city_district": null,
        "city": "Maribor",
        "state": null,
        "postcode": "2351",
        "country": "Slovenia",
        "country_code": "si"
      },
      "address": "557, Lucijin breg, Maribor, 2351, Slovenia"
    }
  ],
  "updated_at": "2025-10-19T06:58:40.972124+00:00",
  "_kind": "geo_samples"
}