{
  "country_code": "SI",
  "country": "Slovenia",
  "city": "Novo Mesto",
  "geonameid": 3194351,
  "target_addresses": 12,
  "samples": [
    {
      "lat": 45.80042184266017,
      "lon": 15.17327642706339,
      "geoinfo": {
        "display_name": "27, Kandijska cesta, Novo Mesto, 8000, Slovenia",
        "road": "Kandijska cesta",
        "house_number": "27",
        "neighbourhood": null,
        "suburb": null,
        "city_district": null,
        "city": "Novo Mesto",
        "state": null,
        "postcode": "8000",
        "country": "Slovenia",
        "country_code": "si"
      },
      "address": "27 Kandijska cesta, Novo Mesto, Slovenia"
    },
    {
      "lat": 45.804273923622056,
      "lon": 15.137360505176554,
      "geoinfo": {
        "display_name": "Avant, Podbreznik, Češča vas, Novo Mesto, 8501, Slovenia",
        "road": "Podbreznik",
        "house_number": null,
        "neighbourhood": null,
        "suburb": null,
        "city_district": null,
        "city": "Novo Mesto",
        "state": null,
        "postcode": "8501",
        "country": "Slovenia",
        "country_code": "si"
      },
      "address": "Podbreznik, Novo Mesto, Slovenia"
    },
    {
      "lat": 45.817257910198634,
      "lon": 15.123538471603355,
      "geoinfo": {
        "display_name": "Suhor, Prečna, Novo Mesto, 8216, Slovenia",
        "road": null,
        "house_number": null,
        "neighbourhood": null,
        "suburb": null,
        "city_district": null,
        "city": "Novo Mesto",
        "state": null,
        "postcode": "8216",
        "country": "Slovenia",
        "country_code": "si"
      },
      "address": "Novo Mesto, Slovenia"
    },
    {
      "lat": 45.837184918096916,
      "lon": 15.19130317521857,
      "geoinfo": {
        "display_name": "60e, Trška Gora, Novo Mesto, 8000, Slovenia",
        "road": "Trška Gora",
        "house_number": "60e",
        "neighbourhood": null,
        "suburb": null,
        "city_district": null,
        "city": "Novo Mesto",
        "state": null,
        "postcode": "8000",
        "country": "Slovenia",
        "country_code": "si"
      },
      "address": "60e Trška Gora, Novo Mesto, Slovenia"
    },
    {
      "lat": 45.77200123850925,
      "lon": 15.148317149628067,
      "geoinfo": {
        "display_name": "664, Škrjanče pri Novem mestu, Novo Mesto, 8000, Slovenia",
        "road": "664",
        "house_number": null,
        "neighbourhood": null,
        "suburb": null,
        "city_district": null,
        "city": "Novo Mesto",
        "state": null,
        "postcode": "8000",
        "country": "Slovenia",
        "country_code": "si"
      },
      "address": "664, Novo Mesto, Slovenia"
    },
    {
      "lat": 45.814655496116714,
      "lon": 15.141031059155335,
      "geoinfo": {
        "display_name": "Vojašnica Franca Uršiča, Vavpotičeva ulica, Mala Bučna vas, Novo Mesto, 8501, Slovenia",
        "road": "Vavpotičeva ulica",
        "house_number": null,
        "neighbourhood": null,
        "suburb": null,
        "city_district": null,
        "city": "Novo Mesto",
        "state": null,
        "postcode": "8501",
        "country": "Slovenia",
        "country_code": "si"
      },
      "address": "Vavpotičeva ulica, Novo Mesto, Slovenia"
    },
    {
      "lat": 45.788488284458055,
      "lon": 15.189351261561992,
      "geoinfo": {
        "display_name": "47, Gotna vas, Trnče, Novo Mesto, 8000, Slovenia",
        "road": "Gotna vas",
        "house_number": "47",
        "neighbourhood": null,
        "suburb": null,
        "city_district": null,
        "city": "Novo Mesto",
        "state": null,
        "postcode": "8000",
        "country": "Slovenia",
        "country_code": "si"
      },
      "address": "47 Gotna vas, Novo Mesto, Slovenia"
    },
    {
      "lat": 45.79914672624858,
      "lon": 15.175327535405833,
      "geoinfo": {
        "display_name": "60, Kandijska cesta, Novo Mesto, 8000, Slovenia",
        "road": "Kandijska cesta",
        "house_number": "60",
        "neighbourhood": null,
        "suburb": null,
        "city_district": null,
        "city": "Novo Mesto",
        "state": null,
        "postcode": "8000",
        "country": "Slovenia",
        "country_code": "si"
      },
      "address": "60 Kandijska cesta, Novo Mesto, Slovenia"
    },
    {
      "lat": 45.80628115220745,
      "lon": 15.160453071016082,
      "geoinfo": {
        "display_name": "Zupančičevo sprehajališče, Mala Bučna vas, Novo Mesto, 8000, Slovenia",
        "road": "Zupančičevo sprehajališče",
        "house_number": null,
        "neighbourhood": null,
        "suburb": null,
        "city_district": null,
        "city": "Novo Mesto",
        "state": null,
        "postcode": "8000",
        "country": "Slovenia",
        "country_code": "si"
      },
      "address": "Zupančičevo sprehajališče, Novo Mesto, Slovenia"
    },
    {
      "lat": 45.83904411726638,
      "lon": 15.19917143301261,
      "geoinfo": {
        "display_name": "132, Trška Gora, Črešnjice, Novo Mesto, 8222, Slovenia",
        "road": "Trška Gora",
        "house_number": "132",
        "neighbourhood": null,
        "suburb": null,
        "city_district": null,
        "city": "Novo Mesto",
        "state": null,
        "postcode": "8222",
        "country": "Slovenia",
        "country_code": "si"
      },
      "address": "132 Trška Gora, Novo Mesto, Slovenia"
    },
    {
      "lat": 45.78856385372002,
      "lon": 15.19745020244986,
      "geoinfo": {
        "display_name": "Priključek osredek, Drejčetova pot, Mala Cikava, Novo Mesto, 8000, Slovenia",
        "road": "Drejčetova pot",
        "house_number": null,
        "neighbourhood": null,
        "suburb": null,
        "city_district": null,
        "city": "Novo Mesto",
        "state": null,
        "postcode": "8000",
        "country": "Slovenia",
        "country_code": "si"
      },
      "address": "Drejčetova pot, Novo Mesto, Slovenia"
    },
    {
      "lat": 45.82120025424022,
      "lon": 15.168141182555646,
      "geoinfo": {
        "display_name": "Andrijaničeva cesta, Mala Bučna vas, Novo Mesto, 8501, Slovenia",
        "road": "Andrijaničeva cesta",
        "house_number": null,
        "neighbourhood": null,
        "suburb": null,
        "city_district": null,
        "city": "Novo Mesto",
        "state": null,
        "postcode": "8501",
        "country": "Slovenia",
        "country_code": "si"
      },
      "address": "Andrijaničeva cesta, Novo Mesto, Slovenia"
    }
  ],
  "updated_at": "2025-10-16T22:56:22.977583+00:00",
  "_kind": "geo_samples"
}