{
  "country_code": "SI",
  "country": "Slovenia",
  "city": "Velenje",
  "geonameid": 3189075,
  "target_addresses": 12,
  "samples": [
    {
      "lat": 46.34516845251283,
      "lon": 15.170360346685543,
      "geoinfo": {
        "display_name": "Vinska Gora, Velenje, Slovenia",
        "road": null,
        "house_number": null,
        "neighbourhood": null,
        "suburb": null,
        "city_district": null,
        "city": "Velenje",
        "state": null,
        "postcode": null,
        "country": "Slovenia",
        "country_code": "si"
      },
      "address": "Velenje, Slovenia"
    },
    {
      "lat": 46.3632368908856,
      "lon": 15.053948700261195,
      "geoinfo": {
        "display_name": "426, Lokovica, Šoštanj, 3325, Slovenia",
        "road": "426",
        "house_number": null,
        "neighbourhood": null,
        "suburb": null,
        "city_district": null,
        "city": "Šoštanj",
        "state": null,
        "postcode": "3325",
        "country": "Slovenia",
        "country_code": "si"
      },
      "address": "426, Velenje, Slovenia"
    },
    {
      "lat": 46.36179265771635,
      "lon": 15.1245887766035,
      "geoinfo": {
        "display_name": "Stantetova ulica, Šalek, Velenje, 3320, Slovenia",
        "road": "Stantetova ulica",
        "house_number": null,
        "neighbourhood": null,
        "suburb": "Šalek",
        "city_district": null,
        "city": "Velenje",
        "state": null,
        "postcode": "3320",
        "country": "Slovenia",
        "country_code": "si"
      },
      "address": "Stantetova ulica, Velenje, Slovenia"
    },
    {
      "lat": 46.38280031059377,
      "lon": 15.131919365549301,
      "geoinfo": {
        "display_name": "Šenbric, Selo, Paka pri Velenju, Velenje, 3320, Slovenia",
        "road": "Šenbric",
        "house_number": null,
        "neighbourhood": null,
        "suburb": "Selo",
        "city_district": null,
        "city": "Velenje",
        "state": null,
        "postcode": "3320",
        "country": "Slovenia",
        "country_code": "si"
      },
      "address": "Šenbric, Velenje, Slovenia"
    },
    {
      "lat": 46.37393114877146,
      "lon": 15.08607225723689,
      "geoinfo": {
        "display_name": "Pot med Velenjem in Šoštanjem, Pesje, Podgorje, Velenje, 3325, Slovenia",
        "road": "Pot med Velenjem in Šoštanjem",
        "house_number": null,
        "neighbourhood": null,
        "suburb": "Pesje",
        "city_district": null,
        "city": "Velenje",
        "state": null,
        "postcode": "3325",
        "country": "Slovenia",
        "country_code": "si"
      },
      "address": "Pot med Velenjem in Šoštanjem, Velenje, Slovenia"
    },
    {
      "lat": 46.33897999468657,
      "lon": 15.101767852140801,
      "geoinfo": {
        "display_name": "Ložnica, Kavče, Velenje, 3320, Slovenia",
        "road": "Ložnica",
        "house_number": null,
        "neighbourhood": null,
        "suburb": null,
        "city_district": null,
        "city": "Velenje",
        "state": null,
        "postcode": "3320",
        "country": "Slovenia",
        "country_code": "si"
      },
      "address": "Ložnica, Velenje, Slovenia"
    },
    {
      "lat": 46.37080687674114,
      "lon": 15.100661288149285,
      "geoinfo": {
        "display_name": "Koroška cesta, Pesje, Podgorje, Velenje, 3320, Slovenia",
        "road": "Koroška cesta",
        "house_number": null,
        "neighbourhood": null,
        "suburb": "Pesje",
        "city_district": null,
        "city": "Velenje",
        "state": null,
        "postcode": "3320",
        "country": "Slovenia",
        "country_code": "si"
      },
      "address": "Koroška cesta, Velenje, Slovenia"
    },
    {
      "lat": 46.3652107693592,
      "lon": 15.08958785993895,
      "geoinfo": {
        "display_name": "Pesje, Podkraj pri Velenju, Velenje, 3325, Slovenia",
        "road": null,
        "house_number": null,
        "neighbourhood": null,
        "suburb": "Pesje",
        "city_district": null,
        "city": "Velenje",
        "state": null,
        "postcode": "3325",
        "country": "Slovenia",
        "country_code": "si"
      },
      "address": "Pesje, Velenje, Slovenia"
    },
    {
      "lat": 46.36876652465476,
      "lon": 15.164675310310182,
      "geoinfo": {
        "display_name": "28, Lopatnik pri Velenju, Lipje, Velenje, 3320, Slovenia",
        "road": "Lopatnik pri Velenju",
        "house_number": "28",
        "neighbourhood": null,
        "suburb": null,
        "city_district": null,
        "city": "Velenje",
        "state": null,
        "postcode": "3320",
        "country": "Slovenia",
        "country_code": "si"
      },
      "address": "28 Lopatnik pri Velenju, Velenje, Slovenia"
    },
    {
      "lat": 46.333342413750096,
      "lon": 15.098045370843447,
      "geoinfo": {
        "display_name": "694, Kavče, Velenje, 3320, Slovenia",
        "road": "694",
        "house_number": null,
        "neighbourhood": null,
        "suburb": null,
        "city_district": null,
        "city": "Velenje",
        "state": null,
        "postcode": "3320",
        "country": "Slovenia",
        "country_code": "si"
      },
      "address": "694, Velenje, Slovenia"
    },
    {
      "lat": 46.365238609486035,
      "lon": 15.099104440316701,
      "geoinfo": {
        "display_name": "Jager, Cesta Simona Blatnika, Stara vas, Podkraj pri Velenju, Velenje, 3320, Slovenia",
        "road": "Cesta Simona Blatnika",
        "house_number": null,
        "neighbourhood": null,
        "suburb": "Stara vas",
        "city_district": null,
        "city": "Velenje",
        "state": null,
        "postcode": "3320",
        "country": "Slovenia",
        "country_code": "si"
      },
      "address": "Cesta Simona Blatnika, Velenje, Slovenia"
    },
    {
      "lat": 46.33502924383112,
      "lon": 15.146788146062137,
      "geoinfo": {
        "display_name": "Bivak Špica, Laze, Žalec, 3320, Slovenia",
        "road": "Laze",
        "house_number": null,
        "neighbourhood": null,
        "suburb": null,
        "city_district": null,
        "city": "Žalec",
        "state": null,
        "postcode": "3320",
        "country": "Slovenia",
        "country_code": "si"
      },
      "address": "Laze, Velenje, Slovenia"
    },
    {
      "lat": 46.354553284961426,
      "lon": 15.143535324691907,
      "geoinfo": {
        "display_name": "Bevče, Gorica, Bevče, Velenje, 3320, Slovenia",
        "road": "Bevče",
        "house_number": null,
        "neighbourhood": null,
        "suburb": "Gorica",
        "city_district": null,
        "city": "Velenje",
        "state": null,
        "postcode": "3320",
        "country": "Slovenia",
        "country_code": "si"
      },
      "address": "396, Bevče, Gorica, Bevče, Velenje, 3320, Slovenia"
    },
    {
      "lat": 46.3892506541481,
      "lon": 15.103943311285487,
      "geoinfo": {
        "display_name": "Škale, Velenje, 3320, Slovenia",
        "road": null,
        "house_number": null,
        "neighbourhood": null,
        "suburb": null,
        "city_district": null,
        "city": "Velenje",
        "state": null,
        "postcode": "3320",
        "country": "Slovenia",
        "country_code": "si"
      },
      "address": "447, Škale, Velenje, 3320, Slovenia"
    },
    {
      "lat": 46.34714602888821,
      "lon": 15.146475497851,
      "geoinfo": {
        "display_name": "Gorica, Bevče, Velenje, 3320, Slovenia",
        "road": null,
        "house_number": null,
        "neighbourhood": null,
        "suburb": "Gorica",
        "city_district": null,
        "city": "Velenje",
        "state": null,
        "postcode": "3320",
        "country": "Slovenia",
        "country_code": "si"
      },
      "address": "829, Gorica, Bevče, Velenje, 3320, Slovenia"
    },
    {
      "lat": 46.376967907058194,
      "lon": 15.053422844454287,
      "geoinfo": {
        "display_name": "Cankarjeva cesta, Šoštanj, 3325, Slovenia",
        "road": "Cankarjeva cesta",
        "house_number": null,
        "neighbourhood": null,
        "suburb": null,
        "city_district": null,
        "city": "Šoštanj",
        "state": null,
        "postcode": "3325",
        "country": "Slovenia",
        "country_code": "si"
      },
      "address": "555, Cankarjeva cesta, 3325 Velenje, Slovenia"
    },
    {
      "lat": 46.36514415243921,
      "lon": 15.089553063071165,
      "geoinfo": {
        "display_name": "Pesje, Podkraj pri Velenju, Velenje, 3325, Slovenia",
        "road": null,
        "house_number": null,
        "neighbourhood": null,
        "suburb": "Pesje",
        "city_district": null,
        "city": "Velenje",
        "state": null,
        "postcode": "3325",
        "country": "Slovenia",
        "country_code": "si"
      },
      "address": "103, Pesje, Podkraj pri Velenju, Velenje, 3325, Slovenia"
    },
    {
      "lat": 46.37522113531629,
      "lon": 15.111097179456825,
      "geoinfo": {
        "display_name": "696, Šalek, Škale, Velenje, 3320, Slovenia",
        "road": "696",
        "house_number": null,
        "neighbourhood": null,
        "suburb": "Šalek",
        "city_district": null,
        "city": "Velenje",
        "state": null,
        "postcode": "3320",
        "country": "Slovenia",
        "country_code": "si"
      },
      "address": "696, Šalek, Škale, Velenje, 3320, Slovenia"
    },
    {
      "lat": 46.37705814724957,
      "lon": 15.130892140743848,
      "geoinfo": {
        "display_name": "Šenbric, Selo, Paka pri Velenju, Velenje, 3320, Slovenia",
        "road": "Šenbric",
        "house_number": null,
        "neighbourhood": null,
        "suburb": "Selo",
        "city_district": null,
        "city": "Velenje",
        "state": null,
        "postcode": "3320",
        "country": "Slovenia",
        "country_code": "si"
      },
      "address": "276, Šenbric, Selo, Paka pri Velenju, Velenje, 3320, Slovenia"
    },
    {
      "lat": 46.33584957752933,
      "lon": 15.088394964192858,
      "geoinfo": {
        "display_name": "Ložnica, Kavče, Velenje, 3320, Slovenia",
        "road": "Ložnica",
        "house_number": null,
        "neighbourhood": null,
        "suburb": null,
        "city_district": null,
        "city": "Velenje",
        "state": null,
        "postcode": "3320",
        "country": "Slovenia",
        "country_code": "si"
      },
      "address": "160, Ložnica, Kavče, Velenje, 3320, Slovenia"
    },
    {
      "lat": 46.38087733338174,
      "lon": 15.163409105573471,
      "geoinfo": {
        "display_name": "Paka pri Velenju, Velenje, Slovenia",
        "road": "Paka pri Velenju",
        "house_number": null,
        "neighbourhood": null,
        "suburb": null,
        "city_district": null,
        "city": "Velenje",
        "state": null,
        "postcode": null,
        "country": "Slovenia",
        "country_code": "si"
      },
      "address": "241, Paka pri Velenju, 68610 Velenje, Slovenia"
    },
    {
      "lat": 46.32613092369667,
      "lon": 15.130836112198102,
      "geoinfo": {
        "display_name": "Silova, Arnače, Velenje, 3320, Slovenia",
        "road": "Silova",
        "house_number": null,
        "neighbourhood": null,
        "suburb": null,
        "city_district": null,
        "city": "Velenje",
        "state": null,
        "postcode": "3320",
        "country": "Slovenia",
        "country_code": "si"
      },
      "address": "283, Silova, Arnače, Velenje, 3320, Slovenia"
    },
    {
      "lat": 46.36814003753356,
      "lon": 15.101652383299584,
      "geoinfo": {
        "display_name": "Stara vas, Podkraj pri Velenju, Velenje, 3320, Slovenia",
        "road": null,
        "house_number": null,
        "neighbourhood": null,
        "suburb": "Stara vas",
        "city_district": null,
        "city": "Velenje",
        "state": null,
        "postcode": "3320",
        "country": "Slovenia",
        "country_code": "si"
      },
      "address": "812, Stara vas, Podkraj pri Velenju, Velenje, 3320, Slovenia"
    },
    {
      "lat": 46.36499146755217,
      "lon": 15.156849353612127,
      "geoinfo": {
        "display_name": "Paka pri Velenju, Velenje, 3320, Slovenia",
        "road": "Paka pri Velenju",
        "house_number": null,
        "neighbourhood": null,
        "suburb": null,
        "city_district": null,
        "city": "Velenje",
        "state": null,
        "postcode": "3320",
        "country": "Slovenia",
        "country_code": "si"
      },
      "address": "695, Paka pri Velenju, Velenje, 3320, Slovenia"
    }
  ],
  "updated_at": "2025-10-19T07:01:57.165898+00:00",
  "_kind": "geo_samples"
}