{
  "country_code": "MD",
  "country": "Moldova",
  "city": "Bender",
  "geonameid": 618577,
  "target_addresses": 5,
  "samples": [
    {
      "lat": 46.801226078945845,
      "lon": 29.463605901613846,
      "geoinfo": {
        "display_name": "5, Kosmonavtov Street, Leninsky, Bender, Bender City Council, Bender Municipality, Pridnestrovie, MD-3200, Moldova",
        "road": "Kosmonavtov Street",
        "house_number": "5",
        "neighbourhood": null,
        "suburb": "Leninsky",
        "city_district": null,
        "city": "Bender",
        "state": "Pridnestrovie",
        "postcode": "MD-3200",
        "country": "Moldova",
        "country_code": "md"
      },
      "address": "5 Kosmonavtov Street, Bender, Pridnestrovie, Moldova"
    },
    {
      "lat": 46.853446995830325,
      "lon": 29.465534303668413,
      "geoinfo": {
        "display_name": "Leningradskaya Street, Solnechnyy, Bender, Bender City Council, Bender Municipality, Pridnestrovie, MD-6539, Moldova",
        "road": "Leningradskaya Street",
        "house_number": null,
        "neighbourhood": null,
        "suburb": "Solnechnyy",
        "city_district": null,
        "city": "Bender",
        "state": "Pridnestrovie",
        "postcode": "MD-6539",
        "country": "Moldova",
        "country_code": "md"
      },
      "address": "Leningradskaya Street, Bender, Pridnestrovie, Moldova"
    },
    {
      "lat": 46.857848166892246,
      "lon": 29.428192152988263,
      "geoinfo": {
        "display_name": "Hîrbovăț, Anenii Noi District, Moldova",
        "road": null,
        "house_number": null,
        "neighbourhood": null,
        "suburb": null,
        "city_district": null,
        "city": "Hîrbovăț",
        "state": null,
        "postcode": null,
        "country": "Moldova",
        "country_code": "md"
      },
      "address": "Bender, Pridnestrovie, Moldova"
    },
    {
      "lat": 46.84131344329653,
      "lon": 29.448256812813522,
      "geoinfo": {
        "display_name": "Pionerskaya Street, Ptichnik, Khomutyanovka, Proteagailovca, Bender City Council, Bender Municipality, Pridnestrovie, MD-3200, Moldova",
        "road": "Pionerskaya Street",
        "house_number": null,
        "neighbourhood": "Ptichnik",
        "suburb": "Khomutyanovka",
        "city_district": null,
        "city": "Bender City Council",
        "state": "Pridnestrovie",
        "postcode": "MD-3200",
        "country": "Moldova",
        "country_code": "md"
      },
      "address": "Pionerskaya Street, Bender, Pridnestrovie, Moldova"
    },
    {
      "lat": 46.845832997191,
      "lon": 29.491888468555903,
      "geoinfo": {
        "display_name": "15, Parkanskaya Street, Lipkany, Bender, Bender City Council, Bender Municipality, Pridnestrovie, MD-6539, Moldova",
        "road": "Parkanskaya Street",
        "house_number": "15",
        "neighbourhood": null,
        "suburb": "Lipkany",
        "city_district": null,
        "city": "Bender",
        "state": "Pridnestrovie",
        "postcode": "MD-6539",
        "country": "Moldova",
        "country_code": "md"
      },
      "address": "15 Parkanskaya Street, Bender, Pridnestrovie, Moldova"
    },
    {
      "lat": 46.83437535148886,
      "lon": 29.44998982787753,
      "geoinfo": {
        "display_name": "12, Pavlika Morozova Street, Khomutyanovka, Bender, Bender City Council, Bender Municipality, Pridnestrovie, MD-3200, Moldova",
        "road": "Pavlika Morozova Street",
        "house_number": "12",
        "neighbourhood": null,
        "suburb": "Khomutyanovka",
        "city_district": null,
        "city": "Bender",
        "state": "Pridnestrovie",
        "postcode": "MD-3200",
        "country": "Moldova",
        "country_code": "md"
      },
      "address": "12, Pavlika Morozova Street, Khomutyanovka, Bender, Bender City Council, Bender Municipality, Pridnestrovie, MD-3200, Moldova"
    },
    {
      "lat": 46.80982145037237,
      "lon": 29.452878513838666,
      "geoinfo": {
        "display_name": "9, Chernyshevskogo Street, Khomutyanovka, Bender, Bender City Council, Bender Municipality, Pridnestrovie, MD-3200, Moldova",
        "road": "Chernyshevskogo Street",
        "house_number": "9",
        "neighbourhood": null,
        "suburb": "Khomutyanovka",
        "city_district": null,
        "city": "Bender",
        "state": "Pridnestrovie",
        "postcode": "MD-3200",
        "country": "Moldova",
        "country_code": "md"
      },
      "address": "9, Chernyshevskogo Street, Khomutyanovka, Bender, Bender City Council, Bender Municipality, Pridnestrovie, MD-3200, Moldova"
    },
    {
      "lat": 46.81539844853795,
      "lon": 29.536227250892967,
      "geoinfo": {
        "display_name": "Ternovka, Slobdzeya District, Administrative-Territorial Units of the Left Bank of the Dniester, Pridnestrovie, MD-5727, Moldova",
        "road": null,
        "house_number": null,
        "neighbourhood": null,
        "suburb": null,
        "city_district": null,
        "city": "Ternovka",
        "state": "Pridnestrovie",
        "postcode": "MD-5727",
        "country": "Moldova",
        "country_code": "md"
      },
      "address": "612, Bender, MD-5727 Pridnestrovie, Moldova"
    },
    {
      "lat": 46.795173353381635,
      "lon": 29.456936494791464,
      "geoinfo": {
        "display_name": "Lenina Street, Gisca, Bender City Council, Bender Municipality, Căușeni District, Pridnestrovie, MD-3200, Moldova",
        "road": "Lenina Street",
        "house_number": null,
        "neighbourhood": null,
        "suburb": null,
        "city_district": null,
        "city": "Bender City Council",
        "state": "Pridnestrovie",
        "postcode": "MD-3200",
        "country": "Moldova",
        "country_code": "md"
      },
      "address": "855, Lenina Street, Gisca, Bender City Council, Bender Municipality, Căușeni District, Pridnestrovie, MD-3200, Moldova"
    },
    {
      "lat": 46.84517159216836,
      "lon": 29.505722846409185,
      "geoinfo": {
        "display_name": "115, Sadovaya Street, Центр, Parkany, Slobdzeya District, Administrative-Territorial Units of the Left Bank of the Dniester, Pridnestrovie, MD-5722, Moldova",
        "road": "Sadovaya Street",
        "house_number": "115",
        "neighbourhood": "Центр",
        "suburb": null,
        "city_district": null,
        "city": "Parkany",
        "state": "Pridnestrovie",
        "postcode": "MD-5722",
        "country": "Moldova",
        "country_code": "md"
      },
      "address": "115, Sadovaya Street, Bender, MD-5722 Pridnestrovie, Moldova"
    }
  ],
  "updated_at": "2025-10-19T08:09:33.363233+00:00",
  "_kind": "geo_samples"
}