{
  "country_code": "MD",
  "country": "Moldova",
  "city": "Cahul",
  "geonameid": 618456,
  "target_addresses": 5,
  "samples": [
    {
      "lat": 45.9297286370014,
      "lon": 28.24953266914271,
      "geoinfo": {
        "display_name": "Drumul de acces spre satul Cotihana, Cahul, Cahul District, MD-3905, Moldova",
        "road": "Drumul de acces spre satul Cotihana",
        "house_number": null,
        "neighbourhood": null,
        "suburb": null,
        "city_district": null,
        "city": "Cahul",
        "state": null,
        "postcode": "MD-3905",
        "country": "Moldova",
        "country_code": "md"
      },
      "address": "Drumul de acces spre satul Cotihana, Cahul, Moldova"
    },
    {
      "lat": 45.9094401981021,
      "lon": 28.14840909458856,
      "geoinfo": {
        "display_name": "Cahul - frontiera cu România, Crihana Veche, Cahul District, MD-3902, Moldova",
        "road": "Cahul - frontiera cu România",
        "house_number": null,
        "neighbourhood": null,
        "suburb": null,
        "city_district": null,
        "city": "Crihana Veche",
        "state": null,
        "postcode": "MD-3902",
        "country": "Moldova",
        "country_code": "md"
      },
      "address": "Cahul - frontiera cu România, Cahul, Moldova"
    },
    {
      "lat": 45.91330281305789,
      "lon": 28.208500783296575,
      "geoinfo": {
        "display_name": "123, Strada Constantin Negruzzi, Microraionul 15, Cahul, Cahul District, MD-3909, Moldova",
        "road": "Strada Constantin Negruzzi",
        "house_number": "123",
        "neighbourhood": null,
        "suburb": null,
        "city_district": null,
        "city": "Cahul",
        "state": null,
        "postcode": "MD-3909",
        "country": "Moldova",
        "country_code": "md"
      },
      "address": "123 Strada Constantin Negruzzi, Cahul, Moldova"
    },
    {
      "lat": 45.92979288274879,
      "lon": 28.17662536746967,
      "geoinfo": {
        "display_name": "Roșu, Cahul District, MD-3928, Moldova",
        "road": null,
        "house_number": null,
        "neighbourhood": null,
        "suburb": null,
        "city_district": null,
        "city": "Roșu",
        "state": null,
        "postcode": "MD-3928",
        "country": "Moldova",
        "country_code": "md"
      },
      "address": "Cahul, Moldova"
    },
    {
      "lat": 45.90070129939559,
      "lon": 28.262117702130773,
      "geoinfo": {
        "display_name": "Cahul-Vulcăneşti, Lebedenco, Cahul District, MD-3905, Moldova",
        "road": "Cahul-Vulcăneşti",
        "house_number": null,
        "neighbourhood": null,
        "suburb": null,
        "city_district": null,
        "city": null,
        "state": null,
        "postcode": "MD-3905",
        "country": "Moldova",
        "country_code": "md"
      },
      "address": "Cahul-Vulcăneşti, Cahul, Moldova"
    },
    {
      "lat": 45.94697719795536,
      "lon": 28.180678757651158,
      "geoinfo": {
        "display_name": "Roșu, Cahul District, MD-3928, Moldova",
        "road": null,
        "house_number": null,
        "neighbourhood": null,
        "suburb": null,
        "city_district": null,
        "city": "Roșu",
        "state": null,
        "postcode": "MD-3928",
        "country": "Moldova",
        "country_code": "md"
      },
      "address": "103, Roșu, Cahul District, MD-3928, Moldova"
    },
    {
      "lat": 45.897786397502706,
      "lon": 28.18814639549365,
      "geoinfo": {
        "display_name": "4, Strada Gura Frumoasei, Cahul, Cahul District, MD-3902, Moldova",
        "road": "Strada Gura Frumoasei",
        "house_number": "4",
        "neighbourhood": null,
        "suburb": null,
        "city_district": null,
        "city": "Cahul",
        "state": null,
        "postcode": "MD-3902",
        "country": "Moldova",
        "country_code": "md"
      },
      "address": "4, Strada Gura Frumoasei, Cahul, Cahul District, MD-3902, Moldova"
    },
    {
      "lat": 45.93806722735389,
      "lon": 28.222220558850488,
      "geoinfo": {
        "display_name": "Roșu, Cahul District, MD-3928, Moldova",
        "road": null,
        "house_number": null,
        "neighbourhood": null,
        "suburb": null,
        "city_district": null,
        "city": "Roșu",
        "state": null,
        "postcode": "MD-3928",
        "country": "Moldova",
        "country_code": "md"
      },
      "address": "008, Roșu, Cahul District, MD-3928, Moldova"
    },
    {
      "lat": 45.89828669348011,
      "lon": 28.241153865954896,
      "geoinfo": {
        "display_name": "Drumul de acces spre orașul Cahul, Cahul, Crihana Veche, Cahul District, MD-3905, Moldova",
        "road": "Drumul de acces spre orașul Cahul",
        "house_number": null,
        "neighbourhood": null,
        "suburb": null,
        "city_district": null,
        "city": "Cahul",
        "state": null,
        "postcode": "MD-3905",
        "country": "Moldova",
        "country_code": "md"
      },
      "address": "334, Drumul de acces spre orașul Cahul, Cahul, Crihana Veche, Cahul District, MD-3905, Moldova"
    },
    {
      "lat": 45.88167357952317,
      "lon": 28.245249058866293,
      "geoinfo": {
        "display_name": "R32-Drumul de acces spre aeroportul Cahul, Crihana Veche, Cahul District, MD-3922, Moldova",
        "road": "R32-Drumul de acces spre aeroportul Cahul",
        "house_number": null,
        "neighbourhood": null,
        "suburb": null,
        "city_district": null,
        "city": "Crihana Veche",
        "state": null,
        "postcode": "MD-3922",
        "country": "Moldova",
        "country_code": "md"
      },
      "address": "R32-Drumul de acces spre aeroportul Cahul, Crihana Veche, Cahul District, MD-3922, Moldova"
    }
  ],
  "updated_at": "2025-10-19T05:52:57.419217+00:00",
  "_kind": "geo_samples"
}