{
  "country_code": "MD",
  "country": "Moldova",
  "city": "Codru",
  "geonameid": 618054,
  "target_addresses": 5,
  "samples": [
    {
      "lat": 46.96008046679166,
      "lon": 28.8290003977995,
      "geoinfo": {
        "display_name": "Potârnichii Street, Costiujeni, Codru, Chișinău Municipality, MD-2011, Moldova",
        "road": "Potârnichii Street",
        "house_number": null,
        "neighbourhood": null,
        "suburb": null,
        "city_district": null,
        "city": "Codru",
        "state": null,
        "postcode": "MD-2011",
        "country": "Moldova",
        "country_code": "md"
      },
      "address": "Potârnichii Street, Codru, Moldova"
    },
    {
      "lat": 46.9809501303098,
      "lon": 28.79135036887675,
      "geoinfo": {
        "display_name": "Tortuga Camping & Fishing, Sihastrului Street, Codru, Chișinău Municipality, MD-2070, Moldova",
        "road": "Sihastrului Street",
        "house_number": null,
        "neighbourhood": null,
        "suburb": null,
        "city_district": null,
        "city": "Codru",
        "state": null,
        "postcode": "MD-2070",
        "country": "Moldova",
        "country_code": "md"
      },
      "address": "Sihastrului Street, Codru, Moldova"
    },
    {
      "lat": 46.94927199423877,
      "lon": 28.8164998528089,
      "geoinfo": {
        "display_name": "Ialoveni, Ialoveni District, Moldova",
        "road": null,
        "house_number": null,
        "neighbourhood": null,
        "suburb": null,
        "city_district": null,
        "city": "Ialoveni",
        "state": null,
        "postcode": null,
        "country": "Moldova",
        "country_code": "md"
      },
      "address": "Codru, Moldova"
    },
    {
      "lat": 46.946223945655326,
      "lon": 28.828978222250033,
      "geoinfo": {
        "display_name": "Costiujeni Street, Codru, Chișinău Municipality, MD-2011, Moldova",
        "road": "Costiujeni Street",
        "house_number": null,
        "neighbourhood": null,
        "suburb": null,
        "city_district": null,
        "city": "Codru",
        "state": null,
        "postcode": "MD-2011",
        "country": "Moldova",
        "country_code": "md"
      },
      "address": "Costiujeni Street, Codru, Moldova"
    },
    {
      "lat": 46.966669951606626,
      "lon": 28.82869451856556,
      "geoinfo": {
        "display_name": "44, Sfântul Gheorghe Street, Costiujeni, Codru, Chișinău Municipality, MD-2011, Moldova",
        "road": "Sfântul Gheorghe Street",
        "house_number": "44",
        "neighbourhood": null,
        "suburb": null,
        "city_district": null,
        "city": "Codru",
        "state": null,
        "postcode": "MD-2011",
        "country": "Moldova",
        "country_code": "md"
      },
      "address": "44 Sfântul Gheorghe Street, Codru, Moldova"
    },
    {
      "lat": 46.988382108522835,
      "lon": 28.81639530599861,
      "geoinfo": {
        "display_name": "Codru, Chișinău Municipality, MD-2028, Moldova",
        "road": null,
        "house_number": null,
        "neighbourhood": null,
        "suburb": null,
        "city_district": null,
        "city": "Codru",
        "state": null,
        "postcode": "MD-2028",
        "country": "Moldova",
        "country_code": "md"
      },
      "address": "602, Codru, Chișinău Municipality, MD-2028, Moldova"
    },
    {
      "lat": 46.97977406593213,
      "lon": 28.80135329488845,
      "geoinfo": {
        "display_name": "84/v, Sihastrului Street, Codru, Chișinău Municipality, MD-2019, Moldova",
        "road": "Sihastrului Street",
        "house_number": "84/v",
        "neighbourhood": null,
        "suburb": null,
        "city_district": null,
        "city": "Codru",
        "state": null,
        "postcode": "MD-2019",
        "country": "Moldova",
        "country_code": "md"
      },
      "address": "84/v, Sihastrului Street, Codru, Chișinău Municipality, MD-2019, Moldova"
    },
    {
      "lat": 46.98768188308638,
      "lon": 28.806182355115826,
      "geoinfo": {
        "display_name": "13, Vascan Street, Codru, Chișinău Municipality, MD-2019, Moldova",
        "road": "Vascan Street",
        "house_number": "13",
        "neighbourhood": null,
        "suburb": null,
        "city_district": null,
        "city": "Codru",
        "state": null,
        "postcode": "MD-2019",
        "country": "Moldova",
        "country_code": "md"
      },
      "address": "13, Vascan Street, Codru, Chișinău Municipality, MD-2019, Moldova"
    },
    {
      "lat": 47.017360376518695,
      "lon": 28.79919985880699,
      "geoinfo": {
        "display_name": "3, Ghioceilor Street, Buiucanii Vechi, Buiucani Sector, Chișinău, Chișinău Municipality, MD-2008, Moldova",
        "road": "Ghioceilor Street",
        "house_number": "3",
        "neighbourhood": null,
        "suburb": "Buiucani Sector",
        "city_district": null,
        "city": "Chișinău",
        "state": null,
        "postcode": "MD-2008",
        "country": "Moldova",
        "country_code": "md"
      },
      "address": "3, Ghioceilor Street, Buiucanii Vechi, Buiucani Sector, Chișinău, Chișinău Municipality, MD-2008, Moldova"
    },
    {
      "lat": 46.98263409129788,
      "lon": 28.781648348858504,
      "geoinfo": {
        "display_name": "Vinului Street, Codru, Chișinău Municipality, MD-2070, Moldova",
        "road": "Vinului Street",
        "house_number": null,
        "neighbourhood": null,
        "suburb": null,
        "city_district": null,
        "city": "Codru",
        "state": null,
        "postcode": "MD-2070",
        "country": "Moldova",
        "country_code": "md"
      },
      "address": "856, Vinului Street, Codru, Chișinău Municipality, MD-2070, Moldova"
    }
  ],
  "updated_at": "2025-10-19T04:13:48.123230+00:00",
  "_kind": "geo_samples"
}