{
  "country_code": "MD",
  "country": "Moldova",
  "city": "Dubăsari",
  "geonameid": 618365,
  "target_addresses": 5,
  "samples": [
    {
      "lat": 47.26834392837295,
      "lon": 29.18179428651011,
      "geoinfo": {
        "display_name": "Объездная дорога, Dubăsari town council, Corjova, Dubăsari District, Dubossary District (Pridnestrovie), Administrative-Territorial Units of the Left Bank of the Dniester, Pridnestrovie, MD-4500, Moldova",
        "road": "Объездная дорога",
        "house_number": null,
        "neighbourhood": null,
        "suburb": null,
        "city_district": null,
        "city": "Dubăsari town council",
        "state": "Pridnestrovie",
        "postcode": "MD-4500",
        "country": "Moldova",
        "country_code": "md"
      },
      "address": "Объездная дорога, Dubăsari, Pridnestrovie, Moldova"
    },
    {
      "lat": 47.29710412324346,
      "lon": 29.188937835552757,
      "geoinfo": {
        "display_name": "Korzhevo, Corjova, Dubăsari District, Dubossary District (Pridnestrovie), Administrative-Territorial Units of the Left Bank of the Dniester, Pridnestrovie, MD-4500, Moldova",
        "road": null,
        "house_number": null,
        "neighbourhood": null,
        "suburb": null,
        "city_district": null,
        "city": "Korzhevo",
        "state": "Pridnestrovie",
        "postcode": "MD-4500",
        "country": "Moldova",
        "country_code": "md"
      },
      "address": "Dubăsari, Pridnestrovie, Moldova"
    },
    {
      "lat": 47.29741306003138,
      "lon": 29.165206049684766,
      "geoinfo": {
        "display_name": "Dubossary - Rybnitsa, Goyany, Corjova, Dubăsari District, Dubossary District (Pridnestrovie), Administrative-Territorial Units of the Left Bank of the Dniester, Pridnestrovie, MD-4518, Moldova",
        "road": "Dubossary - Rybnitsa",
        "house_number": null,
        "neighbourhood": null,
        "suburb": null,
        "city_district": null,
        "city": "Goyany",
        "state": "Pridnestrovie",
        "postcode": "MD-4518",
        "country": "Moldova",
        "country_code": "md"
      },
      "address": "Dubossary - Rybnitsa, Dubăsari, Pridnestrovie, Moldova"
    },
    {
      "lat": 47.23863292577771,
      "lon": 29.13979877613094,
      "geoinfo": {
        "display_name": "18, Strada Tineretului, Zolonceni, Criuleni, Criuleni District, MD-4801, Moldova",
        "road": "Strada Tineretului",
        "house_number": "18",
        "neighbourhood": null,
        "suburb": null,
        "city_district": null,
        "city": "Criuleni",
        "state": null,
        "postcode": "MD-4801",
        "country": "Moldova",
        "country_code": "md"
      },
      "address": "18 Strada Tineretului, Dubăsari, Pridnestrovie, Moldova"
    },
    {
      "lat": 47.268832298783735,
      "lon": 29.17810403957827,
      "geoinfo": {
        "display_name": "5, Bondarenko Street, Bolshoy Fontan, Dubăsari town council, Dubossary District (Pridnestrovie), Administrative-Territorial Units of the Left Bank of the Dniester, Pridnestrovie, MD-4520, Moldova",
        "road": "Bondarenko Street",
        "house_number": "5",
        "neighbourhood": null,
        "suburb": null,
        "city_district": null,
        "city": "Dubăsari town council",
        "state": "Pridnestrovie",
        "postcode": "MD-4520",
        "country": "Moldova",
        "country_code": "md"
      },
      "address": "5 Bondarenko Street, Dubăsari, Pridnestrovie, Moldova"
    },
    {
      "lat": 47.258946464621424,
      "lon": 29.139130150950393,
      "geoinfo": {
        "display_name": "Пляжная улица, Dubăsari town council, Dubossary District (Pridnestrovie), Administrative-Territorial Units of the Left Bank of the Dniester, Pridnestrovie, MD-4500, Moldova",
        "road": "Пляжная улица",
        "house_number": null,
        "neighbourhood": null,
        "suburb": null,
        "city_district": null,
        "city": "Dubăsari town council",
        "state": "Pridnestrovie",
        "postcode": "MD-4500",
        "country": "Moldova",
        "country_code": "md"
      },
      "address": "642, Пляжная улица, Dubăsari town council, Dubossary District (Pridnestrovie), Administrative-Territorial Units of the Left Bank of the Dniester, Pridnestrovie, MD-4500, Moldova"
    },
    {
      "lat": 47.30402795040811,
      "lon": 29.14326380259481,
      "geoinfo": {
        "display_name": "Cocieri, Dubăsari District, MD-4571, Moldova",
        "road": null,
        "house_number": null,
        "neighbourhood": null,
        "suburb": null,
        "city_district": null,
        "city": "Cocieri",
        "state": null,
        "postcode": "MD-4571",
        "country": "Moldova",
        "country_code": "md"
      },
      "address": "282, Cocieri, Dubăsari District, MD-4571, Moldova"
    },
    {
      "lat": 47.295010983231585,
      "lon": 29.1415900531739,
      "geoinfo": {
        "display_name": "65, Proletarskaya Street, Korzhevo, Corjova, Dubăsari District, Dubossary District (Pridnestrovie), Pridnestrovie, MD-4500, Moldova",
        "road": "Proletarskaya Street",
        "house_number": "65",
        "neighbourhood": null,
        "suburb": null,
        "city_district": null,
        "city": "Korzhevo",
        "state": "Pridnestrovie",
        "postcode": "MD-4500",
        "country": "Moldova",
        "country_code": "md"
      },
      "address": "65, Proletarskaya Street, Korzhevo, Corjova, Dubăsari District, Dubossary District (Pridnestrovie), Pridnestrovie, MD-4500, Moldova"
    },
    {
      "lat": 47.24568632593308,
      "lon": 29.158199549404433,
      "geoinfo": {
        "display_name": "Shchorsa Street, посёлок Геологов, Lunga, Dubossary District (Pridnestrovie), Administrative-Territorial Units of the Left Bank of the Dniester, Pridnestrovie, MD-4520, Moldova",
        "road": "Shchorsa Street",
        "house_number": null,
        "neighbourhood": null,
        "suburb": null,
        "city_district": null,
        "city": "Lunga",
        "state": "Pridnestrovie",
        "postcode": "MD-4520",
        "country": "Moldova",
        "country_code": "md"
      },
      "address": "339, Shchorsa Street, Dubăsari, MD-4520 Pridnestrovie, Moldova"
    },
    {
      "lat": 47.23195911514638,
      "lon": 29.15293338552019,
      "geoinfo": {
        "display_name": "Peștera Surprizelor, Chișinău-Dubăsari, Criuleni, Criuleni District, MD-4520, Moldova",
        "road": "Chișinău-Dubăsari",
        "house_number": null,
        "neighbourhood": null,
        "suburb": null,
        "city_district": null,
        "city": "Criuleni",
        "state": null,
        "postcode": "MD-4520",
        "country": "Moldova",
        "country_code": "md"
      },
      "address": "945, Chișinău-Dubăsari, MD-4520 Dubăsari, Moldova"
    }
  ],
  "updated_at": "2025-10-19T05:54:24.682285+00:00",
  "_kind": "geo_samples"
}