{
  "country_code": "MD",
  "country": "Moldova",
  "city": "Floreşti",
  "geonameid": 618329,
  "target_addresses": 5,
  "samples": [
    {
      "lat": 47.915875495320556,
      "lon": 28.25336951582229,
      "geoinfo": {
        "display_name": "Mărculești, Florești District, Moldova",
        "road": null,
        "house_number": null,
        "neighbourhood": null,
        "suburb": null,
        "city_district": null,
        "city": "Mărculești",
        "state": null,
        "postcode": null,
        "country": "Moldova",
        "country_code": "md"
      },
      "address": "Floreşti, Moldova"
    },
    {
      "lat": 47.881376136623466,
      "lon": 28.25428720617071,
      "geoinfo": {
        "display_name": "7, Strada Ion Creangă, Mărculești, Florești District, MD-5030, Moldova",
        "road": "Strada Ion Creangă",
        "house_number": "7",
        "neighbourhood": null,
        "suburb": null,
        "city_district": null,
        "city": "Mărculești",
        "state": null,
        "postcode": "MD-5030",
        "country": "Moldova",
        "country_code": "md"
      },
      "address": "7 Strada Ion Creangă, Floreşti, Moldova"
    },
    {
      "lat": 47.892498337288714,
      "lon": 28.35138120697351,
      "geoinfo": {
        "display_name": "29, Florești-R14, Florești, Gura Camencii, Florești District, MD-5023, Moldova",
        "road": "Florești-R14",
        "house_number": "29",
        "neighbourhood": null,
        "suburb": null,
        "city_district": null,
        "city": "Florești",
        "state": null,
        "postcode": "MD-5023",
        "country": "Moldova",
        "country_code": "md"
      },
      "address": "29 Florești-R14, Floreşti, Moldova"
    },
    {
      "lat": 47.885624297076475,
      "lon": 28.309222681562854,
      "geoinfo": {
        "display_name": "17, Strada Gării, Florești, Florești District, MD-5001, Moldova",
        "road": "Strada Gării",
        "house_number": "17",
        "neighbourhood": null,
        "suburb": null,
        "city_district": null,
        "city": "Florești",
        "state": null,
        "postcode": "MD-5001",
        "country": "Moldova",
        "country_code": "md"
      },
      "address": "17 Strada Gării, Floreşti, Moldova"
    },
    {
      "lat": 47.87173166699187,
      "lon": 28.244253380314316,
      "geoinfo": {
        "display_name": "37, Strada Mihail Frunze, Mărculești, Florești District, MD-5008, Moldova",
        "road": "Strada Mihail Frunze",
        "house_number": "37",
        "neighbourhood": null,
        "suburb": null,
        "city_district": null,
        "city": "Mărculești",
        "state": null,
        "postcode": "MD-5008",
        "country": "Moldova",
        "country_code": "md"
      },
      "address": "37 Strada Mihail Frunze, Floreşti, Moldova"
    },
    {
      "lat": 47.87546251040181,
      "lon": 28.237605972345207,
      "geoinfo": {
        "display_name": "31, Strada Ștefan cel Mare și Sfînt, Mărculești, Florești District, MD-5008, Moldova",
        "road": "Strada Ștefan cel Mare și Sfînt",
        "house_number": "31",
        "neighbourhood": null,
        "suburb": null,
        "city_district": null,
        "city": "Mărculești",
        "state": null,
        "postcode": "MD-5008",
        "country": "Moldova",
        "country_code": "md"
      },
      "address": "31, Strada Ștefan cel Mare și Sfînt, MD-5008 Floreşti, Moldova"
    },
    {
      "lat": 47.8919177352889,
      "lon": 28.268666629351028,
      "geoinfo": {
        "display_name": "Bălți-Florești, Florești, Mărculești, Florești District, MD-5030, Moldova",
        "road": "Bălți-Florești",
        "house_number": null,
        "neighbourhood": null,
        "suburb": null,
        "city_district": null,
        "city": "Florești",
        "state": null,
        "postcode": "MD-5030",
        "country": "Moldova",
        "country_code": "md"
      },
      "address": "256, Bălți-Florești, MD-5030 Floreşti, Moldova"
    },
    {
      "lat": 47.85539918549307,
      "lon": 28.261857927003348,
      "geoinfo": {
        "display_name": "Strada Luceafărul de Dimineață, Băhrinești, Florești District, MD-5008, Moldova",
        "road": "Strada Luceafărul de Dimineață",
        "house_number": null,
        "neighbourhood": null,
        "suburb": null,
        "city_district": null,
        "city": "Băhrinești",
        "state": null,
        "postcode": "MD-5008",
        "country": "Moldova",
        "country_code": "md"
      },
      "address": "708, Strada Luceafărul de Dimineață, Băhrinești, Florești District, MD-5008, Moldova"
    },
    {
      "lat": 47.865485712647704,
      "lon": 28.331525054051227,
      "geoinfo": {
        "display_name": "Florești-Nicolaevca, Vărvăreuca, Florești District, MD-5021, Moldova",
        "road": "Florești-Nicolaevca",
        "house_number": null,
        "neighbourhood": null,
        "suburb": null,
        "city_district": null,
        "city": null,
        "state": null,
        "postcode": "MD-5021",
        "country": "Moldova",
        "country_code": "md"
      },
      "address": "853, Florești-Nicolaevca, MD-5021 Floreşti, Moldova"
    },
    {
      "lat": 47.89959248745089,
      "lon": 28.320240101204014,
      "geoinfo": {
        "display_name": "5, Strada Grigori Kotovski, Florești, Florești District, MD-5001, Moldova",
        "road": "Strada Grigori Kotovski",
        "house_number": "5",
        "neighbourhood": null,
        "suburb": null,
        "city_district": null,
        "city": "Florești",
        "state": null,
        "postcode": "MD-5001",
        "country": "Moldova",
        "country_code": "md"
      },
      "address": "5, Strada Grigori Kotovski, MD-5001 Floreşti, Moldova"
    }
  ],
  "updated_at": "2025-10-19T05:54:26.458192+00:00",
  "_kind": "geo_samples"
}