{
  "country_code": "MD",
  "country": "Moldova",
  "city": "Hînceşti",
  "geonameid": 617993,
  "target_addresses": 5,
  "samples": [
    {
      "lat": 46.84428996511687,
      "lon": 28.535472142107793,
      "geoinfo": {
        "display_name": "Strada Lăcrămioarelor, Hîncești, Hîncești District, MD-3435, Moldova",
        "road": "Strada Lăcrămioarelor",
        "house_number": null,
        "neighbourhood": null,
        "suburb": null,
        "city_district": null,
        "city": "Hîncești",
        "state": null,
        "postcode": "MD-3435",
        "country": "Moldova",
        "country_code": "md"
      },
      "address": "Strada Lăcrămioarelor, Hînceşti, Moldova"
    },
    {
      "lat": 46.839721662736004,
      "lon": 28.64105987119496,
      "geoinfo": {
        "display_name": "Buteni, Hîncești District, Moldova",
        "road": null,
        "house_number": null,
        "neighbourhood": null,
        "suburb": null,
        "city_district": null,
        "city": "Buteni",
        "state": null,
        "postcode": null,
        "country": "Moldova",
        "country_code": "md"
      },
      "address": "Hînceşti, Moldova"
    },
    {
      "lat": 46.864891946249315,
      "lon": 28.59614668284714,
      "geoinfo": {
        "display_name": "Tabăra de odihnă pentru copii „Codreanca”, Aleea Dragostei, Industrial, Hîncești, Hîncești District, MD-3482, Moldova",
        "road": "Aleea Dragostei",
        "house_number": null,
        "neighbourhood": null,
        "suburb": null,
        "city_district": null,
        "city": "Hîncești",
        "state": null,
        "postcode": "MD-3482",
        "country": "Moldova",
        "country_code": "md"
      },
      "address": "Aleea Dragostei, Hînceşti, Moldova"
    },
    {
      "lat": 46.83406972317502,
      "lon": 28.592054672380005,
      "geoinfo": {
        "display_name": "22, Strada George Coșbuc, Est, Hîncești, Hîncești District, MD-3401, Moldova",
        "road": "Strada George Coșbuc",
        "house_number": "22",
        "neighbourhood": null,
        "suburb": null,
        "city_district": null,
        "city": "Hîncești",
        "state": null,
        "postcode": "MD-3401",
        "country": "Moldova",
        "country_code": "md"
      },
      "address": "22 Strada George Coșbuc, Hînceşti, Moldova"
    },
    {
      "lat": 46.8534130270202,
      "lon": 28.632326265022225,
      "geoinfo": {
        "display_name": "Chișinău-Hîncești, Fundul Galbenei, Hîncești District, MD-3482, Moldova",
        "road": "Chișinău-Hîncești",
        "house_number": null,
        "neighbourhood": null,
        "suburb": null,
        "city_district": null,
        "city": "Fundul Galbenei",
        "state": null,
        "postcode": "MD-3482",
        "country": "Moldova",
        "country_code": "md"
      },
      "address": "Chișinău-Hîncești, Hînceşti, Moldova"
    },
    {
      "lat": 46.8056462276504,
      "lon": 28.611567438734895,
      "geoinfo": {
        "display_name": "Hîncești-Cimișlia, Hîncești, Hîncești District, MD-3482, Moldova",
        "road": "Hîncești-Cimișlia",
        "house_number": null,
        "neighbourhood": null,
        "suburb": null,
        "city_district": null,
        "city": "Hîncești",
        "state": null,
        "postcode": "MD-3482",
        "country": "Moldova",
        "country_code": "md"
      },
      "address": "441, Hîncești-Cimișlia, MD-3482 Hînceşti, Moldova"
    },
    {
      "lat": 46.854036425822855,
      "lon": 28.62674764345877,
      "geoinfo": {
        "display_name": "Chișinău-Hîncești, Fundul Galbenei, Hîncești District, MD-3482, Moldova",
        "road": "Chișinău-Hîncești",
        "house_number": null,
        "neighbourhood": null,
        "suburb": null,
        "city_district": null,
        "city": "Fundul Galbenei",
        "state": null,
        "postcode": "MD-3482",
        "country": "Moldova",
        "country_code": "md"
      },
      "address": "634, Chișinău-Hîncești, MD-3482 Hînceşti, Moldova"
    },
    {
      "lat": 46.82026738639158,
      "lon": 28.58792880632307,
      "geoinfo": {
        "display_name": "16, Strada Constantin Negruzzi, Centru-3, Hîncești, Hîncești District, MD-3401, Moldova",
        "road": "Strada Constantin Negruzzi",
        "house_number": "16",
        "neighbourhood": null,
        "suburb": null,
        "city_district": null,
        "city": "Hîncești",
        "state": null,
        "postcode": "MD-3401",
        "country": "Moldova",
        "country_code": "md"
      },
      "address": "16, Strada Constantin Negruzzi, MD-3401 Hînceşti, Moldova"
    },
    {
      "lat": 46.79067375094032,
      "lon": 28.60957021676563,
      "geoinfo": {
        "display_name": "Hîncești-Cimișlia, Hîncești, Hîncești District, MD-3400, Moldova",
        "road": "Hîncești-Cimișlia",
        "house_number": null,
        "neighbourhood": null,
        "suburb": null,
        "city_district": null,
        "city": "Hîncești",
        "state": null,
        "postcode": "MD-3400",
        "country": "Moldova",
        "country_code": "md"
      },
      "address": "999, Hîncești-Cimișlia, MD-3400 Hînceşti, Moldova"
    },
    {
      "lat": 46.81959321422108,
      "lon": 28.596970449512696,
      "geoinfo": {
        "display_name": "45, Strada Ștefan-Vodă, Sud, Hîncești, Hîncești District, MD-3401, Moldova",
        "road": "Strada Ștefan-Vodă",
        "house_number": "45",
        "neighbourhood": null,
        "suburb": null,
        "city_district": null,
        "city": "Hîncești",
        "state": null,
        "postcode": "MD-3401",
        "country": "Moldova",
        "country_code": "md"
      },
      "address": "45, Strada Ștefan-Vodă, MD-3401 Hînceşti, Moldova"
    }
  ],
  "updated_at": "2025-10-19T03:49:44.651378+00:00",
  "_kind": "geo_samples"
}