{
  "country_code": "MD",
  "country": "Moldova",
  "city": "Ungheni",
  "geonameid": 617180,
  "target_addresses": 23,
  "samples": [
    {
      "lat": 47.18637929524228,
      "lon": 27.74866088975218,
      "geoinfo": {
        "display_name": "Mânzătești, Ungheni, Iași Metropolitan Area, Iași, 707568, Romania",
        "road": null,
        "house_number": null,
        "neighbourhood": null,
        "suburb": null,
        "city_district": null,
        "city": "Mânzătești",
        "state": null,
        "postcode": "707568",
        "country": "Romania",
        "country_code": "ro"
      },
      "address": "Ungheni, Moldova"
    },
    {
      "lat": 47.1765894221438,
      "lon": 27.80608734149875,
      "geoinfo": {
        "display_name": "4, Stradela Băilești, Ungheni, Ungheni District, MD-3602, Moldova",
        "road": "Stradela Băilești",
        "house_number": "4",
        "neighbourhood": null,
        "suburb": null,
        "city_district": null,
        "city": "Ungheni",
        "state": null,
        "postcode": "MD-3602",
        "country": "Moldova",
        "country_code": "md"
      },
      "address": "4 Stradela Băilești, Ungheni, Moldova"
    },
    {
      "lat": 47.21759278241569,
      "lon": 27.795121077771444,
      "geoinfo": {
        "display_name": "36, Strada Decebal, Tineretului, Ungheni, Ungheni District, MD-3600, Moldova",
        "road": "Strada Decebal",
        "house_number": "36",
        "neighbourhood": null,
        "suburb": null,
        "city_district": null,
        "city": "Ungheni",
        "state": null,
        "postcode": "MD-3600",
        "country": "Moldova",
        "country_code": "md"
      },
      "address": "36 Strada Decebal, Ungheni, Moldova"
    },
    {
      "lat": 47.244473320954015,
      "lon": 27.830127288327027,
      "geoinfo": {
        "display_name": "R1-Drumul de acces spre mun. Ungheni, Ungheni, Mănoilești, Ungheni District, MD-3603, Moldova",
        "road": "R1-Drumul de acces spre mun. Ungheni",
        "house_number": null,
        "neighbourhood": null,
        "suburb": null,
        "city_district": null,
        "city": "Ungheni",
        "state": null,
        "postcode": "MD-3603",
        "country": "Moldova",
        "country_code": "md"
      },
      "address": "R1-Drumul de acces spre mun. Ungheni, Ungheni, Moldova"
    },
    {
      "lat": 47.21328708959867,
      "lon": 27.788173997356093,
      "geoinfo": {
        "display_name": "97, Strada Alexandru cel Bun, Tineretului, Ungheni, Ungheni District, MD-3600, Moldova",
        "road": "Strada Alexandru cel Bun",
        "house_number": "97",
        "neighbourhood": null,
        "suburb": null,
        "city_district": null,
        "city": "Ungheni",
        "state": null,
        "postcode": "MD-3600",
        "country": "Moldova",
        "country_code": "md"
      },
      "address": "97 Strada Alexandru cel Bun, Ungheni, Moldova"
    },
    {
      "lat": 47.18014375270484,
      "lon": 27.83446369083278,
      "geoinfo": {
        "display_name": "Valea Mare, Ungheni District, MD-3602, Moldova",
        "road": null,
        "house_number": null,
        "neighbourhood": null,
        "suburb": null,
        "city_district": null,
        "city": "Valea Mare",
        "state": null,
        "postcode": "MD-3602",
        "country": "Moldova",
        "country_code": "md"
      },
      "address": "Valea Mare, Ungheni District, MD-3602, Moldova"
    },
    {
      "lat": 47.21605274999282,
      "lon": 27.805787825485176,
      "geoinfo": {
        "display_name": "Strada Ion Creangă, Centru, Ungheni, Ungheni District, MD-3603, Moldova",
        "road": "Strada Ion Creangă",
        "house_number": null,
        "neighbourhood": null,
        "suburb": null,
        "city_district": null,
        "city": "Ungheni",
        "state": null,
        "postcode": "MD-3603",
        "country": "Moldova",
        "country_code": "md"
      },
      "address": "Strada Ion Creangă, Centru, Ungheni, Ungheni District, MD-3603, Moldova"
    },
    {
      "lat": 47.237999148948035,
      "lon": 27.846157538982972,
      "geoinfo": {
        "display_name": "R1.1-Mănoilești-Cetireni, Mănoilești, Ungheni District, MD-3634, Moldova",
        "road": "R1.1-Mănoilești-Cetireni",
        "house_number": null,
        "neighbourhood": null,
        "suburb": null,
        "city_district": null,
        "city": "Mănoilești",
        "state": null,
        "postcode": "MD-3634",
        "country": "Moldova",
        "country_code": "md"
      },
      "address": "R1.1-Mănoilești-Cetireni, Mănoilești, Ungheni District, MD-3634, Moldova"
    },
    {
      "lat": 47.22654110598884,
      "lon": 27.826659274308263,
      "geoinfo": {
        "display_name": "IP \"Medic-1\", Mănoilești, Ungheni District, MD-3606, Moldova",
        "road": null,
        "house_number": null,
        "neighbourhood": null,
        "suburb": null,
        "city_district": null,
        "city": "Mănoilești",
        "state": null,
        "postcode": "MD-3606",
        "country": "Moldova",
        "country_code": "md"
      },
      "address": "IP \"Medic-1\", Mănoilești, Ungheni District, MD-3606, Moldova"
    },
    {
      "lat": 47.2290323469114,
      "lon": 27.838175091249866,
      "geoinfo": {
        "display_name": "IP \"Medic-1\", Mănoilești, Ungheni District, MD-3606, Moldova",
        "road": null,
        "house_number": null,
        "neighbourhood": null,
        "suburb": null,
        "city_district": null,
        "city": "Mănoilești",
        "state": null,
        "postcode": "MD-3606",
        "country": "Moldova",
        "country_code": "md"
      },
      "address": "IP \"Medic-1\", Mănoilești, Ungheni District, MD-3606, Moldova"
    },
    {
      "lat": 47.236080129876974,
      "lon": 27.7658425395631,
      "geoinfo": {
        "display_name": "13, Strada Mânzăteștii Vechi, Vasilica, Ungheni, Ungheni District, MD-3604, Moldova",
        "road": "Strada Mânzăteștii Vechi",
        "house_number": "13",
        "neighbourhood": null,
        "suburb": null,
        "city_district": null,
        "city": "Ungheni",
        "state": null,
        "postcode": "MD-3604",
        "country": "Moldova",
        "country_code": "md"
      },
      "address": "13, Strada Mânzăteștii Vechi, Vasilica, Ungheni, Ungheni District, MD-3604, Moldova"
    },
    {
      "lat": 47.17998149292832,
      "lon": 27.842917499872083,
      "geoinfo": {
        "display_name": "Valea Mare, Ungheni District, MD-3602, Moldova",
        "road": null,
        "house_number": null,
        "neighbourhood": null,
        "suburb": null,
        "city_district": null,
        "city": "Valea Mare",
        "state": null,
        "postcode": "MD-3602",
        "country": "Moldova",
        "country_code": "md"
      },
      "address": "903, Valea Mare, Ungheni District, MD-3602, Moldova"
    },
    {
      "lat": 47.16986351873593,
      "lon": 27.8201602911168,
      "geoinfo": {
        "display_name": "Valea Mare, Ungheni District, MD-3651, Moldova",
        "road": null,
        "house_number": null,
        "neighbourhood": null,
        "suburb": null,
        "city_district": null,
        "city": "Valea Mare",
        "state": null,
        "postcode": "MD-3651",
        "country": "Moldova",
        "country_code": "md"
      },
      "address": "449, Valea Mare, Ungheni District, MD-3651, Moldova"
    },
    {
      "lat": 47.23785834833617,
      "lon": 27.789383953594363,
      "geoinfo": {
        "display_name": "Strada Berești, Zagarancea, Ungheni District, MD-3652, Moldova",
        "road": "Strada Berești",
        "house_number": null,
        "neighbourhood": null,
        "suburb": null,
        "city_district": null,
        "city": "Zagarancea",
        "state": null,
        "postcode": "MD-3652",
        "country": "Moldova",
        "country_code": "md"
      },
      "address": "143, Strada Berești, Zagarancea, Ungheni District, MD-3652, Moldova"
    },
    {
      "lat": 47.18608013064093,
      "lon": 27.807218284887696,
      "geoinfo": {
        "display_name": "7, Stradela Cocostârcilor, Dănuțeni, Ungheni, Ungheni District, MD-3602, Moldova",
        "road": "Stradela Cocostârcilor",
        "house_number": "7",
        "neighbourhood": null,
        "suburb": null,
        "city_district": null,
        "city": "Ungheni",
        "state": null,
        "postcode": "MD-3602",
        "country": "Moldova",
        "country_code": "md"
      },
      "address": "7, Stradela Cocostârcilor, Dănuțeni, Ungheni, Ungheni District, MD-3602, Moldova"
    },
    {
      "lat": 47.188607135749315,
      "lon": 27.808274360036624,
      "geoinfo": {
        "display_name": "Școala Profesională Ungheni, 137, Strada Ștefan cel Mare și Sfânt, Dănuțeni, Ungheni, Ungheni District, MD-3602, Moldova",
        "road": "Strada Ștefan cel Mare și Sfânt",
        "house_number": "137",
        "neighbourhood": null,
        "suburb": null,
        "city_district": null,
        "city": "Ungheni",
        "state": null,
        "postcode": "MD-3602",
        "country": "Moldova",
        "country_code": "md"
      },
      "address": "Școala Profesională Ungheni, 137, Strada Ștefan cel Mare și Sfânt, Dănuțeni, Ungheni, Ungheni District, MD-3602, Moldova"
    },
    {
      "lat": 47.21356606200612,
      "lon": 27.81221459015532,
      "geoinfo": {
        "display_name": "50, Strada Națională, Centru, Ungheni, Ungheni District, MD-3606, Moldova",
        "road": "Strada Națională",
        "house_number": "50",
        "neighbourhood": null,
        "suburb": null,
        "city_district": null,
        "city": "Ungheni",
        "state": null,
        "postcode": "MD-3606",
        "country": "Moldova",
        "country_code": "md"
      },
      "address": "50, Strada Națională, Centru, Ungheni, Ungheni District, MD-3606, Moldova"
    },
    {
      "lat": 47.20783621031659,
      "lon": 27.8022923910273,
      "geoinfo": {
        "display_name": "20, Strada Națională, Centru, Ungheni, Ungheni District, MD-3600, Moldova",
        "road": "Strada Națională",
        "house_number": "20",
        "neighbourhood": null,
        "suburb": null,
        "city_district": null,
        "city": "Ungheni",
        "state": null,
        "postcode": "MD-3600",
        "country": "Moldova",
        "country_code": "md"
      },
      "address": "20, Strada Națională, Centru, Ungheni, Ungheni District, MD-3600, Moldova"
    },
    {
      "lat": 47.195122007491946,
      "lon": 27.8299582106304,
      "geoinfo": {
        "display_name": "Drum de acces spre IP \"Stimul\", Ungheni, Mănoilești, Ungheni District, MD-3602, Moldova",
        "road": "Drum de acces spre IP \"Stimul\"",
        "house_number": null,
        "neighbourhood": null,
        "suburb": null,
        "city_district": null,
        "city": "Ungheni",
        "state": null,
        "postcode": "MD-3602",
        "country": "Moldova",
        "country_code": "md"
      },
      "address": "590, Drum de acces spre IP \"Stimul\", Ungheni, Mănoilești, Ungheni District, MD-3602, Moldova"
    },
    {
      "lat": 47.18336883338479,
      "lon": 27.804451985362466,
      "geoinfo": {
        "display_name": "2, Stradela Nuferilor, Dănuțeni, Ungheni, Ungheni District, MD-3602, Moldova",
        "road": "Stradela Nuferilor",
        "house_number": "2",
        "neighbourhood": null,
        "suburb": null,
        "city_district": null,
        "city": "Ungheni",
        "state": null,
        "postcode": "MD-3602",
        "country": "Moldova",
        "country_code": "md"
      },
      "address": "2, Stradela Nuferilor, Dănuțeni, Ungheni, Ungheni District, MD-3602, Moldova"
    },
    {
      "lat": 47.20702623691335,
      "lon": 27.83657908180137,
      "geoinfo": {
        "display_name": "IP \"Pișcevic\", Valea Mare, Ungheni District, MD-3602, Moldova",
        "road": null,
        "house_number": null,
        "neighbourhood": null,
        "suburb": null,
        "city_district": null,
        "city": "Valea Mare",
        "state": null,
        "postcode": "MD-3602",
        "country": "Moldova",
        "country_code": "md"
      },
      "address": "525, IP \"Pișcevic\", Valea Mare, Ungheni District, MD-3602, Moldova"
    },
    {
      "lat": 47.19632104754549,
      "lon": 27.799845531782463,
      "geoinfo": {
        "display_name": "46, Strada Ștefan cel Mare și Sfânt, Ungheni Vale, Ungheni, Ungheni District, MD-3600, Moldova",
        "road": "Strada Ștefan cel Mare și Sfânt",
        "house_number": "46",
        "neighbourhood": null,
        "suburb": null,
        "city_district": null,
        "city": "Ungheni",
        "state": null,
        "postcode": "MD-3600",
        "country": "Moldova",
        "country_code": "md"
      },
      "address": "46, Strada Ștefan cel Mare și Sfânt, Ungheni Vale, Ungheni, Ungheni District, MD-3600, Moldova"
    },
    {
      "lat": 47.20344272207977,
      "lon": 27.812964093380497,
      "geoinfo": {
        "display_name": "63, Strada Haiducilor, Ungheni Deal, Ungheni, Ungheni District, MD-3606, Moldova",
        "road": "Strada Haiducilor",
        "house_number": "63",
        "neighbourhood": null,
        "suburb": null,
        "city_district": null,
        "city": "Ungheni",
        "state": null,
        "postcode": "MD-3606",
        "country": "Moldova",
        "country_code": "md"
      },
      "address": "63, Strada Haiducilor, Ungheni Deal, Ungheni, Ungheni District, MD-3606, Moldova"
    },
    {
      "lat": 47.20419802828265,
      "lon": 27.860813178985744,
      "geoinfo": {
        "display_name": "Florițoaia Veche-Ungheni, Florițoaia Veche, Ungheni District, MD-3626, Moldova",
        "road": "Florițoaia Veche-Ungheni",
        "house_number": null,
        "neighbourhood": null,
        "suburb": null,
        "city_district": null,
        "city": "Florițoaia Veche",
        "state": null,
        "postcode": "MD-3626",
        "country": "Moldova",
        "country_code": "md"
      },
      "address": "614, Florițoaia Veche-Ungheni, Florițoaia Veche, Ungheni District, MD-3626, Moldova"
    },
    {
      "lat": 47.1940631584844,
      "lon": 27.805489832107565,
      "geoinfo": {
        "display_name": "6, Strada Ciurești, Ungheni Deal, Ungheni, Ungheni District, MD-3602, Moldova",
        "road": "Strada Ciurești",
        "house_number": "6",
        "neighbourhood": null,
        "suburb": null,
        "city_district": null,
        "city": "Ungheni",
        "state": null,
        "postcode": "MD-3602",
        "country": "Moldova",
        "country_code": "md"
      },
      "address": "6, Strada Ciurești, Ungheni Deal, Ungheni, Ungheni District, MD-3602, Moldova"
    }
  ],
  "updated_at": "2025-10-19T05:41:16.008450+00:00",
  "_kind": "geo_samples"
}