{
  "country_code": "BT",
  "country": "Bhutan",
  "city": "Punākha",
  "geonameid": 1252479,
  "target_addresses": 25,
  "samples": [
    {
      "lat": 27.582860940200298,
      "lon": 89.89766410264856,
      "geoinfo": {
        "display_name": "Tanag Uesa, Dzomi Gewog, Punakha District, Bhutan",
        "road": null,
        "house_number": null,
        "neighbourhood": null,
        "suburb": null,
        "city_district": null,
        "city": "Tanag Uesa",
        "state": "Punakha District",
        "postcode": null,
        "country": "Bhutan",
        "country_code": "bt"
      },
      "address": "Punākha, Punakha District, Bhutan"
    },
    {
      "lat": 27.566701871597353,
      "lon": 89.86431718849516,
      "geoinfo": {
        "display_name": "Punakha District Court, Misina - Punakha Highway, Pajo, Kuruthang, Changyuel Loongsilgang Tashijong, Guma Gewog, Punakha District, 13001, Bhutan",
        "road": "Misina - Punakha Highway",
        "house_number": null,
        "neighbourhood": null,
        "suburb": null,
        "city_district": null,
        "city": "Changyuel Loongsilgang Tashijong",
        "state": "Punakha District",
        "postcode": "13001",
        "country": "Bhutan",
        "country_code": "bt"
      },
      "address": "Misina - Punakha Highway, Punākha, Punakha District, Bhutan"
    },
    {
      "lat": 27.584549773201516,
      "lon": 89.85928564329816,
      "geoinfo": {
        "display_name": "Punakha - Gasa, Changyul, Changyuel Loongsilgang Tashijong, Guma Gewog, Punakha District, 13001, Bhutan",
        "road": "Punakha - Gasa",
        "house_number": null,
        "neighbourhood": null,
        "suburb": null,
        "city_district": null,
        "city": "Changyuel Loongsilgang Tashijong",
        "state": "Punakha District",
        "postcode": "13001",
        "country": "Bhutan",
        "country_code": "bt"
      },
      "address": "Punakha - Gasa, Punākha, Punakha District, Bhutan"
    },
    {
      "lat": 27.624957209945553,
      "lon": 89.8647141033508,
      "geoinfo": {
        "display_name": "Jangwakha Sewala, Chhuboog Gewog, Punakha District, Bhutan",
        "road": null,
        "house_number": null,
        "neighbourhood": null,
        "suburb": null,
        "city_district": null,
        "city": "Jangwakha Sewala",
        "state": "Punakha District",
        "postcode": null,
        "country": "Bhutan",
        "country_code": "bt"
      },
      "address": "639, Punākha, 83226 Punakha District, Bhutan"
    },
    {
      "lat": 27.609080849649793,
      "lon": 89.91261370347222,
      "geoinfo": {
        "display_name": "Shelnga-Bjemi Gewog, Punakha District, Bhutan",
        "road": null,
        "house_number": null,
        "neighbourhood": null,
        "suburb": null,
        "city_district": null,
        "city": null,
        "state": "Punakha District",
        "postcode": null,
        "country": "Bhutan",
        "country_code": "bt"
      },
      "address": "935, Punākha, 74748 Punakha District, Bhutan"
    },
    {
      "lat": 27.573846858512866,
      "lon": 89.8920114981298,
      "geoinfo": {
        "display_name": "Jimithang, Dzomi Gewog, Punakha District, Bhutan",
        "road": null,
        "house_number": null,
        "neighbourhood": null,
        "suburb": null,
        "city_district": null,
        "city": "Jimithang",
        "state": "Punakha District",
        "postcode": null,
        "country": "Bhutan",
        "country_code": "bt"
      },
      "address": "772, Punākha, 45087 Punakha District, Bhutan"
    },
    {
      "lat": 27.596974158987507,
      "lon": 89.88376882125829,
      "geoinfo": {
        "display_name": "Tanag Uesa, Dzomi Gewog, Punakha District, 13001, Bhutan",
        "road": null,
        "house_number": null,
        "neighbourhood": null,
        "suburb": null,
        "city_district": null,
        "city": "Tanag Uesa",
        "state": "Punakha District",
        "postcode": "13001",
        "country": "Bhutan",
        "country_code": "bt"
      },
      "address": "749, Punākha, 13001 Punakha District, Bhutan"
    },
    {
      "lat": 27.62090435731977,
      "lon": 89.87216328567627,
      "geoinfo": {
        "display_name": "Dzomisa Mendagang, Toedwang Gewog, Punakha District, 13001, Bhutan",
        "road": null,
        "house_number": null,
        "neighbourhood": null,
        "suburb": null,
        "city_district": null,
        "city": "Dzomisa Mendagang",
        "state": "Punakha District",
        "postcode": "13001",
        "country": "Bhutan",
        "country_code": "bt"
      },
      "address": "422, Punākha, 13001 Punakha District, Bhutan"
    },
    {
      "lat": 27.565415962036262,
      "lon": 89.87049076331208,
      "geoinfo": {
        "display_name": "Misina - Punakha Highway, Pajo, Kuruthang, Changyuel Loongsilgang Tashijong, Guma Gewog, Punakha District, 13001, Bhutan",
        "road": "Misina - Punakha Highway",
        "house_number": null,
        "neighbourhood": null,
        "suburb": null,
        "city_district": null,
        "city": "Changyuel Loongsilgang Tashijong",
        "state": "Punakha District",
        "postcode": "13001",
        "country": "Bhutan",
        "country_code": "bt"
      },
      "address": "879, Misina - Punakha Highway, Punākha, 13001 Punakha District, Bhutan"
    },
    {
      "lat": 27.62987995080474,
      "lon": 89.86150944826107,
      "geoinfo": {
        "display_name": "Jangwakha Sewala, Chhuboog Gewog, Punakha District, Bhutan",
        "road": null,
        "house_number": null,
        "neighbourhood": null,
        "suburb": null,
        "city_district": null,
        "city": "Jangwakha Sewala",
        "state": "Punakha District",
        "postcode": null,
        "country": "Bhutan",
        "country_code": "bt"
      },
      "address": "711, Punākha, 70430 Punakha District, Bhutan"
    },
    {
      "lat": 27.5810780336045,
      "lon": 89.89643843424778,
      "geoinfo": {
        "display_name": "Tanag Uesa, Dzomi Gewog, Punakha District, Bhutan",
        "road": null,
        "house_number": null,
        "neighbourhood": null,
        "suburb": null,
        "city_district": null,
        "city": "Tanag Uesa",
        "state": "Punakha District",
        "postcode": null,
        "country": "Bhutan",
        "country_code": "bt"
      },
      "address": "937, Punākha, 75280 Punakha District, Bhutan"
    },
    {
      "lat": 27.622512847874717,
      "lon": 89.90850405705208,
      "geoinfo": {
        "display_name": "Toedwang Gewog, Punakha District, Bhutan",
        "road": null,
        "house_number": null,
        "neighbourhood": null,
        "suburb": null,
        "city_district": null,
        "city": null,
        "state": "Punakha District",
        "postcode": null,
        "country": "Bhutan",
        "country_code": "bt"
      },
      "address": "504, Punākha, 30526 Punakha District, Bhutan"
    },
    {
      "lat": 27.624704948785496,
      "lon": 89.90822627393864,
      "geoinfo": {
        "display_name": "Toedwang Gewog, Punakha District, Bhutan",
        "road": null,
        "house_number": null,
        "neighbourhood": null,
        "suburb": null,
        "city_district": null,
        "city": null,
        "state": "Punakha District",
        "postcode": null,
        "country": "Bhutan",
        "country_code": "bt"
      },
      "address": "734, Punākha, 71568 Punakha District, Bhutan"
    },
    {
      "lat": 27.63131576027664,
      "lon": 89.888558658943,
      "geoinfo": {
        "display_name": "Toedwang Gewog, Punakha District, Bhutan",
        "road": null,
        "house_number": null,
        "neighbourhood": null,
        "suburb": null,
        "city_district": null,
        "city": null,
        "state": "Punakha District",
        "postcode": null,
        "country": "Bhutan",
        "country_code": "bt"
      },
      "address": "239, Punākha, 69857 Punakha District, Bhutan"
    },
    {
      "lat": 27.62881052216268,
      "lon": 89.90153506709373,
      "geoinfo": {
        "display_name": "Toedwang Gewog, Punakha District, Bhutan",
        "road": null,
        "house_number": null,
        "neighbourhood": null,
        "suburb": null,
        "city_district": null,
        "city": null,
        "state": "Punakha District",
        "postcode": null,
        "country": "Bhutan",
        "country_code": "bt"
      },
      "address": "722, Punākha, 26697 Punakha District, Bhutan"
    },
    {
      "lat": 27.59255031150763,
      "lon": 89.84319404112202,
      "geoinfo": {
        "display_name": "Punakha, Changyuel Loongsilgang Tashijong, Guma Gewog, Punakha District, 13001, Bhutan",
        "road": null,
        "house_number": null,
        "neighbourhood": null,
        "suburb": null,
        "city_district": null,
        "city": "Changyuel Loongsilgang Tashijong",
        "state": "Punakha District",
        "postcode": "13001",
        "country": "Bhutan",
        "country_code": "bt"
      },
      "address": "297, Punākha, 13001 Punakha District, Bhutan"
    },
    {
      "lat": 27.58886295131849,
      "lon": 89.91882562001848,
      "geoinfo": {
        "display_name": "Shelnga-Bjemi Gewog, Punakha District, Bhutan",
        "road": null,
        "house_number": null,
        "neighbourhood": null,
        "suburb": null,
        "city_district": null,
        "city": null,
        "state": "Punakha District",
        "postcode": null,
        "country": "Bhutan",
        "country_code": "bt"
      },
      "address": "034, Punākha, 23009 Punakha District, Bhutan"
    },
    {
      "lat": 27.585404456725396,
      "lon": 89.86076660157605,
      "geoinfo": {
        "display_name": "Punakha - Gasa, Changyul, Changyuel Loongsilgang Tashijong, Guma Gewog, Punakha District, 13001, Bhutan",
        "road": "Punakha - Gasa",
        "house_number": null,
        "neighbourhood": null,
        "suburb": null,
        "city_district": null,
        "city": "Changyuel Loongsilgang Tashijong",
        "state": "Punakha District",
        "postcode": "13001",
        "country": "Bhutan",
        "country_code": "bt"
      },
      "address": "408, Punakha - Gasa, Punākha, 13001 Punakha District, Bhutan"
    },
    {
      "lat": 27.612116327830247,
      "lon": 89.8631700244076,
      "geoinfo": {
        "display_name": "Jangwakha Sewala, Chhuboog Gewog, Punakha District, Bhutan",
        "road": null,
        "house_number": null,
        "neighbourhood": null,
        "suburb": null,
        "city_district": null,
        "city": "Jangwakha Sewala",
        "state": "Punakha District",
        "postcode": null,
        "country": "Bhutan",
        "country_code": "bt"
      },
      "address": "733, Punākha, 49188 Punakha District, Bhutan"
    },
    {
      "lat": 27.607425678199135,
      "lon": 89.84669912129412,
      "geoinfo": {
        "display_name": "Punakha - Gasa, Dochhukha Dzomlingthang Ritsa, Guma Gewog, Punakha District, 13001, Bhutan",
        "road": "Punakha - Gasa",
        "house_number": null,
        "neighbourhood": null,
        "suburb": null,
        "city_district": null,
        "city": "Dochhukha Dzomlingthang Ritsa",
        "state": "Punakha District",
        "postcode": "13001",
        "country": "Bhutan",
        "country_code": "bt"
      },
      "address": "840, Punakha - Gasa, Punākha, 13001 Punakha District, Bhutan"
    },
    {
      "lat": 27.612855206961576,
      "lon": 89.91766161311544,
      "geoinfo": {
        "display_name": "Shelnga-Bjemi Gewog, Punakha District, Bhutan",
        "road": null,
        "house_number": null,
        "neighbourhood": null,
        "suburb": null,
        "city_district": null,
        "city": null,
        "state": "Punakha District",
        "postcode": null,
        "country": "Bhutan",
        "country_code": "bt"
      },
      "address": "283, Punākha, 29206 Punakha District, Bhutan"
    },
    {
      "lat": 27.601493482108598,
      "lon": 89.85705850878925,
      "geoinfo": {
        "display_name": "Yebisa, Chhuboog Gewog, Punakha District, 13001, Bhutan",
        "road": null,
        "house_number": null,
        "neighbourhood": null,
        "suburb": null,
        "city_district": null,
        "city": "Yebisa",
        "state": "Punakha District",
        "postcode": "13001",
        "country": "Bhutan",
        "country_code": "bt"
      },
      "address": "865, Punākha, 13001 Punakha District, Bhutan"
    },
    {
      "lat": 27.613080549928412,
      "lon": 89.83437251766135,
      "geoinfo": {
        "display_name": "Lakhu Tshowogm, Guma Gewog, Punakha District, 13001, Bhutan",
        "road": null,
        "house_number": null,
        "neighbourhood": null,
        "suburb": null,
        "city_district": null,
        "city": "Lakhu Tshowogm",
        "state": "Punakha District",
        "postcode": "13001",
        "country": "Bhutan",
        "country_code": "bt"
      },
      "address": "854, Punākha, 13001 Punakha District, Bhutan"
    },
    {
      "lat": 27.578211349361226,
      "lon": 89.83644791018723,
      "geoinfo": {
        "display_name": "Dongkokhar Yong-Gu, Talog Gewog, Punakha District, 13001, Bhutan",
        "road": null,
        "house_number": null,
        "neighbourhood": null,
        "suburb": null,
        "city_district": null,
        "city": "Dongkokhar Yong-Gu",
        "state": "Punakha District",
        "postcode": "13001",
        "country": "Bhutan",
        "country_code": "bt"
      },
      "address": "281, Punākha, 13001 Punakha District, Bhutan"
    },
    {
      "lat": 27.584038349194458,
      "lon": 89.88470093472446,
      "geoinfo": {
        "display_name": "Tanag Uesa, Dzomi Gewog, Punakha District, 13001, Bhutan",
        "road": null,
        "house_number": null,
        "neighbourhood": null,
        "suburb": null,
        "city_district": null,
        "city": "Tanag Uesa",
        "state": "Punakha District",
        "postcode": "13001",
        "country": "Bhutan",
        "country_code": "bt"
      },
      "address": "142, Punākha, 13001 Punakha District, Bhutan"
    },
    {
      "lat": 27.610248419315255,
      "lon": 89.86387369626908,
      "geoinfo": {
        "display_name": "Jangwakha Sewala, Chhuboog Gewog, Punakha District, Bhutan",
        "road": null,
        "house_number": null,
        "neighbourhood": null,
        "suburb": null,
        "city_district": null,
        "city": "Jangwakha Sewala",
        "state": "Punakha District",
        "postcode": null,
        "country": "Bhutan",
        "country_code": "bt"
      },
      "address": "357, Punākha, 23976 Punakha District, Bhutan"
    },
    {
      "lat": 27.632571316738982,
      "lon": 89.89562039801982,
      "geoinfo": {
        "display_name": "Toedwang Gewog, Punakha District, Bhutan",
        "road": null,
        "house_number": null,
        "neighbourhood": null,
        "suburb": null,
        "city_district": null,
        "city": null,
        "state": "Punakha District",
        "postcode": null,
        "country": "Bhutan",
        "country_code": "bt"
      },
      "address": "242, Punākha, 50612 Punakha District, Bhutan"
    },
    {
      "lat": 27.588493787487494,
      "lon": 89.86264435931774,
      "geoinfo": {
        "display_name": "Yebisa, Chhuboog Gewog, Punakha District, 13001, Bhutan",
        "road": null,
        "house_number": null,
        "neighbourhood": null,
        "suburb": null,
        "city_district": null,
        "city": "Yebisa",
        "state": "Punakha District",
        "postcode": "13001",
        "country": "Bhutan",
        "country_code": "bt"
      },
      "address": "034, Punākha, 13001 Punakha District, Bhutan"
    }
  ],
  "updated_at": "2025-10-19T03:17:19.071678+00:00",
  "_kind": "geo_samples"
}