{
  "country_code": "BT",
  "country": "Bhutan",
  "city": "Tsirang",
  "geonameid": 1252608,
  "target_addresses": 25,
  "samples": [
    {
      "lat": 27.02591721328023,
      "lon": 90.09388615739132,
      "geoinfo": {
        "display_name": "Sarpang - Wangdue Highway, Goomsoom, Tsholingkhar Gewog, Tsirang District, Bhutan",
        "road": "Sarpang - Wangdue Highway",
        "house_number": null,
        "neighbourhood": null,
        "suburb": null,
        "city_district": null,
        "city": "Goomsoom",
        "state": "Tsirang District",
        "postcode": null,
        "country": "Bhutan",
        "country_code": "bt"
      },
      "address": "Sarpang - Wangdue Highway, Tsirang, Tsirang District, Bhutan"
    },
    {
      "lat": 27.01220004528855,
      "lon": 90.15260824752552,
      "geoinfo": {
        "display_name": "Nyizergang, Sa-Tsangma, Kilkhorthang Gewog, Tsirang District, Bhutan",
        "road": null,
        "house_number": null,
        "neighbourhood": null,
        "suburb": "Nyizergang",
        "city_district": null,
        "city": "Sa-Tsangma",
        "state": "Tsirang District",
        "postcode": null,
        "country": "Bhutan",
        "country_code": "bt"
      },
      "address": "Nyizergang, Tsirang, Tsirang District, Bhutan"
    },
    {
      "lat": 26.99757228965133,
      "lon": 90.1116434244999,
      "geoinfo": {
        "display_name": "Maenchhana, Kilkhorthang Gewog, Tsirang District, Bhutan",
        "road": null,
        "house_number": null,
        "neighbourhood": null,
        "suburb": null,
        "city_district": null,
        "city": "Maenchhana",
        "state": "Tsirang District",
        "postcode": null,
        "country": "Bhutan",
        "country_code": "bt"
      },
      "address": "Tsirang, Tsirang District, Bhutan"
    },
    {
      "lat": 27.006617070622767,
      "lon": 90.16715991590677,
      "geoinfo": {
        "display_name": "Dangreybu, Dangreyboog Toed, Doonglagang Gewog, Tsirang District, Bhutan",
        "road": null,
        "house_number": null,
        "neighbourhood": null,
        "suburb": "Dangreybu",
        "city_district": null,
        "city": "Dangreyboog Toed",
        "state": "Tsirang District",
        "postcode": null,
        "country": "Bhutan",
        "country_code": "bt"
      },
      "address": "Dangreybu, Tsirang, Tsirang District, Bhutan"
    },
    {
      "lat": 27.061554788606163,
      "lon": 90.12681369117611,
      "geoinfo": {
        "display_name": "Soentabsa, Tsirang Toed Gewog, Tsirang District, Bhutan",
        "road": null,
        "house_number": null,
        "neighbourhood": null,
        "suburb": null,
        "city_district": null,
        "city": "Soentabsa",
        "state": "Tsirang District",
        "postcode": null,
        "country": "Bhutan",
        "country_code": "bt"
      },
      "address": "057, Soentabsa, Tsirang Toed Gewog, 35424 Tsirang District, Bhutan"
    },
    {
      "lat": 27.043462039059133,
      "lon": 90.15890855832858,
      "geoinfo": {
        "display_name": "Dekidling, Semjong Gewog, Tsirang District, Bhutan",
        "road": null,
        "house_number": null,
        "neighbourhood": null,
        "suburb": null,
        "city_district": null,
        "city": "Dekidling",
        "state": "Tsirang District",
        "postcode": null,
        "country": "Bhutan",
        "country_code": "bt"
      },
      "address": "645, Dekidling, Semjong Gewog, 54017 Tsirang District, Bhutan"
    },
    {
      "lat": 27.01650713726138,
      "lon": 90.17103157309225,
      "geoinfo": {
        "display_name": "Dangreybu, Khirithang, Doonglagang Gewog, Tsirang District, Bhutan",
        "road": null,
        "house_number": null,
        "neighbourhood": null,
        "suburb": "Dangreybu",
        "city_district": null,
        "city": "Khirithang",
        "state": "Tsirang District",
        "postcode": null,
        "country": "Bhutan",
        "country_code": "bt"
      },
      "address": "469, Dangreybu, Tsirang, 37168 Tsirang District, Bhutan"
    },
    {
      "lat": 27.020126042700312,
      "lon": 90.15023053276822,
      "geoinfo": {
        "display_name": "Tashiyangjong, Kilkhorthang Gewog, Tsirang District, Bhutan",
        "road": null,
        "house_number": null,
        "neighbourhood": null,
        "suburb": null,
        "city_district": null,
        "city": "Tashiyangjong",
        "state": "Tsirang District",
        "postcode": null,
        "country": "Bhutan",
        "country_code": "bt"
      },
      "address": "387, Tashiyangjong, Kilkhorthang Gewog, 27702 Tsirang District, Bhutan"
    },
    {
      "lat": 26.9787696289719,
      "lon": 90.1234314017757,
      "geoinfo": {
        "display_name": "Sarpang - Wangdue Highway, Neymedsa, Rangthangling Gewog, Tsirang District, Bhutan",
        "road": "Sarpang - Wangdue Highway",
        "house_number": null,
        "neighbourhood": null,
        "suburb": null,
        "city_district": null,
        "city": "Neymedsa",
        "state": "Tsirang District",
        "postcode": null,
        "country": "Bhutan",
        "country_code": "bt"
      },
      "address": "346, Sarpang - Wangdue Highway, Neymedsa, Rangthangling Gewog, 00158 Tsirang District, Bhutan"
    },
    {
      "lat": 27.04056186607131,
      "lon": 90.09861246156773,
      "geoinfo": {
        "display_name": "Kabelzhing, Tsirang Toed Gewog, Tsirang District, Bhutan",
        "road": null,
        "house_number": null,
        "neighbourhood": null,
        "suburb": null,
        "city_district": null,
        "city": "Kabelzhing",
        "state": "Tsirang District",
        "postcode": null,
        "country": "Bhutan",
        "country_code": "bt"
      },
      "address": "196, Kabelzhing, Tsirang Toed Gewog, 87114 Tsirang District, Bhutan"
    },
    {
      "lat": 27.028765207549377,
      "lon": 90.12548918827316,
      "geoinfo": {
        "display_name": "Pelrithang, Gosarling Gewog, Tsirang District, Bhutan",
        "road": null,
        "house_number": null,
        "neighbourhood": null,
        "suburb": null,
        "city_district": null,
        "city": "Pelrithang",
        "state": "Tsirang District",
        "postcode": null,
        "country": "Bhutan",
        "country_code": "bt"
      },
      "address": "448, Pelrithang, Gosarling Gewog, 49189 Tsirang District, Bhutan"
    },
    {
      "lat": 27.020988123802276,
      "lon": 90.12911014821005,
      "geoinfo": {
        "display_name": "Pelrithang, Gosarling Gewog, Tsirang District, Bhutan",
        "road": null,
        "house_number": null,
        "neighbourhood": null,
        "suburb": null,
        "city_district": null,
        "city": "Pelrithang",
        "state": "Tsirang District",
        "postcode": null,
        "country": "Bhutan",
        "country_code": "bt"
      },
      "address": "605, Pelrithang, Gosarling Gewog, 87881 Tsirang District, Bhutan"
    },
    {
      "lat": 27.054031680332155,
      "lon": 90.0976750471134,
      "geoinfo": {
        "display_name": "Kabelzhing, Tsirang Toed Gewog, Tsirang District, Bhutan",
        "road": null,
        "house_number": null,
        "neighbourhood": null,
        "suburb": null,
        "city_district": null,
        "city": "Kabelzhing",
        "state": "Tsirang District",
        "postcode": null,
        "country": "Bhutan",
        "country_code": "bt"
      },
      "address": "292, Kabelzhing, Tsirang Toed Gewog, 43217 Tsirang District, Bhutan"
    },
    {
      "lat": 27.041652459122215,
      "lon": 90.14671090391775,
      "geoinfo": {
        "display_name": "Dekidling, Semjong Gewog, Tsirang District, Bhutan",
        "road": null,
        "house_number": null,
        "neighbourhood": null,
        "suburb": null,
        "city_district": null,
        "city": "Dekidling",
        "state": "Tsirang District",
        "postcode": null,
        "country": "Bhutan",
        "country_code": "bt"
      },
      "address": "731, Dekidling, Semjong Gewog, 67721 Tsirang District, Bhutan"
    },
    {
      "lat": 27.001115272760988,
      "lon": 90.08147639391925,
      "geoinfo": {
        "display_name": "Soonkosh, Rangthangling Gewog, Tsirang District, Bhutan",
        "road": null,
        "house_number": null,
        "neighbourhood": null,
        "suburb": null,
        "city_district": null,
        "city": "Soonkosh",
        "state": "Tsirang District",
        "postcode": null,
        "country": "Bhutan",
        "country_code": "bt"
      },
      "address": "821, Soonkosh, Rangthangling Gewog, 92580 Tsirang District, Bhutan"
    },
    {
      "lat": 27.005984621202668,
      "lon": 90.13596537521758,
      "geoinfo": {
        "display_name": "Nyizergang, Dekidling, Kilkhorthang Gewog, Tsirang District, Bhutan",
        "road": null,
        "house_number": null,
        "neighbourhood": null,
        "suburb": "Nyizergang",
        "city_district": null,
        "city": "Dekidling",
        "state": "Tsirang District",
        "postcode": null,
        "country": "Bhutan",
        "country_code": "bt"
      },
      "address": "011, Nyizergang, Tsirang, 90788 Tsirang District, Bhutan"
    },
    {
      "lat": 27.050015444181057,
      "lon": 90.13696784388677,
      "geoinfo": {
        "display_name": "Tongshingnang, Tsirang Toed Gewog, Tsirang District, Bhutan",
        "road": null,
        "house_number": null,
        "neighbourhood": null,
        "suburb": null,
        "city_district": null,
        "city": "Tongshingnang",
        "state": "Tsirang District",
        "postcode": null,
        "country": "Bhutan",
        "country_code": "bt"
      },
      "address": "992, Tongshingnang, Tsirang Toed Gewog, 50785 Tsirang District, Bhutan"
    },
    {
      "lat": 26.99437934722107,
      "lon": 90.10434441860657,
      "geoinfo": {
        "display_name": "Darchhargang, Rangthangling Gewog, Tsirang District, Bhutan",
        "road": null,
        "house_number": null,
        "neighbourhood": null,
        "suburb": null,
        "city_district": null,
        "city": "Darchhargang",
        "state": "Tsirang District",
        "postcode": null,
        "country": "Bhutan",
        "country_code": "bt"
      },
      "address": "995, Darchhargang, Rangthangling Gewog, 13897 Tsirang District, Bhutan"
    },
    {
      "lat": 27.04710717432636,
      "lon": 90.1620581859087,
      "geoinfo": {
        "display_name": "Dekidling, Semjong Gewog, Tsirang District, Bhutan",
        "road": null,
        "house_number": null,
        "neighbourhood": null,
        "suburb": null,
        "city_district": null,
        "city": "Dekidling",
        "state": "Tsirang District",
        "postcode": null,
        "country": "Bhutan",
        "country_code": "bt"
      },
      "address": "130, Dekidling, Semjong Gewog, 28538 Tsirang District, Bhutan"
    },
    {
      "lat": 27.05553711145932,
      "lon": 90.1370669789088,
      "geoinfo": {
        "display_name": "Tashichhoeling, Pungtenchhu Gewog, Tsirang District, Bhutan",
        "road": null,
        "house_number": null,
        "neighbourhood": null,
        "suburb": null,
        "city_district": null,
        "city": "Tashichhoeling",
        "state": "Tsirang District",
        "postcode": null,
        "country": "Bhutan",
        "country_code": "bt"
      },
      "address": "784, Tashichhoeling, Pungtenchhu Gewog, 12333 Tsirang District, Bhutan"
    },
    {
      "lat": 27.00769160226586,
      "lon": 90.0970890420646,
      "geoinfo": {
        "display_name": "Tsholingkhar Maed, Tsholingkhar Gewog, Tsirang District, Bhutan",
        "road": null,
        "house_number": null,
        "neighbourhood": null,
        "suburb": null,
        "city_district": null,
        "city": "Tsholingkhar Maed",
        "state": "Tsirang District",
        "postcode": null,
        "country": "Bhutan",
        "country_code": "bt"
      },
      "address": "532, Tsholingkhar Maed, Tsholingkhar Gewog, 93505 Tsirang District, Bhutan"
    },
    {
      "lat": 27.03326035581083,
      "lon": 90.13421363399902,
      "geoinfo": {
        "display_name": "Phuensoomgang, Gosarling Gewog, Tsirang District, Bhutan",
        "road": null,
        "house_number": null,
        "neighbourhood": null,
        "suburb": null,
        "city_district": null,
        "city": "Phuensoomgang",
        "state": "Tsirang District",
        "postcode": null,
        "country": "Bhutan",
        "country_code": "bt"
      },
      "address": "639, Phuensoomgang, Gosarling Gewog, 03427 Tsirang District, Bhutan"
    },
    {
      "lat": 27.02689840195519,
      "lon": 90.08736878329447,
      "geoinfo": {
        "display_name": "Sarpang - Wangdue Highway, Goomsoom, Tsholingkhar Gewog, Tsirang District, Bhutan",
        "road": "Sarpang - Wangdue Highway",
        "house_number": null,
        "neighbourhood": null,
        "suburb": null,
        "city_district": null,
        "city": "Goomsoom",
        "state": "Tsirang District",
        "postcode": null,
        "country": "Bhutan",
        "country_code": "bt"
      },
      "address": "824, Sarpang - Wangdue Highway, Goomsoom, Tsholingkhar Gewog, 60167 Tsirang District, Bhutan"
    },
    {
      "lat": 27.027303973064917,
      "lon": 90.16002970521107,
      "geoinfo": {
        "display_name": "Dzomling, Semjong Gewog, Tsirang District, Bhutan",
        "road": null,
        "house_number": null,
        "neighbourhood": null,
        "suburb": null,
        "city_district": null,
        "city": "Dzomling",
        "state": "Tsirang District",
        "postcode": null,
        "country": "Bhutan",
        "country_code": "bt"
      },
      "address": "751, Dzomling, Semjong Gewog, 73077 Tsirang District, Bhutan"
    },
    {
      "lat": 27.012386803585926,
      "lon": 90.14713121799232,
      "geoinfo": {
        "display_name": "Nyizergang, Dekidling, Kilkhorthang Gewog, Tsirang District, Bhutan",
        "road": null,
        "house_number": null,
        "neighbourhood": null,
        "suburb": "Nyizergang",
        "city_district": null,
        "city": "Dekidling",
        "state": "Tsirang District",
        "postcode": null,
        "country": "Bhutan",
        "country_code": "bt"
      },
      "address": "471, Nyizergang, Tsirang, 28239 Tsirang District, Bhutan"
    },
    {
      "lat": 27.004316118061805,
      "lon": 90.12442221599154,
      "geoinfo": {
        "display_name": "Sarpang - Wangdue Highway, Dzongkhag Thromde, Kilkhorthang Gewog, Tsirang District, Bhutan",
        "road": "Sarpang - Wangdue Highway",
        "house_number": null,
        "neighbourhood": null,
        "suburb": null,
        "city_district": null,
        "city": "Dzongkhag Thromde",
        "state": "Tsirang District",
        "postcode": null,
        "country": "Bhutan",
        "country_code": "bt"
      },
      "address": "224, Sarpang - Wangdue Highway, Dzongkhag Thromde, Kilkhorthang Gewog, 36266 Tsirang District, Bhutan"
    },
    {
      "lat": 27.00535372102047,
      "lon": 90.10294545206469,
      "geoinfo": {
        "display_name": "Sarpang - Wangdue Highway, Droobchhugang, Tsholingkhar Gewog, Tsirang District, Bhutan",
        "road": "Sarpang - Wangdue Highway",
        "house_number": null,
        "neighbourhood": null,
        "suburb": null,
        "city_district": null,
        "city": "Droobchhugang",
        "state": "Tsirang District",
        "postcode": null,
        "country": "Bhutan",
        "country_code": "bt"
      },
      "address": "669, Sarpang - Wangdue Highway, Droobchhugang, Tsholingkhar Gewog, 98749 Tsirang District, Bhutan"
    },
    {
      "lat": 27.03795522498164,
      "lon": 90.13464424258315,
      "geoinfo": {
        "display_name": "Phuensoomgang, Gosarling Gewog, Tsirang District, Bhutan",
        "road": null,
        "house_number": null,
        "neighbourhood": null,
        "suburb": null,
        "city_district": null,
        "city": "Phuensoomgang",
        "state": "Tsirang District",
        "postcode": null,
        "country": "Bhutan",
        "country_code": "bt"
      },
      "address": "110, Phuensoomgang, Gosarling Gewog, 15668 Tsirang District, Bhutan"
    },
    {
      "lat": 27.031862207866766,
      "lon": 90.07811621805509,
      "geoinfo": {
        "display_name": "Sarpang - Wangdue Highway, Goomsoom, Tsholingkhar Gewog, Tsirang District, Bhutan",
        "road": "Sarpang - Wangdue Highway",
        "house_number": null,
        "neighbourhood": null,
        "suburb": null,
        "city_district": null,
        "city": "Goomsoom",
        "state": "Tsirang District",
        "postcode": null,
        "country": "Bhutan",
        "country_code": "bt"
      },
      "address": "840, Sarpang - Wangdue Highway, Goomsoom, Tsholingkhar Gewog, 94975 Tsirang District, Bhutan"
    }
  ],
  "updated_at": "2025-10-19T02:59:52.808733+00:00",
  "_kind": "geo_samples"
}