{
  "country_code": "IQ",
  "country": "Iraq",
  "city": "‘Afak",
  "geonameid": 99738,
  "target_addresses": 2,
  "samples": [
    {
      "lat": 32.07421979851302,
      "lon": 45.240765468756564,
      "geoinfo": {
        "display_name": "Afak, Afak Central Subdistrict, Afak District, Al-Qadisiyah Governorate, 10100, Iraq",
        "road": null,
        "house_number": null,
        "neighbourhood": null,
        "suburb": null,
        "city_district": null,
        "city": "Afak",
        "state": "Al-Qadisiyah Governorate",
        "postcode": "10100",
        "country": "Iraq",
        "country_code": "iq"
      },
      "address": "‘Afak, Al-Qadisiyah Governorate, Iraq"
    },
    {
      "lat": 32.05352541465095,
      "lon": 45.29123975779489,
      "geoinfo": {
        "display_name": "17, قرسة آل بو نانشي, Afak Central Subdistrict, Afak District, Al-Qadisiyah Governorate, Iraq",
        "road": "17",
        "house_number": null,
        "neighbourhood": null,
        "suburb": null,
        "city_district": null,
        "city": "قرسة آل بو نانشي",
        "state": "Al-Qadisiyah Governorate",
        "postcode": null,
        "country": "Iraq",
        "country_code": "iq"
      },
      "address": "17, ‘Afak, Al-Qadisiyah Governorate, Iraq"
    },
    {
      "lat": 32.037919646266495,
      "lon": 45.269457747879315,
      "geoinfo": {
        "display_name": "Afak, Afak Central Subdistrict, Afak District, Al-Qadisiyah Governorate, Iraq",
        "road": null,
        "house_number": null,
        "neighbourhood": null,
        "suburb": null,
        "city_district": null,
        "city": "Afak",
        "state": "Al-Qadisiyah Governorate",
        "postcode": null,
        "country": "Iraq",
        "country_code": "iq"
      },
      "address": "482, ‘Afak, 63416 Al-Qadisiyah Governorate, Iraq"
    },
    {
      "lat": 32.07987462725296,
      "lon": 45.22658810371224,
      "geoinfo": {
        "display_name": "فرحان النعم, Afak Central Subdistrict, Afak District, Al-Qadisiyah Governorate, 10100, Iraq",
        "road": null,
        "house_number": null,
        "neighbourhood": null,
        "suburb": null,
        "city_district": null,
        "city": "فرحان النعم",
        "state": "Al-Qadisiyah Governorate",
        "postcode": "10100",
        "country": "Iraq",
        "country_code": "iq"
      },
      "address": "337, ‘Afak, 10100 Al-Qadisiyah Governorate, Iraq"
    }
  ],
  "updated_at": "2025-10-19T04:52:36.938368+00:00",
  "_kind": "geo_samples"
}