{
  "country_code": "IQ",
  "country": "Iraq",
  "city": "Al Başrah al Qadīmah",
  "geonameid": 388349,
  "target_addresses": 2,
  "samples": [
    {
      "lat": 30.53541384667828,
      "lon": 47.83388158926848,
      "geoinfo": {
        "display_name": "Ar Rabbat, Al-Basrah Central Subdistrict, Al-Basrah District, Al-Basra Governorate, 61014, Iraq",
        "road": null,
        "house_number": null,
        "neighbourhood": null,
        "suburb": null,
        "city_district": null,
        "city": "Ar Rabbat",
        "state": "Al-Basra Governorate",
        "postcode": "61014",
        "country": "Iraq",
        "country_code": "iq"
      },
      "address": "Al Başrah al Qadīmah, Al-Basra Governorate, Iraq"
    },
    {
      "lat": 30.46528534726092,
      "lon": 47.80237497888971,
      "geoinfo": {
        "display_name": "حي الجامعة, القبلة, Al-Basrah Central Subdistrict, Al-Basrah District, Al-Basra Governorate, 22222, Iraq",
        "road": null,
        "house_number": null,
        "neighbourhood": "حي الجامعة",
        "suburb": null,
        "city_district": null,
        "city": "القبلة",
        "state": "Al-Basra Governorate",
        "postcode": "22222",
        "country": "Iraq",
        "country_code": "iq"
      },
      "address": "حي الجامعة, Al Başrah al Qadīmah, Al-Basra Governorate, Iraq"
    },
    {
      "lat": 30.494802622095794,
      "lon": 47.82097957056663,
      "geoinfo": {
        "display_name": "حي صنعاء, Al-Basrah Central Subdistrict, Al-Basrah District, Al-Basra Governorate, 00110, Iraq",
        "road": null,
        "house_number": null,
        "neighbourhood": null,
        "suburb": null,
        "city_district": null,
        "city": "حي صنعاء",
        "state": "Al-Basra Governorate",
        "postcode": "00110",
        "country": "Iraq",
        "country_code": "iq"
      },
      "address": "813, Al Başrah al Qadīmah, 00110 Al-Basra Governorate, Iraq"
    },
    {
      "lat": 30.497708154899136,
      "lon": 47.80884387040045,
      "geoinfo": {
        "display_name": "المعلمين, Al-Basrah Central Subdistrict, Al-Basrah District, Al-Basra Governorate, 00110, Iraq",
        "road": null,
        "house_number": null,
        "neighbourhood": null,
        "suburb": null,
        "city_district": null,
        "city": "المعلمين",
        "state": "Al-Basra Governorate",
        "postcode": "00110",
        "country": "Iraq",
        "country_code": "iq"
      },
      "address": "384, Al Başrah al Qadīmah, 00110 Al-Basra Governorate, Iraq"
    }
  ],
  "updated_at": "2025-10-19T05:15:37.718356+00:00",
  "_kind": "geo_samples"
}