{
  "country_code": "IQ",
  "country": "Iraq",
  "city": "Al-Hamdaniya",
  "geonameid": 92430,
  "target_addresses": 7,
  "samples": [
    {
      "lat": 36.23580208486238,
      "lon": 43.344279131496016,
      "geoinfo": {
        "display_name": "Kahariz, Nimrud Subdistrict, Al-Hamdaniya District, Nineveh Governorate, Iraq",
        "road": null,
        "house_number": null,
        "neighbourhood": null,
        "suburb": null,
        "city_district": null,
        "city": "Kahariz",
        "state": "Nineveh Governorate",
        "postcode": null,
        "country": "Iraq",
        "country_code": "iq"
      },
      "address": "Al-Hamdaniya, Nineveh Governorate, Iraq"
    },
    {
      "lat": 36.234061565837045,
      "lon": 43.409295087329184,
      "geoinfo": {
        "display_name": "Sina'a Street, Balawat, Nimrud Subdistrict, Al-Hamdaniya District, Nineveh Governorate, Iraq",
        "road": "Sina'a Street",
        "house_number": null,
        "neighbourhood": null,
        "suburb": null,
        "city_district": null,
        "city": "Balawat",
        "state": "Nineveh Governorate",
        "postcode": null,
        "country": "Iraq",
        "country_code": "iq"
      },
      "address": "Sina'a Street, Al-Hamdaniya, Nineveh Governorate, Iraq"
    },
    {
      "lat": 36.262281418466834,
      "lon": 43.4104165752162,
      "geoinfo": {
        "display_name": "Al-Hamdaniya Central Subdistrict, Al-Hamdaniya District, Nineveh Governorate, Iraq",
        "road": null,
        "house_number": null,
        "neighbourhood": null,
        "suburb": null,
        "city_district": null,
        "city": null,
        "state": "Nineveh Governorate",
        "postcode": null,
        "country": "Iraq",
        "country_code": "iq"
      },
      "address": "020, Al-Hamdaniya Central Subdistrict, Al-Hamdaniya District, 14353 Nineveh Governorate, Iraq"
    },
    {
      "lat": 36.30815308913721,
      "lon": 43.38017211711409,
      "geoinfo": {
        "display_name": "Karamles, Bartella Subdistrict, Al-Hamdaniya District, Nineveh Governorate, 41006, Iraq",
        "road": null,
        "house_number": null,
        "neighbourhood": null,
        "suburb": null,
        "city_district": null,
        "city": "Karamles",
        "state": "Nineveh Governorate",
        "postcode": "41006",
        "country": "Iraq",
        "country_code": "iq"
      },
      "address": "886, Karamles, Bartella Subdistrict, Al-Hamdaniya District, Nineveh Governorate, 41006, Iraq"
    },
    {
      "lat": 36.236547719342994,
      "lon": 43.37389804244156,
      "geoinfo": {
        "display_name": "Nimrud Subdistrict, Al-Hamdaniya District, Nineveh Governorate, Iraq",
        "road": null,
        "house_number": null,
        "neighbourhood": null,
        "suburb": null,
        "city_district": null,
        "city": null,
        "state": "Nineveh Governorate",
        "postcode": null,
        "country": "Iraq",
        "country_code": "iq"
      },
      "address": "869, Nimrud Subdistrict, Al-Hamdaniya District, 52074 Nineveh Governorate, Iraq"
    },
    {
      "lat": 36.24448595946979,
      "lon": 43.3804782939331,
      "geoinfo": {
        "display_name": "Nimrud Subdistrict, Al-Hamdaniya District, Nineveh Governorate, Iraq",
        "road": null,
        "house_number": null,
        "neighbourhood": null,
        "suburb": null,
        "city_district": null,
        "city": null,
        "state": "Nineveh Governorate",
        "postcode": null,
        "country": "Iraq",
        "country_code": "iq"
      },
      "address": "115, Nimrud Subdistrict, Al-Hamdaniya District, 68209 Nineveh Governorate, Iraq"
    },
    {
      "lat": 36.27612518751309,
      "lon": 43.42059859964756,
      "geoinfo": {
        "display_name": "Bakhdida, Al-Hamdaniya Central Subdistrict, Al-Hamdaniya District, Nineveh Governorate, Iraq",
        "road": null,
        "house_number": null,
        "neighbourhood": null,
        "suburb": null,
        "city_district": null,
        "city": "Bakhdida",
        "state": "Nineveh Governorate",
        "postcode": null,
        "country": "Iraq",
        "country_code": "iq"
      },
      "address": "509, Bakhdida, Al-Hamdaniya Central Subdistrict, Al-Hamdaniya District, 90510 Nineveh Governorate, Iraq"
    }
  ],
  "updated_at": "2025-10-19T04:57:08.843409+00:00",
  "_kind": "geo_samples"
}