{
  "country_code": "IQ",
  "country": "Iraq",
  "city": "Al Maḩāwīl",
  "geonameid": 99103,
  "target_addresses": 2,
  "samples": [
    {
      "lat": 32.670102592269316,
      "lon": 44.3924160238931,
      "geoinfo": {
        "display_name": "Al Mahawil, Al-Mahawil Central Subdistrict, Al-Mahawil District, Babil Governorate, Iraq",
        "road": null,
        "house_number": null,
        "neighbourhood": null,
        "suburb": null,
        "city_district": null,
        "city": "Al Mahawil",
        "state": "Babil Governorate",
        "postcode": null,
        "country": "Iraq",
        "country_code": "iq"
      },
      "address": "Al Maḩāwīl, Babil Governorate, Iraq"
    },
    {
      "lat": 32.70360213420491,
      "lon": 44.41171126439252,
      "geoinfo": {
        "display_name": "Baghdad - Hillah Road, قرية السعيدية الثانية, Saddat Al-Hindiyah Subdistrict, Al-Musayyib District, Babil Governorate, Iraq",
        "road": "Baghdad - Hillah Road",
        "house_number": null,
        "neighbourhood": null,
        "suburb": null,
        "city_district": null,
        "city": "قرية السعيدية الثانية",
        "state": "Babil Governorate",
        "postcode": null,
        "country": "Iraq",
        "country_code": "iq"
      },
      "address": "Baghdad - Hillah Road, Al Maḩāwīl, Babil Governorate, Iraq"
    },
    {
      "lat": 32.662894288447234,
      "lon": 44.405083351123515,
      "geoinfo": {
        "display_name": "Al Mahawil, Al-Mahawil Central Subdistrict, Al-Mahawil District, Babil Governorate, Iraq",
        "road": null,
        "house_number": null,
        "neighbourhood": null,
        "suburb": null,
        "city_district": null,
        "city": "Al Mahawil",
        "state": "Babil Governorate",
        "postcode": null,
        "country": "Iraq",
        "country_code": "iq"
      },
      "address": "884, Al Mahawil, Al-Mahawil Central Subdistrict, Al-Mahawil District, 58140 Babil Governorate, Iraq"
    },
    {
      "lat": 32.67190093861132,
      "lon": 44.400753309430364,
      "geoinfo": {
        "display_name": "Al Mahawil, Al-Mahawil Central Subdistrict, Al-Mahawil District, Babil Governorate, Iraq",
        "road": null,
        "house_number": null,
        "neighbourhood": null,
        "suburb": null,
        "city_district": null,
        "city": "Al Mahawil",
        "state": "Babil Governorate",
        "postcode": null,
        "country": "Iraq",
        "country_code": "iq"
      },
      "address": "249, Al Mahawil, Al-Mahawil Central Subdistrict, Al-Mahawil District, 29587 Babil Governorate, Iraq"
    }
  ],
  "updated_at": "2025-10-19T03:09:02.707608+00:00",
  "_kind": "geo_samples"
}