{
  "country_code": "IQ",
  "country": "Iraq",
  "city": "Al Ḩillah",
  "geonameid": 99347,
  "target_addresses": 2,
  "samples": [
    {
      "lat": 32.45568192889376,
      "lon": 44.407918438779205,
      "geoinfo": {
        "display_name": "حي الكفاءات, Al Hillah, Al-Hillah Central Subdistrict, Al-Hillah District, Babil Governorate, 51003, Iraq",
        "road": null,
        "house_number": null,
        "neighbourhood": "حي الكفاءات",
        "suburb": null,
        "city_district": null,
        "city": "Al Hillah",
        "state": "Babil Governorate",
        "postcode": "51003",
        "country": "Iraq",
        "country_code": "iq"
      },
      "address": "حي الكفاءات, Al Ḩillah, Babil Governorate, Iraq"
    },
    {
      "lat": 32.44333817273208,
      "lon": 44.441688817973024,
      "geoinfo": {
        "display_name": "Al Fulays, Al-Hillah Central Subdistrict, Al-Hillah District, Babil Governorate, 51003, Iraq",
        "road": null,
        "house_number": null,
        "neighbourhood": null,
        "suburb": null,
        "city_district": null,
        "city": "Al Fulays",
        "state": "Babil Governorate",
        "postcode": "51003",
        "country": "Iraq",
        "country_code": "iq"
      },
      "address": "Al Ḩillah, Babil Governorate, Iraq"
    },
    {
      "lat": 32.49973254539334,
      "lon": 44.405234754448166,
      "geoinfo": {
        "display_name": "80 Street, حي المعلمين, Al Hillah, Al-Hillah Central Subdistrict, Al-Hillah District, Babil Governorate, 51115, Iraq",
        "road": "80 Street",
        "house_number": null,
        "neighbourhood": "حي المعلمين",
        "suburb": null,
        "city_district": null,
        "city": "Al Hillah",
        "state": "Babil Governorate",
        "postcode": "51115",
        "country": "Iraq",
        "country_code": "iq"
      },
      "address": "80 Street, حي المعلمين, Al Hillah, Al-Hillah Central Subdistrict, Al-Hillah District, Babil Governorate, 51115, Iraq"
    },
    {
      "lat": 32.46708093388742,
      "lon": 44.42700357283413,
      "geoinfo": {
        "display_name": "تقاطع الام, Al Hillah, Al-Hillah Central Subdistrict, Al-Hillah District, Babil Governorate, 51003, Iraq",
        "road": "تقاطع الام",
        "house_number": null,
        "neighbourhood": null,
        "suburb": null,
        "city_district": null,
        "city": "Al Hillah",
        "state": "Babil Governorate",
        "postcode": "51003",
        "country": "Iraq",
        "country_code": "iq"
      },
      "address": "840, تقاطع الام, Al Hillah, Al-Hillah Central Subdistrict, Al-Hillah District, Babil Governorate, 51003, Iraq"
    }
  ],
  "updated_at": "2025-10-19T06:58:00.321432+00:00",
  "_kind": "geo_samples"
}