{
  "country_code": "IQ",
  "country": "Iraq",
  "city": "Al Ḩayy",
  "geonameid": 99350,
  "target_addresses": 7,
  "samples": [
    {
      "lat": 32.168729728817524,
      "lon": 46.03360203196418,
      "geoinfo": {
        "display_name": "Al-Muwaffaqiyah Subdistrict, Al-Hai District, Wasit Governorate, Iraq",
        "road": null,
        "house_number": null,
        "neighbourhood": null,
        "suburb": null,
        "city_district": null,
        "city": null,
        "state": "Wasit Governorate",
        "postcode": null,
        "country": "Iraq",
        "country_code": "iq"
      },
      "address": "Al Ḩayy, Wasit Governorate, Iraq"
    },
    {
      "lat": 32.16572947777032,
      "lon": 46.047838254186196,
      "geoinfo": {
        "display_name": "حي المعلمين الأولى, Al Hai, Al-Hai Central Subdistrict, Al-Hai District, Wasit Governorate, Iraq",
        "road": null,
        "house_number": null,
        "neighbourhood": "حي المعلمين الأولى",
        "suburb": null,
        "city_district": null,
        "city": "Al Hai",
        "state": "Wasit Governorate",
        "postcode": null,
        "country": "Iraq",
        "country_code": "iq"
      },
      "address": "حي المعلمين الأولى, Al Ḩayy, Wasit Governorate, Iraq"
    },
    {
      "lat": 32.21186707318254,
      "lon": 46.068259530702925,
      "geoinfo": {
        "display_name": "Al Hai, Al-Hai Central Subdistrict, Al-Hai District, Wasit Governorate, Iraq",
        "road": null,
        "house_number": null,
        "neighbourhood": null,
        "suburb": null,
        "city_district": null,
        "city": "Al Hai",
        "state": "Wasit Governorate",
        "postcode": null,
        "country": "Iraq",
        "country_code": "iq"
      },
      "address": "014, Al Hai, Al-Hai Central Subdistrict, Al-Hai District, 72259 Wasit Governorate, Iraq"
    },
    {
      "lat": 32.168369839365546,
      "lon": 46.09544540600284,
      "geoinfo": {
        "display_name": "Al Hai, Al-Hai Central Subdistrict, Al-Hai District, Wasit Governorate, Iraq",
        "road": null,
        "house_number": null,
        "neighbourhood": null,
        "suburb": null,
        "city_district": null,
        "city": "Al Hai",
        "state": "Wasit Governorate",
        "postcode": null,
        "country": "Iraq",
        "country_code": "iq"
      },
      "address": "879, Al Hai, Al-Hai Central Subdistrict, Al-Hai District, 05185 Wasit Governorate, Iraq"
    },
    {
      "lat": 32.15035079489519,
      "lon": 46.006622178484925,
      "geoinfo": {
        "display_name": "Nahr Jarib, Al-Muwaffaqiyah Subdistrict, Al-Hai District, Wasit Governorate, Iraq",
        "road": null,
        "house_number": null,
        "neighbourhood": null,
        "suburb": null,
        "city_district": null,
        "city": null,
        "state": "Wasit Governorate",
        "postcode": null,
        "country": "Iraq",
        "country_code": "iq"
      },
      "address": "819, Al Ḩayy, 38240 Wasit Governorate, Iraq"
    },
    {
      "lat": 32.16587086518038,
      "lon": 46.04565623946522,
      "geoinfo": {
        "display_name": "حي المعلمين الأولى, Al Hai, Al-Hai Central Subdistrict, Al-Hai District, Wasit Governorate, Iraq",
        "road": null,
        "house_number": null,
        "neighbourhood": "حي المعلمين الأولى",
        "suburb": null,
        "city_district": null,
        "city": "Al Hai",
        "state": "Wasit Governorate",
        "postcode": null,
        "country": "Iraq",
        "country_code": "iq"
      },
      "address": "773, حي المعلمين الأولى, Al Hai, Al-Hai Central Subdistrict, Al-Hai District, 61564 Wasit Governorate, Iraq"
    },
    {
      "lat": 32.18412820245399,
      "lon": 46.01536749361627,
      "geoinfo": {
        "display_name": "Al Muwaffaqiyah, Al-Muwaffaqiyah Subdistrict, Al-Hai District, Wasit Governorate, Iraq",
        "road": null,
        "house_number": null,
        "neighbourhood": null,
        "suburb": null,
        "city_district": null,
        "city": "Al Muwaffaqiyah",
        "state": "Wasit Governorate",
        "postcode": null,
        "country": "Iraq",
        "country_code": "iq"
      },
      "address": "748, Al Muwaffaqiyah, Al-Muwaffaqiyah Subdistrict, Al-Hai District, 01036 Wasit Governorate, Iraq"
    }
  ],
  "updated_at": "2025-10-19T04:58:46.122656+00:00",
  "_kind": "geo_samples"
}