{
  "country_code": "IQ",
  "country": "Iraq",
  "city": "As Samawah",
  "geonameid": 98530,
  "target_addresses": 7,
  "samples": [
    {
      "lat": 31.358595256790185,
      "lon": 45.29397263175651,
      "geoinfo": {
        "display_name": "الشنابرة, As Samawah, Al-Samawa Central Subdistrict, Al-Samawa District, Al-Muthanna Governorate, Iraq",
        "road": null,
        "house_number": null,
        "neighbourhood": "الشنابرة",
        "suburb": null,
        "city_district": null,
        "city": "As Samawah",
        "state": "Al-Muthanna Governorate",
        "postcode": null,
        "country": "Iraq",
        "country_code": "iq"
      },
      "address": "الشنابرة, As Samawah, Al-Muthanna Governorate, Iraq"
    },
    {
      "lat": 31.3407835516375,
      "lon": 45.27054542256154,
      "geoinfo": {
        "display_name": "الجربوعية الاولى, قرية سيد ستار, As Samawah, Al-Samawa Central Subdistrict, Al-Samawa District, Al-Muthanna Governorate, 66004, Iraq",
        "road": null,
        "house_number": null,
        "neighbourhood": "الجربوعية الاولى",
        "suburb": "قرية سيد ستار",
        "city_district": null,
        "city": "As Samawah",
        "state": "Al-Muthanna Governorate",
        "postcode": "66004",
        "country": "Iraq",
        "country_code": "iq"
      },
      "address": "الجربوعية الاولى, As Samawah, Al-Muthanna Governorate, Iraq"
    },
    {
      "lat": 31.3437358884982,
      "lon": 45.326571464968474,
      "geoinfo": {
        "display_name": "As Samawah, Al-Samawa Central Subdistrict, Al-Samawa District, Al-Muthanna Governorate, 66004, Iraq",
        "road": null,
        "house_number": null,
        "neighbourhood": null,
        "suburb": null,
        "city_district": null,
        "city": "As Samawah",
        "state": "Al-Muthanna Governorate",
        "postcode": "66004",
        "country": "Iraq",
        "country_code": "iq"
      },
      "address": "487, As Samawah, Al-Samawa Central Subdistrict, Al-Samawa District, Al-Muthanna Governorate, 66004, Iraq"
    },
    {
      "lat": 31.349546098118736,
      "lon": 45.283270515293715,
      "geoinfo": {
        "display_name": "الجربوعية الثالثة, As Samawah, Al-Samawa Central Subdistrict, Al-Samawa District, Al-Muthanna Governorate, 66004, Iraq",
        "road": null,
        "house_number": null,
        "neighbourhood": "الجربوعية الثالثة",
        "suburb": null,
        "city_district": null,
        "city": "As Samawah",
        "state": "Al-Muthanna Governorate",
        "postcode": "66004",
        "country": "Iraq",
        "country_code": "iq"
      },
      "address": "799, الجربوعية الثالثة, As Samawah, Al-Samawa Central Subdistrict, Al-Samawa District, Al-Muthanna Governorate, 66004, Iraq"
    },
    {
      "lat": 31.290185402900757,
      "lon": 45.277062041552675,
      "geoinfo": {
        "display_name": "حي الحكم (خلف ملعب الخماسي ), As Samawah, Al-Samawa Central Subdistrict, Al-Samawa District, Al-Muthanna Governorate, 66004, Iraq",
        "road": null,
        "house_number": null,
        "neighbourhood": "حي الحكم (خلف ملعب الخماسي )",
        "suburb": null,
        "city_district": null,
        "city": "As Samawah",
        "state": "Al-Muthanna Governorate",
        "postcode": "66004",
        "country": "Iraq",
        "country_code": "iq"
      },
      "address": "833, حي الحكم (خلف ملعب الخماسي ), As Samawah, Al-Samawa Central Subdistrict, Al-Samawa District, Al-Muthanna Governorate, 66004, Iraq"
    },
    {
      "lat": 31.34857596482191,
      "lon": 45.27418636485527,
      "geoinfo": {
        "display_name": "الجربوعية الثالثة, As Samawah, Al-Samawa Central Subdistrict, Al-Samawa District, Al-Muthanna Governorate, 66004, Iraq",
        "road": null,
        "house_number": null,
        "neighbourhood": "الجربوعية الثالثة",
        "suburb": null,
        "city_district": null,
        "city": "As Samawah",
        "state": "Al-Muthanna Governorate",
        "postcode": "66004",
        "country": "Iraq",
        "country_code": "iq"
      },
      "address": "241, الجربوعية الثالثة, As Samawah, Al-Samawa Central Subdistrict, Al-Samawa District, Al-Muthanna Governorate, 66004, Iraq"
    },
    {
      "lat": 31.33318388215584,
      "lon": 45.278049080685605,
      "geoinfo": {
        "display_name": "شارع الصياغ طريق الجامعة, ال بوحسين خلف الجامعة, بستان لطيف ديبس, As Samawah, Al-Samawa Central Subdistrict, Al-Samawa District, Al-Muthanna Governorate, 66004, Iraq",
        "road": "شارع الصياغ طريق الجامعة",
        "house_number": null,
        "neighbourhood": "ال بوحسين خلف الجامعة",
        "suburb": "بستان لطيف ديبس",
        "city_district": null,
        "city": "As Samawah",
        "state": "Al-Muthanna Governorate",
        "postcode": "66004",
        "country": "Iraq",
        "country_code": "iq"
      },
      "address": "256, شارع الصياغ طريق الجامعة, ال بوحسين خلف الجامعة, بستان لطيف ديبس, As Samawah, Al-Samawa Central Subdistrict, Al-Samawa District, Al-Muthanna Governorate, 66004, Iraq"
    }
  ],
  "updated_at": "2025-10-19T04:57:47.009796+00:00",
  "_kind": "geo_samples"
}