{
  "country_code": "IQ",
  "country": "Iraq",
  "city": "Az Zubayr",
  "geonameid": 98245,
  "target_addresses": 2,
  "samples": [
    {
      "lat": 30.38032393491876,
      "lon": 47.688354370165676,
      "geoinfo": {
        "display_name": "مركز قضاء الزبير, Az Zubayr, Al-Zubair Central Subdistrict, Al-Zubair District, Al-Basra Governorate, Iraq",
        "road": null,
        "house_number": null,
        "neighbourhood": null,
        "suburb": null,
        "city_district": null,
        "city": "Az Zubayr",
        "state": "Al-Basra Governorate",
        "postcode": null,
        "country": "Iraq",
        "country_code": "iq"
      },
      "address": "Az Zubayr, Al-Basra Governorate, Iraq"
    },
    {
      "lat": 30.43294700200577,
      "lon": 47.68035822909159,
      "geoinfo": {
        "display_name": "حي المرتضى, Az Zubayr, Al-Zubair Central Subdistrict, Al-Zubair District, Al-Basra Governorate, Iraq",
        "road": null,
        "house_number": null,
        "neighbourhood": "حي المرتضى",
        "suburb": null,
        "city_district": null,
        "city": "Az Zubayr",
        "state": "Al-Basra Governorate",
        "postcode": null,
        "country": "Iraq",
        "country_code": "iq"
      },
      "address": "حي المرتضى, Az Zubayr, Al-Basra Governorate, Iraq"
    },
    {
      "lat": 30.405453770155116,
      "lon": 47.69727885042917,
      "geoinfo": {
        "display_name": "طريق الخطوة, مركز قضاء الزبير, محلة الشمال, Al-Zubair Central Subdistrict, Al-Zubair District, Al-Basra Governorate, Iraq",
        "road": "طريق الخطوة",
        "house_number": null,
        "neighbourhood": null,
        "suburb": null,
        "city_district": null,
        "city": "محلة الشمال",
        "state": "Al-Basra Governorate",
        "postcode": null,
        "country": "Iraq",
        "country_code": "iq"
      },
      "address": "851, طريق الخطوة, Az Zubayr, 55216 Al-Basra Governorate, Iraq"
    },
    {
      "lat": 30.37522764967811,
      "lon": 47.655624190821534,
      "geoinfo": {
        "display_name": "طريق البرجسية - سوق سوادي, مركز قضاء الزبير, Az Zubayr, Al-Zubair Central Subdistrict, Al-Zubair District, Al-Basra Governorate, Iraq",
        "road": "طريق البرجسية - سوق سوادي",
        "house_number": null,
        "neighbourhood": null,
        "suburb": null,
        "city_district": null,
        "city": "Az Zubayr",
        "state": "Al-Basra Governorate",
        "postcode": null,
        "country": "Iraq",
        "country_code": "iq"
      },
      "address": "941, طريق البرجسية - سوق سوادي, مركز قضاء الزبير, Az Zubayr, Al-Zubair Central Subdistrict, Al-Zubair District, 66809 Al-Basra Governorate, Iraq"
    }
  ],
  "updated_at": "2025-10-19T05:15:36.811209+00:00",
  "_kind": "geo_samples"
}