{
  "country_code": "IQ",
  "country": "Iraq",
  "city": "Batifa",
  "geonameid": 97825,
  "target_addresses": 2,
  "samples": [
    {
      "lat": 37.163300304716834,
      "lon": 43.0528507666756,
      "geoinfo": {
        "display_name": "Sherkhawas, Batifa Subdistrict, Zakho District, Duhok Governorate, Iraqi Kurdistan Region, 42011, Iraq",
        "road": null,
        "house_number": null,
        "neighbourhood": null,
        "suburb": null,
        "city_district": null,
        "city": "Batifa Subdistrict",
        "state": null,
        "postcode": "42011",
        "country": "Iraq",
        "country_code": "iq"
      },
      "address": "Batifa, Iraq"
    },
    {
      "lat": 37.19855290750685,
      "lon": 42.97692682282182,
      "geoinfo": {
        "display_name": "بنارێ شابانى, Merge, Batifa Subdistrict, Zakho District, Duhok Governorate, Iraqi Kurdistan Region, 42011, Iraq",
        "road": null,
        "house_number": null,
        "neighbourhood": "بنارێ شابانى",
        "suburb": null,
        "city_district": null,
        "city": "Batifa Subdistrict",
        "state": null,
        "postcode": "42011",
        "country": "Iraq",
        "country_code": "iq"
      },
      "address": "بنارێ شابانى, Batifa, Iraq"
    },
    {
      "lat": 37.191655034780005,
      "lon": 43.051270371773185,
      "geoinfo": {
        "display_name": "Ziriza ZigZag Roads, Zirize, Batifa Subdistrict, Zakho District, Duhok Governorate, Iraqi Kurdistan Region, 42011, Iraq",
        "road": null,
        "house_number": null,
        "neighbourhood": null,
        "suburb": null,
        "city_district": null,
        "city": "Batifa Subdistrict",
        "state": null,
        "postcode": "42011",
        "country": "Iraq",
        "country_code": "iq"
      },
      "address": "667, Ziriza ZigZag Roads, Zirize, Batifa Subdistrict, Zakho District, Duhok Governorate, Iraqi Kurdistan Region, 42011, Iraq"
    },
    {
      "lat": 37.1986197695665,
      "lon": 43.04742012869078,
      "geoinfo": {
        "display_name": "Kani Masi - Batifa Road, جومێ, Zirize, Batifa Subdistrict, Zakho District, Duhok Governorate, Iraqi Kurdistan Region, 42011, Iraq",
        "road": "Kani Masi - Batifa Road",
        "house_number": null,
        "neighbourhood": "جومێ",
        "suburb": null,
        "city_district": null,
        "city": "Batifa Subdistrict",
        "state": null,
        "postcode": "42011",
        "country": "Iraq",
        "country_code": "iq"
      },
      "address": "962, Kani Masi - Batifa Road, جومێ, Zirize, Batifa Subdistrict, Zakho District, Duhok Governorate, Iraqi Kurdistan Region, 42011, Iraq"
    }
  ],
  "updated_at": "2025-10-19T05:15:29.716433+00:00",
  "_kind": "geo_samples"
}