{
  "country_code": "IQ",
  "country": "Iraq",
  "city": "Erbil",
  "geonameid": 95446,
  "target_addresses": 2,
  "samples": [
    {
      "lat": 36.169026251794634,
      "lon": 43.999227490292235,
      "geoinfo": {
        "display_name": "Nazim Barber, Kani Street, Azadi2 - 202, ئازادی ٢ ٢٠٢, گەڕەکی نەسیج, Erbil, Erbil Central Subdistrict, Erbil District, Erbil Governorate, Iraqi Kurdistan Region, 44001, Iraq",
        "road": "Kani Street",
        "house_number": null,
        "neighbourhood": "Azadi2 - 202",
        "suburb": "گەڕەکی نەسیج",
        "city_district": null,
        "city": "Erbil",
        "state": "Erbil Governorate",
        "postcode": "44001",
        "country": "Iraq",
        "country_code": "iq"
      },
      "address": "Kani Street, Erbil, Erbil Governorate, Iraq"
    },
    {
      "lat": 36.19421828679218,
      "lon": 44.046609543922145,
      "geoinfo": {
        "display_name": "Koya road, Havalan - 329, محلة 329, زاگرۆس, Erbil, Erbil Central Subdistrict, Erbil District, Erbil Governorate, Iraqi Kurdistan Region, 44001, Iraq",
        "road": "Koya road",
        "house_number": null,
        "neighbourhood": "Havalan - 329",
        "suburb": "زاگرۆس",
        "city_district": null,
        "city": "Erbil",
        "state": "Erbil Governorate",
        "postcode": "44001",
        "country": "Iraq",
        "country_code": "iq"
      },
      "address": "Koya road, Erbil, Erbil Governorate, Iraq"
    },
    {
      "lat": 36.18194752363829,
      "lon": 44.05950648347715,
      "geoinfo": {
        "display_name": "332-266, ChwarChra 332, گەڕەکی چوارچرا ٣٣٢, ChwarChra 2 333, Erbil, Erbil Central Subdistrict, Erbil District, Erbil Governorate, Iraqi Kurdistan Region, 44001, Iraq",
        "road": "332-266",
        "house_number": null,
        "neighbourhood": "ChwarChra 332",
        "suburb": "ChwarChra 2 333",
        "city_district": null,
        "city": "Erbil",
        "state": "Erbil Governorate",
        "postcode": "44001",
        "country": "Iraq",
        "country_code": "iq"
      },
      "address": "332-266, ChwarChra 332, گەڕەکی چوارچرا ٣٣٢, ChwarChra 2 333, Erbil, Erbil Central Subdistrict, Erbil District, Erbil Governorate, Iraqi Kurdistan Region, 44001, Iraq"
    },
    {
      "lat": 36.18619701581088,
      "lon": 44.00640342214017,
      "geoinfo": {
        "display_name": "تەعجیل, محلة 103, Erbil, Erbil Central Subdistrict, Erbil District, Erbil Governorate, Iraqi Kurdistan Region, 44001, Iraq",
        "road": null,
        "house_number": null,
        "neighbourhood": "تەعجیل",
        "suburb": null,
        "city_district": null,
        "city": "Erbil",
        "state": "Erbil Governorate",
        "postcode": "44001",
        "country": "Iraq",
        "country_code": "iq"
      },
      "address": "تەعجیل, محلة 103, Erbil, Erbil Central Subdistrict, Erbil District, Erbil Governorate, Iraqi Kurdistan Region, 44001, Iraq"
    }
  ],
  "updated_at": "2025-10-19T05:15:40.976633+00:00",
  "_kind": "geo_samples"
}