{
  "country_code": "IQ",
  "country": "Iraq",
  "city": "Koysinceq",
  "geonameid": 94220,
  "target_addresses": 6,
  "samples": [
    {
      "lat": 36.11567117153102,
      "lon": 44.64815483100393,
      "geoinfo": {
        "display_name": "Chnarok, Koy Sinjaq Central Subdistrict, Koy Sinjaq District, Erbil Governorate, Iraqi Kurdistan Region, 44023, Iraq",
        "road": null,
        "house_number": null,
        "neighbourhood": null,
        "suburb": null,
        "city_district": null,
        "city": "Chnarok",
        "state": "Erbil Governorate",
        "postcode": "44023",
        "country": "Iraq",
        "country_code": "iq"
      },
      "address": "Chnarok, Koy Sinjaq Central Subdistrict, Koy Sinjaq District, Erbil Governorate, Iraqi Kurdistan Region, 44023, Iraq"
    },
    {
      "lat": 36.0490241048128,
      "lon": 44.616841297745545,
      "geoinfo": {
        "display_name": "Tall Kirdi Abdalan, Abdallan, Koy Sinjaq Central Subdistrict, Koy Sinjaq District, Erbil Governorate, Iraqi Kurdistan Region, 46017, Iraq",
        "road": null,
        "house_number": null,
        "neighbourhood": null,
        "suburb": null,
        "city_district": null,
        "city": "Abdallan",
        "state": "Erbil Governorate",
        "postcode": "46017",
        "country": "Iraq",
        "country_code": "iq"
      },
      "address": "905, Tall Kirdi Abdalan, Abdallan, Koy Sinjaq Central Subdistrict, Koy Sinjaq District, Erbil Governorate, Iraqi Kurdistan Region, 46017, Iraq"
    },
    {
      "lat": 36.09559151083306,
      "lon": 44.62357624924427,
      "geoinfo": {
        "display_name": "Faqêyan, Koy Sinjaq Central Subdistrict, Koy Sinjaq District, Erbil Governorate, Iraqi Kurdistan Region, 41607, Iraq",
        "road": null,
        "house_number": null,
        "neighbourhood": null,
        "suburb": null,
        "city_district": null,
        "city": "Faqêyan",
        "state": "Erbil Governorate",
        "postcode": "41607",
        "country": "Iraq",
        "country_code": "iq"
      },
      "address": "696, Faqêyan, Koy Sinjaq Central Subdistrict, Koy Sinjaq District, Erbil Governorate, Iraqi Kurdistan Region, 41607, Iraq"
    },
    {
      "lat": 36.059810632530265,
      "lon": 44.58546539245985,
      "geoinfo": {
        "display_name": "Azady Camp, Koy Sinjaq Central Subdistrict, Koy Sinjaq District, Erbil Governorate, Iraqi Kurdistan Region, 46017, Iraq",
        "road": null,
        "house_number": null,
        "neighbourhood": null,
        "suburb": null,
        "city_district": null,
        "city": "Azady Camp",
        "state": "Erbil Governorate",
        "postcode": "46017",
        "country": "Iraq",
        "country_code": "iq"
      },
      "address": "997, Azady Camp, Koy Sinjaq Central Subdistrict, Koy Sinjaq District, Erbil Governorate, Iraqi Kurdistan Region, 46017, Iraq"
    },
    {
      "lat": 36.06661465272165,
      "lon": 44.62765483366825,
      "geoinfo": {
        "display_name": "fidrally, Koy Sinjaq Central Subdistrict, Koy Sinjaq District, Erbil Governorate, Iraqi Kurdistan Region, 46017, Iraq",
        "road": null,
        "house_number": null,
        "neighbourhood": null,
        "suburb": null,
        "city_district": null,
        "city": "fidrally",
        "state": "Erbil Governorate",
        "postcode": "46017",
        "country": "Iraq",
        "country_code": "iq"
      },
      "address": "283, fidrally, Koy Sinjaq Central Subdistrict, Koy Sinjaq District, Erbil Governorate, Iraqi Kurdistan Region, 46017, Iraq"
    },
    {
      "lat": 36.051884759178016,
      "lon": 44.652752943055496,
      "geoinfo": {
        "display_name": "Yaramish, Koy Sinjaq Central Subdistrict, Koy Sinjaq District, Erbil Governorate, Iraqi Kurdistan Region, 46053, Iraq",
        "road": null,
        "house_number": null,
        "neighbourhood": null,
        "suburb": null,
        "city_district": null,
        "city": "Yaramish",
        "state": "Erbil Governorate",
        "postcode": "46053",
        "country": "Iraq",
        "country_code": "iq"
      },
      "address": "999, Yaramish, Koy Sinjaq Central Subdistrict, Koy Sinjaq District, Erbil Governorate, Iraqi Kurdistan Region, 46053, Iraq"
    }
  ],
  "updated_at": "2025-10-19T04:57:20.819746+00:00",
  "_kind": "geo_samples"
}