{
  "country_code": "IQ",
  "country": "Iraq",
  "city": "Najaf",
  "geonameid": 98860,
  "target_addresses": 7,
  "samples": [
    {
      "lat": 31.996225159048887,
      "lon": 44.31071408481198,
      "geoinfo": {
        "display_name": "شارع العباس, محلة الحويش, Najaf Old Town, Al-Najaf Old Town, Al-Najaf Central Subdistrict, Al-Najaf District, Al-Najaf Governorate, 54004, Iraq",
        "road": "شارع العباس",
        "house_number": null,
        "neighbourhood": "محلة الحويش",
        "suburb": null,
        "city_district": null,
        "city": null,
        "state": "Al-Najaf Governorate",
        "postcode": "54004",
        "country": "Iraq",
        "country_code": "iq"
      },
      "address": "شارع العباس, Najaf, Al-Najaf Governorate, Iraq"
    },
    {
      "lat": 32.00971459803009,
      "lon": 44.33739101259742,
      "geoinfo": {
        "display_name": "Hay Al-Hussain, Hay Alatbaa, Al-Najaf Central Subdistrict, Al-Najaf District, Al-Najaf Governorate, 54004, Iraq",
        "road": null,
        "house_number": null,
        "neighbourhood": null,
        "suburb": null,
        "city_district": null,
        "city": null,
        "state": "Al-Najaf Governorate",
        "postcode": "54004",
        "country": "Iraq",
        "country_code": "iq"
      },
      "address": "Najaf, Al-Najaf Governorate, Iraq"
    },
    {
      "lat": 32.04418335754946,
      "lon": 44.373255862013195,
      "geoinfo": {
        "display_name": "Al Kufa, Al-Kufah Central Subdistrict, Al-Kufah District, Al-Najaf Governorate, 54003, Iraq",
        "road": null,
        "house_number": null,
        "neighbourhood": null,
        "suburb": null,
        "city_district": null,
        "city": "Al Kufa",
        "state": "Al-Najaf Governorate",
        "postcode": "54003",
        "country": "Iraq",
        "country_code": "iq"
      },
      "address": "609, Al Kufa, Al-Kufah Central Subdistrict, Al-Kufah District, Al-Najaf Governorate, 54003, Iraq"
    },
    {
      "lat": 32.0169153879758,
      "lon": 44.30412092491955,
      "geoinfo": {
        "display_name": "Al-Najaf, Al-Najaf Central Subdistrict, Al-Najaf District, Al-Najaf Governorate, 54004, Iraq",
        "road": null,
        "house_number": null,
        "neighbourhood": null,
        "suburb": null,
        "city_district": null,
        "city": "Al-Najaf",
        "state": "Al-Najaf Governorate",
        "postcode": "54004",
        "country": "Iraq",
        "country_code": "iq"
      },
      "address": "246, Najaf, 54004 Al-Najaf Governorate, Iraq"
    },
    {
      "lat": 32.01580088809213,
      "lon": 44.35413004406723,
      "geoinfo": {
        "display_name": "مجمع الدوائر المدنية, Hayy alghadeer, Al-Najaf Central Subdistrict, Al-Najaf District, Al-Najaf Governorate, 54004, Iraq",
        "road": null,
        "house_number": null,
        "neighbourhood": null,
        "suburb": null,
        "city_district": null,
        "city": null,
        "state": "Al-Najaf Governorate",
        "postcode": "54004",
        "country": "Iraq",
        "country_code": "iq"
      },
      "address": "013, Najaf, 54004 Al-Najaf Governorate, Iraq"
    },
    {
      "lat": 32.06688983396057,
      "lon": 44.33966545560513,
      "geoinfo": {
        "display_name": "حي العسكري, Al-Najaf Central Subdistrict, Al-Najaf District, Al-Najaf Governorate, 54238, Iraq",
        "road": null,
        "house_number": null,
        "neighbourhood": "حي العسكري",
        "suburb": null,
        "city_district": null,
        "city": null,
        "state": "Al-Najaf Governorate",
        "postcode": "54238",
        "country": "Iraq",
        "country_code": "iq"
      },
      "address": "602, حي العسكري, Najaf, 54238 Al-Najaf Governorate, Iraq"
    },
    {
      "lat": 32.02655849026068,
      "lon": 44.397058364273555,
      "geoinfo": {
        "display_name": "شارع ميثم التمار, حي الشرطة, Hayy Kandah, Al Kufa, Al-Kufah Central Subdistrict, Al-Kufah District, Al-Najaf Governorate, 54003, Iraq",
        "road": "شارع ميثم التمار",
        "house_number": null,
        "neighbourhood": "حي الشرطة",
        "suburb": null,
        "city_district": null,
        "city": "Al Kufa",
        "state": "Al-Najaf Governorate",
        "postcode": "54003",
        "country": "Iraq",
        "country_code": "iq"
      },
      "address": "869, شارع ميثم التمار, حي الشرطة, Hayy Kandah, Al Kufa, Al-Kufah Central Subdistrict, Al-Kufah District, Al-Najaf Governorate, 54003, Iraq"
    }
  ],
  "updated_at": "2025-10-19T04:57:58.947630+00:00",
  "_kind": "geo_samples"
}