{
  "country_code": "IQ",
  "country": "Iraq",
  "city": "Ramadi",
  "geonameid": 98717,
  "target_addresses": 2,
  "samples": [
    {
      "lat": 33.42919567394653,
      "lon": 43.34676049066125,
      "geoinfo": {
        "display_name": "منطقة السورة, Ramadi, Al-Ramadi Central Subdistrict, Al-Ramadi District, Al-Anbar Governorate, Iraq",
        "road": null,
        "house_number": null,
        "neighbourhood": "منطقة السورة",
        "suburb": null,
        "city_district": null,
        "city": "Ramadi",
        "state": "Al-Anbar Governorate",
        "postcode": null,
        "country": "Iraq",
        "country_code": "iq"
      },
      "address": "منطقة السورة, Ramadi, Al-Anbar Governorate, Iraq"
    },
    {
      "lat": 33.39053058914784,
      "lon": 43.31923666285488,
      "geoinfo": {
        "display_name": "حي الملعب, السجارية, Al-Ramadi Central Subdistrict, Al-Ramadi District, Al-Anbar Governorate, Iraq",
        "road": null,
        "house_number": null,
        "neighbourhood": "حي الملعب",
        "suburb": null,
        "city_district": null,
        "city": "السجارية",
        "state": "Al-Anbar Governorate",
        "postcode": null,
        "country": "Iraq",
        "country_code": "iq"
      },
      "address": "حي الملعب, Ramadi, Al-Anbar Governorate, Iraq"
    },
    {
      "lat": 33.43651771184908,
      "lon": 43.260653193951185,
      "geoinfo": {
        "display_name": "حي الشافعي, الورار, Al-Ramadi Central Subdistrict, Al-Ramadi District, Al-Anbar Governorate, Iraq",
        "road": null,
        "house_number": null,
        "neighbourhood": "حي الشافعي",
        "suburb": null,
        "city_district": null,
        "city": "الورار",
        "state": "Al-Anbar Governorate",
        "postcode": null,
        "country": "Iraq",
        "country_code": "iq"
      },
      "address": "845, حي الشافعي, Ramadi, 72414 Al-Anbar Governorate, Iraq"
    },
    {
      "lat": 33.385294924791324,
      "lon": 43.33590757165661,
      "geoinfo": {
        "display_name": "حي الملعب, السجارية, Al-Ramadi Central Subdistrict, Al-Ramadi District, Al-Anbar Governorate, Iraq",
        "road": null,
        "house_number": null,
        "neighbourhood": "حي الملعب",
        "suburb": null,
        "city_district": null,
        "city": "السجارية",
        "state": "Al-Anbar Governorate",
        "postcode": null,
        "country": "Iraq",
        "country_code": "iq"
      },
      "address": "788, حي الملعب, Ramadi, 04375 Al-Anbar Governorate, Iraq"
    }
  ],
  "updated_at": "2025-10-19T06:57:48.263105+00:00",
  "_kind": "geo_samples"
}