{
  "country_code": "IQ",
  "country": "Iraq",
  "city": "Tikrīt",
  "geonameid": 90150,
  "target_addresses": 7,
  "samples": [
    {
      "lat": 34.63421242729568,
      "lon": 43.727929556168135,
      "geoinfo": {
        "display_name": "Tikrit, Tikrit Central Subdistrict, Tikrit District, Saladin Governorate, 34001, Iraq",
        "road": null,
        "house_number": null,
        "neighbourhood": null,
        "suburb": null,
        "city_district": null,
        "city": "Tikrit",
        "state": "Saladin Governorate",
        "postcode": "34001",
        "country": "Iraq",
        "country_code": "iq"
      },
      "address": "Tikrīt, Saladin Governorate, Iraq"
    },
    {
      "lat": 34.60112819709121,
      "lon": 43.6378612664516,
      "geoinfo": {
        "display_name": "حي الديوم / المربع الذهبي, الديوم, Tikrit Central Subdistrict, Tikrit District, Saladin Governorate, Iraq",
        "road": null,
        "house_number": null,
        "neighbourhood": "حي الديوم / المربع الذهبي",
        "suburb": null,
        "city_district": null,
        "city": "الديوم",
        "state": "Saladin Governorate",
        "postcode": null,
        "country": "Iraq",
        "country_code": "iq"
      },
      "address": "حي الديوم / المربع الذهبي, Tikrīt, Saladin Governorate, Iraq"
    },
    {
      "lat": 34.58645464450603,
      "lon": 43.685408169170586,
      "geoinfo": {
        "display_name": "Tikrit, Tikrit Central Subdistrict, Tikrit District, Saladin Governorate, Iraq",
        "road": null,
        "house_number": null,
        "neighbourhood": null,
        "suburb": null,
        "city_district": null,
        "city": "Tikrit",
        "state": "Saladin Governorate",
        "postcode": null,
        "country": "Iraq",
        "country_code": "iq"
      },
      "address": "671, Tikrīt, 10816 Saladin Governorate, Iraq"
    },
    {
      "lat": 34.61931322321516,
      "lon": 43.67544756890474,
      "geoinfo": {
        "display_name": "مجمع تلال شقلاوة, Tikrit, Tikrit Central Subdistrict, Tikrit District, Saladin Governorate, 34001, Iraq",
        "road": null,
        "house_number": null,
        "neighbourhood": "مجمع تلال شقلاوة",
        "suburb": null,
        "city_district": null,
        "city": "Tikrit",
        "state": "Saladin Governorate",
        "postcode": "34001",
        "country": "Iraq",
        "country_code": "iq"
      },
      "address": "111, مجمع تلال شقلاوة, Tikrīt, 34001 Saladin Governorate, Iraq"
    },
    {
      "lat": 34.595003218372334,
      "lon": 43.67323158821276,
      "geoinfo": {
        "display_name": "الجمعية الاولى, Hayy ash Shishin, Tikrit, Tikrit Central Subdistrict, Tikrit District, Saladin Governorate, 34001, Iraq",
        "road": null,
        "house_number": null,
        "neighbourhood": "الجمعية الاولى",
        "suburb": null,
        "city_district": null,
        "city": "Tikrit",
        "state": "Saladin Governorate",
        "postcode": "34001",
        "country": "Iraq",
        "country_code": "iq"
      },
      "address": "911, الجمعية الاولى, Hayy ash Shishin, Tikrit, Tikrit Central Subdistrict, Tikrit District, Saladin Governorate, 34001, Iraq"
    },
    {
      "lat": 34.640439498461404,
      "lon": 43.65686273868946,
      "geoinfo": {
        "display_name": "مجمع بيتي السكني, Tikrit, Tikrit Central Subdistrict, Tikrit District, Saladin Governorate, 34001, Iraq",
        "road": null,
        "house_number": null,
        "neighbourhood": "مجمع بيتي السكني",
        "suburb": null,
        "city_district": null,
        "city": "Tikrit",
        "state": "Saladin Governorate",
        "postcode": "34001",
        "country": "Iraq",
        "country_code": "iq"
      },
      "address": "663, مجمع بيتي السكني, Tikrīt, 34001 Saladin Governorate, Iraq"
    },
    {
      "lat": 34.59136585810435,
      "lon": 43.67858740634962,
      "geoinfo": {
        "display_name": "الجمعية الاولى, Hayy ash Shishin, Tikrit, Tikrit Central Subdistrict, Tikrit District, Saladin Governorate, 34001, Iraq",
        "road": null,
        "house_number": null,
        "neighbourhood": "الجمعية الاولى",
        "suburb": null,
        "city_district": null,
        "city": "Tikrit",
        "state": "Saladin Governorate",
        "postcode": "34001",
        "country": "Iraq",
        "country_code": "iq"
      },
      "address": "940, الجمعية الاولى, Hayy ash Shishin, Tikrit, Tikrit Central Subdistrict, Tikrit District, Saladin Governorate, 34001, Iraq"
    }
  ],
  "updated_at": "2025-10-19T04:56:57.859805+00:00",
  "_kind": "geo_samples"
}