{
  "country_code": "IQ",
  "country": "Iraq",
  "city": "Ţūz Khūrmātū",
  "geonameid": 90026,
  "target_addresses": 2,
  "samples": [
    {
      "lat": 34.904783554353536,
      "lon": 44.59720673398355,
      "geoinfo": {
        "display_name": "Tuz Khormato, Tuz Central Subdistrict, Tuz District, Saladin Governorate, 36006, Iraq",
        "road": null,
        "house_number": null,
        "neighbourhood": null,
        "suburb": null,
        "city_district": null,
        "city": "Tuz Khormato",
        "state": "Saladin Governorate",
        "postcode": "36006",
        "country": "Iraq",
        "country_code": "iq"
      },
      "address": "Ţūz Khūrmātū, Saladin Governorate, Iraq"
    },
    {
      "lat": 34.87323761775581,
      "lon": 44.620558148974965,
      "geoinfo": {
        "display_name": "Al-Teen Neighborhood, Tuz Khormato, Tuz Central Subdistrict, Tuz District, Saladin Governorate, 34009, Iraq",
        "road": null,
        "house_number": null,
        "neighbourhood": "Al-Teen Neighborhood",
        "suburb": null,
        "city_district": null,
        "city": "Tuz Khormato",
        "state": "Saladin Governorate",
        "postcode": "34009",
        "country": "Iraq",
        "country_code": "iq"
      },
      "address": "Al-Teen Neighborhood, Ţūz Khūrmātū, Saladin Governorate, Iraq"
    },
    {
      "lat": 34.899709603083586,
      "lon": 44.62630116685835,
      "geoinfo": {
        "display_name": "Komari Neighborhood, Tuz Khormato, Tuz Central Subdistrict, Tuz District, Saladin Governorate, 36006, Iraq",
        "road": null,
        "house_number": null,
        "neighbourhood": null,
        "suburb": null,
        "city_district": null,
        "city": "Tuz Khormato",
        "state": "Saladin Governorate",
        "postcode": "36006",
        "country": "Iraq",
        "country_code": "iq"
      },
      "address": "964, Ţūz Khūrmātū, 36006 Saladin Governorate, Iraq"
    },
    {
      "lat": 34.85707677433945,
      "lon": 44.60520517224444,
      "geoinfo": {
        "display_name": "قرية السلام, Tuz Central Subdistrict, Tuz District, Saladin Governorate, 44909, Iraq",
        "road": null,
        "house_number": null,
        "neighbourhood": null,
        "suburb": null,
        "city_district": null,
        "city": "قرية السلام",
        "state": "Saladin Governorate",
        "postcode": "44909",
        "country": "Iraq",
        "country_code": "iq"
      },
      "address": "999, Ţūz Khūrmātū, 44909 Saladin Governorate, Iraq"
    }
  ],
  "updated_at": "2025-10-19T05:15:33.934454+00:00",
  "_kind": "geo_samples"
}