{
  "country_code": "IQ",
  "country": "Iraq",
  "city": "Ḩalabja",
  "geonameid": 96205,
  "target_addresses": 2,
  "samples": [
    {
      "lat": 35.19361103289296,
      "lon": 45.99646609250088,
      "geoinfo": {
        "display_name": "گەرەکی شارەوانی 1, Halabja, Halabja District, Halabja Governorate, Iraqi Kurdistan Region, 46006, Iraq",
        "road": null,
        "house_number": null,
        "neighbourhood": null,
        "suburb": null,
        "city_district": null,
        "city": "Halabja",
        "state": "Halabja Governorate",
        "postcode": "46006",
        "country": "Iraq",
        "country_code": "iq"
      },
      "address": "Ḩalabja, Halabja Governorate, Iraq"
    },
    {
      "lat": 35.172800183212516,
      "lon": 46.021945941378675,
      "geoinfo": {
        "display_name": "University of Halabja, شەقامی زانکۆ, Halabja, Halabja District, Halabja Governorate, Iraqi Kurdistan Region, 46006, Iraq",
        "road": "شەقامی زانکۆ",
        "house_number": null,
        "neighbourhood": null,
        "suburb": null,
        "city_district": null,
        "city": "Halabja",
        "state": "Halabja Governorate",
        "postcode": "46006",
        "country": "Iraq",
        "country_code": "iq"
      },
      "address": "شەقامی زانکۆ, Ḩalabja, Halabja Governorate, Iraq"
    },
    {
      "lat": 35.1949470933469,
      "lon": 46.010118518196265,
      "geoinfo": {
        "display_name": "Share Qtr., Halabja, Halabja District, Halabja Governorate, Iraqi Kurdistan Region, 46006, Iraq",
        "road": null,
        "house_number": null,
        "neighbourhood": null,
        "suburb": null,
        "city_district": null,
        "city": "Halabja",
        "state": "Halabja Governorate",
        "postcode": "46006",
        "country": "Iraq",
        "country_code": "iq"
      },
      "address": "419, Ḩalabja, 46006 Halabja Governorate, Iraq"
    },
    {
      "lat": 35.172424383322515,
      "lon": 45.93465226704514,
      "geoinfo": {
        "display_name": "Upper Pris to Lower Pris track road, Upper Pris, Sirwan Sub-District, Halabja District, Halabja Governorate, Iraqi Kurdistan Region, 40006, Iraq",
        "road": "Upper Pris to Lower Pris track road",
        "house_number": null,
        "neighbourhood": null,
        "suburb": null,
        "city_district": null,
        "city": "Upper Pris",
        "state": "Halabja Governorate",
        "postcode": "40006",
        "country": "Iraq",
        "country_code": "iq"
      },
      "address": "324, Upper Pris to Lower Pris track road, Ḩalabja, 40006 Halabja Governorate, Iraq"
    }
  ],
  "updated_at": "2025-10-19T05:15:22.745522+00:00",
  "_kind": "geo_samples"
}