{
  "country_code": "TL",
  "country": "Timor Leste",
  "city": "Aileu",
  "geonameid": 1651816,
  "target_addresses": 12,
  "samples": [
    {
      "lat": -8.725411757763784,
      "lon": 125.5876220057434,
      "geoinfo": {
        "display_name": "Sidole, Aileu, East Timor",
        "road": null,
        "house_number": null,
        "neighbourhood": null,
        "suburb": null,
        "city_district": null,
        "city": "Aileu",
        "state": "Aileu",
        "postcode": null,
        "country": "East Timor",
        "country_code": "tl"
      },
      "address": "Aileu, Aileu, Timor Leste"
    },
    {
      "lat": -8.706420118927218,
      "lon": 125.56812385881116,
      "geoinfo": {
        "display_name": "Projeto Montanha Village, Estrada Aileu - Díli, Saril, Aileu, East Timor",
        "road": "Estrada Aileu - Díli",
        "house_number": null,
        "neighbourhood": null,
        "suburb": null,
        "city_district": null,
        "city": "Aileu",
        "state": "Aileu",
        "postcode": null,
        "country": "East Timor",
        "country_code": "tl"
      },
      "address": "Estrada Aileu - Díli, Aileu, Aileu, Timor Leste"
    },
    {
      "lat": -8.757877050116909,
      "lon": 125.56647840855823,
      "geoinfo": {
        "display_name": "Estrada Aileu - Ainaro, Sarin, Aileu, East Timor",
        "road": "Estrada Aileu - Ainaro",
        "house_number": null,
        "neighbourhood": null,
        "suburb": null,
        "city_district": null,
        "city": "Aileu",
        "state": "Aileu",
        "postcode": null,
        "country": "East Timor",
        "country_code": "tl"
      },
      "address": "Estrada Aileu - Ainaro, Aileu, Aileu, Timor Leste"
    },
    {
      "lat": -8.733390476619004,
      "lon": 125.55822746038838,
      "geoinfo": {
        "display_name": "EStrada Jovka, Perumahan, Kabasfatin, Aileu, East Timor",
        "road": "EStrada Jovka",
        "house_number": null,
        "neighbourhood": null,
        "suburb": null,
        "city_district": null,
        "city": "Aileu",
        "state": "Aileu",
        "postcode": null,
        "country": "East Timor",
        "country_code": "tl"
      },
      "address": "EStrada Jovka, Aileu, Aileu, Timor Leste"
    },
    {
      "lat": -8.706885854702605,
      "lon": 125.53906645362245,
      "geoinfo": {
        "display_name": "EBF Cotbauro, Estrada Gleno - Aileu, Rekoalepa, Darhai, Aileu, East Timor",
        "road": "Estrada Gleno - Aileu",
        "house_number": null,
        "neighbourhood": null,
        "suburb": null,
        "city_district": null,
        "city": "Darhai",
        "state": "Aileu",
        "postcode": null,
        "country": "East Timor",
        "country_code": "tl"
      },
      "address": "Estrada Gleno - Aileu, Aileu, Aileu, Timor Leste"
    },
    {
      "lat": -8.75777614353033,
      "lon": 125.58920151884843,
      "geoinfo": {
        "display_name": "Dailor, Aileu, East Timor",
        "road": null,
        "house_number": null,
        "neighbourhood": null,
        "suburb": null,
        "city_district": null,
        "city": null,
        "state": "Aileu",
        "postcode": null,
        "country": "East Timor",
        "country_code": "tl"
      },
      "address": "971, Aileu, 75843 Aileu, Timor Leste"
    },
    {
      "lat": -8.752835493713173,
      "lon": 125.60384457435511,
      "geoinfo": {
        "display_name": "Aileu, East Timor",
        "road": null,
        "house_number": null,
        "neighbourhood": null,
        "suburb": null,
        "city_district": null,
        "city": "Aileu",
        "state": "Aileu",
        "postcode": null,
        "country": "East Timor",
        "country_code": "tl"
      },
      "address": "723, Aileu, 49386 Aileu, Timor Leste"
    },
    {
      "lat": -8.748814634750516,
      "lon": 125.58860667516345,
      "geoinfo": {
        "display_name": "Sarin, Aileu, East Timor",
        "road": null,
        "house_number": null,
        "neighbourhood": null,
        "suburb": null,
        "city_district": null,
        "city": "Aileu",
        "state": "Aileu",
        "postcode": null,
        "country": "East Timor",
        "country_code": "tl"
      },
      "address": "386, Aileu, 52828 Aileu, Timor Leste"
    },
    {
      "lat": -8.752801759289333,
      "lon": 125.54963510879865,
      "geoinfo": {
        "display_name": "Aileu, East Timor",
        "road": null,
        "house_number": null,
        "neighbourhood": null,
        "suburb": null,
        "city_district": null,
        "city": null,
        "state": "Aileu",
        "postcode": null,
        "country": "East Timor",
        "country_code": "tl"
      },
      "address": "198, Aileu, 47330 Aileu, Timor Leste"
    },
    {
      "lat": -8.742762222648263,
      "lon": 125.56284150900366,
      "geoinfo": {
        "display_name": "Kabasfatin, Aileu, East Timor",
        "road": null,
        "house_number": null,
        "neighbourhood": null,
        "suburb": null,
        "city_district": null,
        "city": "Aileu",
        "state": "Aileu",
        "postcode": null,
        "country": "East Timor",
        "country_code": "tl"
      },
      "address": "941, Aileu, 77887 Aileu, Timor Leste"
    },
    {
      "lat": -8.757213790366205,
      "lon": 125.59222271433981,
      "geoinfo": {
        "display_name": "Aileu, East Timor",
        "road": null,
        "house_number": null,
        "neighbourhood": null,
        "suburb": null,
        "city_district": null,
        "city": "Aileu",
        "state": "Aileu",
        "postcode": null,
        "country": "East Timor",
        "country_code": "tl"
      },
      "address": "253, Aileu, 79895 Aileu, Timor Leste"
    },
    {
      "lat": -8.70706067484127,
      "lon": 125.55264837115855,
      "geoinfo": {
        "display_name": "Saril, Aileu, East Timor",
        "road": null,
        "house_number": null,
        "neighbourhood": null,
        "suburb": null,
        "city_district": null,
        "city": null,
        "state": "Aileu",
        "postcode": null,
        "country": "East Timor",
        "country_code": "tl"
      },
      "address": "326, Aileu, 08234 Aileu, Timor Leste"
    },
    {
      "lat": -8.68677128606066,
      "lon": 125.55599213917941,
      "geoinfo": {
        "display_name": "Darhai, Aileu, East Timor",
        "road": null,
        "house_number": null,
        "neighbourhood": null,
        "suburb": null,
        "city_district": null,
        "city": "Darhai",
        "state": "Aileu",
        "postcode": null,
        "country": "East Timor",
        "country_code": "tl"
      },
      "address": "449, Aileu, 08690 Aileu, Timor Leste"
    },
    {
      "lat": -8.760068078610754,
      "lon": 125.59527376264208,
      "geoinfo": {
        "display_name": "Aileu, East Timor",
        "road": null,
        "house_number": null,
        "neighbourhood": null,
        "suburb": null,
        "city_district": null,
        "city": "Aileu",
        "state": "Aileu",
        "postcode": null,
        "country": "East Timor",
        "country_code": "tl"
      },
      "address": "362, Aileu, 13322 Aileu, Timor Leste"
    },
    {
      "lat": -8.739695598072375,
      "lon": 125.58795208319957,
      "geoinfo": {
        "display_name": "Sarin, Aileu, East Timor",
        "road": null,
        "house_number": null,
        "neighbourhood": null,
        "suburb": null,
        "city_district": null,
        "city": "Aileu",
        "state": "Aileu",
        "postcode": null,
        "country": "East Timor",
        "country_code": "tl"
      },
      "address": "384, Aileu, 34464 Aileu, Timor Leste"
    },
    {
      "lat": -8.758165245412671,
      "lon": 125.54765413806821,
      "geoinfo": {
        "display_name": "Bandeirahun, Aileu, East Timor",
        "road": null,
        "house_number": null,
        "neighbourhood": null,
        "suburb": null,
        "city_district": null,
        "city": null,
        "state": "Aileu",
        "postcode": null,
        "country": "East Timor",
        "country_code": "tl"
      },
      "address": "757, Aileu, 57147 Aileu, Timor Leste"
    },
    {
      "lat": -8.702990883258634,
      "lon": 125.58138492326152,
      "geoinfo": {
        "display_name": "Uaho, Aileu, East Timor",
        "road": null,
        "house_number": null,
        "neighbourhood": null,
        "suburb": null,
        "city_district": null,
        "city": "Aileu",
        "state": "Aileu",
        "postcode": null,
        "country": "East Timor",
        "country_code": "tl"
      },
      "address": "892, Aileu, 71783 Aileu, Timor Leste"
    }
  ],
  "updated_at": "2025-10-19T07:11:09.848852+00:00",
  "_kind": "geo_samples"
}