{
  "country_code": "TL",
  "country": "Timor Leste",
  "city": "Lospalos",
  "geonameid": 1937274,
  "target_addresses": 12,
  "samples": [
    {
      "lat": -8.540319944471873,
      "lon": 127.03773564926071,
      "geoinfo": {
        "display_name": "Lospalos, Lautém, East Timor",
        "road": null,
        "house_number": null,
        "neighbourhood": null,
        "suburb": null,
        "city_district": null,
        "city": "Lospalos",
        "state": "Lautém",
        "postcode": null,
        "country": "East Timor",
        "country_code": "tl"
      },
      "address": "Lospalos, Lautém, Timor Leste"
    },
    {
      "lat": -8.510121849046993,
      "lon": 127.01650020408806,
      "geoinfo": {
        "display_name": "CCT Pato, Estrada Lospalos - Mehara - Tutuala, Лос-Палос, Motolari, Lospalos, Lautém, East Timor",
        "road": "Estrada Lospalos - Mehara - Tutuala",
        "house_number": null,
        "neighbourhood": null,
        "suburb": null,
        "city_district": null,
        "city": "Lospalos",
        "state": "Lautém",
        "postcode": null,
        "country": "East Timor",
        "country_code": "tl"
      },
      "address": "Estrada Lospalos - Mehara - Tutuala, Lospalos, Lautém, Timor Leste"
    },
    {
      "lat": -8.518578255257196,
      "lon": 127.03020690285028,
      "geoinfo": {
        "display_name": "Estrada Lospalos - Malahara-Mehara, Vailoro, Lospalos, Lautém, East Timor",
        "road": "Estrada Lospalos - Malahara-Mehara",
        "house_number": null,
        "neighbourhood": null,
        "suburb": null,
        "city_district": null,
        "city": "Lospalos",
        "state": "Lautém",
        "postcode": null,
        "country": "East Timor",
        "country_code": "tl"
      },
      "address": "Estrada Lospalos - Malahara-Mehara, Lospalos, Lautém, Timor Leste"
    },
    {
      "lat": -8.543324762839413,
      "lon": 126.9926802842041,
      "geoinfo": {
        "display_name": "Estrada Iliomar - Lospalos, Lereloho, Lore, Lautém, East Timor",
        "road": "Estrada Iliomar - Lospalos",
        "house_number": null,
        "neighbourhood": null,
        "suburb": null,
        "city_district": null,
        "city": null,
        "state": "Lautém",
        "postcode": null,
        "country": "East Timor",
        "country_code": "tl"
      },
      "address": "Estrada Iliomar - Lospalos, Lospalos, Lautém, Timor Leste"
    },
    {
      "lat": -8.548946676008228,
      "lon": 127.01854445249933,
      "geoinfo": {
        "display_name": "Paitalo, Lospalos, Lautém, East Timor",
        "road": null,
        "house_number": null,
        "neighbourhood": null,
        "suburb": null,
        "city_district": null,
        "city": null,
        "state": "Lautém",
        "postcode": null,
        "country": "East Timor",
        "country_code": "tl"
      },
      "address": "358, Lospalos, 81633 Lautém, Timor Leste"
    },
    {
      "lat": -8.541361831225593,
      "lon": 126.9737616528934,
      "geoinfo": {
        "display_name": "Chaiuacha Baru, Lospalos, Lautém, East Timor",
        "road": null,
        "house_number": null,
        "neighbourhood": null,
        "suburb": null,
        "city_district": null,
        "city": "Lospalos",
        "state": "Lautém",
        "postcode": null,
        "country": "East Timor",
        "country_code": "tl"
      },
      "address": "264, Lospalos, 85367 Lautém, Timor Leste"
    },
    {
      "lat": -8.4844822385542,
      "lon": 126.99516040948633,
      "geoinfo": {
        "display_name": "Лос-Палос, Kartini 2, Lospalos, Lautém, East Timor",
        "road": null,
        "house_number": null,
        "neighbourhood": null,
        "suburb": null,
        "city_district": null,
        "city": "Lospalos",
        "state": "Lautém",
        "postcode": null,
        "country": "East Timor",
        "country_code": "tl"
      },
      "address": "526, Lospalos, 37299 Lautém, Timor Leste"
    },
    {
      "lat": -8.554008557021946,
      "lon": 126.99626570190054,
      "geoinfo": {
        "display_name": "Lospalos, Lautém, East Timor",
        "road": null,
        "house_number": null,
        "neighbourhood": null,
        "suburb": null,
        "city_district": null,
        "city": "Lospalos",
        "state": "Lautém",
        "postcode": null,
        "country": "East Timor",
        "country_code": "tl"
      },
      "address": "390, Lospalos, 53655 Lautém, Timor Leste"
    },
    {
      "lat": -8.507647849820481,
      "lon": 126.95896778852665,
      "geoinfo": {
        "display_name": "Larinacha, Lospalos, Lautém, East Timor",
        "road": null,
        "house_number": null,
        "neighbourhood": null,
        "suburb": null,
        "city_district": null,
        "city": null,
        "state": "Lautém",
        "postcode": null,
        "country": "East Timor",
        "country_code": "tl"
      },
      "address": "885, Lospalos, 12701 Lautém, Timor Leste"
    },
    {
      "lat": -8.523808879101063,
      "lon": 127.03743894787455,
      "geoinfo": {
        "display_name": "Estrada Lospalos - Malahara-Mehara, Vailoro, Lospalos, Lautém, East Timor",
        "road": "Estrada Lospalos - Malahara-Mehara",
        "house_number": null,
        "neighbourhood": null,
        "suburb": null,
        "city_district": null,
        "city": "Lospalos",
        "state": "Lautém",
        "postcode": null,
        "country": "East Timor",
        "country_code": "tl"
      },
      "address": "800, Estrada Lospalos - Malahara-Mehara, Lospalos, 05230 Lautém, Timor Leste"
    },
    {
      "lat": -8.487403606134416,
      "lon": 126.99996781527896,
      "geoinfo": {
        "display_name": "Лос-Палос, Kartini 2, Lospalos, Lautém, East Timor",
        "road": null,
        "house_number": null,
        "neighbourhood": null,
        "suburb": null,
        "city_district": null,
        "city": "Lospalos",
        "state": "Lautém",
        "postcode": null,
        "country": "East Timor",
        "country_code": "tl"
      },
      "address": "807, Lospalos, 14047 Lautém, Timor Leste"
    },
    {
      "lat": -8.55833697561747,
      "lon": 126.99355435223552,
      "geoinfo": {
        "display_name": "Estrada Iliomar - Lospalos, Lereloho, Lore, Lautém, East Timor",
        "road": "Estrada Iliomar - Lospalos",
        "house_number": null,
        "neighbourhood": null,
        "suburb": null,
        "city_district": null,
        "city": null,
        "state": "Lautém",
        "postcode": null,
        "country": "East Timor",
        "country_code": "tl"
      },
      "address": "477, Estrada Iliomar - Lospalos, Lospalos, 20872 Lautém, Timor Leste"
    },
    {
      "lat": -8.498984582635927,
      "lon": 126.9710916643191,
      "geoinfo": {
        "display_name": "Лос-Палос, Larinacha, Bauro, Lospalos, Lautém, East Timor",
        "road": null,
        "house_number": null,
        "neighbourhood": null,
        "suburb": null,
        "city_district": null,
        "city": "Bauro",
        "state": "Lautém",
        "postcode": null,
        "country": "East Timor",
        "country_code": "tl"
      },
      "address": "789, Lospalos, 31321 Lautém, Timor Leste"
    },
    {
      "lat": -8.486976021059325,
      "lon": 127.01580552816048,
      "geoinfo": {
        "display_name": "Lospalos, Lautém, East Timor",
        "road": null,
        "house_number": null,
        "neighbourhood": null,
        "suburb": null,
        "city_district": null,
        "city": "Lospalos",
        "state": "Lautém",
        "postcode": null,
        "country": "East Timor",
        "country_code": "tl"
      },
      "address": "026, Lospalos, 15412 Lautém, Timor Leste"
    },
    {
      "lat": -8.513952700620056,
      "lon": 126.95967726615123,
      "geoinfo": {
        "display_name": "Souro, Lospalos, Lautém, East Timor",
        "road": null,
        "house_number": null,
        "neighbourhood": null,
        "suburb": null,
        "city_district": null,
        "city": null,
        "state": "Lautém",
        "postcode": null,
        "country": "East Timor",
        "country_code": "tl"
      },
      "address": "452, Lospalos, 15065 Lautém, Timor Leste"
    },
    {
      "lat": -8.54271812927313,
      "lon": 126.96181928558804,
      "geoinfo": {
        "display_name": "Maurotubuka, Lospalos, Lautém, East Timor",
        "road": null,
        "house_number": null,
        "neighbourhood": null,
        "suburb": null,
        "city_district": null,
        "city": null,
        "state": "Lautém",
        "postcode": null,
        "country": "East Timor",
        "country_code": "tl"
      },
      "address": "769, Lospalos, 69656 Lautém, Timor Leste"
    }
  ],
  "updated_at": "2025-10-19T05:48:24.397144+00:00",
  "_kind": "geo_samples"
}