{
  "country_code": "RO",
  "country": "Romania",
  "city": "Vatra Dornei",
  "geonameid": 663100,
  "target_addresses": 4,
  "samples": [
    {
      "lat": 47.335652273679884,
      "lon": 25.391611651376,
      "geoinfo": {
        "display_name": "214, Strada Unirii, Vatra Dornei, Suceava, 727200, Romania",
        "road": "Strada Unirii",
        "house_number": "214",
        "neighbourhood": null,
        "suburb": null,
        "city_district": null,
        "city": "Vatra Dornei",
        "state": null,
        "postcode": "727200",
        "country": "Romania",
        "country_code": "ro"
      },
      "address": "214 Strada Unirii, Vatra Dornei, Romania"
    },
    {
      "lat": 47.34836909048182,
      "lon": 25.30960613525881,
      "geoinfo": {
        "display_name": "Roșu, Vatra Dornei, Suceava, 725702, Romania",
        "road": null,
        "house_number": null,
        "neighbourhood": null,
        "suburb": null,
        "city_district": null,
        "city": "Vatra Dornei",
        "state": null,
        "postcode": "725702",
        "country": "Romania",
        "country_code": "ro"
      },
      "address": "488, Roșu, Vatra Dornei, Suceava, 725702, Romania"
    },
    {
      "lat": 47.388795093170415,
      "lon": 25.335226895743936,
      "geoinfo": {
        "display_name": "Argestru, Vatra Dornei, Suceava, 725701, Romania",
        "road": null,
        "house_number": null,
        "neighbourhood": null,
        "suburb": null,
        "city_district": null,
        "city": "Vatra Dornei",
        "state": null,
        "postcode": "725701",
        "country": "Romania",
        "country_code": "ro"
      },
      "address": "445, Argestru, Vatra Dornei, Suceava, 725701, Romania"
    },
    {
      "lat": 47.310278501232425,
      "lon": 25.354978117467265,
      "geoinfo": {
        "display_name": "Todireni, Șaru Dornei, 725703, Romania",
        "road": null,
        "house_number": null,
        "neighbourhood": null,
        "suburb": null,
        "city_district": null,
        "city": "Todireni",
        "state": null,
        "postcode": "725703",
        "country": "Romania",
        "country_code": "ro"
      },
      "address": "808, Todireni, Șaru Dornei, 725703, Romania"
    }
  ],
  "updated_at": "2025-10-19T06:11:06.639466+00:00",
  "_kind": "geo_samples"
}