{
  "country_code": "BN",
  "country": "Brunei",
  "city": "Mentiri",
  "geonameid": 1820635,
  "target_addresses": 13,
  "samples": [
    {
      "lat": 4.9691818768930105,
      "lon": 114.98772955208345,
      "geoinfo": {
        "display_name": "Simpang 612-57, Sungai Orok, Mukim Berakas B, Brunei-Muara District, BC2115, Brunei",
        "road": "Simpang 612-57",
        "house_number": null,
        "neighbourhood": null,
        "suburb": null,
        "city_district": null,
        "city": "Sungai Orok",
        "state": null,
        "postcode": "BC2115",
        "country": "Brunei",
        "country_code": "bn"
      },
      "address": "Simpang 612-57, Mentiri, Brunei"
    },
    {
      "lat": 4.944808667967504,
      "lon": 115.05358267994126,
      "geoinfo": {
        "display_name": "Brunei-Muara District, Brunei",
        "road": null,
        "house_number": null,
        "neighbourhood": null,
        "suburb": null,
        "city_district": null,
        "city": null,
        "state": null,
        "postcode": null,
        "country": "Brunei",
        "country_code": "bn"
      },
      "address": "Mentiri, Brunei"
    },
    {
      "lat": 4.969846055774133,
      "lon": 115.03429759082837,
      "geoinfo": {
        "display_name": "Jalan C, Perumahan Negara Mentiri, Mentiri National Housing Scheme Area A, Mukim Mentiri, Brunei-Muara District, BU2129, Brunei",
        "road": "Jalan C",
        "house_number": null,
        "neighbourhood": null,
        "suburb": "Mentiri National Housing Scheme Area A",
        "city_district": null,
        "city": null,
        "state": null,
        "postcode": "BU2129",
        "country": "Brunei",
        "country_code": "bn"
      },
      "address": "Jalan C, Mentiri, Brunei"
    },
    {
      "lat": 4.98312676026641,
      "lon": 114.97771956554872,
      "geoinfo": {
        "display_name": "Simpang 124, Perumahan Negara Lambak Kanan Kawasan 1, Lambak Kanan, Mukim Berakas B, Brunei-Muara District, BC2315, Brunei",
        "road": "Simpang 124",
        "house_number": null,
        "neighbourhood": null,
        "suburb": "Perumahan Negara Lambak Kanan Kawasan 1",
        "city_district": null,
        "city": "Lambak Kanan",
        "state": null,
        "postcode": "BC2315",
        "country": "Brunei",
        "country_code": "bn"
      },
      "address": "Simpang 124, Mentiri, Brunei"
    },
    {
      "lat": 5.001163380243806,
      "lon": 114.9922055597195,
      "geoinfo": {
        "display_name": "Jalan Kulimpapa, Tanah Jambu, Mukim Mentiri, Brunei-Muara District, BU1129, Brunei",
        "road": "Jalan Kulimpapa",
        "house_number": null,
        "neighbourhood": null,
        "suburb": null,
        "city_district": null,
        "city": "Tanah Jambu",
        "state": null,
        "postcode": "BU1129",
        "country": "Brunei",
        "country_code": "bn"
      },
      "address": "Jalan Kulimpapa, Mentiri, Brunei"
    },
    {
      "lat": 4.974016958521276,
      "lon": 115.01230070767399,
      "geoinfo": {
        "display_name": "Simpang 101, Kampong Panchor National Housing Scheme, Panchor, Mukim Mentiri, Brunei-Muara District, BU1729, Brunei",
        "road": "Simpang 101",
        "house_number": null,
        "neighbourhood": null,
        "suburb": "Kampong Panchor National Housing Scheme",
        "city_district": null,
        "city": "Panchor",
        "state": null,
        "postcode": "BU1729",
        "country": "Brunei",
        "country_code": "bn"
      },
      "address": "Simpang 101, Mentiri, Brunei"
    },
    {
      "lat": 5.0039786285558066,
      "lon": 114.99134909056887,
      "geoinfo": {
        "display_name": "Muara–Tutong Highway, Perkhemahan Berakas, Tanah Jambu, Mukim Mentiri, Brunei-Muara District, BU1129, Brunei",
        "road": "Muara–Tutong Highway",
        "house_number": null,
        "neighbourhood": null,
        "suburb": "Perkhemahan Berakas",
        "city_district": null,
        "city": "Tanah Jambu",
        "state": null,
        "postcode": "BU1129",
        "country": "Brunei",
        "country_code": "bn"
      },
      "address": "Muara–Tutong Highway, Mentiri, Brunei"
    },
    {
      "lat": 4.998777223170626,
      "lon": 115.04642475120917,
      "geoinfo": {
        "display_name": "Simpang 326-61, Perpindahan Serasa, Serasa, Mukim Serasa, Brunei-Muara District, BT1728, Brunei",
        "road": "Simpang 326-61",
        "house_number": null,
        "neighbourhood": null,
        "suburb": null,
        "city_district": null,
        "city": "Serasa",
        "state": null,
        "postcode": "BT1728",
        "country": "Brunei",
        "country_code": "bn"
      },
      "address": "Simpang 326-61, Mentiri, Brunei"
    },
    {
      "lat": 4.962545711999259,
      "lon": 115.00189211268315,
      "geoinfo": {
        "display_name": "Jalan Penghubung Tanah Jambu, Mengkubau, Mukim Kota Batu, Brunei-Muara District, BD4717, Brunei",
        "road": "Jalan Penghubung Tanah Jambu",
        "house_number": null,
        "neighbourhood": null,
        "suburb": "Mengkubau",
        "city_district": null,
        "city": null,
        "state": null,
        "postcode": "BD4717",
        "country": "Brunei",
        "country_code": "bn"
      },
      "address": "Jalan Penghubung Tanah Jambu, Mentiri, Brunei"
    },
    {
      "lat": 4.940689937513821,
      "lon": 115.02082550525795,
      "geoinfo": {
        "display_name": "Simpang 589, Sungai Besar, Mukim Kota Batu, Brunei-Muara District, BD2517, Brunei",
        "road": "Simpang 589",
        "house_number": null,
        "neighbourhood": null,
        "suburb": "Sungai Besar",
        "city_district": null,
        "city": null,
        "state": null,
        "postcode": "BD2517",
        "country": "Brunei",
        "country_code": "bn"
      },
      "address": "Simpang 589, Mentiri, Brunei"
    },
    {
      "lat": 4.9806888095745725,
      "lon": 115.00741062261858,
      "geoinfo": {
        "display_name": "Kampong Panchor National Housing Scheme, Panchor, Mukim Mentiri, Brunei-Muara District, BU1729, Brunei",
        "road": null,
        "house_number": null,
        "neighbourhood": null,
        "suburb": "Kampong Panchor National Housing Scheme",
        "city_district": null,
        "city": "Panchor",
        "state": null,
        "postcode": "BU1729",
        "country": "Brunei",
        "country_code": "bn"
      },
      "address": "Kampong Panchor National Housing Scheme, Mentiri, Brunei"
    },
    {
      "lat": 4.985835299251158,
      "lon": 115.02063441103724,
      "geoinfo": {
        "display_name": "Simpang 96-17, Sungai Buloh, Mukim Mentiri, Brunei-Muara District, BU1229, Brunei",
        "road": "Simpang 96-17",
        "house_number": null,
        "neighbourhood": null,
        "suburb": null,
        "city_district": null,
        "city": "Sungai Buloh",
        "state": null,
        "postcode": "BU1229",
        "country": "Brunei",
        "country_code": "bn"
      },
      "address": "Simpang 96-17, Mentiri, Brunei"
    },
    {
      "lat": 4.987017345478713,
      "lon": 115.03101956927584,
      "geoinfo": {
        "display_name": "Jalan Batu Marang, Batu Marang, Mukim Mentiri, Brunei-Muara District, BU1529, Brunei",
        "road": "Jalan Batu Marang",
        "house_number": null,
        "neighbourhood": null,
        "suburb": "Batu Marang",
        "city_district": null,
        "city": null,
        "state": null,
        "postcode": "BU1529",
        "country": "Brunei",
        "country_code": "bn"
      },
      "address": "Jalan Batu Marang, Mentiri, Brunei"
    },
    {
      "lat": 4.950065587177906,
      "lon": 114.99351904242044,
      "geoinfo": {
        "display_name": "Jalan Utama Mentiri, Mengkubau, Bandar Seri Begawan, Mukim Kota Batu, Brunei-Muara District, BD4717, Brunei",
        "road": "Jalan Utama Mentiri",
        "house_number": null,
        "neighbourhood": null,
        "suburb": "Mengkubau",
        "city_district": null,
        "city": "Bandar Seri Begawan",
        "state": null,
        "postcode": "BD4717",
        "country": "Brunei",
        "country_code": "bn"
      },
      "address": "681, Jalan Utama Mentiri, Mengkubau, Bandar Seri Begawan, Mukim Kota Batu, Brunei-Muara District, BD4717, Brunei"
    },
    {
      "lat": 4.934040189939961,
      "lon": 115.02736949367102,
      "geoinfo": {
        "display_name": "Pulau Chermin Lighthouse, Simpang 639, Sungai Besar, Mukim Kota Batu, Brunei-Muara District, BD2517, Brunei",
        "road": "Simpang 639",
        "house_number": null,
        "neighbourhood": null,
        "suburb": "Sungai Besar",
        "city_district": null,
        "city": null,
        "state": null,
        "postcode": "BD2517",
        "country": "Brunei",
        "country_code": "bn"
      },
      "address": "Simpang 639, BD2517 Mentiri, Brunei"
    },
    {
      "lat": 4.936462465242326,
      "lon": 114.9979463431305,
      "geoinfo": {
        "display_name": "Mentiri Tunnel 1, Mengkubau, Mukim Kota Batu, Brunei-Muara District, BD4717, Brunei",
        "road": "Mentiri Tunnel 1",
        "house_number": null,
        "neighbourhood": null,
        "suburb": "Mengkubau",
        "city_district": null,
        "city": null,
        "state": null,
        "postcode": "BD4717",
        "country": "Brunei",
        "country_code": "bn"
      },
      "address": "Mentiri Tunnel 1, Mengkubau, Mukim Kota Batu, Brunei-Muara District, BD4717, Brunei"
    },
    {
      "lat": 4.932399858559056,
      "lon": 115.0210949225287,
      "geoinfo": {
        "display_name": "Jalan Kota Batu, Sungai Belukut, Mentiri, Mukim Kota Batu, Brunei-Muara District, BD2517, Brunei",
        "road": "Jalan Kota Batu",
        "house_number": null,
        "neighbourhood": null,
        "suburb": "Sungai Belukut",
        "city_district": null,
        "city": "Mentiri",
        "state": null,
        "postcode": "BD2517",
        "country": "Brunei",
        "country_code": "bn"
      },
      "address": "690, Jalan Kota Batu, Sungai Belukut, Mentiri, Mukim Kota Batu, Brunei-Muara District, BD2517, Brunei"
    }
  ],
  "updated_at": "2025-10-19T02:43:12.824798+00:00",
  "_kind": "geo_samples"
}