{
  "country_code": "BN",
  "country": "Brunei",
  "city": "Serasa",
  "geonameid": 1820574,
  "target_addresses": 13,
  "samples": [
    {
      "lat": 5.0476576838320755,
      "lon": 115.04643918101766,
      "geoinfo": {
        "display_name": "Brunei-Muara District, Brunei",
        "road": null,
        "house_number": null,
        "neighbourhood": null,
        "suburb": null,
        "city_district": null,
        "city": null,
        "state": null,
        "postcode": null,
        "country": "Brunei",
        "country_code": "bn"
      },
      "address": "Serasa, Brunei"
    },
    {
      "lat": 5.029584852281802,
      "lon": 115.02787721018036,
      "geoinfo": {
        "display_name": "Jalan Wasai Limuru, Kampong Meragang, Perumahan Negara Meragang, Mukim Serasa, Brunei-Muara District, BT3128, Brunei",
        "road": "Jalan Wasai Limuru",
        "house_number": null,
        "neighbourhood": null,
        "suburb": "Perumahan Negara Meragang",
        "city_district": null,
        "city": null,
        "state": null,
        "postcode": "BT3128",
        "country": "Brunei",
        "country_code": "bn"
      },
      "address": "Jalan Wasai Limuru, Serasa, Brunei"
    },
    {
      "lat": 5.037927239134785,
      "lon": 115.05699257207007,
      "geoinfo": {
        "display_name": "Jalan Tanjong Batu, Sabun, Mukim Serasa, Brunei-Muara District, BT2128, Brunei",
        "road": "Jalan Tanjong Batu",
        "house_number": null,
        "neighbourhood": null,
        "suburb": null,
        "city_district": null,
        "city": "Sabun",
        "state": null,
        "postcode": "BT2128",
        "country": "Brunei",
        "country_code": "bn"
      },
      "address": "Jalan Tanjong Batu, Serasa, Brunei"
    },
    {
      "lat": 5.0430032701517336,
      "lon": 115.04412324268783,
      "geoinfo": {
        "display_name": "Meragang, Mukim Serasa, Brunei-Muara District, BT1128, Brunei",
        "road": null,
        "house_number": null,
        "neighbourhood": null,
        "suburb": "Meragang",
        "city_district": null,
        "city": null,
        "state": null,
        "postcode": "BT1128",
        "country": "Brunei",
        "country_code": "bn"
      },
      "address": "Meragang, Serasa, Brunei"
    },
    {
      "lat": 5.0007522941783265,
      "lon": 115.04812862064054,
      "geoinfo": {
        "display_name": "Simpang 326-61, Perpindahan Serasa, Serasa, Mukim Serasa, Brunei-Muara District, BT1728, Brunei",
        "road": "Simpang 326-61",
        "house_number": null,
        "neighbourhood": null,
        "suburb": null,
        "city_district": null,
        "city": "Serasa",
        "state": null,
        "postcode": "BT1728",
        "country": "Brunei",
        "country_code": "bn"
      },
      "address": "Simpang 326-61, Serasa, Brunei"
    },
    {
      "lat": 5.030139415945293,
      "lon": 115.0360644489762,
      "geoinfo": {
        "display_name": "Simpang 70-6, Kampong Meragang, Perumahan Negara Meragang, Mukim Serasa, Brunei-Muara District, BT2328, Brunei",
        "road": "Simpang 70-6",
        "house_number": null,
        "neighbourhood": null,
        "suburb": "Perumahan Negara Meragang",
        "city_district": null,
        "city": null,
        "state": null,
        "postcode": "BT2328",
        "country": "Brunei",
        "country_code": "bn"
      },
      "address": "Simpang 70-6, Serasa, Brunei"
    },
    {
      "lat": 5.002656016478123,
      "lon": 115.07038682622805,
      "geoinfo": {
        "display_name": "Muara Island Bridge, Serasa Industrial Area, Serasa, Mukim Serasa, Brunei-Muara District, BT1187, Brunei",
        "road": "Muara Island Bridge",
        "house_number": null,
        "neighbourhood": null,
        "suburb": null,
        "city_district": null,
        "city": "Serasa",
        "state": null,
        "postcode": "BT1187",
        "country": "Brunei",
        "country_code": "bn"
      },
      "address": "Muara Island Bridge, Serasa, Brunei"
    },
    {
      "lat": 5.030425413504206,
      "lon": 115.06830299727643,
      "geoinfo": {
        "display_name": "Jalan Pelumpong, Muara Town, Mukim Serasa, Brunei-Muara District, BT1128, Brunei",
        "road": "Jalan Pelumpong",
        "house_number": null,
        "neighbourhood": null,
        "suburb": null,
        "city_district": null,
        "city": "Muara Town",
        "state": null,
        "postcode": "BT1128",
        "country": "Brunei",
        "country_code": "bn"
      },
      "address": "Jalan Pelumpong, Serasa, Brunei"
    },
    {
      "lat": 5.0355901048305665,
      "lon": 115.03595134253491,
      "geoinfo": {
        "display_name": "Muara–Tutong Highway, Kampong Meragang, Perumahan Negara Meragang, Tanah Jambu, Mukim Serasa, Brunei-Muara District, BU1129, Brunei",
        "road": "Muara–Tutong Highway",
        "house_number": null,
        "neighbourhood": null,
        "suburb": "Perumahan Negara Meragang",
        "city_district": null,
        "city": "Tanah Jambu",
        "state": null,
        "postcode": "BU1129",
        "country": "Brunei",
        "country_code": "bn"
      },
      "address": "Muara–Tutong Highway, Serasa, Brunei"
    },
    {
      "lat": 5.024420847187684,
      "lon": 115.05722154822334,
      "geoinfo": {
        "display_name": "Pengiran Isteri Hajjah Mariam Secondary School, Jalan Serasa, Serasa, Mukim Serasa, Brunei-Muara District, BT1128, Brunei",
        "road": "Jalan Serasa",
        "house_number": null,
        "neighbourhood": null,
        "suburb": null,
        "city_district": null,
        "city": "Serasa",
        "state": null,
        "postcode": "BT1128",
        "country": "Brunei",
        "country_code": "bn"
      },
      "address": "Jalan Serasa, Serasa, Brunei"
    },
    {
      "lat": 5.021498097164308,
      "lon": 115.06608830153033,
      "geoinfo": {
        "display_name": "Fish Landing Complex, Simpang 276, Serasa Industrial Area, Muara Town, Mukim Serasa, Brunei-Muara District, BT1128, Brunei",
        "road": "Simpang 276",
        "house_number": null,
        "neighbourhood": null,
        "suburb": null,
        "city_district": null,
        "city": "Muara Town",
        "state": null,
        "postcode": "BT1128",
        "country": "Brunei",
        "country_code": "bn"
      },
      "address": "Simpang 276, Serasa, Brunei"
    },
    {
      "lat": 5.021427880748867,
      "lon": 115.07384604767972,
      "geoinfo": {
        "display_name": "Jalan Perusahaan Muara, Muara Port, Muara Town, Mukim Serasa, Brunei-Muara District, BT1128, Brunei",
        "road": "Jalan Perusahaan Muara",
        "house_number": null,
        "neighbourhood": null,
        "suburb": null,
        "city_district": null,
        "city": "Muara Town",
        "state": null,
        "postcode": "BT1128",
        "country": "Brunei",
        "country_code": "bn"
      },
      "address": "Jalan Perusahaan Muara, Serasa, Brunei"
    },
    {
      "lat": 5.010188080273706,
      "lon": 115.01501364616117,
      "geoinfo": {
        "display_name": "373-8, Perumahan Negara Tanah Jambu, Mukim Mentiri, Brunei-Muara District, BU1429, Brunei",
        "road": "373-8",
        "house_number": null,
        "neighbourhood": null,
        "suburb": "Perumahan Negara Tanah Jambu",
        "city_district": null,
        "city": null,
        "state": null,
        "postcode": "BU1429",
        "country": "Brunei",
        "country_code": "bn"
      },
      "address": "373-8, Serasa, Brunei"
    }
  ],
  "updated_at": "2025-10-19T01:13:29.417544+00:00",
  "_kind": "geo_samples"
}