{
  "country_code": "XK",
  "country": "Kosovo",
  "city": "Dragash",
  "geonameid": 791122,
  "target_addresses": 5,
  "samples": [
    {
      "lat": 42.03756288218163,
      "lon": 20.64853432630038,
      "geoinfo": {
        "display_name": "Mlikë, Municipality of Dragash / Dragaš, District of Prizren, 22000, Kosovo",
        "road": null,
        "house_number": null,
        "neighbourhood": null,
        "suburb": null,
        "city_district": null,
        "city": "Mlikë",
        "state": null,
        "postcode": "22000",
        "country": "Kosovo",
        "country_code": "xk"
      },
      "address": "232, Mlikë, Municipality of Dragash / Dragaš, District of Prizren, 22000, Kosovo"
    },
    {
      "lat": 42.020960225304265,
      "lon": 20.65527303540739,
      "geoinfo": {
        "display_name": "Radiće, Bačka, Mlikë, Municipality of Dragash / Dragaš, District of Prizren, 22000, Kosovo",
        "road": "Radiće",
        "house_number": null,
        "neighbourhood": null,
        "suburb": null,
        "city_district": null,
        "city": "Mlikë",
        "state": null,
        "postcode": "22000",
        "country": "Kosovo",
        "country_code": "xk"
      },
      "address": "185, Radiće, Bačka, Mlikë, Municipality of Dragash / Dragaš, District of Prizren, 22000, Kosovo"
    },
    {
      "lat": 42.02510600098144,
      "lon": 20.702921468299404,
      "geoinfo": {
        "display_name": "Leštane, Municipality of Dragash / Dragaš, District of Prizren, 22000, Kosovo",
        "road": null,
        "house_number": null,
        "neighbourhood": null,
        "suburb": null,
        "city_district": null,
        "city": "Leštane",
        "state": null,
        "postcode": "22000",
        "country": "Kosovo",
        "country_code": "xk"
      },
      "address": "016, Leštane, Municipality of Dragash / Dragaš, District of Prizren, 22000, Kosovo"
    },
    {
      "lat": 42.02210268172175,
      "lon": 20.67030656428733,
      "geoinfo": {
        "display_name": "Zdražejec, Dikance, Municipality of Dragash / Dragaš, District of Prizren, 22070, Kosovo",
        "road": "Zdražejec",
        "house_number": null,
        "neighbourhood": null,
        "suburb": null,
        "city_district": null,
        "city": null,
        "state": null,
        "postcode": "22070",
        "country": "Kosovo",
        "country_code": "xk"
      },
      "address": "012, Zdražejec, Dikance, Municipality of Dragash / Dragaš, District of Prizren, 22070, Kosovo"
    },
    {
      "lat": 42.06660371263361,
      "lon": 20.626275390069306,
      "geoinfo": {
        "display_name": "Dragash, Municipality of Dragash / Dragaš, District of Prizren, 22000, Kosovo",
        "road": null,
        "house_number": null,
        "neighbourhood": null,
        "suburb": null,
        "city_district": null,
        "city": "Dragash",
        "state": null,
        "postcode": "22000",
        "country": "Kosovo",
        "country_code": "xk"
      },
      "address": "736, Dragash, Municipality of Dragash / Dragaš, District of Prizren, 22000, Kosovo"
    }
  ],
  "updated_at": "2025-10-19T05:04:12.196127+00:00",
  "_kind": "geo_samples"
}