{
  "country_code": "XK",
  "country": "Kosovo",
  "city": "Gjakovë",
  "geonameid": 791646,
  "target_addresses": 5,
  "samples": [
    {
      "lat": 42.389013414751034,
      "lon": 20.48646706100282,
      "geoinfo": {
        "display_name": "Shërbyesi, Rrezinë, Municipality of Gjakova, District of Gjakova, 50009, Kosovo",
        "road": "Shërbyesi",
        "house_number": null,
        "neighbourhood": null,
        "suburb": null,
        "city_district": null,
        "city": "Rrezinë",
        "state": null,
        "postcode": "50009",
        "country": "Kosovo",
        "country_code": "xk"
      },
      "address": "Shërbyesi, Gjakovë, Kosovo"
    },
    {
      "lat": 42.37095382594142,
      "lon": 20.441301507192257,
      "geoinfo": {
        "display_name": "2, Skerdilajd Llagami, Lagjja e Sefës, Industrial Zone, Gjakova, Municipality of Gjakova, District of Gjakova, 50000, Kosovo",
        "road": "Skerdilajd Llagami",
        "house_number": "2",
        "neighbourhood": "Lagjja e Sefës",
        "suburb": "Industrial Zone",
        "city_district": null,
        "city": "Gjakova",
        "state": null,
        "postcode": "50000",
        "country": "Kosovo",
        "country_code": "xk"
      },
      "address": "2 Skerdilajd Llagami, Gjakovë, Kosovo"
    },
    {
      "lat": 42.34887274643103,
      "lon": 20.46186794663058,
      "geoinfo": {
        "display_name": "Liria, Pjetërshan, Municipality of Gjakova, District of Gjakova, 50009, Kosovo",
        "road": "Liria",
        "house_number": null,
        "neighbourhood": null,
        "suburb": null,
        "city_district": null,
        "city": "Pjetërshan",
        "state": null,
        "postcode": "50009",
        "country": "Kosovo",
        "country_code": "xk"
      },
      "address": "Liria, Gjakovë, Kosovo"
    },
    {
      "lat": 42.38298665573478,
      "lon": 20.37931252802288,
      "geoinfo": {
        "display_name": "Lugu i Cufadolit, Orizë, Korenicë, Municipality of Gjakova, District of Gjakova, Kosovo",
        "road": "Lugu i Cufadolit",
        "house_number": null,
        "neighbourhood": null,
        "suburb": null,
        "city_district": null,
        "city": "Korenicë",
        "state": null,
        "postcode": null,
        "country": "Kosovo",
        "country_code": "xk"
      },
      "address": "Lugu i Cufadolit, Gjakovë, Kosovo"
    },
    {
      "lat": 42.345386834493006,
      "lon": 20.44886777018142,
      "geoinfo": {
        "display_name": "Lugu i Mirë, Pjetërshan, Municipality of Gjakova, District of Gjakova, 50009, Kosovo",
        "road": "Lugu i Mirë",
        "house_number": null,
        "neighbourhood": null,
        "suburb": null,
        "city_district": null,
        "city": "Pjetërshan",
        "state": null,
        "postcode": "50009",
        "country": "Kosovo",
        "country_code": "xk"
      },
      "address": "Lugu i Mirë, Gjakovë, Kosovo"
    },
    {
      "lat": 42.41297286029881,
      "lon": 20.410731531267754,
      "geoinfo": {
        "display_name": "Dardani, Gjakova, Municipality of Gjakova, District of Gjakova, 50000, Kosovo",
        "road": null,
        "house_number": null,
        "neighbourhood": null,
        "suburb": "Dardani",
        "city_district": null,
        "city": "Gjakova",
        "state": null,
        "postcode": "50000",
        "country": "Kosovo",
        "country_code": "xk"
      },
      "address": "585, Dardani, 50000 Gjakovë, Kosovo"
    },
    {
      "lat": 42.366017869790156,
      "lon": 20.48229042680816,
      "geoinfo": {
        "display_name": "Kodra e Diellit, Gjakova, Municipality of Gjakova, District of Gjakova, 50009, Kosovo",
        "road": "Kodra e Diellit",
        "house_number": null,
        "neighbourhood": null,
        "suburb": null,
        "city_district": null,
        "city": "Gjakova",
        "state": null,
        "postcode": "50009",
        "country": "Kosovo",
        "country_code": "xk"
      },
      "address": "804, Kodra e Diellit, Gjakova, Municipality of Gjakova, District of Gjakova, 50009, Kosovo"
    },
    {
      "lat": 42.37558743464343,
      "lon": 20.399286696375537,
      "geoinfo": {
        "display_name": "241, Gjon Belushi, Pnisht, Jahoc, Municipality of Gjakova, District of Gjakova, 50000, Kosovo",
        "road": "Gjon Belushi",
        "house_number": "241",
        "neighbourhood": null,
        "suburb": null,
        "city_district": null,
        "city": "Jahoc",
        "state": null,
        "postcode": "50000",
        "country": "Kosovo",
        "country_code": "xk"
      },
      "address": "241, Gjon Belushi, 50000 Gjakovë, Kosovo"
    },
    {
      "lat": 42.38730269109188,
      "lon": 20.43492932481897,
      "geoinfo": {
        "display_name": "5, Adem Jashari, Lagjja Qerim, Qendra Historike, Gjakova, Municipality of Gjakova, District of Gjakova, 50000, Kosovo",
        "road": "Adem Jashari",
        "house_number": "5",
        "neighbourhood": "Lagjja Qerim",
        "suburb": "Qendra Historike",
        "city_district": null,
        "city": "Gjakova",
        "state": null,
        "postcode": "50000",
        "country": "Kosovo",
        "country_code": "xk"
      },
      "address": "5, Adem Jashari, 50000 Gjakovë, Kosovo"
    },
    {
      "lat": 42.40113824746346,
      "lon": 20.423213284542793,
      "geoinfo": {
        "display_name": "Dardani, Gjakova, Municipality of Gjakova, District of Gjakova, 50000, Kosovo",
        "road": null,
        "house_number": null,
        "neighbourhood": null,
        "suburb": "Dardani",
        "city_district": null,
        "city": "Gjakova",
        "state": null,
        "postcode": "50000",
        "country": "Kosovo",
        "country_code": "xk"
      },
      "address": "227, Dardani, 50000 Gjakovë, Kosovo"
    }
  ],
  "updated_at": "2025-10-19T05:37:38.651626+00:00",
  "_kind": "geo_samples"
}