{
  "country_code": "XK",
  "country": "Kosovo",
  "city": "Gjilan",
  "geonameid": 790674,
  "target_addresses": 5,
  "samples": [
    {
      "lat": 42.49096592290433,
      "lon": 21.490533510684195,
      "geoinfo": {
        "display_name": "Autostrada Agim Ramadani, Dheu i Bardhë I, Gjilan, Municipality of Novo Brdo / Novobërdë, District of Prishtina, Kosovo",
        "road": "Autostrada Agim Ramadani",
        "house_number": null,
        "neighbourhood": null,
        "suburb": "Dheu i Bardhë I",
        "city_district": null,
        "city": "Gjilan",
        "state": null,
        "postcode": null,
        "country": "Kosovo",
        "country_code": "xk"
      },
      "address": "Autostrada Agim Ramadani, Gjilan, Kosovo"
    },
    {
      "lat": 42.477250548837326,
      "lon": 21.51857029029752,
      "geoinfo": {
        "display_name": "25 Prilli, Vërbica, Municipality of Gjilan / Gnjilane, District of Gjilan, Kosovo",
        "road": "25 Prilli",
        "house_number": null,
        "neighbourhood": null,
        "suburb": null,
        "city_district": null,
        "city": "Vërbica",
        "state": null,
        "postcode": null,
        "country": "Kosovo",
        "country_code": "xk"
      },
      "address": "25 Prilli, Gjilan, Kosovo"
    },
    {
      "lat": 42.45369208436615,
      "lon": 21.45457380414164,
      "geoinfo": {
        "display_name": "Tahir Sinani, Lagjja e VIII, Gjilan, Municipality of Gjilan / Gnjilane, District of Gjilan, 60010, Kosovo",
        "road": "Tahir Sinani",
        "house_number": null,
        "neighbourhood": null,
        "suburb": null,
        "city_district": null,
        "city": "Gjilan",
        "state": null,
        "postcode": "60010",
        "country": "Kosovo",
        "country_code": "xk"
      },
      "address": "Tahir Sinani, Gjilan, Kosovo"
    },
    {
      "lat": 42.42730798191927,
      "lon": 21.491794355843314,
      "geoinfo": {
        "display_name": "Qeshmja e Hanumshahe Beqirit, Bunari, Velekincë, Municipality of Gjilan / Gnjilane, District of Gjilan, 60000, Kosovo",
        "road": "Bunari",
        "house_number": null,
        "neighbourhood": null,
        "suburb": null,
        "city_district": null,
        "city": "Velekincë",
        "state": null,
        "postcode": "60000",
        "country": "Kosovo",
        "country_code": "xk"
      },
      "address": "Bunari, Gjilan, Kosovo"
    },
    {
      "lat": 42.440919883907185,
      "lon": 21.493046582761306,
      "geoinfo": {
        "display_name": "Qefsere Salihu, Gjilan, Municipality of Gjilan / Gnjilane, District of Gjilan, 60000, Kosovo",
        "road": "Qefsere Salihu",
        "house_number": null,
        "neighbourhood": null,
        "suburb": null,
        "city_district": null,
        "city": "Gjilan",
        "state": null,
        "postcode": "60000",
        "country": "Kosovo",
        "country_code": "xk"
      },
      "address": "Qefsere Salihu, Gjilan, Kosovo"
    },
    {
      "lat": 42.48776934334659,
      "lon": 21.47365938670211,
      "geoinfo": {
        "display_name": "Autostrada Agim Ramadani, Dheu i Bardhë I, Gjilan, Municipality of Novo Brdo / Novobërdë, District of Prishtina, Kosovo",
        "road": "Autostrada Agim Ramadani",
        "house_number": null,
        "neighbourhood": null,
        "suburb": "Dheu i Bardhë I",
        "city_district": null,
        "city": "Gjilan",
        "state": null,
        "postcode": null,
        "country": "Kosovo",
        "country_code": "xk"
      },
      "address": "232, Autostrada Agim Ramadani, Dheu i Bardhë I, Gjilan, Municipality of Novo Brdo / Novobërdë, 30339 District of Prishtina, Kosovo"
    },
    {
      "lat": 42.46784331656363,
      "lon": 21.520760686786563,
      "geoinfo": {
        "display_name": "Zijadin Mustafa, Vëllëzërit Mustafa, Maleshevë e Epërme, Vërbica, Municipality of Gjilan / Gnjilane, District of Gjilan, Kosovo",
        "road": "Vëllëzërit Mustafa",
        "house_number": null,
        "neighbourhood": null,
        "suburb": null,
        "city_district": null,
        "city": "Vërbica",
        "state": null,
        "postcode": null,
        "country": "Kosovo",
        "country_code": "xk"
      },
      "address": "983, Vëllëzërit Mustafa, 23300 Gjilan, Kosovo"
    },
    {
      "lat": 42.43090088956961,
      "lon": 21.449794677550017,
      "geoinfo": {
        "display_name": "Ali Qerimi, Muhaxherë, Livoç i Poshtëm, Municipality of Gjilan / Gnjilane, District of Gjilan, 60010, Kosovo",
        "road": "Ali Qerimi",
        "house_number": null,
        "neighbourhood": null,
        "suburb": null,
        "city_district": null,
        "city": "Livoç i Poshtëm",
        "state": null,
        "postcode": "60010",
        "country": "Kosovo",
        "country_code": "xk"
      },
      "address": "947, Ali Qerimi, Muhaxherë, Livoç i Poshtëm, Municipality of Gjilan / Gnjilane, District of Gjilan, 60010, Kosovo"
    },
    {
      "lat": 42.4295533753635,
      "lon": 21.501583471160636,
      "geoinfo": {
        "display_name": "Mulliri Uglarit, Municipality of Gjilan / Gnjilane, District of Gjilan, 60000, Kosovo",
        "road": "Mulliri Uglarit",
        "house_number": null,
        "neighbourhood": null,
        "suburb": null,
        "city_district": null,
        "city": null,
        "state": null,
        "postcode": "60000",
        "country": "Kosovo",
        "country_code": "xk"
      },
      "address": "021, Mulliri Uglarit, Municipality of Gjilan / Gnjilane, District of Gjilan, 60000, Kosovo"
    },
    {
      "lat": 42.42769585940517,
      "lon": 21.50617175430149,
      "geoinfo": {
        "display_name": "Mulliri Uglarit, Municipality of Gjilan / Gnjilane, District of Gjilan, 60000, Kosovo",
        "road": "Mulliri Uglarit",
        "house_number": null,
        "neighbourhood": null,
        "suburb": null,
        "city_district": null,
        "city": null,
        "state": null,
        "postcode": "60000",
        "country": "Kosovo",
        "country_code": "xk"
      },
      "address": "890, Mulliri Uglarit, Municipality of Gjilan / Gnjilane, District of Gjilan, 60000, Kosovo"
    }
  ],
  "updated_at": "2025-10-19T04:03:01.377184+00:00",
  "_kind": "geo_samples"
}