{
  "country_code": "XK",
  "country": "Kosovo",
  "city": "Istok",
  "geonameid": 789996,
  "target_addresses": 5,
  "samples": [
    {
      "lat": 42.761111577948704,
      "lon": 20.535502455685908,
      "geoinfo": {
        "display_name": "88, Bekë Salihu, Dubravë, Municipality of Istok, District of Peja, 31000, Kosovo",
        "road": "Bekë Salihu",
        "house_number": "88",
        "neighbourhood": null,
        "suburb": null,
        "city_district": null,
        "city": "Dubravë",
        "state": null,
        "postcode": "31000",
        "country": "Kosovo",
        "country_code": "xk"
      },
      "address": "88 Bekë Salihu, Istok, Kosovo"
    },
    {
      "lat": 42.757262072978826,
      "lon": 20.53937979892625,
      "geoinfo": {
        "display_name": "Rrapi, Dubravë, Municipality of Istok, District of Peja, 31000, Kosovo",
        "road": "Rrapi",
        "house_number": null,
        "neighbourhood": null,
        "suburb": null,
        "city_district": null,
        "city": "Dubravë",
        "state": null,
        "postcode": "31000",
        "country": "Kosovo",
        "country_code": "xk"
      },
      "address": "Rrapi, Istok, Kosovo"
    },
    {
      "lat": 42.79652992604902,
      "lon": 20.51899465385211,
      "geoinfo": {
        "display_name": "Sinaje, Municipality of Istok, District of Peja, Kosovo",
        "road": null,
        "house_number": null,
        "neighbourhood": null,
        "suburb": null,
        "city_district": null,
        "city": "Sinaje",
        "state": null,
        "postcode": null,
        "country": "Kosovo",
        "country_code": "xk"
      },
      "address": "Istok, Kosovo"
    },
    {
      "lat": 42.74249598084278,
      "lon": 20.505380806032537,
      "geoinfo": {
        "display_name": "Bregu, Llukac i Thatë, Serbobran, Municipality of Istok, District of Peja, 31020, Kosovo",
        "road": "Bregu",
        "house_number": null,
        "neighbourhood": null,
        "suburb": null,
        "city_district": null,
        "city": "Serbobran",
        "state": null,
        "postcode": "31020",
        "country": "Kosovo",
        "country_code": "xk"
      },
      "address": "Bregu, Istok, Kosovo"
    },
    {
      "lat": 42.77079872846654,
      "lon": 20.43538067487086,
      "geoinfo": {
        "display_name": "111, Mirsad Idrizaj, Lubozhdë, Municipality of Istok, District of Peja, Kosovo",
        "road": "Mirsad Idrizaj",
        "house_number": "111",
        "neighbourhood": null,
        "suburb": null,
        "city_district": null,
        "city": "Lubozhdë",
        "state": null,
        "postcode": null,
        "country": "Kosovo",
        "country_code": "xk"
      },
      "address": "111 Mirsad Idrizaj, Istok, Kosovo"
    },
    {
      "lat": 42.76263523083612,
      "lon": 20.44015174917722,
      "geoinfo": {
        "display_name": "Vëllezërit Meshi, Lubozhdë, Municipality of Istok, District of Peja, Kosovo",
        "road": "Vëllezërit Meshi",
        "house_number": null,
        "neighbourhood": null,
        "suburb": null,
        "city_district": null,
        "city": "Lubozhdë",
        "state": null,
        "postcode": null,
        "country": "Kosovo",
        "country_code": "xk"
      },
      "address": "838, Vëllezërit Meshi, Lubozhdë, Municipality of Istok, 58731 District of Peja, Kosovo"
    },
    {
      "lat": 42.78777635608951,
      "lon": 20.44053648136787,
      "geoinfo": {
        "display_name": "Gurrat e Bardha, Lubozhdë, Municipality of Istok, District of Peja, 31000, Kosovo",
        "road": "Gurrat e Bardha",
        "house_number": null,
        "neighbourhood": null,
        "suburb": null,
        "city_district": null,
        "city": "Lubozhdë",
        "state": null,
        "postcode": "31000",
        "country": "Kosovo",
        "country_code": "xk"
      },
      "address": "338, Gurrat e Bardha, Lubozhdë, Municipality of Istok, District of Peja, 31000, Kosovo"
    },
    {
      "lat": 42.79094589505682,
      "lon": 20.467530106469795,
      "geoinfo": {
        "display_name": "Cerrcë, Municipality of Istok, District of Peja, 31000, Kosovo",
        "road": null,
        "house_number": null,
        "neighbourhood": null,
        "suburb": null,
        "city_district": null,
        "city": "Cerrcë",
        "state": null,
        "postcode": "31000",
        "country": "Kosovo",
        "country_code": "xk"
      },
      "address": "107, Cerrcë, Municipality of Istok, District of Peja, 31000, Kosovo"
    },
    {
      "lat": 42.75962807403283,
      "lon": 20.528083821889474,
      "geoinfo": {
        "display_name": "144, Maliq Dërvishaj, Dubravë, Municipality of Istok, District of Peja, 31000, Kosovo",
        "road": "Maliq Dërvishaj",
        "house_number": "144",
        "neighbourhood": null,
        "suburb": null,
        "city_district": null,
        "city": "Dubravë",
        "state": null,
        "postcode": "31000",
        "country": "Kosovo",
        "country_code": "xk"
      },
      "address": "144, Maliq Dërvishaj, Dubravë, Municipality of Istok, District of Peja, 31000, Kosovo"
    },
    {
      "lat": 42.78640792067582,
      "lon": 20.51774381123916,
      "geoinfo": {
        "display_name": "5, Shkëmbi, Sinaje, Municipality of Istok, District of Peja, 31000, Kosovo",
        "road": "Shkëmbi",
        "house_number": "5",
        "neighbourhood": null,
        "suburb": null,
        "city_district": null,
        "city": "Sinaje",
        "state": null,
        "postcode": "31000",
        "country": "Kosovo",
        "country_code": "xk"
      },
      "address": "5, Shkëmbi, Sinaje, Municipality of Istok, District of Peja, 31000, Kosovo"
    }
  ],
  "updated_at": "2025-10-19T05:37:21.088739+00:00",
  "_kind": "geo_samples"
}