{
  "country_code": "XK",
  "country": "Kosovo",
  "city": "Kosovo Polje",
  "geonameid": 789228,
  "target_addresses": 5,
  "samples": [
    {
      "lat": 42.655522860787336,
      "lon": 21.068015402134815,
      "geoinfo": {
        "display_name": "Unaza, Lismir, Municipality of Fushë Kosovë / Kosovo Polje, District of Prishtina, 12000, Kosovo",
        "road": "Unaza",
        "house_number": null,
        "neighbourhood": null,
        "suburb": null,
        "city_district": null,
        "city": "Lismir",
        "state": null,
        "postcode": "12000",
        "country": "Kosovo",
        "country_code": "xk"
      },
      "address": "Unaza, Kosovo Polje, Kosovo"
    },
    {
      "lat": 42.646769932052614,
      "lon": 21.14796506674739,
      "geoinfo": {
        "display_name": "Liria, Kalabria, Pristina, Municipality of Pristina, District of Prishtina, 10000, Kosovo",
        "road": "Liria",
        "house_number": null,
        "neighbourhood": null,
        "suburb": "Kalabria",
        "city_district": null,
        "city": "Pristina",
        "state": null,
        "postcode": "10000",
        "country": "Kosovo",
        "country_code": "xk"
      },
      "address": "Liria, Kosovo Polje, Kosovo"
    },
    {
      "lat": 42.662335319720285,
      "lon": 21.083219632958045,
      "geoinfo": {
        "display_name": "69, Jusuf Shalaku, Dardhishtë, Mërlak, Kryshevc, Municipality of Obiliq / Obilić, District of Prishtina, 15000, Kosovo",
        "road": "Jusuf Shalaku",
        "house_number": "69",
        "neighbourhood": "Dardhishtë",
        "suburb": null,
        "city_district": null,
        "city": "Kryshevc",
        "state": null,
        "postcode": "15000",
        "country": "Kosovo",
        "country_code": "xk"
      },
      "address": "69 Jusuf Shalaku, Kosovo Polje, Kosovo"
    },
    {
      "lat": 42.66631924887176,
      "lon": 21.113901540795066,
      "geoinfo": {
        "display_name": "Doktor Ibrahim Rugova, Zona Ekonomike, Kryshevc, Municipality of Obiliq / Obilić, District of Prishtina, 15000, Kosovo",
        "road": "Doktor Ibrahim Rugova",
        "house_number": null,
        "neighbourhood": null,
        "suburb": "Zona Ekonomike",
        "city_district": null,
        "city": "Kryshevc",
        "state": null,
        "postcode": "15000",
        "country": "Kosovo",
        "country_code": "xk"
      },
      "address": "Doktor Ibrahim Rugova, Kosovo Polje, Kosovo"
    },
    {
      "lat": 42.67931748382745,
      "lon": 21.043245695182332,
      "geoinfo": {
        "display_name": "Buna, Caravadicë - Crkvena Vodica, Municipality of Obiliq / Obilić, District of Prishtina, 15000, Kosovo",
        "road": "Buna",
        "house_number": null,
        "neighbourhood": null,
        "suburb": null,
        "city_district": null,
        "city": "Caravadicë - Crkvena Vodica",
        "state": null,
        "postcode": "15000",
        "country": "Kosovo",
        "country_code": "xk"
      },
      "address": "Buna, Kosovo Polje, Kosovo"
    },
    {
      "lat": 42.646356665623415,
      "lon": 21.11932743267261,
      "geoinfo": {
        "display_name": "Posta e Kosovës - QTP, Aziz Abrashi, Zona Industriale, Arbëria 2, Pristina, Municipality of Pristina, District of Prishtina, 10000, Kosovo",
        "road": "Aziz Abrashi",
        "house_number": null,
        "neighbourhood": null,
        "suburb": "Zona Industriale",
        "city_district": null,
        "city": "Pristina",
        "state": null,
        "postcode": "10000",
        "country": "Kosovo",
        "country_code": "xk"
      },
      "address": "Posta e Kosovës - QTP, Aziz Abrashi, Zona Industriale, Arbëria 2, Pristina, Municipality of Pristina, District of Prishtina, 10000, Kosovo"
    },
    {
      "lat": 42.6560180672256,
      "lon": 21.09396493529799,
      "geoinfo": {
        "display_name": "Pajazit Islami, Nakaradë, Fushë Kosovë, Municipality of Fushë Kosovë / Kosovo Polje, District of Prishtina, 12000, Kosovo",
        "road": "Pajazit Islami",
        "house_number": null,
        "neighbourhood": null,
        "suburb": "Nakaradë",
        "city_district": null,
        "city": "Fushë Kosovë",
        "state": null,
        "postcode": "12000",
        "country": "Kosovo",
        "country_code": "xk"
      },
      "address": "286, Pajazit Islami, Nakaradë, Fushë Kosovë, Municipality of Fushë Kosovë / Kosovo Polje, District of Prishtina, 12000, Kosovo"
    },
    {
      "lat": 42.62641854102094,
      "lon": 21.071159122720044,
      "geoinfo": {
        "display_name": "Meshari, Kuzmin, Municipality of Fushë Kosovë / Kosovo Polje, District of Prishtina, 12010, Kosovo",
        "road": "Meshari",
        "house_number": null,
        "neighbourhood": null,
        "suburb": null,
        "city_district": null,
        "city": "Kuzmin",
        "state": null,
        "postcode": "12010",
        "country": "Kosovo",
        "country_code": "xk"
      },
      "address": "307, Meshari, Kuzmin, Municipality of Fushë Kosovë / Kosovo Polje, District of Prishtina, 12010, Kosovo"
    },
    {
      "lat": 42.67261936570394,
      "lon": 21.119086360474576,
      "geoinfo": {
        "display_name": "Fabrika e dyshekëve KU&BA, Gjergj Fishta, Hade e Re, Obiliq, Municipality of Obiliq / Obilić, District of Prishtina, 15000, Kosovo",
        "road": "Gjergj Fishta",
        "house_number": null,
        "neighbourhood": null,
        "suburb": null,
        "city_district": null,
        "city": "Obiliq",
        "state": null,
        "postcode": "15000",
        "country": "Kosovo",
        "country_code": "xk"
      },
      "address": "710, Gjergj Fishta, 15000 Kosovo Polje, Kosovo"
    },
    {
      "lat": 42.675210946081464,
      "lon": 21.107983093270676,
      "geoinfo": {
        "display_name": "692, Hasan Prishtina, Hade e Re, Obiliq, Municipality of Obiliq / Obilić, District of Prishtina, 15000, Kosovo",
        "road": "Hasan Prishtina",
        "house_number": "692",
        "neighbourhood": null,
        "suburb": null,
        "city_district": null,
        "city": "Obiliq",
        "state": null,
        "postcode": "15000",
        "country": "Kosovo",
        "country_code": "xk"
      },
      "address": "692, Hasan Prishtina, Hade e Re, Obiliq, Municipality of Obiliq / Obilić, District of Prishtina, 15000, Kosovo"
    }
  ],
  "updated_at": "2025-10-19T05:17:07.094894+00:00",
  "_kind": "geo_samples"
}