{
  "country_code": "XK",
  "country": "Kosovo",
  "city": "Llazicë",
  "geonameid": 788470,
  "target_addresses": 21,
  "samples": [
    {
      "lat": 42.55148813731932,
      "lon": 20.81622593538366,
      "geoinfo": {
        "display_name": "M-9, Gjurgjicë, Municipality of Drenas / Glogovac, District of Prishtina, 13000, Kosovo",
        "road": "M-9",
        "house_number": null,
        "neighbourhood": null,
        "suburb": null,
        "city_district": null,
        "city": "Municipality of Drenas / Glogovac",
        "state": null,
        "postcode": "13000",
        "country": "Kosovo",
        "country_code": "xk"
      },
      "address": "M-9, Gjurgjicë, Municipality of Drenas / Glogovac, District of Prishtina, 13000, Kosovo"
    },
    {
      "lat": 42.540005941248516,
      "lon": 20.72461347847115,
      "geoinfo": {
        "display_name": "Bit Pazari, Bubavec, Municipality of Mališevo, District of Prizren, 24060, Kosovo",
        "road": "Bit Pazari",
        "house_number": null,
        "neighbourhood": null,
        "suburb": null,
        "city_district": null,
        "city": "Bubavec",
        "state": null,
        "postcode": "24060",
        "country": "Kosovo",
        "country_code": "xk"
      },
      "address": "Bit Pazari, Bubavec, Municipality of Mališevo, District of Prizren, 24060, Kosovo"
    },
    {
      "lat": 42.55716268122085,
      "lon": 20.755192742648067,
      "geoinfo": {
        "display_name": "Ibrahim Zogaj, Llozicë, Municipality of Mališevo, District of Prizren, 26400, Kosovo",
        "road": "Ibrahim Zogaj",
        "house_number": null,
        "neighbourhood": null,
        "suburb": null,
        "city_district": null,
        "city": "Llozicë",
        "state": null,
        "postcode": "26400",
        "country": "Kosovo",
        "country_code": "xk"
      },
      "address": "Ibrahim Zogaj, Llozicë, Municipality of Mališevo, District of Prizren, 26400, Kosovo"
    },
    {
      "lat": 42.57070234195527,
      "lon": 20.738207229406537,
      "geoinfo": {
        "display_name": "M-9, Kijevë, Municipality of Mališevo, District of Prizren, 24060, Kosovo",
        "road": "M-9",
        "house_number": null,
        "neighbourhood": null,
        "suburb": null,
        "city_district": null,
        "city": "Kijevë",
        "state": null,
        "postcode": "24060",
        "country": "Kosovo",
        "country_code": "xk"
      },
      "address": "M-9, Kijevë, Municipality of Mališevo, District of Prizren, 24060, Kosovo"
    },
    {
      "lat": 42.53144584246236,
      "lon": 20.768957142831084,
      "geoinfo": {
        "display_name": "Ibish Vërmica, Vërmicë, Municipality of Mališevo, District of Prizren, 26400, Kosovo",
        "road": "Ibish Vërmica",
        "house_number": null,
        "neighbourhood": null,
        "suburb": null,
        "city_district": null,
        "city": "Vërmicë",
        "state": null,
        "postcode": "26400",
        "country": "Kosovo",
        "country_code": "xk"
      },
      "address": "126, Ibish Vërmica, Vërmicë, Municipality of Mališevo, District of Prizren, 26400, Kosovo"
    },
    {
      "lat": 42.569368469738826,
      "lon": 20.738367141903034,
      "geoinfo": {
        "display_name": "M-9, Kijevë, Municipality of Mališevo, District of Prizren, 24060, Kosovo",
        "road": "M-9",
        "house_number": null,
        "neighbourhood": null,
        "suburb": null,
        "city_district": null,
        "city": "Kijevë",
        "state": null,
        "postcode": "24060",
        "country": "Kosovo",
        "country_code": "xk"
      },
      "address": "M-9, Kijevë, Municipality of Mališevo, District of Prizren, 24060, Kosovo"
    },
    {
      "lat": 42.54468675984006,
      "lon": 20.775759248009795,
      "geoinfo": {
        "display_name": "Veli Karaçica, Karaçicë, Balincë, Municipality of Mališevo, District of Prizren, 26400, Kosovo",
        "road": "Veli Karaçica",
        "house_number": null,
        "neighbourhood": null,
        "suburb": null,
        "city_district": null,
        "city": "Balincë",
        "state": null,
        "postcode": "26400",
        "country": "Kosovo",
        "country_code": "xk"
      },
      "address": "258, Veli Karaçica, Karaçicë, Balincë, Municipality of Mališevo, District of Prizren, 26400, Kosovo"
    },
    {
      "lat": 42.567355894758435,
      "lon": 20.804693027858725,
      "geoinfo": {
        "display_name": "Gëzim Morina, Gjurgjicë, Municipality of Drenas / Glogovac, District of Prishtina, 13000, Kosovo",
        "road": "Gëzim Morina",
        "house_number": null,
        "neighbourhood": null,
        "suburb": null,
        "city_district": null,
        "city": "Municipality of Drenas / Glogovac",
        "state": null,
        "postcode": "13000",
        "country": "Kosovo",
        "country_code": "xk"
      },
      "address": "663, Gëzim Morina, Gjurgjicë, Municipality of Drenas / Glogovac, District of Prishtina, 13000, Kosovo"
    },
    {
      "lat": 42.58423685689917,
      "lon": 20.766256751129166,
      "geoinfo": {
        "display_name": "Plloqicë e Ulet, Municipality of Mališevo, District of Prizren, 26400, Kosovo",
        "road": null,
        "house_number": null,
        "neighbourhood": null,
        "suburb": null,
        "city_district": null,
        "city": "Plloqicë e Ulet",
        "state": null,
        "postcode": "26400",
        "country": "Kosovo",
        "country_code": "xk"
      },
      "address": "865, Plloqicë e Ulet, Municipality of Mališevo, District of Prizren, 26400, Kosovo"
    },
    {
      "lat": 42.55147338067367,
      "lon": 20.78943735764123,
      "geoinfo": {
        "display_name": "Vesel Gashi, Karaçicë, Balincë, Municipality of Mališevo, District of Prizren, 26400, Kosovo",
        "road": "Vesel Gashi",
        "house_number": null,
        "neighbourhood": null,
        "suburb": null,
        "city_district": null,
        "city": "Balincë",
        "state": null,
        "postcode": "26400",
        "country": "Kosovo",
        "country_code": "xk"
      },
      "address": "368, Vesel Gashi, Karaçicë, Balincë, Municipality of Mališevo, District of Prizren, 26400, Kosovo"
    },
    {
      "lat": 42.514846263092814,
      "lon": 20.7800450251249,
      "geoinfo": {
        "display_name": "Boston, Grapi, Shkarashnik, Municipality of Mališevo, District of Prizren, Kosovo",
        "road": "Boston",
        "house_number": null,
        "neighbourhood": null,
        "suburb": null,
        "city_district": null,
        "city": "Shkarashnik",
        "state": null,
        "postcode": null,
        "country": "Kosovo",
        "country_code": "xk"
      },
      "address": "213, Boston, Grapi, Shkarashnik, Municipality of Mališevo, 08313 District of Prizren, Kosovo"
    },
    {
      "lat": 42.520337293251764,
      "lon": 20.725388571366665,
      "geoinfo": {
        "display_name": "Mustafë Krasniqi, Llashkadrenoc, Municipality of Mališevo, District of Prizren, 24000, Kosovo",
        "road": "Mustafë Krasniqi",
        "house_number": null,
        "neighbourhood": null,
        "suburb": null,
        "city_district": null,
        "city": "Llashkadrenoc",
        "state": null,
        "postcode": "24000",
        "country": "Kosovo",
        "country_code": "xk"
      },
      "address": "612, Mustafë Krasniqi, Llashkadrenoc, Municipality of Mališevo, District of Prizren, 24000, Kosovo"
    },
    {
      "lat": 42.56562653526289,
      "lon": 20.73987223235587,
      "geoinfo": {
        "display_name": "Xhafer Sefa, Kijevë, Municipality of Mališevo, District of Prizren, 24060, Kosovo",
        "road": "Xhafer Sefa",
        "house_number": null,
        "neighbourhood": null,
        "suburb": null,
        "city_district": null,
        "city": "Kijevë",
        "state": null,
        "postcode": "24060",
        "country": "Kosovo",
        "country_code": "xk"
      },
      "address": "193, Xhafer Sefa, Kijevë, Municipality of Mališevo, District of Prizren, 24060, Kosovo"
    },
    {
      "lat": 42.55222548664647,
      "lon": 20.73031798440683,
      "geoinfo": {
        "display_name": "Latë Syla, Bubavec, Municipality of Mališevo, District of Prizren, 24060, Kosovo",
        "road": "Latë Syla",
        "house_number": null,
        "neighbourhood": null,
        "suburb": null,
        "city_district": null,
        "city": "Bubavec",
        "state": null,
        "postcode": "24060",
        "country": "Kosovo",
        "country_code": "xk"
      },
      "address": "970, Latë Syla, Bubavec, Municipality of Mališevo, District of Prizren, 24060, Kosovo"
    },
    {
      "lat": 42.564796193548624,
      "lon": 20.746730144278033,
      "geoinfo": {
        "display_name": "Avdyl Maketa, Mleqan, Municipality of Mališevo, District of Prizren, 26400, Kosovo",
        "road": "Avdyl Maketa",
        "house_number": null,
        "neighbourhood": null,
        "suburb": null,
        "city_district": null,
        "city": "Mleqan",
        "state": null,
        "postcode": "26400",
        "country": "Kosovo",
        "country_code": "xk"
      },
      "address": "488, Avdyl Maketa, Mleqan, Municipality of Mališevo, District of Prizren, 26400, Kosovo"
    },
    {
      "lat": 42.552411799230654,
      "lon": 20.74952196997711,
      "geoinfo": {
        "display_name": "Ibri, Llozicë, Municipality of Mališevo, District of Prizren, 26400, Kosovo",
        "road": "Ibri",
        "house_number": null,
        "neighbourhood": null,
        "suburb": null,
        "city_district": null,
        "city": "Llozicë",
        "state": null,
        "postcode": "26400",
        "country": "Kosovo",
        "country_code": "xk"
      },
      "address": "383, Ibri, Llozicë, Municipality of Mališevo, District of Prizren, 26400, Kosovo"
    },
    {
      "lat": 42.55036113224211,
      "lon": 20.763313774757865,
      "geoinfo": {
        "display_name": "Roland Trebicka, Vërmicë, Municipality of Mališevo, District of Prizren, 26400, Kosovo",
        "road": "Roland Trebicka",
        "house_number": null,
        "neighbourhood": null,
        "suburb": null,
        "city_district": null,
        "city": "Vërmicë",
        "state": null,
        "postcode": "26400",
        "country": "Kosovo",
        "country_code": "xk"
      },
      "address": "625, Roland Trebicka, Vërmicë, Municipality of Mališevo, District of Prizren, 26400, Kosovo"
    },
    {
      "lat": 42.57744988720983,
      "lon": 20.77530896278524,
      "geoinfo": {
        "display_name": "Plloqicë, Municipality of Mališevo, District of Prizren, 26400, Kosovo",
        "road": null,
        "house_number": null,
        "neighbourhood": null,
        "suburb": null,
        "city_district": null,
        "city": "Plloqicë",
        "state": null,
        "postcode": "26400",
        "country": "Kosovo",
        "country_code": "xk"
      },
      "address": "043, Plloqicë, Municipality of Mališevo, District of Prizren, 26400, Kosovo"
    },
    {
      "lat": 42.59493028414303,
      "lon": 20.79177344437532,
      "geoinfo": {
        "display_name": "Buna, Golluboc, Municipality of Mališevo, District of Prizren, 26400, Kosovo",
        "road": "Buna",
        "house_number": null,
        "neighbourhood": null,
        "suburb": null,
        "city_district": null,
        "city": "Golluboc",
        "state": null,
        "postcode": "26400",
        "country": "Kosovo",
        "country_code": "xk"
      },
      "address": "228, Buna, Golluboc, Municipality of Mališevo, District of Prizren, 26400, Kosovo"
    },
    {
      "lat": 42.55397554931005,
      "lon": 20.80973950147052,
      "geoinfo": {
        "display_name": "Gëzim Morina, Gjurgjicë, Municipality of Drenas / Glogovac, District of Prishtina, 13000, Kosovo",
        "road": "Gëzim Morina",
        "house_number": null,
        "neighbourhood": null,
        "suburb": null,
        "city_district": null,
        "city": "Municipality of Drenas / Glogovac",
        "state": null,
        "postcode": "13000",
        "country": "Kosovo",
        "country_code": "xk"
      },
      "address": "178, Gëzim Morina, Gjurgjicë, Municipality of Drenas / Glogovac, District of Prishtina, 13000, Kosovo"
    },
    {
      "lat": 42.53360855622219,
      "lon": 20.747456850951956,
      "geoinfo": {
        "display_name": "Brahim Morina, Llashkadrenoc, Municipality of Mališevo, District of Prizren, 26400, Kosovo",
        "road": "Brahim Morina",
        "house_number": null,
        "neighbourhood": null,
        "suburb": null,
        "city_district": null,
        "city": "Llashkadrenoc",
        "state": null,
        "postcode": "26400",
        "country": "Kosovo",
        "country_code": "xk"
      },
      "address": "711, Brahim Morina, Llashkadrenoc, Municipality of Mališevo, District of Prizren, 26400, Kosovo"
    },
    {
      "lat": 42.53285773256265,
      "lon": 20.76686933652884,
      "geoinfo": {
        "display_name": "Ibish Vërmica, Vërmicë, Municipality of Mališevo, District of Prizren, 26400, Kosovo",
        "road": "Ibish Vërmica",
        "house_number": null,
        "neighbourhood": null,
        "suburb": null,
        "city_district": null,
        "city": "Vërmicë",
        "state": null,
        "postcode": "26400",
        "country": "Kosovo",
        "country_code": "xk"
      },
      "address": "200, Ibish Vërmica, Vërmicë, Municipality of Mališevo, District of Prizren, 26400, Kosovo"
    }
  ],
  "updated_at": "2025-10-19T05:21:33.363476+00:00",
  "_kind": "geo_samples"
}