{
  "country_code": "XK",
  "country": "Kosovo",
  "city": "Mitrovicë",
  "geonameid": 789225,
  "target_addresses": 5,
  "samples": [
    {
      "lat": 42.84756362483803,
      "lon": 20.88560227541345,
      "geoinfo": {
        "display_name": "Qazim Hasani, Frashër/Sfinjarë, Frashër / Svinjarë, Mitrovica Municipality, District of Mitrovica, 40010, Kosovo",
        "road": "Qazim Hasani",
        "house_number": null,
        "neighbourhood": null,
        "suburb": null,
        "city_district": "Frashër/Sfinjarë",
        "city": "Frashër / Svinjarë",
        "state": null,
        "postcode": "40010",
        "country": "Kosovo",
        "country_code": "xk"
      },
      "address": "Qazim Hasani, Mitrovicë, Kosovo"
    },
    {
      "lat": 42.88383442286373,
      "lon": 20.846490606626453,
      "geoinfo": {
        "display_name": "Dolina doktora, Mitrovicë, Suhodoll i Poshtëm, Mitrovica Municipality, District of Mitrovica, 38220, Kosovo",
        "road": null,
        "house_number": null,
        "neighbourhood": null,
        "suburb": null,
        "city_district": "Mitrovicë",
        "city": "Suhodoll i Poshtëm",
        "state": null,
        "postcode": "38220",
        "country": "Kosovo",
        "country_code": "xk"
      },
      "address": "Mitrovicë, Mitrovicë, Kosovo"
    },
    {
      "lat": 42.888979107099004,
      "lon": 20.86572604932954,
      "geoinfo": {
        "display_name": "Mitrovica Municipality, 2, Bedri Gjinaj, Qendra, Mitrovicë, Mitrovica, Mitrovica Municipality, District of Mitrovica, 40000, Kosovo",
        "road": "Bedri Gjinaj",
        "house_number": "2",
        "neighbourhood": null,
        "suburb": "Qendra",
        "city_district": "Mitrovicë",
        "city": "Mitrovica",
        "state": null,
        "postcode": "40000",
        "country": "Kosovo",
        "country_code": "xk"
      },
      "address": "2 Bedri Gjinaj, Mitrovicë, Kosovo"
    },
    {
      "lat": 42.87773674688459,
      "lon": 20.89833802800597,
      "geoinfo": {
        "display_name": "Pishat, Kçiq i Vogël, Mitrovica Municipality, District of Mitrovica, 40010, Kosovo",
        "road": "Pishat",
        "house_number": null,
        "neighbourhood": null,
        "suburb": null,
        "city_district": "Kçiq i Vogël",
        "city": "Kçiq i Vogël",
        "state": null,
        "postcode": "40010",
        "country": "Kosovo",
        "country_code": "xk"
      },
      "address": "Pishat, Mitrovicë, Kosovo"
    },
    {
      "lat": 42.86998275013737,
      "lon": 20.861853737979413,
      "geoinfo": {
        "display_name": "20, Albert Ajnshtajn, Ura e Gjakut, Mitrovicë, Mitrovica, Mitrovica Municipality, District of Mitrovica, 38220, Kosovo",
        "road": "Albert Ajnshtajn",
        "house_number": "20",
        "neighbourhood": null,
        "suburb": "Ura e Gjakut",
        "city_district": "Mitrovicë",
        "city": "Mitrovica",
        "state": null,
        "postcode": "38220",
        "country": "Kosovo",
        "country_code": "xk"
      },
      "address": "20 Albert Ajnshtajn, Mitrovicë, Kosovo"
    },
    {
      "lat": 42.894655582264406,
      "lon": 20.897079438002628,
      "geoinfo": {
        "display_name": "54, Kodra, Zasellë/Kodër, Zasellë / Kodër, Mitrovica Municipality, District of Mitrovica, 40010, Kosovo",
        "road": "Kodra",
        "house_number": "54",
        "neighbourhood": null,
        "suburb": null,
        "city_district": "Zasellë/Kodër",
        "city": "Zasellë / Kodër",
        "state": null,
        "postcode": "40010",
        "country": "Kosovo",
        "country_code": "xk"
      },
      "address": "54, Kodra, 40010 Mitrovicë, Kosovo"
    },
    {
      "lat": 42.87208780137456,
      "lon": 20.84852763719255,
      "geoinfo": {
        "display_name": "66, Hysni Ferizi, Zhabar i Poshtëm, Mitrovica, Mitrovica Municipality, District of Mitrovica, 40000, Kosovo",
        "road": "Hysni Ferizi",
        "house_number": "66",
        "neighbourhood": null,
        "suburb": null,
        "city_district": "Zhabar i Poshtëm",
        "city": "Mitrovica",
        "state": null,
        "postcode": "40000",
        "country": "Kosovo",
        "country_code": "xk"
      },
      "address": "66, Hysni Ferizi, Zhabar i Poshtëm, Mitrovica, Mitrovica Municipality, District of Mitrovica, 40000, Kosovo"
    },
    {
      "lat": 42.88732337306139,
      "lon": 20.80886336585794,
      "geoinfo": {
        "display_name": "36, Tahir Osmani, Vidomiriq, Mitrovica Municipality, District of Mitrovica, 40000, Kosovo",
        "road": "Tahir Osmani",
        "house_number": "36",
        "neighbourhood": null,
        "suburb": null,
        "city_district": null,
        "city": "Vidomiriq",
        "state": null,
        "postcode": "40000",
        "country": "Kosovo",
        "country_code": "xk"
      },
      "address": "36, Tahir Osmani, 40000 Mitrovicë, Kosovo"
    },
    {
      "lat": 42.87197964069337,
      "lon": 20.89775235893016,
      "geoinfo": {
        "display_name": "168, Isak Ibrahimi, Shupkoc, Kçiq i Vogël, Mitrovica Municipality, District of Mitrovica, 40010, Kosovo",
        "road": "Isak Ibrahimi",
        "house_number": "168",
        "neighbourhood": null,
        "suburb": null,
        "city_district": "Shupkoc",
        "city": "Kçiq i Vogël",
        "state": null,
        "postcode": "40010",
        "country": "Kosovo",
        "country_code": "xk"
      },
      "address": "168, Isak Ibrahimi, Shupkoc, Kçiq i Vogël, Mitrovica Municipality, District of Mitrovica, 40010, Kosovo"
    },
    {
      "lat": 42.84363707115636,
      "lon": 20.890921011443872,
      "geoinfo": {
        "display_name": "Qazim Hasani, Frashër/Sfinjarë, Frashër / Svinjarë, Mitrovica Municipality, District of Mitrovica, 40010, Kosovo",
        "road": "Qazim Hasani",
        "house_number": null,
        "neighbourhood": null,
        "suburb": null,
        "city_district": "Frashër/Sfinjarë",
        "city": "Frashër / Svinjarë",
        "state": null,
        "postcode": "40010",
        "country": "Kosovo",
        "country_code": "xk"
      },
      "address": "808, Qazim Hasani, 40010 Mitrovicë, Kosovo"
    }
  ],
  "updated_at": "2025-10-19T05:41:33.265888+00:00",
  "_kind": "geo_samples"
}