{
  "country_code": "XK",
  "country": "Kosovo",
  "city": "Shtime",
  "geonameid": 785485,
  "target_addresses": 5,
  "samples": [
    {
      "lat": 42.40593676069067,
      "lon": 21.07731531189606,
      "geoinfo": {
        "display_name": "Dramjak, Municipality of Ferizaj, District of Ferizaj, Kosovo",
        "road": null,
        "house_number": null,
        "neighbourhood": null,
        "suburb": null,
        "city_district": null,
        "city": "Dramjak",
        "state": null,
        "postcode": null,
        "country": "Kosovo",
        "country_code": "xk"
      },
      "address": "Shtime, Kosovo"
    },
    {
      "lat": 42.418112408963935,
      "lon": 21.002321064481666,
      "geoinfo": {
        "display_name": "Rrezja e Lirisë, Petrovë, Municipality of Štimlje, District of Ferizaj, 72000, Kosovo",
        "road": "Rrezja e Lirisë",
        "house_number": null,
        "neighbourhood": null,
        "suburb": null,
        "city_district": null,
        "city": "Petrovë",
        "state": null,
        "postcode": "72000",
        "country": "Kosovo",
        "country_code": "xk"
      },
      "address": "Rrezja e Lirisë, Shtime, Kosovo"
    },
    {
      "lat": 42.45514084665472,
      "lon": 21.058778558325873,
      "geoinfo": {
        "display_name": "178, Zeqë Zeqiri, Bushatë, Municipality of Štimlje, District of Ferizaj, 72000, Kosovo",
        "road": "Zeqë Zeqiri",
        "house_number": "178",
        "neighbourhood": null,
        "suburb": null,
        "city_district": null,
        "city": "Bushatë",
        "state": null,
        "postcode": "72000",
        "country": "Kosovo",
        "country_code": "xk"
      },
      "address": "178 Zeqë Zeqiri, Shtime, Kosovo"
    },
    {
      "lat": 42.40857503337463,
      "lon": 21.030836296615878,
      "geoinfo": {
        "display_name": "94, Xhemshir Xhemshiri, Petrovë, Municipality of Štimlje, District of Ferizaj, 72000, Kosovo",
        "road": "Xhemshir Xhemshiri",
        "house_number": "94",
        "neighbourhood": null,
        "suburb": null,
        "city_district": null,
        "city": "Petrovë",
        "state": null,
        "postcode": "72000",
        "country": "Kosovo",
        "country_code": "xk"
      },
      "address": "94 Xhemshir Xhemshiri, Shtime, Kosovo"
    },
    {
      "lat": 42.452053476615454,
      "lon": 21.020467232841607,
      "geoinfo": {
        "display_name": "Ruzhdi Salihu, Zborc, Municipality of Štimlje, District of Ferizaj, 72000, Kosovo",
        "road": "Ruzhdi Salihu",
        "house_number": null,
        "neighbourhood": null,
        "suburb": null,
        "city_district": null,
        "city": "Zborc",
        "state": null,
        "postcode": "72000",
        "country": "Kosovo",
        "country_code": "xk"
      },
      "address": "Ruzhdi Salihu, Shtime, Kosovo"
    },
    {
      "lat": 42.40051924616758,
      "lon": 21.065398012811915,
      "geoinfo": {
        "display_name": "Islam Neziraj, Mollopolcë, Municipality of Štimlje, District of Ferizaj, 72000, Kosovo",
        "road": "Islam Neziraj",
        "house_number": null,
        "neighbourhood": null,
        "suburb": null,
        "city_district": null,
        "city": "Mollopolcë",
        "state": null,
        "postcode": "72000",
        "country": "Kosovo",
        "country_code": "xk"
      },
      "address": "632, Islam Neziraj, Mollopolcë, Municipality of Štimlje, District of Ferizaj, 72000, Kosovo"
    },
    {
      "lat": 42.43861996892066,
      "lon": 21.04482765871024,
      "geoinfo": {
        "display_name": "161, Enver Gashi, Shtime, Municipality of Štimlje, District of Ferizaj, 72000, Kosovo",
        "road": "Enver Gashi",
        "house_number": "161",
        "neighbourhood": null,
        "suburb": null,
        "city_district": null,
        "city": "Shtime",
        "state": null,
        "postcode": "72000",
        "country": "Kosovo",
        "country_code": "xk"
      },
      "address": "161, Enver Gashi, Shtime, Municipality of Štimlje, District of Ferizaj, 72000, Kosovo"
    },
    {
      "lat": 42.418017597554204,
      "lon": 21.078188661952545,
      "geoinfo": {
        "display_name": "702, Komandant Kumanova, Gllavicë, Municipality of Štimlje, District of Ferizaj, 72000, Kosovo",
        "road": "Komandant Kumanova",
        "house_number": "702",
        "neighbourhood": null,
        "suburb": null,
        "city_district": null,
        "city": "Gllavicë",
        "state": null,
        "postcode": "72000",
        "country": "Kosovo",
        "country_code": "xk"
      },
      "address": "702, Komandant Kumanova, Gllavicë, Municipality of Štimlje, District of Ferizaj, 72000, Kosovo"
    },
    {
      "lat": 42.40642957459135,
      "lon": 21.035198950821396,
      "geoinfo": {
        "display_name": "8, Xhemshir Xhemshiri, Petrovë, Municipality of Štimlje, District of Ferizaj, 72000, Kosovo",
        "road": "Xhemshir Xhemshiri",
        "house_number": "8",
        "neighbourhood": null,
        "suburb": null,
        "city_district": null,
        "city": "Petrovë",
        "state": null,
        "postcode": "72000",
        "country": "Kosovo",
        "country_code": "xk"
      },
      "address": "8, Xhemshir Xhemshiri, Petrovë, Municipality of Štimlje, District of Ferizaj, 72000, Kosovo"
    },
    {
      "lat": 42.39631067899051,
      "lon": 21.0598259918876,
      "geoinfo": {
        "display_name": "Mollopolcë, Municipality of Štimlje, District of Ferizaj, 72000, Kosovo",
        "road": null,
        "house_number": null,
        "neighbourhood": null,
        "suburb": null,
        "city_district": null,
        "city": "Mollopolcë",
        "state": null,
        "postcode": "72000",
        "country": "Kosovo",
        "country_code": "xk"
      },
      "address": "790, Mollopolcë, Municipality of Štimlje, District of Ferizaj, 72000, Kosovo"
    }
  ],
  "updated_at": "2025-10-19T05:41:14.754268+00:00",
  "_kind": "geo_samples"
}