{
  "country_code": "XK",
  "country": "Kosovo",
  "city": "Vushtrri",
  "geonameid": 784097,
  "target_addresses": 5,
  "samples": [
    {
      "lat": 42.80553447431283,
      "lon": 20.92918168394547,
      "geoinfo": {
        "display_name": "Isë Llazacani, Bukosh, Municipality of Vushtrri / Vučitrn, District of Mitrovica, 42000, Kosovo",
        "road": "Isë Llazacani",
        "house_number": null,
        "neighbourhood": null,
        "suburb": null,
        "city_district": "Bukosh",
        "city": "Bukosh",
        "state": null,
        "postcode": "42000",
        "country": "Kosovo",
        "country_code": "xk"
      },
      "address": "Isë Llazacani, Vushtrri, Kosovo"
    },
    {
      "lat": 42.831084851604544,
      "lon": 20.996175071890924,
      "geoinfo": {
        "display_name": "Fitim Krasniqi, Begaj, Municipality of Vushtrri / Vučitrn, District of Mitrovica, 42000, Kosovo",
        "road": "Fitim Krasniqi",
        "house_number": null,
        "neighbourhood": null,
        "suburb": null,
        "city_district": "Begaj",
        "city": "Begaj",
        "state": null,
        "postcode": "42000",
        "country": "Kosovo",
        "country_code": "xk"
      },
      "address": "Fitim Krasniqi, Vushtrri, Kosovo"
    },
    {
      "lat": 42.787018233626206,
      "lon": 20.94822185923063,
      "geoinfo": {
        "display_name": "Ramë Tahiri, Novolan, Municipality of Vushtrri / Vučitrn, District of Mitrovica, 42000, Kosovo",
        "road": "Ramë Tahiri",
        "house_number": null,
        "neighbourhood": null,
        "suburb": null,
        "city_district": "Novolan",
        "city": "Novolan",
        "state": null,
        "postcode": "42000",
        "country": "Kosovo",
        "country_code": "xk"
      },
      "address": "Ramë Tahiri, Vushtrri, Kosovo"
    },
    {
      "lat": 42.82872649662436,
      "lon": 20.929954836536773,
      "geoinfo": {
        "display_name": "30, Lufta e UÇK-së, Shtitaricë, Shtitarice, Municipality of Vushtrri / Vučitrn, District of Mitrovica, 42000, Kosovo",
        "road": "Lufta e UÇK-së",
        "house_number": "30",
        "neighbourhood": null,
        "suburb": null,
        "city_district": "Shtitaricë",
        "city": "Shtitarice",
        "state": null,
        "postcode": "42000",
        "country": "Kosovo",
        "country_code": "xk"
      },
      "address": "30 Lufta e UÇK-së, Vushtrri, Kosovo"
    },
    {
      "lat": 42.80189147417703,
      "lon": 20.948272859237303,
      "geoinfo": {
        "display_name": "Zenel Zhabari, Novolan, Municipality of Vushtrri / Vučitrn, District of Mitrovica, 42000, Kosovo",
        "road": "Zenel Zhabari",
        "house_number": null,
        "neighbourhood": null,
        "suburb": null,
        "city_district": "Novolan",
        "city": "Novolan",
        "state": null,
        "postcode": "42000",
        "country": "Kosovo",
        "country_code": "xk"
      },
      "address": "Zenel Zhabari, Vushtrri, Kosovo"
    },
    {
      "lat": 42.866053116473736,
      "lon": 20.953951372349138,
      "geoinfo": {
        "display_name": "Bajskë/Banjë, Banjskë, Municipality of Vushtrri / Vučitrn, District of Mitrovica, 42000, Kosovo",
        "road": null,
        "house_number": null,
        "neighbourhood": null,
        "suburb": null,
        "city_district": "Bajskë/Banjë",
        "city": "Banjskë",
        "state": null,
        "postcode": "42000",
        "country": "Kosovo",
        "country_code": "xk"
      },
      "address": "325, Bajskë/Banjë, 42000 Vushtrri, Kosovo"
    },
    {
      "lat": 42.840535404478,
      "lon": 20.950730378378434,
      "geoinfo": {
        "display_name": "Flamur Merovci, Dobërllukë, Vushtrri, Municipality of Vushtrri / Vučitrn, District of Mitrovica, 42000, Kosovo",
        "road": "Flamur Merovci",
        "house_number": null,
        "neighbourhood": null,
        "suburb": null,
        "city_district": "Dobërllukë",
        "city": "Vushtrri",
        "state": null,
        "postcode": "42000",
        "country": "Kosovo",
        "country_code": "xk"
      },
      "address": "278, Flamur Merovci, Dobërllukë, Vushtrri, Municipality of Vushtrri / Vučitrn, District of Mitrovica, 42000, Kosovo"
    },
    {
      "lat": 42.794907833651706,
      "lon": 20.988763923009824,
      "geoinfo": {
        "display_name": "Ura e Sitnices - Nedakoc, Nadakoc / Nedakoc, Nedakoc, Municipality of Vushtrri / Vučitrn, District of Mitrovica, 42000, Kosovo",
        "road": "Ura e Sitnices - Nedakoc",
        "house_number": null,
        "neighbourhood": null,
        "suburb": null,
        "city_district": "Nadakoc / Nedakoc",
        "city": "Nedakoc",
        "state": null,
        "postcode": "42000",
        "country": "Kosovo",
        "country_code": "xk"
      },
      "address": "653, Ura e Sitnices - Nedakoc, Nadakoc / Nedakoc, Nedakoc, Municipality of Vushtrri / Vučitrn, District of Mitrovica, 42000, Kosovo"
    },
    {
      "lat": 42.78932160141749,
      "lon": 20.96634359169877,
      "geoinfo": {
        "display_name": "16, Musli Sallahu, Vërnicë, Municipality of Vushtrri / Vučitrn, District of Mitrovica, 42000, Kosovo",
        "road": "Musli Sallahu",
        "house_number": "16",
        "neighbourhood": null,
        "suburb": null,
        "city_district": "Vërnicë",
        "city": "Vërnicë",
        "state": null,
        "postcode": "42000",
        "country": "Kosovo",
        "country_code": "xk"
      },
      "address": "16, Musli Sallahu, Vërnicë, Municipality of Vushtrri / Vučitrn, District of Mitrovica, 42000, Kosovo"
    },
    {
      "lat": 42.81292650542544,
      "lon": 20.91667012969177,
      "geoinfo": {
        "display_name": "Katër Martirët, Liqej / Liqen, Shtitarice, Municipality of Vushtrri / Vučitrn, District of Mitrovica, 42000, Kosovo",
        "road": "Katër Martirët",
        "house_number": null,
        "neighbourhood": null,
        "suburb": null,
        "city_district": "Liqej / Liqen",
        "city": "Shtitarice",
        "state": null,
        "postcode": "42000",
        "country": "Kosovo",
        "country_code": "xk"
      },
      "address": "815, Katër Martirët, Liqej / Liqen, Shtitarice, Municipality of Vushtrri / Vučitrn, District of Mitrovica, 42000, Kosovo"
    }
  ],
  "updated_at": "2025-10-19T07:55:33.170280+00:00",
  "_kind": "geo_samples"
}