{
  "country_code": "JO",
  "country": "Jordan",
  "city": "Al Fuḩayş",
  "geonameid": 250718,
  "target_addresses": 3,
  "samples": [
    {
      "lat": 31.9950813966588,
      "lon": 35.745522809468376,
      "geoinfo": {
        "display_name": "Mahes and Fuhais Sub-District, Mahes and Fuhais District, Balqa, 19152, Jordan",
        "road": null,
        "house_number": null,
        "neighbourhood": null,
        "suburb": null,
        "city_district": null,
        "city": null,
        "state": "Balqa",
        "postcode": "19152",
        "country": "Jordan",
        "country_code": "jo"
      },
      "address": "Al Fuḩayş, Balqa, Jordan"
    },
    {
      "lat": 32.00891424055026,
      "lon": 35.76832897197032,
      "geoinfo": {
        "display_name": "البلد, Al Fuhays, Mahes and Fuhais Sub-District, Mahes and Fuhais District, Balqa, 19152, Jordan",
        "road": null,
        "house_number": null,
        "neighbourhood": "البلد",
        "suburb": null,
        "city_district": null,
        "city": "Al Fuhays",
        "state": "Balqa",
        "postcode": "19152",
        "country": "Jordan",
        "country_code": "jo"
      },
      "address": "البلد, Al Fuḩayş, Balqa, Jordan"
    },
    {
      "lat": 31.97346940568143,
      "lon": 35.81735966788618,
      "geoinfo": {
        "display_name": "الرباحية, Wadi Essier Sub-District, Wadi Essier District, Amman, 11814, Jordan",
        "road": null,
        "house_number": null,
        "neighbourhood": "الرباحية",
        "suburb": null,
        "city_district": null,
        "city": null,
        "state": "Amman",
        "postcode": "11814",
        "country": "Jordan",
        "country_code": "jo"
      },
      "address": "776, الرباحية, Wadi Essier Sub-District, Wadi Essier District, Amman, 11814, Jordan"
    },
    {
      "lat": 31.996127383408087,
      "lon": 35.77450096185934,
      "geoinfo": {
        "display_name": "العلالي, Mahis, Mahes and Fuhais Sub-District, Mahes and Fuhais District, Balqa, 19152, Jordan",
        "road": null,
        "house_number": null,
        "neighbourhood": "العلالي",
        "suburb": null,
        "city_district": null,
        "city": "Mahis",
        "state": "Balqa",
        "postcode": "19152",
        "country": "Jordan",
        "country_code": "jo"
      },
      "address": "641, العلالي, Al Fuḩayş, 19152 Balqa, Jordan"
    },
    {
      "lat": 31.967699317026156,
      "lon": 35.80113885614967,
      "geoinfo": {
        "display_name": "Heydar Aliyev Street, حي بلال, Um al Usud, Wadi Essier Sub-District, Wadi Essier District, Amman, 11814, Jordan",
        "road": "Heydar Aliyev Street",
        "house_number": null,
        "neighbourhood": "حي بلال",
        "suburb": null,
        "city_district": null,
        "city": "Um al Usud",
        "state": "Amman",
        "postcode": "11814",
        "country": "Jordan",
        "country_code": "jo"
      },
      "address": "922, Heydar Aliyev Street, حي بلال, Um al Usud, Wadi Essier Sub-District, Wadi Essier District, Amman, 11814, Jordan"
    }
  ],
  "updated_at": "2025-10-19T05:00:00.713954+00:00",
  "_kind": "geo_samples"
}