{
  "country_code": "JO",
  "country": "Jordan",
  "city": "‘Anjarah",
  "geonameid": 250420,
  "target_addresses": 11,
  "samples": [
    {
      "lat": 32.28508528480822,
      "lon": 35.70951641433929,
      "geoinfo": {
        "display_name": "العامرية, Kufranjah Sub-District, Kufranjah District, Ajlun, Jordan",
        "road": null,
        "house_number": null,
        "neighbourhood": null,
        "suburb": null,
        "city_district": null,
        "city": "العامرية",
        "state": "Ajlun",
        "postcode": null,
        "country": "Jordan",
        "country_code": "jo"
      },
      "address": "‘Anjarah, Ajlun, Jordan"
    },
    {
      "lat": 32.2834105641005,
      "lon": 35.766015850363516,
      "geoinfo": {
        "display_name": "Ayn al Dallafah, Road: Jerash - Sakib - Ajloun, Anjara, Ajloun Sub-District, Ajloun Qasabah District, Ajlun, 26710, Jordan",
        "road": "Road: Jerash - Sakib - Ajloun",
        "house_number": null,
        "neighbourhood": null,
        "suburb": null,
        "city_district": null,
        "city": "Anjara",
        "state": "Ajlun",
        "postcode": "26710",
        "country": "Jordan",
        "country_code": "jo"
      },
      "address": "Road: Jerash - Sakib - Ajloun, ‘Anjarah, Ajlun, Jordan"
    },
    {
      "lat": 32.29393458593206,
      "lon": 35.802674392401165,
      "geoinfo": {
        "display_name": "Sakib, Jerash Sub-District, Qasabah Jerash, Jarash, 26710, Jordan",
        "road": null,
        "house_number": null,
        "neighbourhood": null,
        "suburb": null,
        "city_district": null,
        "city": "Sakib",
        "state": "Jarash",
        "postcode": "26710",
        "country": "Jordan",
        "country_code": "jo"
      },
      "address": "980, Sakib, Jerash Sub-District, Qasabah Jerash, Jarash, 26710, Jordan"
    },
    {
      "lat": 32.3030994762492,
      "lon": 35.71318717614523,
      "geoinfo": {
        "display_name": "Al Amiriya, Kufranjah Sub-District, Kufranjah District, Ajlun, Jordan",
        "road": null,
        "house_number": null,
        "neighbourhood": null,
        "suburb": null,
        "city_district": null,
        "city": "Al Amiriya",
        "state": "Ajlun",
        "postcode": null,
        "country": "Jordan",
        "country_code": "jo"
      },
      "address": "648, Al Amiriya, Kufranjah Sub-District, Kufranjah District, 45576 Ajlun, Jordan"
    },
    {
      "lat": 32.30393871384952,
      "lon": 35.719211484136956,
      "geoinfo": {
        "display_name": "Al Amiriya, Kufranjah Sub-District, Kufranjah District, Ajlun, Jordan",
        "road": null,
        "house_number": null,
        "neighbourhood": null,
        "suburb": null,
        "city_district": null,
        "city": "Al Amiriya",
        "state": "Ajlun",
        "postcode": null,
        "country": "Jordan",
        "country_code": "jo"
      },
      "address": "635, Al Amiriya, Kufranjah Sub-District, Kufranjah District, 27024 Ajlun, Jordan"
    },
    {
      "lat": 32.311712565601994,
      "lon": 35.80698061289947,
      "geoinfo": {
        "display_name": "Sakib, Jerash Sub-District, Qasabah Jerash, Jarash, 26710, Jordan",
        "road": null,
        "house_number": null,
        "neighbourhood": null,
        "suburb": null,
        "city_district": null,
        "city": "Sakib",
        "state": "Jarash",
        "postcode": "26710",
        "country": "Jordan",
        "country_code": "jo"
      },
      "address": "257, Sakib, Jerash Sub-District, Qasabah Jerash, Jarash, 26710, Jordan"
    }
  ],
  "updated_at": "2025-10-19T05:06:24.342074+00:00",
  "_kind": "geo_samples"
}