{
  "country_code": "JO",
  "country": "Jordan",
  "city": "As Salţ",
  "geonameid": 250258,
  "target_addresses": 3,
  "samples": [
    {
      "lat": 32.02374711575212,
      "lon": 35.71212551463554,
      "geoinfo": {
        "display_name": "خربة المقلعطين, Al Salt, Al-Salt Sub-District, Salt Qasabah District, Balqa, Jordan",
        "road": null,
        "house_number": null,
        "neighbourhood": null,
        "suburb": null,
        "city_district": null,
        "city": "Al Salt",
        "state": "Balqa",
        "postcode": null,
        "country": "Jordan",
        "country_code": "jo"
      },
      "address": "As Salţ, Balqa, Jordan"
    },
    {
      "lat": 32.059262185568365,
      "lon": 35.76160270922787,
      "geoinfo": {
        "display_name": "حي اليزيدية الشمالي, Al-Salt Sub-District, Salt Qasabah District, Balqa, Jordan",
        "road": null,
        "house_number": null,
        "neighbourhood": "حي اليزيدية الشمالي",
        "suburb": null,
        "city_district": null,
        "city": null,
        "state": "Balqa",
        "postcode": null,
        "country": "Jordan",
        "country_code": "jo"
      },
      "address": "حي اليزيدية الشمالي, As Salţ, Balqa, Jordan"
    },
    {
      "lat": 32.05252001069724,
      "lon": 35.697222844183436,
      "geoinfo": {
        "display_name": "حي الحليلة, Al Salt, Al-Salt Sub-District, Salt Qasabah District, Balqa, Jordan",
        "road": null,
        "house_number": null,
        "neighbourhood": "حي الحليلة",
        "suburb": null,
        "city_district": null,
        "city": "Al Salt",
        "state": "Balqa",
        "postcode": null,
        "country": "Jordan",
        "country_code": "jo"
      },
      "address": "حي الحليلة, As Salţ, Balqa, Jordan"
    },
    {
      "lat": 32.05421975907645,
      "lon": 35.70027973357619,
      "geoinfo": {
        "display_name": "المدينة الرياضية, Al Salt, Al-Salt Sub-District, Salt Qasabah District, Balqa, Jordan",
        "road": null,
        "house_number": null,
        "neighbourhood": "المدينة الرياضية",
        "suburb": null,
        "city_district": null,
        "city": "Al Salt",
        "state": "Balqa",
        "postcode": null,
        "country": "Jordan",
        "country_code": "jo"
      },
      "address": "307, المدينة الرياضية, Al Salt, Al-Salt Sub-District, Salt Qasabah District, 37592 Balqa, Jordan"
    },
    {
      "lat": 32.0106633849318,
      "lon": 35.75751870093395,
      "geoinfo": {
        "display_name": "البلد, Al Fuhays, Mahes and Fuhais Sub-District, Mahes and Fuhais District, Balqa, 19152, Jordan",
        "road": null,
        "house_number": null,
        "neighbourhood": "البلد",
        "suburb": null,
        "city_district": null,
        "city": "Al Fuhays",
        "state": "Balqa",
        "postcode": "19152",
        "country": "Jordan",
        "country_code": "jo"
      },
      "address": "536, البلد, Al Fuhays, Mahes and Fuhais Sub-District, Mahes and Fuhais District, Balqa, 19152, Jordan"
    },
    {
      "lat": 32.00826118861638,
      "lon": 35.71858680618582,
      "geoinfo": {
        "display_name": "حي القسام, Al Salt, Al-Salt Sub-District, Salt Qasabah District, Balqa, 19152, Jordan",
        "road": null,
        "house_number": null,
        "neighbourhood": "حي القسام",
        "suburb": null,
        "city_district": null,
        "city": "Al Salt",
        "state": "Balqa",
        "postcode": "19152",
        "country": "Jordan",
        "country_code": "jo"
      },
      "address": "749, حي القسام, Al Salt, Al-Salt Sub-District, Salt Qasabah District, Balqa, 19152, Jordan"
    }
  ],
  "updated_at": "2025-10-19T04:59:48.847382+00:00",
  "_kind": "geo_samples"
}