{
  "country_code": "JO",
  "country": "Jordan",
  "city": "Az̧ Z̧ulayl",
  "geonameid": 10861986,
  "target_addresses": 3,
  "samples": [
    {
      "lat": 32.109971266963505,
      "lon": 36.25740920773371,
      "geoinfo": {
        "display_name": "Dhlail, Dhlail Sub-District, Zarqa Qasabah, Zarqa, Jordan",
        "road": null,
        "house_number": null,
        "neighbourhood": null,
        "suburb": null,
        "city_district": null,
        "city": "Dhlail",
        "state": "Zarqa",
        "postcode": null,
        "country": "Jordan",
        "country_code": "jo"
      },
      "address": "404, Dhlail, Dhlail Sub-District, Zarqa Qasabah, 44548 Zarqa, Jordan"
    },
    {
      "lat": 32.117404630891244,
      "lon": 36.2559946912638,
      "geoinfo": {
        "display_name": "Dhlail, Dhlail Sub-District, Zarqa Qasabah, Zarqa, Jordan",
        "road": null,
        "house_number": null,
        "neighbourhood": null,
        "suburb": null,
        "city_district": null,
        "city": "Dhlail",
        "state": "Zarqa",
        "postcode": null,
        "country": "Jordan",
        "country_code": "jo"
      },
      "address": "697, Dhlail, Dhlail Sub-District, Zarqa Qasabah, 64975 Zarqa, Jordan"
    },
    {
      "lat": 32.140835380895744,
      "lon": 36.320297190899076,
      "geoinfo": {
        "display_name": "Khaldiyah Sub-District, Badiah Shamaliyah Gharbiyah District, Mafraq, Jordan",
        "road": null,
        "house_number": null,
        "neighbourhood": null,
        "suburb": null,
        "city_district": null,
        "city": null,
        "state": "Mafraq",
        "postcode": null,
        "country": "Jordan",
        "country_code": "jo"
      },
      "address": "782, Khaldiyah Sub-District, Badiah Shamaliyah Gharbiyah District, 88365 Mafraq, Jordan"
    }
  ],
  "updated_at": "2025-10-19T05:24:51.115771+00:00",
  "_kind": "geo_samples"
}