{
  "country_code": "JO",
  "country": "Jordan",
  "city": "Aţ Ţafīlah",
  "geonameid": 250198,
  "target_addresses": 3,
  "samples": [
    {
      "lat": 30.809725407965537,
      "lon": 35.61877427715917,
      "geoinfo": {
        "display_name": "At Tafila, At Tafila Sub-District, Tafilah Qasabah District, Tafilah, Jordan",
        "road": null,
        "house_number": null,
        "neighbourhood": null,
        "suburb": null,
        "city_district": null,
        "city": "At Tafila",
        "state": "Tafilah",
        "postcode": null,
        "country": "Jordan",
        "country_code": "jo"
      },
      "address": "Aţ Ţafīlah, Tafilah, Jordan"
    },
    {
      "lat": 30.832343480254753,
      "lon": 35.62067605579599,
      "geoinfo": {
        "display_name": "البقيع, At Tafila, At Tafila Sub-District, Tafilah Qasabah District, Tafilah, Jordan",
        "road": null,
        "house_number": null,
        "neighbourhood": "البقيع",
        "suburb": null,
        "city_district": null,
        "city": "At Tafila",
        "state": "Tafilah",
        "postcode": null,
        "country": "Jordan",
        "country_code": "jo"
      },
      "address": "البقيع, Aţ Ţafīlah, Tafilah, Jordan"
    },
    {
      "lat": 30.851951188391403,
      "lon": 35.6104662588599,
      "geoinfo": {
        "display_name": "ام القرى, At Tafila, At Tafila Sub-District, Tafilah Qasabah District, Tafilah, Jordan",
        "road": null,
        "house_number": null,
        "neighbourhood": "ام القرى",
        "suburb": null,
        "city_district": null,
        "city": "At Tafila",
        "state": "Tafilah",
        "postcode": null,
        "country": "Jordan",
        "country_code": "jo"
      },
      "address": "ام القرى, Aţ Ţafīlah, Tafilah, Jordan"
    },
    {
      "lat": 30.812899705614644,
      "lon": 35.58135620099775,
      "geoinfo": {
        "display_name": "At Tafila, At Tafila Sub-District, Tafilah Qasabah District, Tafilah, Jordan",
        "road": null,
        "house_number": null,
        "neighbourhood": null,
        "suburb": null,
        "city_district": null,
        "city": "At Tafila",
        "state": "Tafilah",
        "postcode": null,
        "country": "Jordan",
        "country_code": "jo"
      },
      "address": "682, Aţ Ţafīlah, 98610 Tafilah, Jordan"
    },
    {
      "lat": 30.827930682628484,
      "lon": 35.58387480977771,
      "geoinfo": {
        "display_name": "At Tafila, At Tafila Sub-District, Tafilah Qasabah District, Tafilah, Jordan",
        "road": null,
        "house_number": null,
        "neighbourhood": null,
        "suburb": null,
        "city_district": null,
        "city": "At Tafila",
        "state": "Tafilah",
        "postcode": null,
        "country": "Jordan",
        "country_code": "jo"
      },
      "address": "317, Aţ Ţafīlah, 09026 Tafilah, Jordan"
    },
    {
      "lat": 30.86966158360245,
      "lon": 35.60542461783156,
      "geoinfo": {
        "display_name": "Aima, At Tafila Sub-District, Tafilah Qasabah District, Tafilah, Jordan",
        "road": null,
        "house_number": null,
        "neighbourhood": null,
        "suburb": null,
        "city_district": null,
        "city": "Aima",
        "state": "Tafilah",
        "postcode": null,
        "country": "Jordan",
        "country_code": "jo"
      },
      "address": "901, Aţ Ţafīlah, 50233 Tafilah, Jordan"
    }
  ],
  "updated_at": "2025-10-19T04:59:36.982096+00:00",
  "_kind": "geo_samples"
}