{
  "country_code": "JO",
  "country": "Jordan",
  "city": "Jarash",
  "geonameid": 248875,
  "target_addresses": 3,
  "samples": [
    {
      "lat": 32.26447989409801,
      "lon": 35.877623808877836,
      "geoinfo": {
        "display_name": "Haddad Farm, المعراض, Jerash Sub-District, Qasabah Jerash, Jarash, 26111, Jordan",
        "road": null,
        "house_number": null,
        "neighbourhood": null,
        "suburb": null,
        "city_district": null,
        "city": "المعراض",
        "state": "Jarash",
        "postcode": "26111",
        "country": "Jordan",
        "country_code": "jo"
      },
      "address": "Jarash, Jarash, Jordan"
    },
    {
      "lat": 32.2788935300755,
      "lon": 35.895977754718814,
      "geoinfo": {
        "display_name": "An-Nassr Street, Jerash, Jerash Sub-District, Qasabah Jerash, Jarash, 26173, Jordan",
        "road": "An-Nassr Street",
        "house_number": null,
        "neighbourhood": null,
        "suburb": null,
        "city_district": null,
        "city": "Jerash",
        "state": "Jarash",
        "postcode": "26173",
        "country": "Jordan",
        "country_code": "jo"
      },
      "address": "An-Nassr Street, Jarash, Jarash, Jordan"
    },
    {
      "lat": 32.27570257474935,
      "lon": 35.87389202625611,
      "geoinfo": {
        "display_name": "زقريط الخضرة, Jerash Sub-District, Qasabah Jerash, Jarash, 26111, Jordan",
        "road": null,
        "house_number": null,
        "neighbourhood": null,
        "suburb": null,
        "city_district": null,
        "city": "زقريط الخضرة",
        "state": "Jarash",
        "postcode": "26111",
        "country": "Jordan",
        "country_code": "jo"
      },
      "address": "285, زقريط الخضرة, Jerash Sub-District, Qasabah Jerash, Jarash, 26111, Jordan"
    },
    {
      "lat": 32.26520673579085,
      "lon": 35.92272219867492,
      "geoinfo": {
        "display_name": "ام قنطرة, Jerash Sub-District, Qasabah Jerash, Jarash, 26173, Jordan",
        "road": null,
        "house_number": null,
        "neighbourhood": null,
        "suburb": null,
        "city_district": null,
        "city": "ام قنطرة",
        "state": "Jarash",
        "postcode": "26173",
        "country": "Jordan",
        "country_code": "jo"
      },
      "address": "518, ام قنطرة, Jerash Sub-District, Qasabah Jerash, Jarash, 26173, Jordan"
    },
    {
      "lat": 32.25216868612112,
      "lon": 35.93968208126284,
      "geoinfo": {
        "display_name": "ام قنطرة, Jerash Sub-District, Qasabah Jerash, Jarash, Jordan",
        "road": null,
        "house_number": null,
        "neighbourhood": null,
        "suburb": null,
        "city_district": null,
        "city": "ام قنطرة",
        "state": "Jarash",
        "postcode": null,
        "country": "Jordan",
        "country_code": "jo"
      },
      "address": "955, ام قنطرة, Jerash Sub-District, Qasabah Jerash, 98489 Jarash, Jordan"
    }
  ],
  "updated_at": "2025-10-19T05:23:31.664147+00:00",
  "_kind": "geo_samples"
}