{
  "country_code": "JO",
  "country": "Jordan",
  "city": "Khuraybat as Sūq",
  "geonameid": 248460,
  "target_addresses": 16,
  "samples": [
    {
      "lat": 31.887572934245455,
      "lon": 35.89185673658279,
      "geoinfo": {
        "display_name": "ام الجدايل, Na'oor Sub-District, Na'oor District, Amman, 11623, Jordan",
        "road": null,
        "house_number": null,
        "neighbourhood": "ام الجدايل",
        "suburb": null,
        "city_district": null,
        "city": null,
        "state": "Amman",
        "postcode": "11623",
        "country": "Jordan",
        "country_code": "jo"
      },
      "address": "ام الجدايل, Na'oor Sub-District, Na'oor District, Amman, 11623, Jordan"
    },
    {
      "lat": 31.891415601069188,
      "lon": 35.88266756964098,
      "geoinfo": {
        "display_name": "Al-Bnyyat Street, البنيات الشمالي, Na'oor Sub-District, Na'oor District, Amman, 11732, Jordan",
        "road": "Al-Bnyyat Street",
        "house_number": null,
        "neighbourhood": "البنيات الشمالي",
        "suburb": null,
        "city_district": null,
        "city": null,
        "state": "Amman",
        "postcode": "11732",
        "country": "Jordan",
        "country_code": "jo"
      },
      "address": "Al-Bnyyat Street, البنيات الشمالي, Na'oor Sub-District, Na'oor District, Amman, 11732, Jordan"
    },
    {
      "lat": 31.870201834084284,
      "lon": 35.96730127507085,
      "geoinfo": {
        "display_name": "الاحسان, خربیه السوق, Quaismeh Sub-District, Quaismeh District, Amman, 11511, Jordan",
        "road": null,
        "house_number": null,
        "neighbourhood": "الاحسان",
        "suburb": null,
        "city_district": null,
        "city": "خربیه السوق",
        "state": "Amman",
        "postcode": "11511",
        "country": "Jordan",
        "country_code": "jo"
      },
      "address": "الاحسان, خربیه السوق, Quaismeh Sub-District, Quaismeh District, Amman, 11511, Jordan"
    },
    {
      "lat": 31.88408611686291,
      "lon": 35.96981644250186,
      "geoinfo": {
        "display_name": "المغبة الشرقي, Quaismeh Sub-District, Quaismeh District, Amman, 11511, Jordan",
        "road": null,
        "house_number": null,
        "neighbourhood": "المغبة الشرقي",
        "suburb": null,
        "city_district": null,
        "city": null,
        "state": "Amman",
        "postcode": "11511",
        "country": "Jordan",
        "country_code": "jo"
      },
      "address": "101, المغبة الشرقي, Quaismeh Sub-District, Quaismeh District, Amman, 11511, Jordan"
    },
    {
      "lat": 31.894280368610406,
      "lon": 35.93749805858218,
      "geoinfo": {
        "display_name": "25, الجويدة, خربیه السوق, Quaismeh Sub-District, Quaismeh District, Amman, 11019, Jordan",
        "road": "25",
        "house_number": null,
        "neighbourhood": "الجويدة",
        "suburb": null,
        "city_district": null,
        "city": "خربیه السوق",
        "state": "Amman",
        "postcode": "11019",
        "country": "Jordan",
        "country_code": "jo"
      },
      "address": "25, الجويدة, خربیه السوق, Quaismeh Sub-District, Quaismeh District, Amman, 11019, Jordan"
    },
    {
      "lat": 31.911935847970476,
      "lon": 35.9421134520827,
      "geoinfo": {
        "display_name": "القويسمة, Al Quwaysimah, Quaismeh Sub-District, Quaismeh District, Amman, 11019, Jordan",
        "road": null,
        "house_number": null,
        "neighbourhood": "القويسمة",
        "suburb": "Al Quwaysimah",
        "city_district": null,
        "city": null,
        "state": "Amman",
        "postcode": "11019",
        "country": "Jordan",
        "country_code": "jo"
      },
      "address": "888, القويسمة, Al Quwaysimah, Quaismeh Sub-District, Quaismeh District, Amman, 11019, Jordan"
    },
    {
      "lat": 31.900247197548634,
      "lon": 35.87826276389817,
      "geoinfo": {
        "display_name": "Na'oor Sub-District, Na'oor District, Amman, 11732, Jordan",
        "road": null,
        "house_number": null,
        "neighbourhood": null,
        "suburb": null,
        "city_district": null,
        "city": null,
        "state": "Amman",
        "postcode": "11732",
        "country": "Jordan",
        "country_code": "jo"
      },
      "address": "360, Na'oor Sub-District, Na'oor District, Amman, 11732, Jordan"
    },
    {
      "lat": 31.9175258063237,
      "lon": 35.93246491008776,
      "geoinfo": {
        "display_name": "Khadeejah Bint Khuwayled Street, منطقة رأس العين, Amman, Amman Sub-District, Amman Qasabah District, Amman, 11152, Jordan",
        "road": "Khadeejah Bint Khuwayled Street",
        "house_number": null,
        "neighbourhood": null,
        "suburb": "منطقة رأس العين",
        "city_district": null,
        "city": "Amman",
        "state": "Amman",
        "postcode": "11152",
        "country": "Jordan",
        "country_code": "jo"
      },
      "address": "649, Khadeejah Bint Khuwayled Street, منطقة رأس العين, Amman, Amman Sub-District, Amman Qasabah District, Amman, 11152, Jordan"
    },
    {
      "lat": 31.865811898715968,
      "lon": 35.912880562462554,
      "geoinfo": {
        "display_name": "خربیه السوق, Quaismeh Sub-District, Quaismeh District, Amman, 11019, Jordan",
        "road": null,
        "house_number": null,
        "neighbourhood": null,
        "suburb": null,
        "city_district": null,
        "city": "خربیه السوق",
        "state": "Amman",
        "postcode": "11019",
        "country": "Jordan",
        "country_code": "jo"
      },
      "address": "088, خربیه السوق, Quaismeh Sub-District, Quaismeh District, Amman, 11019, Jordan"
    },
    {
      "lat": 31.919296671033685,
      "lon": 35.922027665703204,
      "geoinfo": {
        "display_name": "Al-Qataneen Street, الزهور, منطقة رأس العين, Amman, Amman Sub-District, Amman Qasabah District, Amman, 11623, Jordan",
        "road": "Al-Qataneen Street",
        "house_number": null,
        "neighbourhood": "الزهور",
        "suburb": "منطقة رأس العين",
        "city_district": null,
        "city": "Amman",
        "state": "Amman",
        "postcode": "11623",
        "country": "Jordan",
        "country_code": "jo"
      },
      "address": "334, Al-Qataneen Street, الزهور, منطقة رأس العين, Amman, Amman Sub-District, Amman Qasabah District, Amman, 11623, Jordan"
    },
    {
      "lat": 31.87433501506259,
      "lon": 35.96944291490159,
      "geoinfo": {
        "display_name": "40, Sahab, Quaismeh Sub-District, Quaismeh District, Amman, 11511, Jordan",
        "road": "40",
        "house_number": null,
        "neighbourhood": null,
        "suburb": null,
        "city_district": null,
        "city": "Sahab",
        "state": "Amman",
        "postcode": "11511",
        "country": "Jordan",
        "country_code": "jo"
      },
      "address": "40, Sahab, Quaismeh Sub-District, Quaismeh District, Amman, 11511, Jordan"
    },
    {
      "lat": 31.88246621222794,
      "lon": 35.869226911443434,
      "geoinfo": {
        "display_name": "Na'oor Sub-District, Na'oor District, Amman, 11732, Jordan",
        "road": null,
        "house_number": null,
        "neighbourhood": null,
        "suburb": null,
        "city_district": null,
        "city": null,
        "state": "Amman",
        "postcode": "11732",
        "country": "Jordan",
        "country_code": "jo"
      },
      "address": "862, Na'oor Sub-District, Na'oor District, Amman, 11732, Jordan"
    },
    {
      "lat": 31.883406139677046,
      "lon": 35.936992458843896,
      "geoinfo": {
        "display_name": "الجويدة, خربیه السوق, Quaismeh Sub-District, Quaismeh District, Amman, 11019, Jordan",
        "road": null,
        "house_number": null,
        "neighbourhood": "الجويدة",
        "suburb": null,
        "city_district": null,
        "city": "خربیه السوق",
        "state": "Amman",
        "postcode": "11019",
        "country": "Jordan",
        "country_code": "jo"
      },
      "address": "998, الجويدة, خربیه السوق, Quaismeh Sub-District, Quaismeh District, Amman, 11019, Jordan"
    },
    {
      "lat": 31.84135830806131,
      "lon": 35.94867498853419,
      "geoinfo": {
        "display_name": "الوفاء, Quaismeh Sub-District, Quaismeh District, Amman, Jordan",
        "road": null,
        "house_number": null,
        "neighbourhood": "الوفاء",
        "suburb": null,
        "city_district": null,
        "city": null,
        "state": "Amman",
        "postcode": null,
        "country": "Jordan",
        "country_code": "jo"
      },
      "address": "061, الوفاء, Quaismeh Sub-District, Quaismeh District, 03387 Amman, Jordan"
    },
    {
      "lat": 31.855639288485722,
      "lon": 35.916716720764434,
      "geoinfo": {
        "display_name": "Al Yaduda, خربیه السوق, Quaismeh Sub-District, Quaismeh District, Amman, 11019, Jordan",
        "road": null,
        "house_number": null,
        "neighbourhood": "Al Yaduda",
        "suburb": null,
        "city_district": null,
        "city": "خربیه السوق",
        "state": "Amman",
        "postcode": "11019",
        "country": "Jordan",
        "country_code": "jo"
      },
      "address": "723, Al Yaduda, خربیه السوق, Quaismeh Sub-District, Quaismeh District, Amman, 11019, Jordan"
    },
    {
      "lat": 31.90335883270977,
      "lon": 35.934061329225585,
      "geoinfo": {
        "display_name": "Al-Sakhrah Al-Musharrafah Street, أم الحيران, Amman, Amman Sub-District, Amman Qasabah District, Amman, 11019, Jordan",
        "road": "Al-Sakhrah Al-Musharrafah Street",
        "house_number": null,
        "neighbourhood": "أم الحيران",
        "suburb": null,
        "city_district": null,
        "city": "Amman",
        "state": "Amman",
        "postcode": "11019",
        "country": "Jordan",
        "country_code": "jo"
      },
      "address": "000, Al-Sakhrah Al-Musharrafah Street, أم الحيران, Amman, Amman Sub-District, Amman Qasabah District, Amman, 11019, Jordan"
    }
  ],
  "updated_at": "2025-10-19T05:05:08.858762+00:00",
  "_kind": "geo_samples"
}