{
  "country_code": "JO",
  "country": "Jordan",
  "city": "Russeifa",
  "geonameid": 7838895,
  "target_addresses": 3,
  "samples": [
    {
      "lat": 32.028838199014515,
      "lon": 36.054423204102655,
      "geoinfo": {
        "display_name": "اليرموك, Al Ruseifa, Russeifa Sub-District, Russeifa District, Zarqa, 17312, Jordan",
        "road": null,
        "house_number": null,
        "neighbourhood": "اليرموك",
        "suburb": null,
        "city_district": null,
        "city": "Al Ruseifa",
        "state": "Zarqa",
        "postcode": "17312",
        "country": "Jordan",
        "country_code": "jo"
      },
      "address": "اليرموك, Russeifa, Zarqa, Jordan"
    },
    {
      "lat": 32.01624564414961,
      "lon": 36.09170583994647,
      "geoinfo": {
        "display_name": "Zarqa Free Zone, Zarqa, Marka Sub-District, Marka District, Amman, 17312, Jordan",
        "road": null,
        "house_number": null,
        "neighbourhood": null,
        "suburb": null,
        "city_district": null,
        "city": "Zarqa",
        "state": "Amman",
        "postcode": "17312",
        "country": "Jordan",
        "country_code": "jo"
      },
      "address": "Russeifa, Amman, Jordan"
    },
    {
      "lat": 32.022910372683434,
      "lon": 36.01877055056293,
      "geoinfo": {
        "display_name": "Hay Al Rasheed, Al Ruseifa, Russeifa Sub-District, Russeifa District, Zarqa, 17312, Jordan",
        "road": null,
        "house_number": null,
        "neighbourhood": "Hay Al Rasheed",
        "suburb": null,
        "city_district": null,
        "city": "Al Ruseifa",
        "state": "Zarqa",
        "postcode": "17312",
        "country": "Jordan",
        "country_code": "jo"
      },
      "address": "Hay Al Rasheed, Russeifa, Zarqa, Jordan"
    },
    {
      "lat": 32.03269712273422,
      "lon": 36.003417145732875,
      "geoinfo": {
        "display_name": "Al Ruseifa, Russeifa Sub-District, Russeifa District, Zarqa, Jordan",
        "road": null,
        "house_number": null,
        "neighbourhood": null,
        "suburb": null,
        "city_district": null,
        "city": "Al Ruseifa",
        "state": "Zarqa",
        "postcode": null,
        "country": "Jordan",
        "country_code": "jo"
      },
      "address": "718, Al Ruseifa, Russeifa Sub-District, Russeifa District, 25047 Zarqa, Jordan"
    },
    {
      "lat": 32.03462162879498,
      "lon": 36.02681966655967,
      "geoinfo": {
        "display_name": "Al Ruseifa, Russeifa Sub-District, Russeifa District, Zarqa, 17312, Jordan",
        "road": null,
        "house_number": null,
        "neighbourhood": null,
        "suburb": null,
        "city_district": null,
        "city": "Al Ruseifa",
        "state": "Zarqa",
        "postcode": "17312",
        "country": "Jordan",
        "country_code": "jo"
      },
      "address": "665, Al Ruseifa, Russeifa Sub-District, Russeifa District, Zarqa, 17312, Jordan"
    },
    {
      "lat": 32.03770880432037,
      "lon": 36.01627710243134,
      "geoinfo": {
        "display_name": "Al Ruseifa, Russeifa Sub-District, Russeifa District, Zarqa, 17312, Jordan",
        "road": null,
        "house_number": null,
        "neighbourhood": null,
        "suburb": null,
        "city_district": null,
        "city": "Al Ruseifa",
        "state": "Zarqa",
        "postcode": "17312",
        "country": "Jordan",
        "country_code": "jo"
      },
      "address": "300, Al Ruseifa, Russeifa Sub-District, Russeifa District, Zarqa, 17312, Jordan"
    }
  ],
  "updated_at": "2025-10-19T05:23:42.226148+00:00",
  "_kind": "geo_samples"
}