{
  "country_code": "TO",
  "country": "Tonga",
  "city": "Nuku‘alofa",
  "geonameid": 4032402,
  "target_addresses": 100,
  "samples": [
    {
      "lat": -21.121085453353707,
      "lon": -175.21334931516756,
      "geoinfo": {
        "display_name": "Sopu 'o Tāufa'ahāu, Haveluloto, Vahe Kolomotu'a, Tongatapu, Tonga",
        "road": null,
        "house_number": null,
        "neighbourhood": null,
        "suburb": null,
        "city_district": null,
        "city": "Haveluloto",
        "state": "Tongatapu",
        "postcode": null,
        "country": "Tonga",
        "country_code": "to"
      },
      "address": "034, Nuku‘alofa, 59723 Tongatapu, Tonga"
    },
    {
      "lat": -21.10161116967324,
      "lon": -175.17253936005113,
      "geoinfo": {
        "display_name": "Hala Taufa'ahau, Patangata, Tukutonga, Vahe Kolofo'ou, Tongatapu, Tonga",
        "road": "Hala Taufa'ahau",
        "house_number": null,
        "neighbourhood": null,
        "suburb": null,
        "city_district": null,
        "city": "Tukutonga",
        "state": "Tongatapu",
        "postcode": null,
        "country": "Tonga",
        "country_code": "to"
      },
      "address": "141, Hala Taufa'ahau, Nuku‘alofa, 06317 Tongatapu, Tonga"
    },
    {
      "lat": -21.15139501879862,
      "lon": -175.2009256844224,
      "geoinfo": {
        "display_name": "Mailetaha, Mataika, Nuku'alofa, Vahe Kolofo'ou, Tongatapu, Tonga",
        "road": null,
        "house_number": null,
        "neighbourhood": "Mailetaha",
        "suburb": null,
        "city_district": null,
        "city": "Nuku'alofa",
        "state": "Tongatapu",
        "postcode": null,
        "country": "Tonga",
        "country_code": "to"
      },
      "address": "370, Mailetaha, Nuku‘alofa, 01264 Tongatapu, Tonga"
    },
    {
      "lat": -21.110873311482013,
      "lon": -175.20572242943473,
      "geoinfo": {
        "display_name": "Tongata'eapa, Haveluloto, Vahe Kolomotu'a, Tongatapu, Tonga",
        "road": null,
        "house_number": null,
        "neighbourhood": null,
        "suburb": null,
        "city_district": null,
        "city": "Haveluloto",
        "state": "Tongatapu",
        "postcode": null,
        "country": "Tonga",
        "country_code": "to"
      },
      "address": "879, Nuku‘alofa, 90214 Tongatapu, Tonga"
    },
    {
      "lat": -21.09631921391719,
      "lon": -175.19311253374255,
      "geoinfo": {
        "display_name": "Hala Vuna, Maui, Sopu 'o Tāufa'ahāu, Hōfoa, Vahe Kolomotu'a, Tongatapu, Tonga",
        "road": "Hala Vuna",
        "house_number": null,
        "neighbourhood": "Maui",
        "suburb": null,
        "city_district": null,
        "city": "Hōfoa",
        "state": "Tongatapu",
        "postcode": null,
        "country": "Tonga",
        "country_code": "to"
      },
      "address": "547, Hala Vuna, Nuku‘alofa, 36966 Tongatapu, Tonga"
    },
    {
      "lat": -21.174375685255022,
      "lon": -175.2077435371785,
      "geoinfo": {
        "display_name": "Nuku, Veitongo, Vahe Vaini, Tongatapu, Tonga",
        "road": null,
        "house_number": null,
        "neighbourhood": null,
        "suburb": null,
        "city_district": null,
        "city": "Veitongo",
        "state": "Tongatapu",
        "postcode": null,
        "country": "Tonga",
        "country_code": "to"
      },
      "address": "016, Nuku‘alofa, 47872 Tongatapu, Tonga"
    },
    {
      "lat": -21.12522585999852,
      "lon": -175.24301286689,
      "geoinfo": {
        "display_name": "Puke, Vahe Kolomotu'a, Tongatapu, Tonga",
        "road": null,
        "house_number": null,
        "neighbourhood": null,
        "suburb": null,
        "city_district": null,
        "city": "Puke",
        "state": "Tongatapu",
        "postcode": null,
        "country": "Tonga",
        "country_code": "to"
      },
      "address": "393, Nuku‘alofa, 67907 Tongatapu, Tonga"
    },
    {
      "lat": -21.119907927815063,
      "lon": -175.24099160406726,
      "geoinfo": {
        "display_name": "Loloa, Vahe Kolomotu'a, Tongatapu, Tonga",
        "road": null,
        "house_number": null,
        "neighbourhood": null,
        "suburb": null,
        "city_district": null,
        "city": null,
        "state": "Tongatapu",
        "postcode": null,
        "country": "Tonga",
        "country_code": "to"
      },
      "address": "591, Nuku‘alofa, 29826 Tongatapu, Tonga"
    },
    {
      "lat": -21.106575866453888,
      "lon": -175.22072833001468,
      "geoinfo": {
        "display_name": "Loloa, Vahe Kolomotu'a, Tongatapu, Tonga",
        "road": null,
        "house_number": null,
        "neighbourhood": null,
        "suburb": null,
        "city_district": null,
        "city": null,
        "state": "Tongatapu",
        "postcode": null,
        "country": "Tonga",
        "country_code": "to"
      },
      "address": "646, Nuku‘alofa, 24710 Tongatapu, Tonga"
    },
    {
      "lat": -21.173981093102732,
      "lon": -175.220584297883,
      "geoinfo": {
        "display_name": "Lotoha'apai, Veitongo, Vahe Vaini, Tongatapu, Tonga",
        "road": null,
        "house_number": null,
        "neighbourhood": null,
        "suburb": null,
        "city_district": null,
        "city": "Veitongo",
        "state": "Tongatapu",
        "postcode": null,
        "country": "Tonga",
        "country_code": "to"
      },
      "address": "108, Nuku‘alofa, 81864 Tongatapu, Tonga"
    },
    {
      "lat": -21.107108156422726,
      "lon": -175.23624409465347,
      "geoinfo": {
        "display_name": "Hala Vuna, Sopu 'o Tāufa'ahāu, Hōfoa, Vahe Kolomotu'a, Tongatapu, Tonga",
        "road": "Hala Vuna",
        "house_number": null,
        "neighbourhood": null,
        "suburb": null,
        "city_district": null,
        "city": "Hōfoa",
        "state": "Tongatapu",
        "postcode": null,
        "country": "Tonga",
        "country_code": "to"
      },
      "address": "508, Hala Vuna, Nuku‘alofa, 88162 Tongatapu, Tonga"
    },
    {
      "lat": -21.122610897053406,
      "lon": -175.1566598167733,
      "geoinfo": {
        "display_name": "Hala Taufa'ahau, Patangata, Tukutonga, Vahe Kolofo'ou, Tongatapu, Tonga",
        "road": "Hala Taufa'ahau",
        "house_number": null,
        "neighbourhood": null,
        "suburb": null,
        "city_district": null,
        "city": "Tukutonga",
        "state": "Tongatapu",
        "postcode": null,
        "country": "Tonga",
        "country_code": "to"
      },
      "address": "105, Hala Taufa'ahau, Nuku‘alofa, 37481 Tongatapu, Tonga"
    },
    {
      "lat": -21.114749632883814,
      "lon": -175.20354129151414,
      "geoinfo": {
        "display_name": "Tongata'eapa, Haveluloto, Vahe Kolomotu'a, Tongatapu, Tonga",
        "road": null,
        "house_number": null,
        "neighbourhood": null,
        "suburb": null,
        "city_district": null,
        "city": "Haveluloto",
        "state": "Tongatapu",
        "postcode": null,
        "country": "Tonga",
        "country_code": "to"
      },
      "address": "415, Nuku‘alofa, 20759 Tongatapu, Tonga"
    },
    {
      "lat": -21.143647938351897,
      "lon": -175.1757646816266,
      "geoinfo": {
        "display_name": "Touliki, Ma'ufanga, Vahe Kolofo'ou, Tongatapu, Tonga",
        "road": null,
        "house_number": null,
        "neighbourhood": null,
        "suburb": null,
        "city_district": null,
        "city": "Ma'ufanga",
        "state": "Tongatapu",
        "postcode": null,
        "country": "Tonga",
        "country_code": "to"
      },
      "address": "093, Nuku‘alofa, 53634 Tongatapu, Tonga"
    },
    {
      "lat": -21.168886860616016,
      "lon": -175.18707440053421,
      "geoinfo": {
        "display_name": "Folaha, Vahe Vaini, Tongatapu, Tonga",
        "road": null,
        "house_number": null,
        "neighbourhood": null,
        "suburb": null,
        "city_district": null,
        "city": "Folaha",
        "state": "Tongatapu",
        "postcode": null,
        "country": "Tonga",
        "country_code": "to"
      },
      "address": "742, Nuku‘alofa, 07722 Tongatapu, Tonga"
    },
    {
      "lat": -21.161989939809718,
      "lon": -175.22301290908885,
      "geoinfo": {
        "display_name": "Koloua, Tofoa, Vahe Kolomotu'a, Tongatapu, Tonga",
        "road": null,
        "house_number": null,
        "neighbourhood": null,
        "suburb": null,
        "city_district": null,
        "city": "Tofoa",
        "state": "Tongatapu",
        "postcode": null,
        "country": "Tonga",
        "country_code": "to"
      },
      "address": "683, Nuku‘alofa, 38749 Tongatapu, Tonga"
    },
    {
      "lat": -21.176084053095433,
      "lon": -175.20102052165547,
      "geoinfo": {
        "display_name": "Nuku, Veitongo, Vahe Vaini, Tongatapu, Tonga",
        "road": null,
        "house_number": null,
        "neighbourhood": null,
        "suburb": null,
        "city_district": null,
        "city": "Veitongo",
        "state": "Tongatapu",
        "postcode": null,
        "country": "Tonga",
        "country_code": "to"
      },
      "address": "698, Nuku‘alofa, 36480 Tongatapu, Tonga"
    },
    {
      "lat": -21.16698006508,
      "lon": -175.20211080132944,
      "geoinfo": {
        "display_name": "Nuku, Veitongo, Vahe Vaini, Tongatapu, Tonga",
        "road": null,
        "house_number": null,
        "neighbourhood": null,
        "suburb": null,
        "city_district": null,
        "city": "Veitongo",
        "state": "Tongatapu",
        "postcode": null,
        "country": "Tonga",
        "country_code": "to"
      },
      "address": "457, Nuku‘alofa, 33659 Tongatapu, Tonga"
    },
    {
      "lat": -21.136190028221748,
      "lon": -175.19125927735558,
      "geoinfo": {
        "display_name": "Hala Vuna, Mapu'afuiva, Fasi mo e afi 'a Tungi, Nuku'alofa, Vahe Kolofo'ou, Tongatapu, Tonga",
        "road": "Hala Vuna",
        "house_number": null,
        "neighbourhood": "Mapu'afuiva",
        "suburb": null,
        "city_district": null,
        "city": "Nuku'alofa",
        "state": "Tongatapu",
        "postcode": null,
        "country": "Tonga",
        "country_code": "to"
      },
      "address": "347, Hala Vuna, Nuku‘alofa, 24448 Tongatapu, Tonga"
    },
    {
      "lat": -21.135235586100062,
      "lon": -175.17840848138792,
      "geoinfo": {
        "display_name": "Queen Salote Wharf, Touliki, Ma'ufanga, Vahe Kolofo'ou, Tongatapu, Tonga",
        "road": null,
        "house_number": null,
        "neighbourhood": null,
        "suburb": null,
        "city_district": null,
        "city": "Ma'ufanga",
        "state": "Tongatapu",
        "postcode": null,
        "country": "Tonga",
        "country_code": "to"
      },
      "address": "032, Nuku‘alofa, 09202 Tongatapu, Tonga"
    },
    {
      "lat": -21.146356709254597,
      "lon": -175.1744987517761,
      "geoinfo": {
        "display_name": "Hala Tutoatasi, Touliki, Ma'ufanga, Vahe Kolofo'ou, Tongatapu, Tonga",
        "road": "Hala Tutoatasi",
        "house_number": null,
        "neighbourhood": null,
        "suburb": null,
        "city_district": null,
        "city": "Ma'ufanga",
        "state": "Tongatapu",
        "postcode": null,
        "country": "Tonga",
        "country_code": "to"
      },
      "address": "812, Hala Tutoatasi, Nuku‘alofa, 17263 Tongatapu, Tonga"
    },
    {
      "lat": -21.1690496858687,
      "lon": -175.23388328830458,
      "geoinfo": {
        "display_name": "'Eva-ki-Kouta Store, Hala Taufa'ahau, 'Atele, Ha'ateiho, 'Ene 'Afio, Vahe Vaini, Tongatapu, Tonga",
        "road": "Hala Taufa'ahau",
        "house_number": null,
        "neighbourhood": null,
        "suburb": null,
        "city_district": null,
        "city": "Ha'ateiho",
        "state": "Tongatapu",
        "postcode": null,
        "country": "Tonga",
        "country_code": "to"
      },
      "address": "633, Hala Taufa'ahau, Nuku‘alofa, 42863 Tongatapu, Tonga"
    },
    {
      "lat": -21.096020502348864,
      "lon": -175.1884401297534,
      "geoinfo": {
        "display_name": "Hala Vuna, Maui, Sopu 'o Tāufa'ahāu, Hōfoa, Vahe Kolomotu'a, Tongatapu, Tonga",
        "road": "Hala Vuna",
        "house_number": null,
        "neighbourhood": "Maui",
        "suburb": null,
        "city_district": null,
        "city": "Hōfoa",
        "state": "Tongatapu",
        "postcode": null,
        "country": "Tonga",
        "country_code": "to"
      },
      "address": "633, Hala Vuna, Nuku‘alofa, 40211 Tongatapu, Tonga"
    },
    {
      "lat": -21.11071605292803,
      "lon": -175.23391285807452,
      "geoinfo": {
        "display_name": "Vahe Kolomotu'a, Tongatapu, Tonga",
        "road": null,
        "house_number": null,
        "neighbourhood": null,
        "suburb": null,
        "city_district": null,
        "city": null,
        "state": "Tongatapu",
        "postcode": null,
        "country": "Tonga",
        "country_code": "to"
      },
      "address": "363, Nuku‘alofa, 49750 Tongatapu, Tonga"
    },
    {
      "lat": -21.139320671908223,
      "lon": -175.17997885650817,
      "geoinfo": {
        "display_name": "Hala Vuna, Mapu'afuiva, Fasi mo e afi 'a Tungi, Nuku'alofa, Vahe Kolofo'ou, Tongatapu, Tonga",
        "road": "Hala Vuna",
        "house_number": null,
        "neighbourhood": "Mapu'afuiva",
        "suburb": null,
        "city_district": null,
        "city": "Nuku'alofa",
        "state": "Tongatapu",
        "postcode": null,
        "country": "Tonga",
        "country_code": "to"
      },
      "address": "419, Hala Vuna, Nuku‘alofa, 55609 Tongatapu, Tonga"
    },
    {
      "lat": -21.159349027909563,
      "lon": -175.1601857792766,
      "geoinfo": {
        "display_name": "Popua, Vahe Kolofo'ou, Tongatapu, Tonga",
        "road": null,
        "house_number": null,
        "neighbourhood": null,
        "suburb": null,
        "city_district": null,
        "city": "Popua",
        "state": "Tongatapu",
        "postcode": null,
        "country": "Tonga",
        "country_code": "to"
      },
      "address": "565, Nuku‘alofa, 94595 Tongatapu, Tonga"
    },
    {
      "lat": -21.16772395512631,
      "lon": -175.213422692675,
      "geoinfo": {
        "display_name": "Nuku, Veitongo, Vahe Vaini, Tongatapu, Tonga",
        "road": null,
        "house_number": null,
        "neighbourhood": null,
        "suburb": null,
        "city_district": null,
        "city": "Veitongo",
        "state": "Tongatapu",
        "postcode": null,
        "country": "Tonga",
        "country_code": "to"
      },
      "address": "781, Nuku‘alofa, 77274 Tongatapu, Tonga"
    },
    {
      "lat": -21.123088788167948,
      "lon": -175.1632582298555,
      "geoinfo": {
        "display_name": "Hala Taufa'ahau, Patangata, Tukutonga, Vahe Kolofo'ou, Tongatapu, Tonga",
        "road": "Hala Taufa'ahau",
        "house_number": null,
        "neighbourhood": null,
        "suburb": null,
        "city_district": null,
        "city": "Tukutonga",
        "state": "Tongatapu",
        "postcode": null,
        "country": "Tonga",
        "country_code": "to"
      },
      "address": "157, Hala Taufa'ahau, Nuku‘alofa, 27226 Tongatapu, Tonga"
    },
    {
      "lat": -21.16405142916035,
      "lon": -175.21040910621284,
      "geoinfo": {
        "display_name": "Veikune, Vahe Vaini, Tongatapu, Tonga",
        "road": null,
        "house_number": null,
        "neighbourhood": null,
        "suburb": null,
        "city_district": null,
        "city": null,
        "state": "Tongatapu",
        "postcode": null,
        "country": "Tonga",
        "country_code": "to"
      },
      "address": "089, Nuku‘alofa, 61444 Tongatapu, Tonga"
    },
    {
      "lat": -21.135397751815084,
      "lon": -175.21624435270198,
      "geoinfo": {
        "display_name": "Hala Tui, Ha'avaka'otua, Hala 'o Vave, Haveluloto, Vahe Kolomotu'a, Tongatapu, Tonga",
        "road": "Hala Tui",
        "house_number": null,
        "neighbourhood": "Ha'avaka'otua",
        "suburb": null,
        "city_district": null,
        "city": "Haveluloto",
        "state": "Tongatapu",
        "postcode": null,
        "country": "Tonga",
        "country_code": "to"
      },
      "address": "273, Hala Tui, Nuku‘alofa, 10034 Tongatapu, Tonga"
    },
    {
      "lat": -21.163286365256468,
      "lon": -175.21161065798975,
      "geoinfo": {
        "display_name": "Veikune, Vahe Vaini, Tongatapu, Tonga",
        "road": null,
        "house_number": null,
        "neighbourhood": null,
        "suburb": null,
        "city_district": null,
        "city": null,
        "state": "Tongatapu",
        "postcode": null,
        "country": "Tonga",
        "country_code": "to"
      },
      "address": "306, Nuku‘alofa, 30438 Tongatapu, Tonga"
    },
    {
      "lat": -21.153972174542048,
      "lon": -175.17298090771573,
      "geoinfo": {
        "display_name": "'Umusī, Popua, Vahe Kolofo'ou, Tongatapu, Tonga",
        "road": null,
        "house_number": null,
        "neighbourhood": null,
        "suburb": null,
        "city_district": null,
        "city": "Popua",
        "state": "Tongatapu",
        "postcode": null,
        "country": "Tonga",
        "country_code": "to"
      },
      "address": "294, Nuku‘alofa, 04885 Tongatapu, Tonga"
    },
    {
      "lat": -21.155369504012935,
      "lon": -175.16198111733098,
      "geoinfo": {
        "display_name": "Popua, Vahe Kolofo'ou, Tongatapu, Tonga",
        "road": null,
        "house_number": null,
        "neighbourhood": null,
        "suburb": null,
        "city_district": null,
        "city": "Popua",
        "state": "Tongatapu",
        "postcode": null,
        "country": "Tonga",
        "country_code": "to"
      },
      "address": "202, Nuku‘alofa, 09559 Tongatapu, Tonga"
    },
    {
      "lat": -21.140031017553518,
      "lon": -175.2002435395104,
      "geoinfo": {
        "display_name": "Hala Mateialona, 'Amaile, Kolofo'ou, Nuku'alofa, Vahe Kolofo'ou, Tongatapu, Tonga",
        "road": "Hala Mateialona",
        "house_number": null,
        "neighbourhood": "'Amaile",
        "suburb": "Kolofo'ou",
        "city_district": null,
        "city": "Nuku'alofa",
        "state": "Tongatapu",
        "postcode": null,
        "country": "Tonga",
        "country_code": "to"
      },
      "address": "726, Hala Mateialona, Nuku‘alofa, 58090 Tongatapu, Tonga"
    },
    {
      "lat": -21.152183281510837,
      "lon": -175.16262221004084,
      "geoinfo": {
        "display_name": "Fangaloto, Popua, Vahe Kolofo'ou, Tongatapu, Tonga",
        "road": null,
        "house_number": null,
        "neighbourhood": null,
        "suburb": null,
        "city_district": null,
        "city": "Popua",
        "state": "Tongatapu",
        "postcode": null,
        "country": "Tonga",
        "country_code": "to"
      },
      "address": "636, Nuku‘alofa, 32915 Tongatapu, Tonga"
    },
    {
      "lat": -21.11852307383833,
      "lon": -175.2175384783709,
      "geoinfo": {
        "display_name": "Loloa, Vahe Kolomotu'a, Tongatapu, Tonga",
        "road": null,
        "house_number": null,
        "neighbourhood": null,
        "suburb": null,
        "city_district": null,
        "city": null,
        "state": "Tongatapu",
        "postcode": null,
        "country": "Tonga",
        "country_code": "to"
      },
      "address": "881, Nuku‘alofa, 39455 Tongatapu, Tonga"
    },
    {
      "lat": -21.15820204288775,
      "lon": -175.22603570648158,
      "geoinfo": {
        "display_name": "Hala Taufa'ahau, 'Api Mataka, Poutaha, Haveluloto, Vahe Kolomotu'a, Tongatapu, Tonga",
        "road": "Hala Taufa'ahau",
        "house_number": null,
        "neighbourhood": "'Api Mataka",
        "suburb": null,
        "city_district": null,
        "city": "Haveluloto",
        "state": "Tongatapu",
        "postcode": null,
        "country": "Tonga",
        "country_code": "to"
      },
      "address": "813, Hala Taufa'ahau, Nuku‘alofa, 48733 Tongatapu, Tonga"
    },
    {
      "lat": -21.1197778162175,
      "lon": -175.2439903240034,
      "geoinfo": {
        "display_name": "Muifonua, Nuku'alofa, Tongatapu, Tonga",
        "road": null,
        "house_number": null,
        "neighbourhood": null,
        "suburb": null,
        "city_district": null,
        "city": "Nuku'alofa",
        "state": "Tongatapu",
        "postcode": null,
        "country": "Tonga",
        "country_code": "to"
      },
      "address": "151, Nuku‘alofa, 44273 Tongatapu, Tonga"
    },
    {
      "lat": -21.176256146553165,
      "lon": -175.20926680213708,
      "geoinfo": {
        "display_name": "Nuku, Veitongo, Vahe Vaini, Tongatapu, Tonga",
        "road": null,
        "house_number": null,
        "neighbourhood": null,
        "suburb": null,
        "city_district": null,
        "city": "Veitongo",
        "state": "Tongatapu",
        "postcode": null,
        "country": "Tonga",
        "country_code": "to"
      },
      "address": "834, Nuku‘alofa, 53592 Tongatapu, Tonga"
    },
    {
      "lat": -21.10095353882388,
      "lon": -175.22483464006643,
      "geoinfo": {
        "display_name": "Loloa, Vahe Kolomotu'a, Tongatapu, Tonga",
        "road": null,
        "house_number": null,
        "neighbourhood": null,
        "suburb": null,
        "city_district": null,
        "city": null,
        "state": "Tongatapu",
        "postcode": null,
        "country": "Tonga",
        "country_code": "to"
      },
      "address": "201, Nuku‘alofa, 88012 Tongatapu, Tonga"
    },
    {
      "lat": -21.13782980800532,
      "lon": -175.19960430311033,
      "geoinfo": {
        "display_name": "Hala Laifone, 'Amaile, Kolofo'ou, Nuku'alofa, Vahe Kolofo'ou, Tongatapu, Tonga",
        "road": "Hala Laifone",
        "house_number": null,
        "neighbourhood": "'Amaile",
        "suburb": "Kolofo'ou",
        "city_district": null,
        "city": "Nuku'alofa",
        "state": "Tongatapu",
        "postcode": null,
        "country": "Tonga",
        "country_code": "to"
      },
      "address": "978, Hala Laifone, Nuku‘alofa, 89772 Tongatapu, Tonga"
    },
    {
      "lat": -21.122164383388725,
      "lon": -175.16089220927253,
      "geoinfo": {
        "display_name": "Hala Taufa'ahau, Patangata, Tukutonga, Vahe Kolofo'ou, Tongatapu, Tonga",
        "road": "Hala Taufa'ahau",
        "house_number": null,
        "neighbourhood": null,
        "suburb": null,
        "city_district": null,
        "city": "Tukutonga",
        "state": "Tongatapu",
        "postcode": null,
        "country": "Tonga",
        "country_code": "to"
      },
      "address": "242, Hala Taufa'ahau, Nuku‘alofa, 00239 Tongatapu, Tonga"
    },
    {
      "lat": -21.157704081159213,
      "lon": -175.20802674255586,
      "geoinfo": {
        "display_name": "Nuku, Veitongo, Vahe Vaini, Tongatapu, Tonga",
        "road": null,
        "house_number": null,
        "neighbourhood": null,
        "suburb": null,
        "city_district": null,
        "city": "Veitongo",
        "state": "Tongatapu",
        "postcode": null,
        "country": "Tonga",
        "country_code": "to"
      },
      "address": "199, Nuku‘alofa, 87213 Tongatapu, Tonga"
    },
    {
      "lat": -21.155804147001092,
      "lon": -175.17041925066917,
      "geoinfo": {
        "display_name": "'Umusī, Popua, Vahe Kolofo'ou, Tongatapu, Tonga",
        "road": null,
        "house_number": null,
        "neighbourhood": null,
        "suburb": null,
        "city_district": null,
        "city": "Popua",
        "state": "Tongatapu",
        "postcode": null,
        "country": "Tonga",
        "country_code": "to"
      },
      "address": "045, Nuku‘alofa, 64382 Tongatapu, Tonga"
    },
    {
      "lat": -21.116031377349085,
      "lon": -175.22990191853864,
      "geoinfo": {
        "display_name": "Vahe Kolomotu'a, Tongatapu, Tonga",
        "road": null,
        "house_number": null,
        "neighbourhood": null,
        "suburb": null,
        "city_district": null,
        "city": null,
        "state": "Tongatapu",
        "postcode": null,
        "country": "Tonga",
        "country_code": "to"
      },
      "address": "723, Nuku‘alofa, 70900 Tongatapu, Tonga"
    },
    {
      "lat": -21.155803321723415,
      "lon": -175.1899905193197,
      "geoinfo": {
        "display_name": "'Alaivahamama'o Bypass, 'Amaile, Halaleva, Nuku'alofa, Vahe Kolofo'ou, Tongatapu, Tonga",
        "road": "'Alaivahamama'o Bypass",
        "house_number": null,
        "neighbourhood": "'Amaile",
        "suburb": null,
        "city_district": null,
        "city": "Nuku'alofa",
        "state": "Tongatapu",
        "postcode": null,
        "country": "Tonga",
        "country_code": "to"
      },
      "address": "700, 'Alaivahamama'o Bypass, Nuku‘alofa, 88252 Tongatapu, Tonga"
    },
    {
      "lat": -21.118449883115414,
      "lon": -175.20030397189728,
      "geoinfo": {
        "display_name": "Hala Vuna, Maui, Sopu 'o Tāufa'ahāu, Hōfoa, Vahe Kolomotu'a, Tongatapu, Tonga",
        "road": "Hala Vuna",
        "house_number": null,
        "neighbourhood": "Maui",
        "suburb": null,
        "city_district": null,
        "city": "Hōfoa",
        "state": "Tongatapu",
        "postcode": null,
        "country": "Tonga",
        "country_code": "to"
      },
      "address": "446, Hala Vuna, Nuku‘alofa, 79732 Tongatapu, Tonga"
    },
    {
      "lat": -21.176264337376676,
      "lon": -175.20403758082324,
      "geoinfo": {
        "display_name": "Nuku, Veitongo, Vahe Vaini, Tongatapu, Tonga",
        "road": null,
        "house_number": null,
        "neighbourhood": null,
        "suburb": null,
        "city_district": null,
        "city": "Veitongo",
        "state": "Tongatapu",
        "postcode": null,
        "country": "Tonga",
        "country_code": "to"
      },
      "address": "127, Nuku‘alofa, 97041 Tongatapu, Tonga"
    },
    {
      "lat": -21.160272154674768,
      "lon": -175.2299907661705,
      "geoinfo": {
        "display_name": "Hala Taufa'ahau, 'Api Mataka, Poutaha, Haveluloto, Vahe Kolomotu'a, Tongatapu, Tonga",
        "road": "Hala Taufa'ahau",
        "house_number": null,
        "neighbourhood": "'Api Mataka",
        "suburb": null,
        "city_district": null,
        "city": "Haveluloto",
        "state": "Tongatapu",
        "postcode": null,
        "country": "Tonga",
        "country_code": "to"
      },
      "address": "730, Hala Taufa'ahau, Nuku‘alofa, 37764 Tongatapu, Tonga"
    },
    {
      "lat": -21.137607256871853,
      "lon": -175.19834975674138,
      "geoinfo": {
        "display_name": "Ministry of Justice, Hala Lavinia, 'Amaile, Kolofo'ou, Nuku'alofa, Vahe Kolofo'ou, Tongatapu, Tonga",
        "road": "Hala Lavinia",
        "house_number": null,
        "neighbourhood": "'Amaile",
        "suburb": "Kolofo'ou",
        "city_district": null,
        "city": "Nuku'alofa",
        "state": "Tongatapu",
        "postcode": null,
        "country": "Tonga",
        "country_code": "to"
      },
      "address": "178, Hala Lavinia, Nuku‘alofa, 70623 Tongatapu, Tonga"
    },
    {
      "lat": -21.10878569367763,
      "lon": -175.2147283645664,
      "geoinfo": {
        "display_name": "Sopu 'o Tāufa'ahāu, Haveluloto, Vahe Kolomotu'a, Tongatapu, Tonga",
        "road": null,
        "house_number": null,
        "neighbourhood": null,
        "suburb": null,
        "city_district": null,
        "city": "Haveluloto",
        "state": "Tongatapu",
        "postcode": null,
        "country": "Tonga",
        "country_code": "to"
      },
      "address": "398, Nuku‘alofa, 33420 Tongatapu, Tonga"
    },
    {
      "lat": -21.16279156373298,
      "lon": -175.19975972552268,
      "geoinfo": {
        "display_name": "Nuku, Veitongo, Vahe Vaini, Tongatapu, Tonga",
        "road": null,
        "house_number": null,
        "neighbourhood": null,
        "suburb": null,
        "city_district": null,
        "city": "Veitongo",
        "state": "Tongatapu",
        "postcode": null,
        "country": "Tonga",
        "country_code": "to"
      },
      "address": "899, Nuku‘alofa, 02701 Tongatapu, Tonga"
    },
    {
      "lat": -21.15209490634416,
      "lon": -175.16038527935987,
      "geoinfo": {
        "display_name": "Popua, Vahe Kolofo'ou, Tongatapu, Tonga",
        "road": null,
        "house_number": null,
        "neighbourhood": null,
        "suburb": null,
        "city_district": null,
        "city": "Popua",
        "state": "Tongatapu",
        "postcode": null,
        "country": "Tonga",
        "country_code": "to"
      },
      "address": "431, Nuku‘alofa, 74529 Tongatapu, Tonga"
    },
    {
      "lat": -21.15134535308229,
      "lon": -175.17650902740073,
      "geoinfo": {
        "display_name": "Small Industries Centre, Nuku'alofa, Vahe Kolofo'ou, Tongatapu, Tonga",
        "road": null,
        "house_number": null,
        "neighbourhood": null,
        "suburb": null,
        "city_district": null,
        "city": "Nuku'alofa",
        "state": "Tongatapu",
        "postcode": null,
        "country": "Tonga",
        "country_code": "to"
      },
      "address": "121, Nuku‘alofa, 91036 Tongatapu, Tonga"
    },
    {
      "lat": -21.115652918978782,
      "lon": -175.17247740059446,
      "geoinfo": {
        "display_name": "Tukutonga, Vahe Kolofo'ou, Tongatapu, Tonga",
        "road": null,
        "house_number": null,
        "neighbourhood": null,
        "suburb": null,
        "city_district": null,
        "city": "Tukutonga",
        "state": "Tongatapu",
        "postcode": null,
        "country": "Tonga",
        "country_code": "to"
      },
      "address": "407, Nuku‘alofa, 42170 Tongatapu, Tonga"
    },
    {
      "lat": -21.127901488236347,
      "lon": -175.1921572465755,
      "geoinfo": {
        "display_name": "Hala Vuna, Mapu'afuiva, Fasi mo e afi 'a Tungi, Nuku'alofa, Vahe Kolofo'ou, Tongatapu, Tonga",
        "road": "Hala Vuna",
        "house_number": null,
        "neighbourhood": "Mapu'afuiva",
        "suburb": null,
        "city_district": null,
        "city": "Nuku'alofa",
        "state": "Tongatapu",
        "postcode": null,
        "country": "Tonga",
        "country_code": "to"
      },
      "address": "725, Hala Vuna, Nuku‘alofa, 20482 Tongatapu, Tonga"
    },
    {
      "lat": -21.110745175670676,
      "lon": -175.22598688076053,
      "geoinfo": {
        "display_name": "Loloa, Vahe Kolomotu'a, Tongatapu, Tonga",
        "road": null,
        "house_number": null,
        "neighbourhood": null,
        "suburb": null,
        "city_district": null,
        "city": null,
        "state": "Tongatapu",
        "postcode": null,
        "country": "Tonga",
        "country_code": "to"
      },
      "address": "937, Nuku‘alofa, 24915 Tongatapu, Tonga"
    },
    {
      "lat": -21.165884813091214,
      "lon": -175.23406195570794,
      "geoinfo": {
        "display_name": "Hala Taufa'ahau, Tu'i mo Hono Fale'alo, Vahe Kolomotu'a, Tongatapu, Tonga",
        "road": "Hala Taufa'ahau",
        "house_number": null,
        "neighbourhood": null,
        "suburb": null,
        "city_district": null,
        "city": null,
        "state": "Tongatapu",
        "postcode": null,
        "country": "Tonga",
        "country_code": "to"
      },
      "address": "277, Hala Taufa'ahau, Nuku‘alofa, 46756 Tongatapu, Tonga"
    },
    {
      "lat": -21.164327935754137,
      "lon": -175.1633463929398,
      "geoinfo": {
        "display_name": "Fetoa, Longoteme, Vahe Vaini, Tongatapu, Tonga",
        "road": null,
        "house_number": null,
        "neighbourhood": null,
        "suburb": null,
        "city_district": null,
        "city": "Longoteme",
        "state": "Tongatapu",
        "postcode": null,
        "country": "Tonga",
        "country_code": "to"
      },
      "address": "917, Nuku‘alofa, 27542 Tongatapu, Tonga"
    },
    {
      "lat": -21.159191691715595,
      "lon": -175.2312004031156,
      "geoinfo": {
        "display_name": "Poutaha, Tofoa, Vahe Kolomotu'a, Tongatapu, Tonga",
        "road": null,
        "house_number": null,
        "neighbourhood": null,
        "suburb": null,
        "city_district": null,
        "city": "Tofoa",
        "state": "Tongatapu",
        "postcode": null,
        "country": "Tonga",
        "country_code": "to"
      },
      "address": "034, Nuku‘alofa, 99281 Tongatapu, Tonga"
    },
    {
      "lat": -21.15775378490357,
      "lon": -175.17219087406488,
      "geoinfo": {
        "display_name": "Luna Rossa, Hala Niuloa, 'Umusī, Nuku'alofa, Vahe Kolofo'ou, Tongatapu, Tonga",
        "road": "Hala Niuloa",
        "house_number": null,
        "neighbourhood": null,
        "suburb": null,
        "city_district": null,
        "city": "Nuku'alofa",
        "state": "Tongatapu",
        "postcode": null,
        "country": "Tonga",
        "country_code": "to"
      },
      "address": "196, Hala Niuloa, Nuku‘alofa, 63614 Tongatapu, Tonga"
    },
    {
      "lat": -21.105019035564375,
      "lon": -175.22963566782107,
      "geoinfo": {
        "display_name": "Loloa, Vahe Kolomotu'a, Tongatapu, Tonga",
        "road": null,
        "house_number": null,
        "neighbourhood": null,
        "suburb": null,
        "city_district": null,
        "city": null,
        "state": "Tongatapu",
        "postcode": null,
        "country": "Tonga",
        "country_code": "to"
      },
      "address": "946, Nuku‘alofa, 24991 Tongatapu, Tonga"
    },
    {
      "lat": -21.123042400842934,
      "lon": -175.229669373389,
      "geoinfo": {
        "display_name": "Hōfoa, Vahe Kolomotu'a, Tongatapu, Tonga",
        "road": null,
        "house_number": null,
        "neighbourhood": null,
        "suburb": null,
        "city_district": null,
        "city": "Hōfoa",
        "state": "Tongatapu",
        "postcode": null,
        "country": "Tonga",
        "country_code": "to"
      },
      "address": "127, Nuku‘alofa, 72181 Tongatapu, Tonga"
    },
    {
      "lat": -21.148899554574637,
      "lon": -175.18186197768492,
      "geoinfo": {
        "display_name": "Small Industries Centre, Ma'ufanga, Vahe Kolofo'ou, Tongatapu, Tonga",
        "road": null,
        "house_number": null,
        "neighbourhood": null,
        "suburb": null,
        "city_district": null,
        "city": "Ma'ufanga",
        "state": "Tongatapu",
        "postcode": null,
        "country": "Tonga",
        "country_code": "to"
      },
      "address": "512, Nuku‘alofa, 00756 Tongatapu, Tonga"
    },
    {
      "lat": -21.150795146530182,
      "lon": -175.22192331155642,
      "geoinfo": {
        "display_name": "Hala Vaha'akolo, Pikipeavela, Koloua, Tofoa, Vahe Kolomotu'a, Tongatapu, Tonga",
        "road": "Hala Vaha'akolo",
        "house_number": null,
        "neighbourhood": "Pikipeavela",
        "suburb": null,
        "city_district": null,
        "city": "Tofoa",
        "state": "Tongatapu",
        "postcode": null,
        "country": "Tonga",
        "country_code": "to"
      },
      "address": "432, Hala Vaha'akolo, Nuku‘alofa, 43136 Tongatapu, Tonga"
    },
    {
      "lat": -21.110453896312695,
      "lon": -175.16991876984846,
      "geoinfo": {
        "display_name": "Tukutonga, Vahe Kolofo'ou, Tongatapu, Tonga",
        "road": null,
        "house_number": null,
        "neighbourhood": null,
        "suburb": null,
        "city_district": null,
        "city": "Tukutonga",
        "state": "Tongatapu",
        "postcode": null,
        "country": "Tonga",
        "country_code": "to"
      },
      "address": "232, Nuku‘alofa, 11755 Tongatapu, Tonga"
    },
    {
      "lat": -21.14348452447119,
      "lon": -175.20647165200128,
      "geoinfo": {
        "display_name": "Hala Taufa'ahau, Teufaiva, Kolofo'ou, Nuku'alofa, Vahe Kolofo'ou, Tongatapu, Tonga",
        "road": "Hala Taufa'ahau",
        "house_number": null,
        "neighbourhood": "Teufaiva",
        "suburb": "Kolofo'ou",
        "city_district": null,
        "city": "Nuku'alofa",
        "state": "Tongatapu",
        "postcode": null,
        "country": "Tonga",
        "country_code": "to"
      },
      "address": "168, Hala Taufa'ahau, Nuku‘alofa, 99782 Tongatapu, Tonga"
    },
    {
      "lat": -21.173876177664525,
      "lon": -175.1805992493537,
      "geoinfo": {
        "display_name": "Folaha, Vahe Vaini, Tongatapu, Tonga",
        "road": null,
        "house_number": null,
        "neighbourhood": null,
        "suburb": null,
        "city_district": null,
        "city": "Folaha",
        "state": "Tongatapu",
        "postcode": null,
        "country": "Tonga",
        "country_code": "to"
      },
      "address": "220, Nuku‘alofa, 25798 Tongatapu, Tonga"
    },
    {
      "lat": -21.14528035430653,
      "lon": -175.18492866285249,
      "geoinfo": {
        "display_name": "Pili, Ma'ufanga, Vahe Kolofo'ou, Tongatapu, Tonga",
        "road": null,
        "house_number": null,
        "neighbourhood": null,
        "suburb": null,
        "city_district": null,
        "city": "Ma'ufanga",
        "state": "Tongatapu",
        "postcode": null,
        "country": "Tonga",
        "country_code": "to"
      },
      "address": "177, Nuku‘alofa, 81553 Tongatapu, Tonga"
    },
    {
      "lat": -21.16325667278392,
      "lon": -175.22093932129926,
      "geoinfo": {
        "display_name": "Koloua, Tofoa, Vahe Kolomotu'a, Tongatapu, Tonga",
        "road": null,
        "house_number": null,
        "neighbourhood": null,
        "suburb": null,
        "city_district": null,
        "city": "Tofoa",
        "state": "Tongatapu",
        "postcode": null,
        "country": "Tonga",
        "country_code": "to"
      },
      "address": "156, Nuku‘alofa, 41873 Tongatapu, Tonga"
    },
    {
      "lat": -21.176309942522973,
      "lon": -175.17866318758615,
      "geoinfo": {
        "display_name": "Tapuhia, Vainī, Vahe Vaini, Tongatapu, Tonga",
        "road": null,
        "house_number": null,
        "neighbourhood": null,
        "suburb": null,
        "city_district": null,
        "city": "Vainī",
        "state": "Tongatapu",
        "postcode": null,
        "country": "Tonga",
        "country_code": "to"
      },
      "address": "989, Nuku‘alofa, 57380 Tongatapu, Tonga"
    },
    {
      "lat": -21.126938879447437,
      "lon": -175.2470547826243,
      "geoinfo": {
        "display_name": "Puke, Vahe Kolomotu'a, Tongatapu, Tonga",
        "road": null,
        "house_number": null,
        "neighbourhood": null,
        "suburb": null,
        "city_district": null,
        "city": "Puke",
        "state": "Tongatapu",
        "postcode": null,
        "country": "Tonga",
        "country_code": "to"
      },
      "address": "685, Nuku‘alofa, 76965 Tongatapu, Tonga"
    }
  ],
  "updated_at": "2025-10-19T06:18:09.080960+00:00",
  "_kind": "geo_samples"
}