{
  "country_code": "TD",
  "country": "Chad",
  "city": "Abéché",
  "geonameid": 245785,
  "target_addresses": 3,
  "samples": [
    {
      "lat": 13.842298007495325,
      "lon": 20.851111545993696,
      "geoinfo": {
        "display_name": "Abeche Airport, avenue Idriss Déby, Abéché, Ouaddaï, Chad",
        "road": "avenue Idriss Déby",
        "house_number": null,
        "neighbourhood": null,
        "suburb": null,
        "city_district": null,
        "city": "Abéché",
        "state": "Ouaddaï",
        "postcode": null,
        "country": "Chad",
        "country_code": "td"
      },
      "address": "avenue Idriss Déby, Abéché, Ouaddaï, Chad"
    },
    {
      "lat": 13.848571419566708,
      "lon": 20.859946006698586,
      "geoinfo": {
        "display_name": "Abéché, Ouaddaï, Chad",
        "road": null,
        "house_number": null,
        "neighbourhood": null,
        "suburb": null,
        "city_district": null,
        "city": "Abéché",
        "state": "Ouaddaï",
        "postcode": null,
        "country": "Chad",
        "country_code": "td"
      },
      "address": "Abéché, Ouaddaï, Chad"
    },
    {
      "lat": 13.84374622238565,
      "lon": 20.807034595404915,
      "geoinfo": {
        "display_name": "Agadoundé, Abéché, Ouaddaï, Chad",
        "road": null,
        "house_number": null,
        "neighbourhood": "Agadoundé",
        "suburb": null,
        "city_district": null,
        "city": "Abéché",
        "state": "Ouaddaï",
        "postcode": null,
        "country": "Chad",
        "country_code": "td"
      },
      "address": "Agadoundé, Abéché, Ouaddaï, Chad"
    },
    {
      "lat": 13.862260365279367,
      "lon": 20.842937915579903,
      "geoinfo": {
        "display_name": "Akar, Abéché, Ouaddaï, Chad",
        "road": null,
        "house_number": null,
        "neighbourhood": null,
        "suburb": null,
        "city_district": null,
        "city": "Abéché",
        "state": "Ouaddaï",
        "postcode": null,
        "country": "Chad",
        "country_code": "td"
      },
      "address": "424, Akar, Abéché, 29648 Ouaddaï, Chad"
    },
    {
      "lat": 13.869893272541782,
      "lon": 20.84236906800814,
      "geoinfo": {
        "display_name": "Akar, Abéché, Ouaddaï, Chad",
        "road": null,
        "house_number": null,
        "neighbourhood": null,
        "suburb": null,
        "city_district": null,
        "city": "Abéché",
        "state": "Ouaddaï",
        "postcode": null,
        "country": "Chad",
        "country_code": "td"
      },
      "address": "912, Akar, Abéché, 23838 Ouaddaï, Chad"
    },
    {
      "lat": 13.856847808859678,
      "lon": 20.803621426921104,
      "geoinfo": {
        "display_name": "Agadoundé, Abéché, Ouaddaï, Chad",
        "road": null,
        "house_number": null,
        "neighbourhood": "Agadoundé",
        "suburb": null,
        "city_district": null,
        "city": "Abéché",
        "state": "Ouaddaï",
        "postcode": null,
        "country": "Chad",
        "country_code": "td"
      },
      "address": "920, Agadoundé, Abéché, 55453 Ouaddaï, Chad"
    }
  ],
  "updated_at": "2025-10-19T07:12:45.157345+00:00",
  "_kind": "geo_samples"
}