{
  "country_code": "TD",
  "country": "Chad",
  "city": "Ati",
  "geonameid": 2436400,
  "target_addresses": 7,
  "samples": [
    {
      "lat": 13.226237903065487,
      "lon": 18.299926969907364,
      "geoinfo": {
        "display_name": "Ab Achta, Ati, Batha, Chad",
        "road": null,
        "house_number": null,
        "neighbourhood": null,
        "suburb": null,
        "city_district": null,
        "city": "Ati",
        "state": "Batha",
        "postcode": null,
        "country": "Chad",
        "country_code": "td"
      },
      "address": "Ati, Batha, Chad"
    },
    {
      "lat": 13.244272597985947,
      "lon": 18.316795728517025,
      "geoinfo": {
        "display_name": "Ati Airport, وسط المدينة, Ati, Batha, Chad",
        "road": "وسط المدينة",
        "house_number": null,
        "neighbourhood": null,
        "suburb": null,
        "city_district": null,
        "city": "Ati",
        "state": "Batha",
        "postcode": null,
        "country": "Chad",
        "country_code": "td"
      },
      "address": "وسط المدينة, Ati, Batha, Chad"
    },
    {
      "lat": 13.245452955547586,
      "lon": 18.363135301059437,
      "geoinfo": {
        "display_name": "Abou Mbarid, Ati, Batha, Chad",
        "road": null,
        "house_number": null,
        "neighbourhood": null,
        "suburb": null,
        "city_district": null,
        "city": "Ati",
        "state": "Batha",
        "postcode": null,
        "country": "Chad",
        "country_code": "td"
      },
      "address": "229, Abou Mbarid, Ati, 87512 Batha, Chad"
    },
    {
      "lat": 13.222480992223316,
      "lon": 18.36363344096653,
      "geoinfo": {
        "display_name": "Korinjoé, Ati, Batha, Chad",
        "road": null,
        "house_number": null,
        "neighbourhood": null,
        "suburb": null,
        "city_district": null,
        "city": "Ati",
        "state": "Batha",
        "postcode": null,
        "country": "Chad",
        "country_code": "td"
      },
      "address": "631, Korinjoé, Ati, 39460 Batha, Chad"
    },
    {
      "lat": 13.219032962769313,
      "lon": 18.37462879137368,
      "geoinfo": {
        "display_name": "Korinjoé, Ati, Batha, Chad",
        "road": null,
        "house_number": null,
        "neighbourhood": null,
        "suburb": null,
        "city_district": null,
        "city": "Ati",
        "state": "Batha",
        "postcode": null,
        "country": "Chad",
        "country_code": "td"
      },
      "address": "870, Korinjoé, Ati, 64200 Batha, Chad"
    },
    {
      "lat": 13.184208613247321,
      "lon": 18.327951272292943,
      "geoinfo": {
        "display_name": "Emté Ragay, Ati, Batha, Chad",
        "road": null,
        "house_number": null,
        "neighbourhood": null,
        "suburb": null,
        "city_district": null,
        "city": "Ati",
        "state": "Batha",
        "postcode": null,
        "country": "Chad",
        "country_code": "td"
      },
      "address": "830, Emté Ragay, Ati, 77258 Batha, Chad"
    },
    {
      "lat": 13.216391786679289,
      "lon": 18.325817671668915,
      "geoinfo": {
        "display_name": "Karkagnan, Ati, Batha, Chad",
        "road": null,
        "house_number": null,
        "neighbourhood": null,
        "suburb": null,
        "city_district": null,
        "city": "Ati",
        "state": "Batha",
        "postcode": null,
        "country": "Chad",
        "country_code": "td"
      },
      "address": "604, Karkagnan, Ati, 86427 Batha, Chad"
    },
    {
      "lat": 13.201021049290157,
      "lon": 18.29672724140022,
      "geoinfo": {
        "display_name": "Daba Asi Féra, Ati, Batha, Chad",
        "road": null,
        "house_number": null,
        "neighbourhood": null,
        "suburb": null,
        "city_district": null,
        "city": "Ati",
        "state": "Batha",
        "postcode": null,
        "country": "Chad",
        "country_code": "td"
      },
      "address": "488, Daba Asi Féra, Ati, 99931 Batha, Chad"
    }
  ],
  "updated_at": "2025-10-19T06:27:23.367323+00:00",
  "_kind": "geo_samples"
}