{
  "country_code": "TD",
  "country": "Chad",
  "city": "Bitkine",
  "geonameid": 2435124,
  "target_addresses": 3,
  "samples": [
    {
      "lat": 12.001328640868438,
      "lon": 18.194771169860736,
      "geoinfo": {
        "display_name": "Bitkine, Guéra, Chad",
        "road": null,
        "house_number": null,
        "neighbourhood": null,
        "suburb": null,
        "city_district": null,
        "city": "Bitkine",
        "state": "Guéra",
        "postcode": null,
        "country": "Chad",
        "country_code": "td"
      },
      "address": "Bitkine, Guéra, Chad"
    },
    {
      "lat": 11.975360774805877,
      "lon": 18.18837181840081,
      "geoinfo": {
        "display_name": "Route Nationale N'Djaména - Bokoro - Mongo, Bitkine, Guéra, Chad",
        "road": "Route Nationale N'Djaména - Bokoro - Mongo",
        "house_number": null,
        "neighbourhood": null,
        "suburb": null,
        "city_district": null,
        "city": "Bitkine",
        "state": "Guéra",
        "postcode": null,
        "country": "Chad",
        "country_code": "td"
      },
      "address": "Route Nationale N'Djaména - Bokoro - Mongo, Bitkine, Guéra, Chad"
    },
    {
      "lat": 11.978066906180784,
      "lon": 18.189965751132462,
      "geoinfo": {
        "display_name": "Route Nationale N'Djaména - Bokoro - Mongo, Fielmé, Bitkine, Guéra, Chad",
        "road": "Route Nationale N'Djaména - Bokoro - Mongo",
        "house_number": null,
        "neighbourhood": null,
        "suburb": null,
        "city_district": null,
        "city": "Bitkine",
        "state": "Guéra",
        "postcode": null,
        "country": "Chad",
        "country_code": "td"
      },
      "address": "871, Route Nationale N'Djaména - Bokoro - Mongo, Fielmé, Bitkine, 33018 Guéra, Chad"
    },
    {
      "lat": 11.986205505648636,
      "lon": 18.240389438475034,
      "geoinfo": {
        "display_name": "Route Nationale N'Djaména - Bokoro - Mongo, Bitkine, Guéra, Chad",
        "road": "Route Nationale N'Djaména - Bokoro - Mongo",
        "house_number": null,
        "neighbourhood": null,
        "suburb": null,
        "city_district": null,
        "city": "Bitkine",
        "state": "Guéra",
        "postcode": null,
        "country": "Chad",
        "country_code": "td"
      },
      "address": "529, Route Nationale N'Djaména - Bokoro - Mongo, Bitkine, 12146 Guéra, Chad"
    },
    {
      "lat": 11.937736520032463,
      "lon": 18.22878914230673,
      "geoinfo": {
        "display_name": "Route Nationale Mongo - Melfi - Sarh, Boukouyou, Banala, Guéra, Chad",
        "road": "Route Nationale Mongo - Melfi - Sarh",
        "house_number": null,
        "neighbourhood": null,
        "suburb": null,
        "city_district": null,
        "city": "Banala",
        "state": "Guéra",
        "postcode": null,
        "country": "Chad",
        "country_code": "td"
      },
      "address": "336, Route Nationale Mongo - Melfi - Sarh, Boukouyou, Banala, 79637 Guéra, Chad"
    }
  ],
  "updated_at": "2025-10-19T05:43:22.722762+00:00",
  "_kind": "geo_samples"
}