{
  "country_code": "TD",
  "country": "Chad",
  "city": "Bokoro",
  "geonameid": 2434985,
  "target_addresses": 3,
  "samples": [
    {
      "lat": 12.337780176664701,
      "lon": 17.04497219386627,
      "geoinfo": {
        "display_name": "Am Réchina, Hadjer-Lamis, Chad",
        "road": null,
        "house_number": null,
        "neighbourhood": null,
        "suburb": null,
        "city_district": null,
        "city": "Am Réchina",
        "state": "Hadjer-Lamis",
        "postcode": null,
        "country": "Chad",
        "country_code": "td"
      },
      "address": "Bokoro, Hadjer-Lamis, Chad"
    },
    {
      "lat": 12.401914351964313,
      "lon": 17.052230108980932,
      "geoinfo": {
        "display_name": "ممر نعناطير, Nganatir, Bokoro, Hadjer-Lamis, Chad",
        "road": "ممر نعناطير",
        "house_number": null,
        "neighbourhood": null,
        "suburb": null,
        "city_district": null,
        "city": "Bokoro",
        "state": "Hadjer-Lamis",
        "postcode": null,
        "country": "Chad",
        "country_code": "td"
      },
      "address": "ممر نعناطير, Bokoro, Hadjer-Lamis, Chad"
    },
    {
      "lat": 12.412574977203775,
      "lon": 17.078736766229028,
      "geoinfo": {
        "display_name": "Chébaya, Bokoro, Hadjer-Lamis, Chad",
        "road": null,
        "house_number": null,
        "neighbourhood": null,
        "suburb": null,
        "city_district": null,
        "city": "Bokoro",
        "state": "Hadjer-Lamis",
        "postcode": null,
        "country": "Chad",
        "country_code": "td"
      },
      "address": "729, Chébaya, Bokoro, 81016 Hadjer-Lamis, Chad"
    },
    {
      "lat": 12.35885314351286,
      "lon": 17.09050300180878,
      "geoinfo": {
        "display_name": "Ndjamena - Bokoro - Mongo National Road, hameau, Arbouchatak, Hadjer-Lamis, Chad",
        "road": "Ndjamena - Bokoro - Mongo National Road",
        "house_number": null,
        "neighbourhood": null,
        "suburb": null,
        "city_district": null,
        "city": "Arbouchatak",
        "state": "Hadjer-Lamis",
        "postcode": null,
        "country": "Chad",
        "country_code": "td"
      },
      "address": "176, Ndjamena - Bokoro - Mongo National Road, hameau, Arbouchatak, 70362 Hadjer-Lamis, Chad"
    },
    {
      "lat": 12.409961143774227,
      "lon": 17.040123862569494,
      "geoinfo": {
        "display_name": "campement, Nganatir, village, Hadjer-Lamis, Chad",
        "road": null,
        "house_number": null,
        "neighbourhood": null,
        "suburb": null,
        "city_district": null,
        "city": "village",
        "state": "Hadjer-Lamis",
        "postcode": null,
        "country": "Chad",
        "country_code": "td"
      },
      "address": "411, Bokoro, 61408 Hadjer-Lamis, Chad"
    }
  ],
  "updated_at": "2025-10-19T07:13:21.833301+00:00",
  "_kind": "geo_samples"
}