{
  "country_code": "TD",
  "country": "Chad",
  "city": "Bongor",
  "geonameid": 2434910,
  "target_addresses": 7,
  "samples": [
    {
      "lat": 10.273854682085995,
      "lon": 15.393604460108204,
      "geoinfo": {
        "display_name": "Lama Lama, Bongor, Mayo-Kebbi Est, Chad",
        "road": null,
        "house_number": null,
        "neighbourhood": null,
        "suburb": null,
        "city_district": null,
        "city": "Bongor",
        "state": "Mayo-Kebbi Est",
        "postcode": null,
        "country": "Chad",
        "country_code": "td"
      },
      "address": "Bongor, Mayo-Kebbi Est, Chad"
    },
    {
      "lat": 10.2868506186829,
      "lon": 15.353736291883491,
      "geoinfo": {
        "display_name": "Kelo - Djuman - Bongor, Bongor, Mayo-Kebbi Est, Chad",
        "road": "Kelo - Djuman - Bongor",
        "house_number": null,
        "neighbourhood": null,
        "suburb": null,
        "city_district": null,
        "city": "Bongor",
        "state": "Mayo-Kebbi Est",
        "postcode": null,
        "country": "Chad",
        "country_code": "td"
      },
      "address": "Kelo - Djuman - Bongor, Bongor, Mayo-Kebbi Est, Chad"
    },
    {
      "lat": 10.261863772526494,
      "lon": 15.375793481662106,
      "geoinfo": {
        "display_name": "Ã‰cole normale d'instituteurs, Kelo - Djuman - Bongor, Bongor, Mayo-Kebbi Est, Chad",
        "road": "Kelo - Djuman - Bongor",
        "house_number": null,
        "neighbourhood": null,
        "suburb": null,
        "city_district": null,
        "city": "Bongor",
        "state": "Mayo-Kebbi Est",
        "postcode": null,
        "country": "Chad",
        "country_code": "td"
      },
      "address": "742, Kelo - Djuman - Bongor, Bongor, 93621 Mayo-Kebbi Est, Chad"
    },
    {
      "lat": 10.287214538253153,
      "lon": 15.40265584517505,
      "geoinfo": {
        "display_name": "Bongor, Mayo-Kebbi Est, Chad",
        "road": null,
        "house_number": null,
        "neighbourhood": null,
        "suburb": null,
        "city_district": null,
        "city": "Bongor",
        "state": "Mayo-Kebbi Est",
        "postcode": null,
        "country": "Chad",
        "country_code": "td"
      },
      "address": "812, Bongor, 77108 Mayo-Kebbi Est, Chad"
    },
    {
      "lat": 10.310072246185813,
      "lon": 15.37559517181533,
      "geoinfo": {
        "display_name": "Bongor, Mayo-Kebbi Est, Chad",
        "road": null,
        "house_number": null,
        "neighbourhood": null,
        "suburb": null,
        "city_district": null,
        "city": "Bongor",
        "state": "Mayo-Kebbi Est",
        "postcode": null,
        "country": "Chad",
        "country_code": "td"
      },
      "address": "297, Bongor, 75231 Mayo-Kebbi Est, Chad"
    },
    {
      "lat": 10.297137106324863,
      "lon": 15.340805508027596,
      "geoinfo": {
        "display_name": "Bongor, Mayo-Kebbi Est, Chad",
        "road": null,
        "house_number": null,
        "neighbourhood": null,
        "suburb": null,
        "city_district": null,
        "city": "Bongor",
        "state": "Mayo-Kebbi Est",
        "postcode": null,
        "country": "Chad",
        "country_code": "td"
      },
      "address": "394, Bongor, 60684 Mayo-Kebbi Est, Chad"
    },
    {
      "lat": 10.276052453100004,
      "lon": 15.366152853712883,
      "geoinfo": {
        "display_name": "Kelo - Djuman - Bongor, Bongor, Mayo-Kebbi Est, Chad",
        "road": "Kelo - Djuman - Bongor",
        "house_number": null,
        "neighbourhood": null,
        "suburb": null,
        "city_district": null,
        "city": "Bongor",
        "state": "Mayo-Kebbi Est",
        "postcode": null,
        "country": "Chad",
        "country_code": "td"
      },
      "address": "531, Kelo - Djuman - Bongor, Bongor, 28874 Mayo-Kebbi Est, Chad"
    }
  ],
  "updated_at": "2025-10-19T06:27:18.968588+00:00",
  "_kind": "geo_samples"
}