{
  "country_code": "TD",
  "country": "Chad",
  "city": "Léré",
  "geonameid": 2429158,
  "target_addresses": 3,
  "samples": [
    {
      "lat": 9.64139927578917,
      "lon": 14.172657737958156,
      "geoinfo": {
        "display_name": "Fouli, Mayo-Kebbi Ouest, Chad",
        "road": null,
        "house_number": null,
        "neighbourhood": null,
        "suburb": null,
        "city_district": null,
        "city": "Fouli",
        "state": "Mayo-Kebbi Ouest",
        "postcode": null,
        "country": "Chad",
        "country_code": "td"
      },
      "address": "Léré, Mayo-Kebbi Ouest, Chad"
    },
    {
      "lat": 9.653877933746127,
      "lon": 14.170605374252588,
      "geoinfo": {
        "display_name": "Loumbouri, Fouli, Mayo-Kebbi Ouest, Chad",
        "road": null,
        "house_number": null,
        "neighbourhood": null,
        "suburb": null,
        "city_district": null,
        "city": "Fouli",
        "state": "Mayo-Kebbi Ouest",
        "postcode": null,
        "country": "Chad",
        "country_code": "td"
      },
      "address": "289, Léré, 55024 Mayo-Kebbi Ouest, Chad"
    },
    {
      "lat": 9.635037402588523,
      "lon": 14.23428285488598,
      "geoinfo": {
        "display_name": "Léré, Mayo-Kebbi Ouest, Chad",
        "road": null,
        "house_number": null,
        "neighbourhood": null,
        "suburb": null,
        "city_district": null,
        "city": "Léré",
        "state": "Mayo-Kebbi Ouest",
        "postcode": null,
        "country": "Chad",
        "country_code": "td"
      },
      "address": "311, Léré, 88536 Mayo-Kebbi Ouest, Chad"
    },
    {
      "lat": 9.619738614970528,
      "lon": 14.251442861800596,
      "geoinfo": {
        "display_name": "Gelo, Mayo-Kebbi Ouest, Chad",
        "road": null,
        "house_number": null,
        "neighbourhood": null,
        "suburb": null,
        "city_district": null,
        "city": "Gelo",
        "state": "Mayo-Kebbi Ouest",
        "postcode": null,
        "country": "Chad",
        "country_code": "td"
      },
      "address": "575, Léré, 73034 Mayo-Kebbi Ouest, Chad"
    }
  ],
  "updated_at": "2025-10-19T06:45:19.576247+00:00",
  "_kind": "geo_samples"
}