{
  "country_code": "TD",
  "country": "Chad",
  "city": "Mandelia",
  "geonameid": 2428480,
  "target_addresses": 7,
  "samples": [
    {
      "lat": 11.72461860106666,
      "lon": 15.2120117327085,
      "geoinfo": {
        "display_name": "Bague, Mandelia, Chari-Baguirmi, Chad",
        "road": null,
        "house_number": null,
        "neighbourhood": null,
        "suburb": null,
        "city_district": null,
        "city": "Mandelia",
        "state": "Chari-Baguirmi",
        "postcode": null,
        "country": "Chad",
        "country_code": "td"
      },
      "address": "Mandelia, Chari-Baguirmi, Chad"
    },
    {
      "lat": 11.706548546825717,
      "lon": 15.259699809909058,
      "geoinfo": {
        "display_name": "Ndjamena - Sarh/Bongor National Road, Siguet, Mandelia, Chari-Baguirmi, Chad",
        "road": "Ndjamena - Sarh/Bongor National Road",
        "house_number": null,
        "neighbourhood": null,
        "suburb": null,
        "city_district": null,
        "city": "Mandelia",
        "state": "Chari-Baguirmi",
        "postcode": null,
        "country": "Chad",
        "country_code": "td"
      },
      "address": "Ndjamena - Sarh/Bongor National Road, Mandelia, Chari-Baguirmi, Chad"
    },
    {
      "lat": 11.746093880067441,
      "lon": 15.212769947497282,
      "geoinfo": {
        "display_name": "Goutre, Mandelia, Chari-Baguirmi, Chad",
        "road": null,
        "house_number": null,
        "neighbourhood": null,
        "suburb": null,
        "city_district": null,
        "city": "Mandelia",
        "state": "Chari-Baguirmi",
        "postcode": null,
        "country": "Chad",
        "country_code": "td"
      },
      "address": "287, Goutre, Mandelia, 36670 Chari-Baguirmi, Chad"
    },
    {
      "lat": 11.752516394709827,
      "lon": 15.241262212588074,
      "geoinfo": {
        "display_name": "Ndjamena - Sarh/Bongor National Road, Siguet, Mandelia, Chari-Baguirmi, Chad",
        "road": "Ndjamena - Sarh/Bongor National Road",
        "house_number": null,
        "neighbourhood": null,
        "suburb": null,
        "city_district": null,
        "city": "Mandelia",
        "state": "Chari-Baguirmi",
        "postcode": null,
        "country": "Chad",
        "country_code": "td"
      },
      "address": "937, Ndjamena - Sarh/Bongor National Road, Siguet, Mandelia, 10975 Chari-Baguirmi, Chad"
    },
    {
      "lat": 11.728539568231307,
      "lon": 15.251032095288414,
      "geoinfo": {
        "display_name": "Djamena, Mandelia, Chari-Baguirmi, Chad",
        "road": null,
        "house_number": null,
        "neighbourhood": null,
        "suburb": null,
        "city_district": null,
        "city": "Mandelia",
        "state": "Chari-Baguirmi",
        "postcode": null,
        "country": "Chad",
        "country_code": "td"
      },
      "address": "751, Djamena, Mandelia, 34214 Chari-Baguirmi, Chad"
    },
    {
      "lat": 11.72014354211666,
      "lon": 15.21611443025317,
      "geoinfo": {
        "display_name": "Domo, Mandelia, Chari-Baguirmi, Chad",
        "road": null,
        "house_number": null,
        "neighbourhood": null,
        "suburb": null,
        "city_district": null,
        "city": "Mandelia",
        "state": "Chari-Baguirmi",
        "postcode": null,
        "country": "Chad",
        "country_code": "td"
      },
      "address": "035, Domo, Mandelia, 67789 Chari-Baguirmi, Chad"
    },
    {
      "lat": 11.766209840275698,
      "lon": 15.242375454129728,
      "geoinfo": {
        "display_name": "Maïdougouri, Mandelia, Chari-Baguirmi, Chad",
        "road": null,
        "house_number": null,
        "neighbourhood": null,
        "suburb": null,
        "city_district": null,
        "city": "Mandelia",
        "state": "Chari-Baguirmi",
        "postcode": null,
        "country": "Chad",
        "country_code": "td"
      },
      "address": "452, Maïdougouri, Mandelia, 84492 Chari-Baguirmi, Chad"
    }
  ],
  "updated_at": "2025-10-19T06:27:16.759239+00:00",
  "_kind": "geo_samples"
}