{
  "country_code": "TD",
  "country": "Chad",
  "city": "Massakory",
  "geonameid": 2428228,
  "target_addresses": 3,
  "samples": [
    {
      "lat": 12.961949750349298,
      "lon": 15.709464495079542,
      "geoinfo": {
        "display_name": "Route nationale N'Djaména - Massakory - Faya-Largeau, hameau, Massaguet, Hadjer-Lamis, Chad",
        "road": "Route nationale N'Djaména - Massakory - Faya-Largeau",
        "house_number": null,
        "neighbourhood": null,
        "suburb": null,
        "city_district": null,
        "city": "Massaguet",
        "state": "Hadjer-Lamis",
        "postcode": null,
        "country": "Chad",
        "country_code": "td"
      },
      "address": "Route nationale N'Djaména - Massakory - Faya-Largeau, Massakory, Hadjer-Lamis, Chad"
    },
    {
      "lat": 13.010160858513206,
      "lon": 15.723285771188408,
      "geoinfo": {
        "display_name": "Massakory, Hadjer-Lamis, Chad",
        "road": null,
        "house_number": null,
        "neighbourhood": null,
        "suburb": null,
        "city_district": null,
        "city": "Massakory",
        "state": "Hadjer-Lamis",
        "postcode": null,
        "country": "Chad",
        "country_code": "td"
      },
      "address": "Massakory, Hadjer-Lamis, Chad"
    },
    {
      "lat": 12.99679541312576,
      "lon": 15.774066914336627,
      "geoinfo": {
        "display_name": "Chabakari, Massakory, Hadjer-Lamis, Chad",
        "road": null,
        "house_number": null,
        "neighbourhood": null,
        "suburb": null,
        "city_district": null,
        "city": "Massakory",
        "state": "Hadjer-Lamis",
        "postcode": null,
        "country": "Chad",
        "country_code": "td"
      },
      "address": "387, Chabakari, Massakory, 37459 Hadjer-Lamis, Chad"
    },
    {
      "lat": 12.968010066191006,
      "lon": 15.756739357074759,
      "geoinfo": {
        "display_name": "Gazouz, Massakory, Hadjer-Lamis, Chad",
        "road": null,
        "house_number": null,
        "neighbourhood": null,
        "suburb": null,
        "city_district": null,
        "city": "Massakory",
        "state": "Hadjer-Lamis",
        "postcode": null,
        "country": "Chad",
        "country_code": "td"
      },
      "address": "834, Gazouz, Massakory, 98607 Hadjer-Lamis, Chad"
    },
    {
      "lat": 12.968457518949005,
      "lon": 15.737132031262318,
      "geoinfo": {
        "display_name": "Ferme de Massakory, Massakory, Hadjer-Lamis, Chad",
        "road": null,
        "house_number": null,
        "neighbourhood": null,
        "suburb": null,
        "city_district": null,
        "city": "Massakory",
        "state": "Hadjer-Lamis",
        "postcode": null,
        "country": "Chad",
        "country_code": "td"
      },
      "address": "561, Ferme de Massakory, Massakory, 52929 Hadjer-Lamis, Chad"
    }
  ],
  "updated_at": "2025-10-19T06:45:11.139517+00:00",
  "_kind": "geo_samples"
}