{
  "country_code": "TD",
  "country": "Chad",
  "city": "Mongo",
  "geonameid": 2427637,
  "target_addresses": 3,
  "samples": [
    {
      "lat": 12.2108671583608,
      "lon": 18.685560911112688,
      "geoinfo": {
        "display_name": "Mongo - Ati National Road, Abréch, Banda, Guéra, Chad",
        "road": "Mongo - Ati National Road",
        "house_number": null,
        "neighbourhood": null,
        "suburb": null,
        "city_district": null,
        "city": "Banda",
        "state": "Guéra",
        "postcode": null,
        "country": "Chad",
        "country_code": "td"
      },
      "address": "Mongo - Ati National Road, Mongo, Guéra, Chad"
    },
    {
      "lat": 12.179607260359816,
      "lon": 18.699657121505354,
      "geoinfo": {
        "display_name": "Mongo, Guéra, Chad",
        "road": null,
        "house_number": null,
        "neighbourhood": null,
        "suburb": null,
        "city_district": null,
        "city": "Mongo",
        "state": "Guéra",
        "postcode": null,
        "country": "Chad",
        "country_code": "td"
      },
      "address": "Mongo, Guéra, Chad"
    },
    {
      "lat": 12.18003137064747,
      "lon": 18.724899869655076,
      "geoinfo": {
        "display_name": "طريق إقليمي مونقو-مانكالمي, Oyo, Doguiti, Guéra, Chad",
        "road": "طريق إقليمي مونقو-مانكالمي",
        "house_number": null,
        "neighbourhood": null,
        "suburb": null,
        "city_district": null,
        "city": "Doguiti",
        "state": "Guéra",
        "postcode": null,
        "country": "Chad",
        "country_code": "td"
      },
      "address": "طريق إقليمي مونقو-مانكالمي, Mongo, Guéra, Chad"
    },
    {
      "lat": 12.216059393821574,
      "lon": 18.665575638848644,
      "geoinfo": {
        "display_name": "Mongo - Ati National Road, Abréch, Banda, Guéra, Chad",
        "road": "Mongo - Ati National Road",
        "house_number": null,
        "neighbourhood": null,
        "suburb": null,
        "city_district": null,
        "city": "Banda",
        "state": "Guéra",
        "postcode": null,
        "country": "Chad",
        "country_code": "td"
      },
      "address": "171, Mongo - Ati National Road, Abréch, Banda, 66883 Guéra, Chad"
    },
    {
      "lat": 12.176994978101359,
      "lon": 18.7082470286815,
      "geoinfo": {
        "display_name": "hameau, Mongo, Guéra, Chad",
        "road": null,
        "house_number": null,
        "neighbourhood": null,
        "suburb": null,
        "city_district": null,
        "city": "Mongo",
        "state": "Guéra",
        "postcode": null,
        "country": "Chad",
        "country_code": "td"
      },
      "address": "182, hameau, Mongo, 73846 Guéra, Chad"
    },
    {
      "lat": 12.15084480995217,
      "lon": 18.70708403035684,
      "geoinfo": {
        "display_name": "Mongo - Abu Deia - Am Timan National Road, hameau, Mongo, Guéra, Chad",
        "road": "Mongo - Abu Deia - Am Timan National Road",
        "house_number": null,
        "neighbourhood": null,
        "suburb": null,
        "city_district": null,
        "city": "Mongo",
        "state": "Guéra",
        "postcode": null,
        "country": "Chad",
        "country_code": "td"
      },
      "address": "927, Mongo - Abu Deia - Am Timan National Road, hameau, Mongo, 58025 Guéra, Chad"
    }
  ],
  "updated_at": "2025-10-19T10:11:47.451841+00:00",
  "_kind": "geo_samples"
}