{
  "country_code": "TD",
  "country": "Chad",
  "city": "Moundou",
  "geonameid": 2427455,
  "target_addresses": 3,
  "samples": [
    {
      "lat": 8.563513084181723,
      "lon": 16.056089168416882,
      "geoinfo": {
        "display_name": "Moundou, Logone Occidental, Chad",
        "road": null,
        "house_number": null,
        "neighbourhood": null,
        "suburb": null,
        "city_district": null,
        "city": "Moundou",
        "state": "Logone Occidental",
        "postcode": null,
        "country": "Chad",
        "country_code": "td"
      },
      "address": "Moundou, Logone Occidental, Chad"
    },
    {
      "lat": 8.570181679642175,
      "lon": 16.110752322138556,
      "geoinfo": {
        "display_name": "Makene 1, Logone Oriental, Chad",
        "road": null,
        "house_number": null,
        "neighbourhood": null,
        "suburb": null,
        "city_district": null,
        "city": "Makene 1",
        "state": "Logone Oriental",
        "postcode": null,
        "country": "Chad",
        "country_code": "td"
      },
      "address": "Moundou, Logone Oriental, Chad"
    },
    {
      "lat": 8.589872211360422,
      "lon": 16.10920065383442,
      "geoinfo": {
        "display_name": "15 Ans 2, Logone Occidental, Chad",
        "road": null,
        "house_number": null,
        "neighbourhood": null,
        "suburb": null,
        "city_district": null,
        "city": "15 Ans 2",
        "state": "Logone Occidental",
        "postcode": null,
        "country": "Chad",
        "country_code": "td"
      },
      "address": "669, Moundou, 48320 Logone Occidental, Chad"
    },
    {
      "lat": 8.612760379103776,
      "lon": 16.0565839039474,
      "geoinfo": {
        "display_name": "Koutou Dohol, Logone Occidental, Chad",
        "road": null,
        "house_number": null,
        "neighbourhood": null,
        "suburb": null,
        "city_district": null,
        "city": "Koutou Dohol",
        "state": "Logone Occidental",
        "postcode": null,
        "country": "Chad",
        "country_code": "td"
      },
      "address": "846, Moundou, 08839 Logone Occidental, Chad"
    },
    {
      "lat": 8.60379651837911,
      "lon": 16.06902834088687,
      "geoinfo": {
        "display_name": "Avenue Tombalbaye, Koutou - Bebo, Logone Occidental, Chad",
        "road": "Avenue Tombalbaye",
        "house_number": null,
        "neighbourhood": null,
        "suburb": null,
        "city_district": null,
        "city": "Koutou - Bebo",
        "state": "Logone Occidental",
        "postcode": null,
        "country": "Chad",
        "country_code": "td"
      },
      "address": "285, Avenue Tombalbaye, Koutou - Bebo, 82981 Logone Occidental, Chad"
    }
  ],
  "updated_at": "2025-10-19T07:12:54.243188+00:00",
  "_kind": "geo_samples"
}