{
  "country_code": "TD",
  "country": "Chad",
  "city": "Pala",
  "geonameid": 2426240,
  "target_addresses": 7,
  "samples": [
    {
      "lat": 9.354956864040759,
      "lon": 14.896284536441119,
      "geoinfo": {
        "display_name": "Pala, Mayo-Kebbi Ouest, Chad",
        "road": null,
        "house_number": null,
        "neighbourhood": null,
        "suburb": null,
        "city_district": null,
        "city": "Pala",
        "state": "Mayo-Kebbi Ouest",
        "postcode": null,
        "country": "Chad",
        "country_code": "td"
      },
      "address": "Pala, Mayo-Kebbi Ouest, Chad"
    },
    {
      "lat": 9.35901027334568,
      "lon": 14.90966217100408,
      "geoinfo": {
        "display_name": "Pala, Mayo-Kebbi Ouest, Chad",
        "road": null,
        "house_number": null,
        "neighbourhood": null,
        "suburb": null,
        "city_district": null,
        "city": "Pala",
        "state": "Mayo-Kebbi Ouest",
        "postcode": null,
        "country": "Chad",
        "country_code": "td"
      },
      "address": "007, Pala, 07558 Mayo-Kebbi Ouest, Chad"
    },
    {
      "lat": 9.374033897751259,
      "lon": 14.901184407667513,
      "geoinfo": {
        "display_name": "Pala, Mayo-Kebbi Ouest, Chad",
        "road": null,
        "house_number": null,
        "neighbourhood": null,
        "suburb": null,
        "city_district": null,
        "city": "Pala",
        "state": "Mayo-Kebbi Ouest",
        "postcode": null,
        "country": "Chad",
        "country_code": "td"
      },
      "address": "365, Pala, 29856 Mayo-Kebbi Ouest, Chad"
    },
    {
      "lat": 9.386873926199836,
      "lon": 14.875052216831355,
      "geoinfo": {
        "display_name": "Endé, Mayo-Kebbi Ouest, Chad",
        "road": null,
        "house_number": null,
        "neighbourhood": null,
        "suburb": null,
        "city_district": null,
        "city": "Endé",
        "state": "Mayo-Kebbi Ouest",
        "postcode": null,
        "country": "Chad",
        "country_code": "td"
      },
      "address": "741, Pala, 23804 Mayo-Kebbi Ouest, Chad"
    },
    {
      "lat": 9.363940810103868,
      "lon": 14.89074633171297,
      "geoinfo": {
        "display_name": "Pala, Pala Oua, Pala, Mayo-Kebbi Ouest, Chad",
        "road": null,
        "house_number": null,
        "neighbourhood": null,
        "suburb": null,
        "city_district": null,
        "city": "Pala",
        "state": "Mayo-Kebbi Ouest",
        "postcode": null,
        "country": "Chad",
        "country_code": "td"
      },
      "address": "977, Pala, 72493 Mayo-Kebbi Ouest, Chad"
    },
    {
      "lat": 9.379380545092925,
      "lon": 14.935117938426187,
      "geoinfo": {
        "display_name": "Sodjé Mbay, Mayo-Kebbi Ouest, Chad",
        "road": null,
        "house_number": null,
        "neighbourhood": null,
        "suburb": null,
        "city_district": null,
        "city": "Sodjé Mbay",
        "state": "Mayo-Kebbi Ouest",
        "postcode": null,
        "country": "Chad",
        "country_code": "td"
      },
      "address": "508, Pala, 01622 Mayo-Kebbi Ouest, Chad"
    },
    {
      "lat": 9.362345047890651,
      "lon": 14.947490490891743,
      "geoinfo": {
        "display_name": "Pala, Mayo-Kebbi Ouest, Chad",
        "road": null,
        "house_number": null,
        "neighbourhood": null,
        "suburb": null,
        "city_district": null,
        "city": "Pala",
        "state": "Mayo-Kebbi Ouest",
        "postcode": null,
        "country": "Chad",
        "country_code": "td"
      },
      "address": "785, Pala, 59453 Mayo-Kebbi Ouest, Chad"
    }
  ],
  "updated_at": "2025-10-19T06:26:53.382457+00:00",
  "_kind": "geo_samples"
}