{
  "country_code": "NZ",
  "country": "New Zealand",
  "city": "Karori",
  "geonameid": 2189028,
  "target_addresses": 2,
  "samples": [
    {
      "lat": -41.303972063106684,
      "lon": 174.71184940777468,
      "geoinfo": {
        "display_name": "265, South Karori Road, Wellington, Wellington City, Wellington, 6012, New Zealand",
        "road": "South Karori Road",
        "house_number": "265",
        "neighbourhood": null,
        "suburb": null,
        "city_district": null,
        "city": "Wellington",
        "state": "Wellington",
        "postcode": "6012",
        "country": "New Zealand",
        "country_code": "nz"
      },
      "address": "265 South Karori Road, Karori, Wellington, New Zealand"
    },
    {
      "lat": -41.24992374655321,
      "lon": 174.74998806244338,
      "geoinfo": {
        "display_name": "Skyline Walkway, Crofton Downs, Wellington, Wellington City, Wellington, 6012, New Zealand",
        "road": "Skyline Walkway",
        "house_number": null,
        "neighbourhood": null,
        "suburb": "Crofton Downs",
        "city_district": null,
        "city": "Wellington",
        "state": "Wellington",
        "postcode": "6012",
        "country": "New Zealand",
        "country_code": "nz"
      },
      "address": "Skyline Walkway, Karori, Wellington, New Zealand"
    },
    {
      "lat": -41.279808435606,
      "lon": 174.75758259502166,
      "geoinfo": {
        "display_name": "11, West Road, Northland, Wellington City, Wellington, 6012, New Zealand",
        "road": "West Road",
        "house_number": "11",
        "neighbourhood": null,
        "suburb": "Northland",
        "city_district": null,
        "city": null,
        "state": "Wellington",
        "postcode": "6012",
        "country": "New Zealand",
        "country_code": "nz"
      },
      "address": "11, West Road, Northland, Wellington City, Wellington, 6012, New Zealand"
    },
    {
      "lat": -41.276544411324906,
      "lon": 174.74297633876827,
      "geoinfo": {
        "display_name": "Hauraki Street Track, Karori, Wellington City, Wellington, 6012, New Zealand",
        "road": "Hauraki Street Track",
        "house_number": null,
        "neighbourhood": null,
        "suburb": "Karori",
        "city_district": null,
        "city": null,
        "state": "Wellington",
        "postcode": "6012",
        "country": "New Zealand",
        "country_code": "nz"
      },
      "address": "359, Hauraki Street Track, Karori, Wellington City, Wellington, 6012, New Zealand"
    }
  ],
  "updated_at": "2025-10-19T06:02:07.630310+00:00",
  "_kind": "geo_samples"
}