{
  "country_code": "NZ",
  "country": "New Zealand",
  "city": "Mangere",
  "geonameid": 2187454,
  "target_addresses": 2,
  "samples": [
    {
      "lat": -36.95927378595914,
      "lon": 174.77010203143857,
      "geoinfo": {
        "display_name": "Lost gardens walk, Māngere Bridge, Māngere-Ōtāhuhu, Auckland, 2151, New Zealand",
        "road": "Lost gardens walk",
        "house_number": null,
        "neighbourhood": null,
        "suburb": "Māngere Bridge",
        "city_district": null,
        "city": "Māngere-Ōtāhuhu",
        "state": "Auckland",
        "postcode": "2151",
        "country": "New Zealand",
        "country_code": "nz"
      },
      "address": "Lost gardens walk, Mangere, Auckland, New Zealand"
    },
    {
      "lat": -36.943142075311115,
      "lon": 174.75465580056093,
      "geoinfo": {
        "display_name": "Ambury Foreshore Walk, Māngere-Ōtāhuhu, Auckland, 2151, New Zealand",
        "road": "Ambury Foreshore Walk",
        "house_number": null,
        "neighbourhood": null,
        "suburb": null,
        "city_district": null,
        "city": "Māngere-Ōtāhuhu",
        "state": "Auckland",
        "postcode": "2151",
        "country": "New Zealand",
        "country_code": "nz"
      },
      "address": "Ambury Foreshore Walk, Mangere, Auckland, New Zealand"
    },
    {
      "lat": -36.982120844151254,
      "lon": 174.8217906224554,
      "geoinfo": {
        "display_name": "KahaKaha Lane, Māngere-Ōtāhuhu, Auckland, 2155, New Zealand",
        "road": "KahaKaha Lane",
        "house_number": null,
        "neighbourhood": null,
        "suburb": null,
        "city_district": null,
        "city": "Māngere-Ōtāhuhu",
        "state": "Auckland",
        "postcode": "2155",
        "country": "New Zealand",
        "country_code": "nz"
      },
      "address": "277, KahaKaha Lane, Māngere-Ōtāhuhu, Auckland, 2155, New Zealand"
    },
    {
      "lat": -36.948777292082966,
      "lon": 174.84695773154027,
      "geoinfo": {
        "display_name": "7, Tamaki Avenue, Ōtāhuhu, Māngere-Ōtāhuhu, Auckland, 1063, New Zealand",
        "road": "Tamaki Avenue",
        "house_number": "7",
        "neighbourhood": null,
        "suburb": "Ōtāhuhu",
        "city_district": null,
        "city": "Māngere-Ōtāhuhu",
        "state": "Auckland",
        "postcode": "1063",
        "country": "New Zealand",
        "country_code": "nz"
      },
      "address": "7, Tamaki Avenue, Ōtāhuhu, Māngere-Ōtāhuhu, Auckland, 1063, New Zealand"
    }
  ],
  "updated_at": "2025-10-19T04:56:48.206710+00:00",
  "_kind": "geo_samples"
}