{
  "country_code": "NZ",
  "country": "New Zealand",
  "city": "Massey",
  "geonameid": 6232390,
  "target_addresses": 9,
  "samples": [
    {
      "lat": -36.822043383592685,
      "lon": 174.61188943662066,
      "geoinfo": {
        "display_name": "The Warehouse, Fernhill Drive, Westwood Gardens, West Hills, Westgate, Henderson-Massey, Auckland, 0814, New Zealand",
        "road": "Fernhill Drive",
        "house_number": null,
        "neighbourhood": "Westwood Gardens",
        "suburb": "Westgate",
        "city_district": null,
        "city": "Henderson-Massey",
        "state": "Auckland",
        "postcode": "0814",
        "country": "New Zealand",
        "country_code": "nz"
      },
      "address": "Fernhill Drive, Massey, Auckland, New Zealand"
    },
    {
      "lat": -36.813166623702934,
      "lon": 174.58976435713703,
      "geoinfo": {
        "display_name": "Kerepi Street, Glenfin, Westgate, Henderson-Massey, Auckland, 0814, New Zealand",
        "road": "Kerepi Street",
        "house_number": null,
        "neighbourhood": null,
        "suburb": "Westgate",
        "city_district": null,
        "city": "Henderson-Massey",
        "state": "Auckland",
        "postcode": "0814",
        "country": "New Zealand",
        "country_code": "nz"
      },
      "address": "Kerepi Street, Massey, Auckland, New Zealand"
    },
    {
      "lat": -36.83424480897137,
      "lon": 174.57183013236886,
      "geoinfo": {
        "display_name": "218, Red Hills Road, Massey, Rodney, Auckland, 0816, New Zealand",
        "road": "Red Hills Road",
        "house_number": "218",
        "neighbourhood": null,
        "suburb": "Massey",
        "city_district": null,
        "city": "Rodney",
        "state": "Auckland",
        "postcode": "0816",
        "country": "New Zealand",
        "country_code": "nz"
      },
      "address": "218, Red Hills Road, Massey, Rodney, Auckland, 0816, New Zealand"
    },
    {
      "lat": -36.81551368284752,
      "lon": 174.60245448741864,
      "geoinfo": {
        "display_name": "11, Spring Garden Avenue, Westwood Gardens, Glenfin, Westgate, Henderson-Massey, Auckland, 0814, New Zealand",
        "road": "Spring Garden Avenue",
        "house_number": "11",
        "neighbourhood": "Westwood Gardens",
        "suburb": "Westgate",
        "city_district": null,
        "city": "Henderson-Massey",
        "state": "Auckland",
        "postcode": "0814",
        "country": "New Zealand",
        "country_code": "nz"
      },
      "address": "11, Spring Garden Avenue, Westwood Gardens, Glenfin, Westgate, Henderson-Massey, Auckland, 0814, New Zealand"
    },
    {
      "lat": -36.82730042605389,
      "lon": 174.6456005244714,
      "geoinfo": {
        "display_name": "1/6, Murray Road, Te Atatū Peninsula, Henderson-Massey, Auckland, 1530, New Zealand",
        "road": "Murray Road",
        "house_number": "1/6",
        "neighbourhood": null,
        "suburb": "Te Atatū Peninsula",
        "city_district": null,
        "city": "Henderson-Massey",
        "state": "Auckland",
        "postcode": "1530",
        "country": "New Zealand",
        "country_code": "nz"
      },
      "address": "1/6, Murray Road, Te Atatū Peninsula, Henderson-Massey, Auckland, 1530, New Zealand"
    },
    {
      "lat": -36.85262653495411,
      "lon": 174.56869736859778,
      "geoinfo": {
        "display_name": "16, Sunnyvale Road, Waitākere, Waitākere Ranges, Auckland, 0816, New Zealand",
        "road": "Sunnyvale Road",
        "house_number": "16",
        "neighbourhood": null,
        "suburb": "Waitākere",
        "city_district": null,
        "city": "Waitākere Ranges",
        "state": "Auckland",
        "postcode": "0816",
        "country": "New Zealand",
        "country_code": "nz"
      },
      "address": "16, Sunnyvale Road, Waitākere, Waitākere Ranges, Auckland, 0816, New Zealand"
    },
    {
      "lat": -36.79924700217869,
      "lon": 174.59604647949925,
      "geoinfo": {
        "display_name": "Fred Taylor Park, Fred Taylor Drive, Henderson-Massey, Auckland, 0814, New Zealand",
        "road": "Fred Taylor Drive",
        "house_number": null,
        "neighbourhood": null,
        "suburb": null,
        "city_district": null,
        "city": "Henderson-Massey",
        "state": "Auckland",
        "postcode": "0814",
        "country": "New Zealand",
        "country_code": "nz"
      },
      "address": "058, Fred Taylor Drive, Massey, 0814 Auckland, New Zealand"
    },
    {
      "lat": -36.873136323071535,
      "lon": 174.6229762595931,
      "geoinfo": {
        "display_name": "5/3, Sturges Road, Henderson, Henderson-Massey, Auckland, 0612, New Zealand",
        "road": "Sturges Road",
        "house_number": "5/3",
        "neighbourhood": null,
        "suburb": "Henderson",
        "city_district": null,
        "city": "Henderson-Massey",
        "state": "Auckland",
        "postcode": "0612",
        "country": "New Zealand",
        "country_code": "nz"
      },
      "address": "5/3, Sturges Road, Henderson, Henderson-Massey, Auckland, 0612, New Zealand"
    },
    {
      "lat": -36.80293366127709,
      "lon": 174.63692425803578,
      "geoinfo": {
        "display_name": "CDC Data Centre HV1, 32, Westpoint Drive, Hobsonville, Upper Harbour, Auckland, 0618, New Zealand",
        "road": "Westpoint Drive",
        "house_number": "32",
        "neighbourhood": null,
        "suburb": "Hobsonville",
        "city_district": null,
        "city": "Upper Harbour",
        "state": "Auckland",
        "postcode": "0618",
        "country": "New Zealand",
        "country_code": "nz"
      },
      "address": "CDC Data Centre HV1, 32, Westpoint Drive, Hobsonville, Upper Harbour, Auckland, 0618, New Zealand"
    }
  ],
  "updated_at": "2025-10-19T06:03:37.802442+00:00",
  "_kind": "geo_samples"
}