{
  "country_code": "NZ",
  "country": "New Zealand",
  "city": "Otahuhu",
  "geonameid": 6232009,
  "target_addresses": 2,
  "samples": [
    {
      "lat": -36.97264273787266,
      "lon": 174.868053880491,
      "geoinfo": {
        "display_name": "Rose Road, Tui Road, Ōtara, Ōtara-Papatoetoe, Auckland, 2025, New Zealand",
        "road": "Tui Road",
        "house_number": null,
        "neighbourhood": null,
        "suburb": "Ōtara",
        "city_district": null,
        "city": "Ōtara-Papatoetoe",
        "state": "Auckland",
        "postcode": "2025",
        "country": "New Zealand",
        "country_code": "nz"
      },
      "address": "Tui Road, Otahuhu, Auckland, New Zealand"
    },
    {
      "lat": -36.94875908077238,
      "lon": 174.78954238184522,
      "geoinfo": {
        "display_name": "Coronation Rd, Māngere Bridge, Māngere-Ōtāhuhu, Auckland, 2155, New Zealand",
        "road": "Coronation Rd",
        "house_number": null,
        "neighbourhood": null,
        "suburb": "Māngere Bridge",
        "city_district": null,
        "city": "Māngere-Ōtāhuhu",
        "state": "Auckland",
        "postcode": "2155",
        "country": "New Zealand",
        "country_code": "nz"
      },
      "address": "Coronation Rd, Otahuhu, Auckland, New Zealand"
    },
    {
      "lat": -36.92352012109998,
      "lon": 174.87639107273736,
      "geoinfo": {
        "display_name": "Edgewater College, 32, Edgewater Drive, Pakūranga, Howick, Auckland, 2010, New Zealand",
        "road": "Edgewater Drive",
        "house_number": "32",
        "neighbourhood": null,
        "suburb": "Pakūranga",
        "city_district": null,
        "city": "Howick",
        "state": "Auckland",
        "postcode": "2010",
        "country": "New Zealand",
        "country_code": "nz"
      },
      "address": "Edgewater College, 32, Edgewater Drive, Pakūranga, Howick, Auckland, 2010, New Zealand"
    },
    {
      "lat": -36.922297450823066,
      "lon": 174.89066412486804,
      "geoinfo": {
        "display_name": "252R, Ti Rakau Drive, Burswood, Howick, Auckland, 2013, New Zealand",
        "road": "Ti Rakau Drive",
        "house_number": "252R",
        "neighbourhood": null,
        "suburb": "Burswood",
        "city_district": null,
        "city": "Howick",
        "state": "Auckland",
        "postcode": "2013",
        "country": "New Zealand",
        "country_code": "nz"
      },
      "address": "252R, Ti Rakau Drive, Burswood, Howick, Auckland, 2013, New Zealand"
    }
  ],
  "updated_at": "2025-10-19T06:27:27.498557+00:00",
  "_kind": "geo_samples"
}