{
  "country_code": "NZ",
  "country": "New Zealand",
  "city": "Porirua",
  "geonameid": 2184397,
  "target_addresses": 2,
  "samples": [
    {
      "lat": -41.09566255935354,
      "lon": 174.86950958982786,
      "geoinfo": {
        "display_name": "90, Mana Esplanade, Mana, Paremata, Porirua City, Wellington, 5026, New Zealand",
        "road": "Mana Esplanade",
        "house_number": "90",
        "neighbourhood": "Mana",
        "suburb": "Paremata",
        "city_district": null,
        "city": null,
        "state": "Wellington",
        "postcode": "5026",
        "country": "New Zealand",
        "country_code": "nz"
      },
      "address": "90 Mana Esplanade, Porirua, Wellington, New Zealand"
    },
    {
      "lat": -41.14050810162928,
      "lon": 174.81198443950618,
      "geoinfo": {
        "display_name": "Te Ara Utiwai - Section 2 - cycles uphill only, Colonial Knob, Porirua City, Wellington, 5022, New Zealand",
        "road": "Te Ara Utiwai - Section 2 - cycles uphill only",
        "house_number": null,
        "neighbourhood": null,
        "suburb": null,
        "city_district": null,
        "city": null,
        "state": "Wellington",
        "postcode": "5022",
        "country": "New Zealand",
        "country_code": "nz"
      },
      "address": "Te Ara Utiwai - Section 2 - cycles uphill only, Porirua, Wellington, New Zealand"
    },
    {
      "lat": -41.14983418715474,
      "lon": 174.83614475664996,
      "geoinfo": {
        "display_name": "67A, Kenepuru Drive, Kenepuru, Porirua City, Wellington, 5022, New Zealand",
        "road": "Kenepuru Drive",
        "house_number": "67A",
        "neighbourhood": null,
        "suburb": "Kenepuru",
        "city_district": null,
        "city": null,
        "state": "Wellington",
        "postcode": "5022",
        "country": "New Zealand",
        "country_code": "nz"
      },
      "address": "67A, Kenepuru Drive, Kenepuru, Porirua City, Wellington, 5022, New Zealand"
    },
    {
      "lat": -41.10073111491192,
      "lon": 174.83371192819274,
      "geoinfo": {
        "display_name": "21, Terrace Road, Tītahi Bay, Porirua City, Wellington, 5022, New Zealand",
        "road": "Terrace Road",
        "house_number": "21",
        "neighbourhood": null,
        "suburb": "Tītahi Bay",
        "city_district": null,
        "city": null,
        "state": "Wellington",
        "postcode": "5022",
        "country": "New Zealand",
        "country_code": "nz"
      },
      "address": "21, Terrace Road, Tītahi Bay, Porirua City, Wellington, 5022, New Zealand"
    }
  ],
  "updated_at": "2025-10-19T08:53:24.454960+00:00",
  "_kind": "geo_samples"
}