{
  "country_code": "NZ",
  "country": "New Zealand",
  "city": "Te Atatu Peninsula",
  "geonameid": 6232329,
  "target_addresses": 2,
  "samples": [
    {
      "lat": -36.84532840172379,
      "lon": 174.6878708530844,
      "geoinfo": {
        "display_name": "Whau, Auckland, 0600, New Zealand",
        "road": null,
        "house_number": null,
        "neighbourhood": null,
        "suburb": null,
        "city_district": null,
        "city": "Whau",
        "state": "Auckland",
        "postcode": "0600",
        "country": "New Zealand",
        "country_code": "nz"
      },
      "address": "Te Atatu Peninsula, Auckland, New Zealand"
    },
    {
      "lat": -36.8407534921119,
      "lon": 174.63805197875834,
      "geoinfo": {
        "display_name": "3/11, Taipari Road, Massey East, Te Atatū Peninsula, Henderson-Massey, Auckland, 1530, New Zealand",
        "road": "Taipari Road",
        "house_number": "3/11",
        "neighbourhood": null,
        "suburb": "Te Atatū Peninsula",
        "city_district": null,
        "city": "Henderson-Massey",
        "state": "Auckland",
        "postcode": "1530",
        "country": "New Zealand",
        "country_code": "nz"
      },
      "address": "3/11 Taipari Road, Te Atatu Peninsula, Auckland, New Zealand"
    },
    {
      "lat": -36.81062924243867,
      "lon": 174.65364344005766,
      "geoinfo": {
        "display_name": "G, Hobsonville, Upper Harbour, Auckland, 0616, New Zealand",
        "road": "G",
        "house_number": null,
        "neighbourhood": null,
        "suburb": "Hobsonville",
        "city_district": null,
        "city": "Upper Harbour",
        "state": "Auckland",
        "postcode": "0616",
        "country": "New Zealand",
        "country_code": "nz"
      },
      "address": "506, G, Hobsonville, Upper Harbour, Auckland, 0616, New Zealand"
    },
    {
      "lat": -36.84626041741867,
      "lon": 174.6584395134593,
      "geoinfo": {
        "display_name": "Provence Esplanade, Te Atatū Peninsula, Henderson-Massey, Auckland, 1530, New Zealand",
        "road": "Provence Esplanade",
        "house_number": null,
        "neighbourhood": null,
        "suburb": "Te Atatū Peninsula",
        "city_district": null,
        "city": "Henderson-Massey",
        "state": "Auckland",
        "postcode": "1530",
        "country": "New Zealand",
        "country_code": "nz"
      },
      "address": "604, Provence Esplanade, Te Atatū Peninsula, Henderson-Massey, Auckland, 1530, New Zealand"
    }
  ],
  "updated_at": "2025-10-19T06:27:34.659334+00:00",
  "_kind": "geo_samples"
}