{
  "country_code": "NZ",
  "country": "New Zealand",
  "city": "Whanganui",
  "geonameid": 2179670,
  "target_addresses": 9,
  "samples": [
    {
      "lat": -39.93796152999832,
      "lon": 175.10315727336354,
      "geoinfo": {
        "display_name": "270, Number 2 Line, Okoia, Whanganui, Whanganui District, Manawatū-Whanganui, 4572, New Zealand",
        "road": "Number 2 Line",
        "house_number": "270",
        "neighbourhood": null,
        "suburb": null,
        "city_district": null,
        "city": "Whanganui",
        "state": "Manawatū-Whanganui",
        "postcode": "4572",
        "country": "New Zealand",
        "country_code": "nz"
      },
      "address": "270 Number 2 Line, Whanganui, Manawatū-Whanganui, New Zealand"
    },
    {
      "lat": -39.9376495289959,
      "lon": 175.0402915969658,
      "geoinfo": {
        "display_name": "Wanganui Racecourse, Carlton Avenue, College Estate, Gonville, Whanganui District, Manawatū-Whanganui, 4501, New Zealand",
        "road": "Carlton Avenue",
        "house_number": null,
        "neighbourhood": null,
        "suburb": "Gonville",
        "city_district": null,
        "city": null,
        "state": "Manawatū-Whanganui",
        "postcode": "4501",
        "country": "New Zealand",
        "country_code": "nz"
      },
      "address": "Carlton Avenue, Whanganui, Manawatū-Whanganui, New Zealand"
    },
    {
      "lat": -39.94358373801965,
      "lon": 174.99539881250072,
      "geoinfo": {
        "display_name": "501, Heads Road, Castlecliff, Whanganui District, Manawatū-Whanganui, 4541, New Zealand",
        "road": "Heads Road",
        "house_number": "501",
        "neighbourhood": null,
        "suburb": "Castlecliff",
        "city_district": null,
        "city": null,
        "state": "Manawatū-Whanganui",
        "postcode": "4541",
        "country": "New Zealand",
        "country_code": "nz"
      },
      "address": "501, Heads Road, Castlecliff, Whanganui District, Manawatū-Whanganui, 4541, New Zealand"
    },
    {
      "lat": -39.912423715661795,
      "lon": 175.07157245943705,
      "geoinfo": {
        "display_name": "40, Eastown Road, Whanganui East, Whanganui District, Manawatū-Whanganui, 4500, New Zealand",
        "road": "Eastown Road",
        "house_number": "40",
        "neighbourhood": null,
        "suburb": "Whanganui East",
        "city_district": null,
        "city": null,
        "state": "Manawatū-Whanganui",
        "postcode": "4500",
        "country": "New Zealand",
        "country_code": "nz"
      },
      "address": "40, Eastown Road, Whanganui East, Whanganui District, Manawatū-Whanganui, 4500, New Zealand"
    },
    {
      "lat": -39.93844806160238,
      "lon": 175.0576411891059,
      "geoinfo": {
        "display_name": "61, Hipango Terrace, Durie Hill, Whanganui District, Manawatū-Whanganui, 4500, New Zealand",
        "road": "Hipango Terrace",
        "house_number": "61",
        "neighbourhood": null,
        "suburb": "Durie Hill",
        "city_district": null,
        "city": null,
        "state": "Manawatū-Whanganui",
        "postcode": "4500",
        "country": "New Zealand",
        "country_code": "nz"
      },
      "address": "61, Hipango Terrace, Durie Hill, Whanganui District, Manawatū-Whanganui, 4500, New Zealand"
    },
    {
      "lat": -39.96486217888868,
      "lon": 175.0561817767021,
      "geoinfo": {
        "display_name": "Marybank, Putiki, Whanganui District, Manawatū-Whanganui, 4500, New Zealand",
        "road": null,
        "house_number": null,
        "neighbourhood": null,
        "suburb": "Putiki",
        "city_district": null,
        "city": null,
        "state": "Manawatū-Whanganui",
        "postcode": "4500",
        "country": "New Zealand",
        "country_code": "nz"
      },
      "address": "756, Marybank, Putiki, Whanganui District, Manawatū-Whanganui, 4500, New Zealand"
    },
    {
      "lat": -39.93048697044944,
      "lon": 175.06573616929998,
      "geoinfo": {
        "display_name": "38, D'Arcy Road, Bastia Hill, Whanganui District, Manawatū-Whanganui, 4500, New Zealand",
        "road": "D'Arcy Road",
        "house_number": "38",
        "neighbourhood": null,
        "suburb": "Bastia Hill",
        "city_district": null,
        "city": null,
        "state": "Manawatū-Whanganui",
        "postcode": "4500",
        "country": "New Zealand",
        "country_code": "nz"
      },
      "address": "38, D'Arcy Road, Bastia Hill, Whanganui District, Manawatū-Whanganui, 4500, New Zealand"
    },
    {
      "lat": -39.90667571243492,
      "lon": 175.06359277824686,
      "geoinfo": {
        "display_name": "4, Kiwi Street, Whanganui East, Whanganui District, Manawatū-Whanganui, 4500, New Zealand",
        "road": "Kiwi Street",
        "house_number": "4",
        "neighbourhood": null,
        "suburb": "Whanganui East",
        "city_district": null,
        "city": null,
        "state": "Manawatū-Whanganui",
        "postcode": "4500",
        "country": "New Zealand",
        "country_code": "nz"
      },
      "address": "4, Kiwi Street, Whanganui East, Whanganui District, Manawatū-Whanganui, 4500, New Zealand"
    },
    {
      "lat": -39.974593978238566,
      "lon": 175.06760339399622,
      "geoinfo": {
        "display_name": "Marybank, Putiki, Whanganui District, Manawatū-Whanganui, 4500, New Zealand",
        "road": null,
        "house_number": null,
        "neighbourhood": null,
        "suburb": "Putiki",
        "city_district": null,
        "city": null,
        "state": "Manawatū-Whanganui",
        "postcode": "4500",
        "country": "New Zealand",
        "country_code": "nz"
      },
      "address": "640, Marybank, Putiki, Whanganui District, Manawatū-Whanganui, 4500, New Zealand"
    }
  ],
  "updated_at": "2025-10-19T06:02:30.618347+00:00",
  "_kind": "geo_samples"
}