{
  "country_code": "VU",
  "country": "Vanuatu",
  "city": "Port-Vila",
  "geonameid": 2135171,
  "target_addresses": 100,
  "samples": [
    {
      "lat": -17.702762499337652,
      "lon": 168.31332571615002,
      "geoinfo": {
        "display_name": "Bladiniere Estate, Port Vila, Shefa Province, Vanuatu",
        "road": null,
        "house_number": null,
        "neighbourhood": "Bladiniere Estate",
        "suburb": null,
        "city_district": null,
        "city": "Port Vila",
        "state": "Shefa Province",
        "postcode": null,
        "country": "Vanuatu",
        "country_code": "vu"
      },
      "address": "Bladiniere Estate, Port-Vila, Shefa Province, Vanuatu"
    },
    {
      "lat": -17.734126344707676,
      "lon": 168.33685685411217,
      "geoinfo": {
        "display_name": "Korman Stadium, Ring Road, Korman, Port Vila, Shefa Province, Vanuatu",
        "road": "Ring Road",
        "house_number": null,
        "neighbourhood": "Korman",
        "suburb": null,
        "city_district": null,
        "city": "Port Vila",
        "state": "Shefa Province",
        "postcode": null,
        "country": "Vanuatu",
        "country_code": "vu"
      },
      "address": "Ring Road, Port-Vila, Shefa Province, Vanuatu"
    },
    {
      "lat": -17.744411978501763,
      "lon": 168.30507332184456,
      "geoinfo": {
        "display_name": "Quartier Chinois, Port Vila, Shefa Province, Vanuatu",
        "road": null,
        "house_number": null,
        "neighbourhood": "Quartier Chinois",
        "suburb": null,
        "city_district": null,
        "city": "Port Vila",
        "state": "Shefa Province",
        "postcode": null,
        "country": "Vanuatu",
        "country_code": "vu"
      },
      "address": "Quartier Chinois, Port-Vila, Shefa Province, Vanuatu"
    },
    {
      "lat": -17.73652102272066,
      "lon": 168.3248348059757,
      "geoinfo": {
        "display_name": "Holiday Inn Resort, Tasiriki, Port Vila, Shefa Province, Vanuatu",
        "road": "Holiday Inn Resort",
        "house_number": null,
        "neighbourhood": "Tasiriki",
        "suburb": null,
        "city_district": null,
        "city": "Port Vila",
        "state": "Shefa Province",
        "postcode": null,
        "country": "Vanuatu",
        "country_code": "vu"
      },
      "address": "Holiday Inn Resort, Port-Vila, Shefa Province, Vanuatu"
    },
    {
      "lat": -17.721362783703274,
      "lon": 168.33773763045642,
      "geoinfo": {
        "display_name": "Korman, Bellevue, Shefa Province, Vanuatu",
        "road": null,
        "house_number": null,
        "neighbourhood": "Korman",
        "suburb": null,
        "city_district": null,
        "city": "Bellevue",
        "state": "Shefa Province",
        "postcode": null,
        "country": "Vanuatu",
        "country_code": "vu"
      },
      "address": "Korman, Port-Vila, Shefa Province, Vanuatu"
    },
    {
      "lat": -17.705672007960562,
      "lon": 168.29985614468623,
      "geoinfo": {
        "display_name": "Blacksands, Port Vila, Shefa Province, Vanuatu",
        "road": null,
        "house_number": null,
        "neighbourhood": "Blacksands",
        "suburb": null,
        "city_district": null,
        "city": "Port Vila",
        "state": "Shefa Province",
        "postcode": null,
        "country": "Vanuatu",
        "country_code": "vu"
      },
      "address": "Blacksands, Port-Vila, Shefa Province, Vanuatu"
    },
    {
      "lat": -17.740257075569506,
      "lon": 168.26675957571553,
      "geoinfo": {
        "display_name": "Port Vila, Shefa Province, Vanuatu",
        "road": null,
        "house_number": null,
        "neighbourhood": null,
        "suburb": null,
        "city_district": null,
        "city": "Port Vila",
        "state": "Shefa Province",
        "postcode": null,
        "country": "Vanuatu",
        "country_code": "vu"
      },
      "address": "Port-Vila, Shefa Province, Vanuatu"
    },
    {
      "lat": -17.72103310794444,
      "lon": 168.32430769319578,
      "geoinfo": {
        "display_name": "Beverly Hills, Port Vila, Shefa Province, Vanuatu",
        "road": null,
        "house_number": null,
        "neighbourhood": "Beverly Hills",
        "suburb": null,
        "city_district": null,
        "city": "Port Vila",
        "state": "Shefa Province",
        "postcode": null,
        "country": "Vanuatu",
        "country_code": "vu"
      },
      "address": "Beverly Hills, Port-Vila, Shefa Province, Vanuatu"
    },
    {
      "lat": -17.70197951202329,
      "lon": 168.30535856702517,
      "geoinfo": {
        "display_name": "Smet, Port Vila, Shefa Province, Vanuatu",
        "road": null,
        "house_number": null,
        "neighbourhood": "Smet",
        "suburb": null,
        "city_district": null,
        "city": "Port Vila",
        "state": "Shefa Province",
        "postcode": null,
        "country": "Vanuatu",
        "country_code": "vu"
      },
      "address": "Smet, Port-Vila, Shefa Province, Vanuatu"
    },
    {
      "lat": -17.729562149437633,
      "lon": 168.28215129289578,
      "geoinfo": {
        "display_name": "Malapoa Estate, Port Vila, Shefa Province, Vanuatu",
        "road": null,
        "house_number": null,
        "neighbourhood": "Malapoa Estate",
        "suburb": null,
        "city_district": null,
        "city": "Port Vila",
        "state": "Shefa Province",
        "postcode": null,
        "country": "Vanuatu",
        "country_code": "vu"
      },
      "address": "Malapoa Estate, Port-Vila, Shefa Province, Vanuatu"
    },
    {
      "lat": -17.73668216561071,
      "lon": 168.3076242999081,
      "geoinfo": {
        "display_name": "Lini Highway, Quartier Chinois, Port Vila, Shefa Province, Vanuatu",
        "road": "Lini Highway",
        "house_number": null,
        "neighbourhood": "Quartier Chinois",
        "suburb": null,
        "city_district": null,
        "city": "Port Vila",
        "state": "Shefa Province",
        "postcode": null,
        "country": "Vanuatu",
        "country_code": "vu"
      },
      "address": "Lini Highway, Port-Vila, Shefa Province, Vanuatu"
    },
    {
      "lat": -17.732586689708423,
      "lon": 168.35160371388162,
      "geoinfo": {
        "display_name": "Bellevue Road, Korman, Bellevue, Shefa Province, Vanuatu",
        "road": "Bellevue Road",
        "house_number": null,
        "neighbourhood": "Korman",
        "suburb": null,
        "city_district": null,
        "city": "Bellevue",
        "state": "Shefa Province",
        "postcode": null,
        "country": "Vanuatu",
        "country_code": "vu"
      },
      "address": "Bellevue Road, Port-Vila, Shefa Province, Vanuatu"
    },
    {
      "lat": -17.71329654035224,
      "lon": 168.31508694779015,
      "geoinfo": {
        "display_name": "Tagabe, Switi, Port Vila, Shefa Province, Vanuatu",
        "road": null,
        "house_number": null,
        "neighbourhood": "Tagabe",
        "suburb": null,
        "city_district": null,
        "city": "Port Vila",
        "state": "Shefa Province",
        "postcode": null,
        "country": "Vanuatu",
        "country_code": "vu"
      },
      "address": "Tagabe, Port-Vila, Shefa Province, Vanuatu"
    },
    {
      "lat": -17.71442983221333,
      "lon": 168.30405420855158,
      "geoinfo": {
        "display_name": "Manples, Port Vila, Shefa Province, Vanuatu",
        "road": null,
        "house_number": null,
        "neighbourhood": "Manples",
        "suburb": null,
        "city_district": null,
        "city": "Port Vila",
        "state": "Shefa Province",
        "postcode": null,
        "country": "Vanuatu",
        "country_code": "vu"
      },
      "address": "Manples, Port-Vila, Shefa Province, Vanuatu"
    },
    {
      "lat": -17.710955982712452,
      "lon": 168.3102012553481,
      "geoinfo": {
        "display_name": "Agathis, Port Vila, Shefa Province, Vanuatu",
        "road": null,
        "house_number": null,
        "neighbourhood": "Agathis",
        "suburb": null,
        "city_district": null,
        "city": "Port Vila",
        "state": "Shefa Province",
        "postcode": null,
        "country": "Vanuatu",
        "country_code": "vu"
      },
      "address": "Agathis, Port-Vila, Shefa Province, Vanuatu"
    },
    {
      "lat": -17.70884391607737,
      "lon": 168.32110181776054,
      "geoinfo": {
        "display_name": "Ohlen, Switi, Port Vila, Shefa Province, Vanuatu",
        "road": null,
        "house_number": null,
        "neighbourhood": "Ohlen",
        "suburb": null,
        "city_district": null,
        "city": "Port Vila",
        "state": "Shefa Province",
        "postcode": null,
        "country": "Vanuatu",
        "country_code": "vu"
      },
      "address": "Ohlen, Port-Vila, Shefa Province, Vanuatu"
    },
    {
      "lat": -17.757696467030026,
      "lon": 168.2983441713792,
      "geoinfo": {
        "display_name": "Wharf Road, Nambatri, Port Vila, Shefa Province, Vanuatu",
        "road": "Wharf Road",
        "house_number": null,
        "neighbourhood": "Nambatri",
        "suburb": null,
        "city_district": null,
        "city": "Port Vila",
        "state": "Shefa Province",
        "postcode": null,
        "country": "Vanuatu",
        "country_code": "vu"
      },
      "address": "Wharf Road, Port-Vila, Shefa Province, Vanuatu"
    },
    {
      "lat": -17.75217166630853,
      "lon": 168.31698919312834,
      "geoinfo": {
        "display_name": "Captain Cook Avenue, Nambatu, Port Vila, Shefa Province, Vanuatu",
        "road": "Captain Cook Avenue",
        "house_number": null,
        "neighbourhood": "Nambatu",
        "suburb": null,
        "city_district": null,
        "city": "Port Vila",
        "state": "Shefa Province",
        "postcode": null,
        "country": "Vanuatu",
        "country_code": "vu"
      },
      "address": "Captain Cook Avenue, Port-Vila, Shefa Province, Vanuatu"
    },
    {
      "lat": -17.702145549876064,
      "lon": 168.31681697782142,
      "geoinfo": {
        "display_name": "takabe roundabout, Tagabe, Port Vila, Shefa Province, Vanuatu",
        "road": "takabe roundabout",
        "house_number": null,
        "neighbourhood": "Tagabe",
        "suburb": null,
        "city_district": null,
        "city": "Port Vila",
        "state": "Shefa Province",
        "postcode": null,
        "country": "Vanuatu",
        "country_code": "vu"
      },
      "address": "takabe roundabout, Port-Vila, Shefa Province, Vanuatu"
    },
    {
      "lat": -17.7598313506765,
      "lon": 168.30239085883713,
      "geoinfo": {
        "display_name": "Elluk Plateau Road, Elluk Plateau, Port Vila, Shefa Province, Vanuatu",
        "road": "Elluk Plateau Road",
        "house_number": null,
        "neighbourhood": null,
        "suburb": null,
        "city_district": null,
        "city": "Port Vila",
        "state": "Shefa Province",
        "postcode": null,
        "country": "Vanuatu",
        "country_code": "vu"
      },
      "address": "Elluk Plateau Road, Port-Vila, Shefa Province, Vanuatu"
    },
    {
      "lat": -17.77094928551423,
      "lon": 168.30295404971167,
      "geoinfo": {
        "display_name": "Pango Road, Elluk Plateau, Pango, Shefa Province, Vanuatu",
        "road": "Pango Road",
        "house_number": null,
        "neighbourhood": null,
        "suburb": null,
        "city_district": null,
        "city": "Pango",
        "state": "Shefa Province",
        "postcode": null,
        "country": "Vanuatu",
        "country_code": "vu"
      },
      "address": "Pango Road, Port-Vila, Shefa Province, Vanuatu"
    },
    {
      "lat": -17.73731243995641,
      "lon": 168.33052932362133,
      "geoinfo": {
        "display_name": "Tasiriki, Port Vila, Shefa Province, Vanuatu",
        "road": null,
        "house_number": null,
        "neighbourhood": "Tasiriki",
        "suburb": null,
        "city_district": null,
        "city": "Port Vila",
        "state": "Shefa Province",
        "postcode": null,
        "country": "Vanuatu",
        "country_code": "vu"
      },
      "address": "Tasiriki, Port-Vila, Shefa Province, Vanuatu"
    },
    {
      "lat": -17.747302756917836,
      "lon": 168.3188020798731,
      "geoinfo": {
        "display_name": "Rue de la Picarde, Nambatu, Port Vila, Shefa Province, Vanuatu",
        "road": "Rue de la Picarde",
        "house_number": null,
        "neighbourhood": "Nambatu",
        "suburb": null,
        "city_district": null,
        "city": "Port Vila",
        "state": "Shefa Province",
        "postcode": null,
        "country": "Vanuatu",
        "country_code": "vu"
      },
      "address": "Rue de la Picarde, Port-Vila, Shefa Province, Vanuatu"
    },
    {
      "lat": -17.754583145915824,
      "lon": 168.3246083980255,
      "geoinfo": {
        "display_name": "Seaside, Port Vila, Shefa Province, Vanuatu",
        "road": null,
        "house_number": null,
        "neighbourhood": "Seaside",
        "suburb": null,
        "city_district": null,
        "city": "Port Vila",
        "state": "Shefa Province",
        "postcode": null,
        "country": "Vanuatu",
        "country_code": "vu"
      },
      "address": "Seaside, Port-Vila, Shefa Province, Vanuatu"
    },
    {
      "lat": -17.719698477962666,
      "lon": 168.3006694291244,
      "geoinfo": {
        "display_name": "Malapoa Whitewood, Port Vila, Shefa Province, Vanuatu",
        "road": null,
        "house_number": null,
        "neighbourhood": "Malapoa Whitewood",
        "suburb": null,
        "city_district": null,
        "city": "Port Vila",
        "state": "Shefa Province",
        "postcode": null,
        "country": "Vanuatu",
        "country_code": "vu"
      },
      "address": "Malapoa Whitewood, Port-Vila, Shefa Province, Vanuatu"
    },
    {
      "lat": -17.74128426705003,
      "lon": 168.31479486012265,
      "geoinfo": {
        "display_name": "Kumul Highway, Nambatu, Port Vila, Shefa Province, Vanuatu",
        "road": "Kumul Highway",
        "house_number": null,
        "neighbourhood": "Nambatu",
        "suburb": null,
        "city_district": null,
        "city": "Port Vila",
        "state": "Shefa Province",
        "postcode": null,
        "country": "Vanuatu",
        "country_code": "vu"
      },
      "address": "Kumul Highway, Port-Vila, Shefa Province, Vanuatu"
    },
    {
      "lat": -17.717876113294984,
      "lon": 168.3078856727287,
      "geoinfo": {
        "display_name": "Tebakor, Port Vila, Shefa Province, Vanuatu",
        "road": null,
        "house_number": null,
        "neighbourhood": "Tebakor",
        "suburb": null,
        "city_district": null,
        "city": "Port Vila",
        "state": "Shefa Province",
        "postcode": null,
        "country": "Vanuatu",
        "country_code": "vu"
      },
      "address": "Tebakor, Port-Vila, Shefa Province, Vanuatu"
    },
    {
      "lat": -17.750976382284517,
      "lon": 168.3152110968495,
      "geoinfo": {
        "display_name": "Maine Street, Nambatu, Port Vila, Shefa Province, Vanuatu",
        "road": "Maine Street",
        "house_number": null,
        "neighbourhood": "Nambatu",
        "suburb": null,
        "city_district": null,
        "city": "Port Vila",
        "state": "Shefa Province",
        "postcode": null,
        "country": "Vanuatu",
        "country_code": "vu"
      },
      "address": "Maine Street, Port-Vila, Shefa Province, Vanuatu"
    },
    {
      "lat": -17.728022726260324,
      "lon": 168.29327409011586,
      "geoinfo": {
        "display_name": "road, Malapoa Whitewood, Port Vila, Shefa Province, Vanuatu",
        "road": "road",
        "house_number": null,
        "neighbourhood": "Malapoa Whitewood",
        "suburb": null,
        "city_district": null,
        "city": "Port Vila",
        "state": "Shefa Province",
        "postcode": null,
        "country": "Vanuatu",
        "country_code": "vu"
      },
      "address": "road, Port-Vila, Shefa Province, Vanuatu"
    },
    {
      "lat": -17.7405473208998,
      "lon": 168.31699902785104,
      "geoinfo": {
        "display_name": "Ecole centrale, Winston Churchill Road, Quartier Chinois, Port Vila, Shefa Province, Vanuatu",
        "road": "Winston Churchill Road",
        "house_number": null,
        "neighbourhood": "Quartier Chinois",
        "suburb": null,
        "city_district": null,
        "city": "Port Vila",
        "state": "Shefa Province",
        "postcode": null,
        "country": "Vanuatu",
        "country_code": "vu"
      },
      "address": "Winston Churchill Road, Port-Vila, Shefa Province, Vanuatu"
    },
    {
      "lat": -17.72907193828323,
      "lon": 168.3131958488975,
      "geoinfo": {
        "display_name": "Stade, Port Vila, Shefa Province, Vanuatu",
        "road": null,
        "house_number": null,
        "neighbourhood": "Stade",
        "suburb": null,
        "city_district": null,
        "city": "Port Vila",
        "state": "Shefa Province",
        "postcode": null,
        "country": "Vanuatu",
        "country_code": "vu"
      },
      "address": "Stade, Port-Vila, Shefa Province, Vanuatu"
    },
    {
      "lat": -17.73976641787969,
      "lon": 168.31619380939816,
      "geoinfo": {
        "display_name": "Ministry of Agriculture Livestock Forestry Fisheries & Biosecurity (MALFFB), PMB 9039, Winston Churchill Road, Quartier Chinois, Port Vila, Shefa Province, Vanuatu",
        "road": "Winston Churchill Road",
        "house_number": "PMB 9039",
        "neighbourhood": "Quartier Chinois",
        "suburb": null,
        "city_district": null,
        "city": "Port Vila",
        "state": "Shefa Province",
        "postcode": null,
        "country": "Vanuatu",
        "country_code": "vu"
      },
      "address": "PMB 9039 Winston Churchill Road, Port-Vila, Shefa Province, Vanuatu"
    },
    {
      "lat": -17.70814224470387,
      "lon": 168.31784429337918,
      "geoinfo": {
        "display_name": "Ohlen fresh wind, Port Vila, Shefa Province, Vanuatu",
        "road": null,
        "house_number": null,
        "neighbourhood": "Ohlen fresh wind",
        "suburb": null,
        "city_district": null,
        "city": "Port Vila",
        "state": "Shefa Province",
        "postcode": null,
        "country": "Vanuatu",
        "country_code": "vu"
      },
      "address": "Ohlen fresh wind, Port-Vila, Shefa Province, Vanuatu"
    },
    {
      "lat": -17.724162494972546,
      "lon": 168.31904379453945,
      "geoinfo": {
        "display_name": "Simbolo, Port Vila, Shefa Province, Vanuatu",
        "road": null,
        "house_number": null,
        "neighbourhood": "Simbolo",
        "suburb": null,
        "city_district": null,
        "city": "Port Vila",
        "state": "Shefa Province",
        "postcode": null,
        "country": "Vanuatu",
        "country_code": "vu"
      },
      "address": "Simbolo, Port-Vila, Shefa Province, Vanuatu"
    },
    {
      "lat": -17.72671041157145,
      "lon": 168.30282786012762,
      "geoinfo": {
        "display_name": "Malapoa college soccer field, Malapoa Main Road, Malapoa Whitewood, Port Vila, Shefa Province, Vanuatu",
        "road": "Malapoa Main Road",
        "house_number": null,
        "neighbourhood": "Malapoa Whitewood",
        "suburb": null,
        "city_district": null,
        "city": "Port Vila",
        "state": "Shefa Province",
        "postcode": null,
        "country": "Vanuatu",
        "country_code": "vu"
      },
      "address": "Malapoa Main Road, Port-Vila, Shefa Province, Vanuatu"
    },
    {
      "lat": -17.748199692462308,
      "lon": 168.31839897835314,
      "geoinfo": {
        "display_name": "Rue de Bretagne, Nambatu, Port Vila, Shefa Province, Vanuatu",
        "road": "Rue de Bretagne",
        "house_number": null,
        "neighbourhood": "Nambatu",
        "suburb": null,
        "city_district": null,
        "city": "Port Vila",
        "state": "Shefa Province",
        "postcode": null,
        "country": "Vanuatu",
        "country_code": "vu"
      },
      "address": "Rue de Bretagne, Port-Vila, Shefa Province, Vanuatu"
    },
    {
      "lat": -17.764255508216745,
      "lon": 168.31130941713832,
      "geoinfo": {
        "display_name": "Elluk Road, Elluk Plateau, Port Vila, Shefa Province, Vanuatu",
        "road": "Elluk Road",
        "house_number": null,
        "neighbourhood": null,
        "suburb": null,
        "city_district": null,
        "city": "Port Vila",
        "state": "Shefa Province",
        "postcode": null,
        "country": "Vanuatu",
        "country_code": "vu"
      },
      "address": "Elluk Road, Port-Vila, Shefa Province, Vanuatu"
    },
    {
      "lat": -17.747376092552607,
      "lon": 168.3010223205127,
      "geoinfo": {
        "display_name": "Nambatu, Port Vila, Shefa Province, Vanuatu",
        "road": null,
        "house_number": null,
        "neighbourhood": "Nambatu",
        "suburb": null,
        "city_district": null,
        "city": "Port Vila",
        "state": "Shefa Province",
        "postcode": null,
        "country": "Vanuatu",
        "country_code": "vu"
      },
      "address": "Nambatu, Port-Vila, Shefa Province, Vanuatu"
    },
    {
      "lat": -17.716810403845916,
      "lon": 168.32652982575846,
      "geoinfo": {
        "display_name": "Ohlen white wood, Port Vila, Shefa Province, Vanuatu",
        "road": null,
        "house_number": null,
        "neighbourhood": "Ohlen white wood",
        "suburb": null,
        "city_district": null,
        "city": "Port Vila",
        "state": "Shefa Province",
        "postcode": null,
        "country": "Vanuatu",
        "country_code": "vu"
      },
      "address": "Ohlen white wood, Port-Vila, Shefa Province, Vanuatu"
    },
    {
      "lat": -17.73554730765431,
      "lon": 168.31289117141483,
      "geoinfo": {
        "display_name": "Chew Store, Bougainville Street, Quartier Chinois, Port Vila, Shefa Province, Vanuatu",
        "road": "Bougainville Street",
        "house_number": null,
        "neighbourhood": "Quartier Chinois",
        "suburb": null,
        "city_district": null,
        "city": "Port Vila",
        "state": "Shefa Province",
        "postcode": null,
        "country": "Vanuatu",
        "country_code": "vu"
      },
      "address": "Bougainville Street, Port-Vila, Shefa Province, Vanuatu"
    },
    {
      "lat": -17.743561333492046,
      "lon": 168.32255366876137,
      "geoinfo": {
        "display_name": "Port Vila Central Hospital, Rue de Wales, Seaside, Port Vila, Shefa Province, Vanuatu",
        "road": "Rue de Wales",
        "house_number": null,
        "neighbourhood": "Seaside",
        "suburb": null,
        "city_district": null,
        "city": "Port Vila",
        "state": "Shefa Province",
        "postcode": null,
        "country": "Vanuatu",
        "country_code": "vu"
      },
      "address": "Rue de Wales, Port-Vila, Shefa Province, Vanuatu"
    },
    {
      "lat": -17.720476697125143,
      "lon": 168.32135396544467,
      "geoinfo": {
        "display_name": "Freswota skul, 5th Street, Beverly Hills, Port Vila, Shefa Province, Vanuatu",
        "road": "5th Street",
        "house_number": null,
        "neighbourhood": "Beverly Hills",
        "suburb": null,
        "city_district": null,
        "city": "Port Vila",
        "state": "Shefa Province",
        "postcode": null,
        "country": "Vanuatu",
        "country_code": "vu"
      },
      "address": "5th Street, Port-Vila, Shefa Province, Vanuatu"
    },
    {
      "lat": -17.721425749122353,
      "lon": 168.3169063688434,
      "geoinfo": {
        "display_name": "Namburu, Port Vila, Shefa Province, Vanuatu",
        "road": null,
        "house_number": null,
        "neighbourhood": "Namburu",
        "suburb": null,
        "city_district": null,
        "city": "Port Vila",
        "state": "Shefa Province",
        "postcode": null,
        "country": "Vanuatu",
        "country_code": "vu"
      },
      "address": "Namburu, Port-Vila, Shefa Province, Vanuatu"
    },
    {
      "lat": -17.76352055346789,
      "lon": 168.31342956378222,
      "geoinfo": {
        "display_name": "Nambatri, Port Vila, Shefa Province, Vanuatu",
        "road": null,
        "house_number": null,
        "neighbourhood": "Nambatri",
        "suburb": null,
        "city_district": null,
        "city": "Port Vila",
        "state": "Shefa Province",
        "postcode": null,
        "country": "Vanuatu",
        "country_code": "vu"
      },
      "address": "Nambatri, Port-Vila, Shefa Province, Vanuatu"
    },
    {
      "lat": -17.74103469865149,
      "lon": 168.31932810255427,
      "geoinfo": {
        "display_name": "Vila East School, Gloucester Street, Seaside, Port Vila, Shefa Province, Vanuatu",
        "road": "Gloucester Street",
        "house_number": null,
        "neighbourhood": "Seaside",
        "suburb": null,
        "city_district": null,
        "city": "Port Vila",
        "state": "Shefa Province",
        "postcode": null,
        "country": "Vanuatu",
        "country_code": "vu"
      },
      "address": "Gloucester Street, Port-Vila, Shefa Province, Vanuatu"
    }
  ],
  "updated_at": "2025-10-17T01:11:44.733872+00:00",
  "_kind": "geo_samples"
}