{
  "country_code": "AF",
  "country": "Afghanistan",
  "city": "Gereshk",
  "geonameid": 1141540,
  "target_addresses": 12,
  "samples": [
    {
      "lat": 31.854743768272147,
      "lon": 64.53864396757051,
      "geoinfo": {
        "display_name": "Girishk, Nahri Saraj, Helmand Province, Afghanistan",
        "road": null,
        "house_number": null,
        "neighbourhood": null,
        "suburb": null,
        "city_district": null,
        "city": "Girishk",
        "state": "Helmand Province",
        "postcode": null,
        "country": "Afghanistan",
        "country_code": "af"
      },
      "address": "Gereshk, Helmand Province, Afghanistan"
    },
    {
      "lat": 31.85079619624151,
      "lon": 64.57053087385367,
      "geoinfo": {
        "display_name": "از مالگیراده الی سپین مسجد, Girishk, Nahri Saraj, Helmand Province, Afghanistan",
        "road": "از مالگیراده الی سپین مسجد",
        "house_number": null,
        "neighbourhood": null,
        "suburb": null,
        "city_district": null,
        "city": "Girishk",
        "state": "Helmand Province",
        "postcode": null,
        "country": "Afghanistan",
        "country_code": "af"
      },
      "address": "از مالگیراده الی سپین مسجد, Gereshk, Helmand Province, Afghanistan"
    },
    {
      "lat": 31.81611525079771,
      "lon": 64.58028285281358,
      "geoinfo": {
        "display_name": "Girishk, Nahri Saraj, Helmand Province, Afghanistan",
        "road": null,
        "house_number": null,
        "neighbourhood": null,
        "suburb": null,
        "city_district": null,
        "city": "Girishk",
        "state": "Helmand Province",
        "postcode": null,
        "country": "Afghanistan",
        "country_code": "af"
      },
      "address": "Gereshk, 12961 Helmand Province, Afghanistan"
    },
    {
      "lat": 31.821368879873223,
      "lon": 64.5324802953109,
      "geoinfo": {
        "display_name": "Nahri Saraj, Helmand Province, Afghanistan",
        "road": null,
        "house_number": null,
        "neighbourhood": null,
        "suburb": null,
        "city_district": null,
        "city": null,
        "state": "Helmand Province",
        "postcode": null,
        "country": "Afghanistan",
        "country_code": "af"
      },
      "address": "Gereshk, 25250 Helmand Province, Afghanistan"
    },
    {
      "lat": 31.845250753817957,
      "lon": 64.57872429913793,
      "geoinfo": {
        "display_name": "از سرک نوزاد توراکا مسجد الی سرک ده ادم خان رحیم شیله, Girishk, Nahri Saraj, Helmand Province, Afghanistan",
        "road": "از سرک نوزاد توراکا مسجد الی سرک ده ادم خان رحیم شیله",
        "house_number": null,
        "neighbourhood": null,
        "suburb": null,
        "city_district": null,
        "city": "Girishk",
        "state": "Helmand Province",
        "postcode": null,
        "country": "Afghanistan",
        "country_code": "af"
      },
      "address": "از سرک نوزاد توراکا مسجد الی سرک ده ادم خان رحیم شیله, Girishk, Nahri Saraj, 00438 Helmand Province, Afghanistan"
    },
    {
      "lat": 31.833677778268214,
      "lon": 64.52300532320675,
      "geoinfo": {
        "display_name": "Nahri Saraj, Helmand Province, Afghanistan",
        "road": null,
        "house_number": null,
        "neighbourhood": null,
        "suburb": null,
        "city_district": null,
        "city": null,
        "state": "Helmand Province",
        "postcode": null,
        "country": "Afghanistan",
        "country_code": "af"
      },
      "address": "044, Gereshk, 68348 Helmand Province, Afghanistan"
    },
    {
      "lat": 31.788816040303878,
      "lon": 64.54185875572786,
      "geoinfo": {
        "display_name": "از پارچاو الی حاجی گلاب, Girishk, Nahri Saraj, Helmand Province, Afghanistan",
        "road": "از پارچاو الی حاجی گلاب",
        "house_number": null,
        "neighbourhood": null,
        "suburb": null,
        "city_district": null,
        "city": "Girishk",
        "state": "Helmand Province",
        "postcode": null,
        "country": "Afghanistan",
        "country_code": "af"
      },
      "address": "508, از پارچاو الی حاجی گلاب, Girishk, Nahri Saraj, 16421 Helmand Province, Afghanistan"
    },
    {
      "lat": 31.80175033854006,
      "lon": 64.55733336183502,
      "geoinfo": {
        "display_name": "Girishk, Nahri Saraj, Helmand Province, Afghanistan",
        "road": null,
        "house_number": null,
        "neighbourhood": null,
        "suburb": null,
        "city_district": null,
        "city": "Girishk",
        "state": "Helmand Province",
        "postcode": null,
        "country": "Afghanistan",
        "country_code": "af"
      },
      "address": "725, Girishk, Nahri Saraj, 15377 Helmand Province, Afghanistan"
    },
    {
      "lat": 31.78986353082335,
      "lon": 64.57338040202224,
      "geoinfo": {
        "display_name": "از دشت خاده الی ولی محمد کلی, Tājdār-e Walī, Girishk, Nahri Saraj, Helmand Province, Afghanistan",
        "road": "از دشت خاده الی ولی محمد کلی",
        "house_number": null,
        "neighbourhood": null,
        "suburb": null,
        "city_district": null,
        "city": "Girishk",
        "state": "Helmand Province",
        "postcode": null,
        "country": "Afghanistan",
        "country_code": "af"
      },
      "address": "366, از دشت خاده الی ولی محمد کلی, Tājdār-e Walī, Girishk, Nahri Saraj, 43781 Helmand Province, Afghanistan"
    },
    {
      "lat": 31.808012261604745,
      "lon": 64.62016201076239,
      "geoinfo": {
        "display_name": "Saidan, Nahri Saraj, Helmand Province, Afghanistan",
        "road": null,
        "house_number": null,
        "neighbourhood": null,
        "suburb": null,
        "city_district": null,
        "city": null,
        "state": "Helmand Province",
        "postcode": null,
        "country": "Afghanistan",
        "country_code": "af"
      },
      "address": "933, Saidan, Nahri Saraj, 64434 Helmand Province, Afghanistan"
    },
    {
      "lat": 31.790656833063885,
      "lon": 64.55859857751182,
      "geoinfo": {
        "display_name": "از جامع کلان الی سرکیله, Āb Bāzhā-ye Helmand, Nahri Saraj, Helmand Province, Afghanistan",
        "road": "از جامع کلان الی سرکیله",
        "house_number": null,
        "neighbourhood": null,
        "suburb": null,
        "city_district": null,
        "city": null,
        "state": "Helmand Province",
        "postcode": null,
        "country": "Afghanistan",
        "country_code": "af"
      },
      "address": "947, از جامع کلان الی سرکیله, Āb Bāzhā-ye Helmand, Nahri Saraj, 15827 Helmand Province, Afghanistan"
    },
    {
      "lat": 31.83655473748805,
      "lon": 64.52238587301076,
      "geoinfo": {
        "display_name": "Nahri Saraj, Helmand Province, Afghanistan",
        "road": null,
        "house_number": null,
        "neighbourhood": null,
        "suburb": null,
        "city_district": null,
        "city": null,
        "state": "Helmand Province",
        "postcode": null,
        "country": "Afghanistan",
        "country_code": "af"
      },
      "address": "098, Gereshk, 14554 Helmand Province, Afghanistan"
    }
  ],
  "updated_at": "2025-10-19T03:05:50.733452+00:00",
  "_kind": "geo_samples"
}