{
  "country_code": "AF",
  "country": "Afghanistan",
  "city": "Khāsh",
  "geonameid": 1136863,
  "target_addresses": 2,
  "samples": [
    {
      "lat": 31.522023293242576,
      "lon": 62.814673459794165,
      "geoinfo": {
        "display_name": "Khash, Khash Rod, Nimruz Province, Afghanistan",
        "road": null,
        "house_number": null,
        "neighbourhood": null,
        "suburb": null,
        "city_district": null,
        "city": "Khash",
        "state": "Nimruz Province",
        "postcode": null,
        "country": "Afghanistan",
        "country_code": "af"
      },
      "address": "Khāsh, Nimruz Province, Afghanistan"
    },
    {
      "lat": 31.524737801597418,
      "lon": 62.786751831314476,
      "geoinfo": {
        "display_name": "جاده پوزه خازه - غرغری, Burj -e Lokhi, Khash, Khash Rod, Nimruz Province, Afghanistan",
        "road": "جاده پوزه خازه - غرغری",
        "house_number": null,
        "neighbourhood": null,
        "suburb": "Burj -e Lokhi",
        "city_district": null,
        "city": "Khash",
        "state": "Nimruz Province",
        "postcode": null,
        "country": "Afghanistan",
        "country_code": "af"
      },
      "address": "جاده پوزه خازه - غرغری, Khāsh, Nimruz Province, Afghanistan"
    },
    {
      "lat": 31.493548503893695,
      "lon": 62.77960843831934,
      "geoinfo": {
        "display_name": "چاه مولا, Khash Rod, Nimruz Province, Afghanistan",
        "road": null,
        "house_number": null,
        "neighbourhood": null,
        "suburb": null,
        "city_district": null,
        "city": "چاه مولا",
        "state": "Nimruz Province",
        "postcode": null,
        "country": "Afghanistan",
        "country_code": "af"
      },
      "address": "058, Khāsh, 81808 Nimruz Province, Afghanistan"
    },
    {
      "lat": 31.563505600248373,
      "lon": 62.78224267210112,
      "geoinfo": {
        "display_name": "جاده دوازده امام - قلعه نو, Qala-e Naw, Khash Rod, Nimruz Province, Afghanistan",
        "road": "جاده دوازده امام - قلعه نو",
        "house_number": null,
        "neighbourhood": null,
        "suburb": null,
        "city_district": null,
        "city": "Qala-e Naw",
        "state": "Nimruz Province",
        "postcode": null,
        "country": "Afghanistan",
        "country_code": "af"
      },
      "address": "635, جاده دوازده امام - قلعه نو, Qala-e Naw, Khash Rod, 02749 Nimruz Province, Afghanistan"
    }
  ],
  "updated_at": "2025-10-19T00:48:08.749001+00:00",
  "_kind": "geo_samples"
}