{
  "country_code": "AF",
  "country": "Afghanistan",
  "city": "Kunduz",
  "geonameid": 1135689,
  "target_addresses": 2,
  "samples": [
    {
      "lat": 36.708492268326744,
      "lon": 68.86822883032723,
      "geoinfo": {
        "display_name": "Seh Darak, Kunduz, Kunduz District, Kunduz Province, Afghanistan",
        "road": null,
        "house_number": null,
        "neighbourhood": null,
        "suburb": null,
        "city_district": null,
        "city": "Kunduz",
        "state": "Kunduz Province",
        "postcode": null,
        "country": "Afghanistan",
        "country_code": "af"
      },
      "address": "Kunduz, Kunduz Province, Afghanistan"
    },
    {
      "lat": 36.717857222153306,
      "lon": 68.81558113517569,
      "geoinfo": {
        "display_name": "10.3 Km Road From Chahar Dara Main Road to Mama Khel, Du Wandi, Dovandi;Do Vandi;Du Wandi, Char Dara, Kunduz Province, Afghanistan",
        "road": "10.3 Km Road From Chahar Dara Main Road to Mama Khel",
        "house_number": null,
        "neighbourhood": null,
        "suburb": null,
        "city_district": null,
        "city": "Dovandi;Do Vandi;Du Wandi",
        "state": "Kunduz Province",
        "postcode": null,
        "country": "Afghanistan",
        "country_code": "af"
      },
      "address": "10.3 Km Road From Chahar Dara Main Road to Mama Khel, Kunduz, Kunduz Province, Afghanistan"
    },
    {
      "lat": 36.73472514643464,
      "lon": 68.82260894019645,
      "geoinfo": {
        "display_name": "Qara Yatim, Char Dara, Kunduz Province, Afghanistan",
        "road": null,
        "house_number": null,
        "neighbourhood": null,
        "suburb": null,
        "city_district": null,
        "city": null,
        "state": "Kunduz Province",
        "postcode": null,
        "country": "Afghanistan",
        "country_code": "af"
      },
      "address": "880, Qara Yatim, Char Dara, 07494 Kunduz Province, Afghanistan"
    },
    {
      "lat": 36.75619830091816,
      "lon": 68.89669971338584,
      "geoinfo": {
        "display_name": "Chebertma, Kunduz, Kunduz District, Kunduz Province, Afghanistan",
        "road": null,
        "house_number": null,
        "neighbourhood": null,
        "suburb": null,
        "city_district": null,
        "city": "Kunduz",
        "state": "Kunduz Province",
        "postcode": null,
        "country": "Afghanistan",
        "country_code": "af"
      },
      "address": "487, Chebertma, Kunduz, Kunduz District, 15990 Kunduz Province, Afghanistan"
    }
  ],
  "updated_at": "2025-10-19T02:41:00.911197+00:00",
  "_kind": "geo_samples"
}