{
  "country_code": "AF",
  "country": "Afghanistan",
  "city": "Mehtar Lām",
  "geonameid": 1133574,
  "target_addresses": 2,
  "samples": [
    {
      "lat": 34.678962298865244,
      "lon": 70.24227634110781,
      "geoinfo": {
        "display_name": "Mahtar Lam, Mihtarlam, Laghman Province, Afghanistan",
        "road": null,
        "house_number": null,
        "neighbourhood": null,
        "suburb": null,
        "city_district": null,
        "city": "Mihtarlam",
        "state": "Laghman Province",
        "postcode": null,
        "country": "Afghanistan",
        "country_code": "af"
      },
      "address": "Mehtar Lām, Laghman Province, Afghanistan"
    },
    {
      "lat": 34.64810654825943,
      "lon": 70.19243256987988,
      "geoinfo": {
        "display_name": "4.6 km Asphalt road from Talashy Teer Gary to Du Saraka Waleswaly Alishang, Ghunday, Mihtarlam, Laghman Province, Afghanistan",
        "road": "4.6 km Asphalt road from Talashy Teer Gary to Du Saraka Waleswaly Alishang",
        "house_number": null,
        "neighbourhood": null,
        "suburb": null,
        "city_district": null,
        "city": "Ghunday",
        "state": "Laghman Province",
        "postcode": null,
        "country": "Afghanistan",
        "country_code": "af"
      },
      "address": "4.6 km Asphalt road from Talashy Teer Gary to Du Saraka Waleswaly Alishang, Mehtar Lām, Laghman Province, Afghanistan"
    },
    {
      "lat": 34.7054245986318,
      "lon": 70.18964817544393,
      "geoinfo": {
        "display_name": "Mihtarlam, Laghman Province, Afghanistan",
        "road": null,
        "house_number": null,
        "neighbourhood": null,
        "suburb": null,
        "city_district": null,
        "city": null,
        "state": "Laghman Province",
        "postcode": null,
        "country": "Afghanistan",
        "country_code": "af"
      },
      "address": "815, Mehtar Lām, 77709 Laghman Province, Afghanistan"
    },
    {
      "lat": 34.65319721138894,
      "lon": 70.16892493117442,
      "geoinfo": {
        "display_name": "Kharot, Mihtarlam, Laghman Province, Afghanistan",
        "road": null,
        "house_number": null,
        "neighbourhood": null,
        "suburb": null,
        "city_district": null,
        "city": "Kharot",
        "state": "Laghman Province",
        "postcode": null,
        "country": "Afghanistan",
        "country_code": "af"
      },
      "address": "008, Mehtar Lām, 72254 Laghman Province, Afghanistan"
    }
  ],
  "updated_at": "2025-10-19T00:46:49.602710+00:00",
  "_kind": "geo_samples"
}