{
  "country_code": "AF",
  "country": "Afghanistan",
  "city": "Rustāq",
  "geonameid": 1128265,
  "target_addresses": 2,
  "samples": [
    {
      "lat": 37.13395793784294,
      "lon": 69.78425875079749,
      "geoinfo": {
        "display_name": "Seh Ab, Rustaq, Takhar Province, Afghanistan",
        "road": null,
        "house_number": null,
        "neighbourhood": null,
        "suburb": null,
        "city_district": null,
        "city": "Seh Ab",
        "state": "Takhar Province",
        "postcode": null,
        "country": "Afghanistan",
        "country_code": "af"
      },
      "address": "Rustāq, Takhar Province, Afghanistan"
    },
    {
      "lat": 37.11493900191826,
      "lon": 69.85720083067254,
      "geoinfo": {
        "display_name": "Bazar Wales Waly Rostaq to Sarak Pul Baygem, Khaneqah, Rustaq, Takhar Province, Afghanistan",
        "road": "Bazar Wales Waly Rostaq to Sarak Pul Baygem",
        "house_number": null,
        "neighbourhood": null,
        "suburb": null,
        "city_district": null,
        "city": "Khaneqah",
        "state": "Takhar Province",
        "postcode": null,
        "country": "Afghanistan",
        "country_code": "af"
      },
      "address": "Bazar Wales Waly Rostaq to Sarak Pul Baygem, Rustāq, Takhar Province, Afghanistan"
    },
    {
      "lat": 37.126428877426314,
      "lon": 69.83193189669483,
      "geoinfo": {
        "display_name": "Bini Malakh, Rustaq, Takhar Province, Afghanistan",
        "road": null,
        "house_number": null,
        "neighbourhood": null,
        "suburb": null,
        "city_district": null,
        "city": "Bini Malakh",
        "state": "Takhar Province",
        "postcode": null,
        "country": "Afghanistan",
        "country_code": "af"
      },
      "address": "345, Rustāq, 13662 Takhar Province, Afghanistan"
    },
    {
      "lat": 37.12641118216673,
      "lon": 69.81641264196932,
      "geoinfo": {
        "display_name": "Rustaq, Takhar Province, Afghanistan",
        "road": null,
        "house_number": null,
        "neighbourhood": null,
        "suburb": null,
        "city_district": null,
        "city": "Rustaq",
        "state": "Takhar Province",
        "postcode": null,
        "country": "Afghanistan",
        "country_code": "af"
      },
      "address": "870, Rustāq, 64423 Takhar Province, Afghanistan"
    }
  ],
  "updated_at": "2025-10-19T02:24:25.484354+00:00",
  "_kind": "geo_samples"
}