{
  "country_code": "AF",
  "country": "Afghanistan",
  "city": "Shibirghān",
  "geonameid": 1125444,
  "target_addresses": 2,
  "samples": [
    {
      "lat": 36.64739142293009,
      "lon": 65.71418988675651,
      "geoinfo": {
        "display_name": "Darzab Qushtepa Road, Sheberghan, Shibirghan, Jowzjan Province, Afghanistan",
        "road": "Darzab Qushtepa Road",
        "house_number": null,
        "neighbourhood": null,
        "suburb": null,
        "city_district": null,
        "city": "Sheberghan",
        "state": "Jowzjan Province",
        "postcode": null,
        "country": "Afghanistan",
        "country_code": "af"
      },
      "address": "Darzab Qushtepa Road, Shibirghān, Jowzjan Province, Afghanistan"
    },
    {
      "lat": 36.695998520539305,
      "lon": 65.78954411750547,
      "geoinfo": {
        "display_name": "Tillya Tepe, ازسرک عمومی الی ختم قریه چویش کلان, Sheberghan, Shibirghan, Jowzjan Province, Afghanistan",
        "road": "ازسرک عمومی الی ختم قریه چویش کلان",
        "house_number": null,
        "neighbourhood": null,
        "suburb": null,
        "city_district": null,
        "city": "Sheberghan",
        "state": "Jowzjan Province",
        "postcode": null,
        "country": "Afghanistan",
        "country_code": "af"
      },
      "address": "ازسرک عمومی الی ختم قریه چویش کلان, Shibirghān, Jowzjan Province, Afghanistan"
    },
    {
      "lat": 36.679740138858506,
      "lon": 65.71705141770443,
      "geoinfo": {
        "display_name": "2.8 km Road from Sheberghan Andkhoy Highway to Eid Mahala Road, Sheberghan, Shibirghan, Jowzjan Province, Afghanistan",
        "road": "2.8 km Road from Sheberghan Andkhoy Highway to Eid Mahala Road",
        "house_number": null,
        "neighbourhood": null,
        "suburb": null,
        "city_district": null,
        "city": "Sheberghan",
        "state": "Jowzjan Province",
        "postcode": null,
        "country": "Afghanistan",
        "country_code": "af"
      },
      "address": "2.8 km Road from Sheberghan Andkhoy Highway to Eid Mahala Road, Shibirghān, Jowzjan Province, Afghanistan"
    },
    {
      "lat": 36.705105928698636,
      "lon": 65.72447907594021,
      "geoinfo": {
        "display_name": "of 18 km Jangal Bagh Mian Road to Qezal Ayaq village, Sheberghan, Shibirghan, Jowzjan Province, Afghanistan",
        "road": "of 18 km Jangal Bagh Mian Road to Qezal Ayaq village",
        "house_number": null,
        "neighbourhood": null,
        "suburb": null,
        "city_district": null,
        "city": "Sheberghan",
        "state": "Jowzjan Province",
        "postcode": null,
        "country": "Afghanistan",
        "country_code": "af"
      },
      "address": "of 18 km Jangal Bagh Mian Road to Qezal Ayaq village, Sheberghan, Shibirghan, 42417 Jowzjan Province, Afghanistan"
    },
    {
      "lat": 36.63016943829453,
      "lon": 65.7505721485437,
      "geoinfo": {
        "display_name": "4 Km Road from Sheberghan-, Sheberghan, Shibirghan, Jowzjan Province, Afghanistan",
        "road": "4 Km Road from Sheberghan-",
        "house_number": null,
        "neighbourhood": null,
        "suburb": null,
        "city_district": null,
        "city": "Sheberghan",
        "state": "Jowzjan Province",
        "postcode": null,
        "country": "Afghanistan",
        "country_code": "af"
      },
      "address": "4 Km Road from Sheberghan-, Shibirghān, 24138 Jowzjan Province, Afghanistan"
    }
  ],
  "updated_at": "2025-10-19T00:46:42.315605+00:00",
  "_kind": "geo_samples"
}