{
  "country_code": "AF",
  "country": "Afghanistan",
  "city": "Zaranj",
  "geonameid": 1120985,
  "target_addresses": 2,
  "samples": [
    {
      "lat": 30.934244175450765,
      "lon": 61.87048555819174,
      "geoinfo": {
        "display_name": "Zaranj, Nimruz Province, Afghanistan",
        "road": null,
        "house_number": null,
        "neighbourhood": null,
        "suburb": null,
        "city_district": null,
        "city": "Zaranj",
        "state": "Nimruz Province",
        "postcode": null,
        "country": "Afghanistan",
        "country_code": "af"
      },
      "address": "Zaranj, Nimruz Province, Afghanistan"
    },
    {
      "lat": 30.998594987964943,
      "lon": 61.8459552922664,
      "geoinfo": {
        "display_name": "Zaranj, ازسرک گمرک الی سرک سرشیله, Zaranj, Nimruz Province, Afghanistan",
        "road": "ازسرک گمرک الی سرک سرشیله",
        "house_number": null,
        "neighbourhood": null,
        "suburb": null,
        "city_district": null,
        "city": null,
        "state": "Nimruz Province",
        "postcode": null,
        "country": "Afghanistan",
        "country_code": "af"
      },
      "address": "ازسرک گمرک الی سرک سرشیله, Zaranj, Nimruz Province, Afghanistan"
    },
    {
      "lat": 30.949498487615017,
      "lon": 61.90725066886895,
      "geoinfo": {
        "display_name": "Zaranj, Nimruz Province, Afghanistan",
        "road": null,
        "house_number": null,
        "neighbourhood": null,
        "suburb": null,
        "city_district": null,
        "city": "Zaranj",
        "state": "Nimruz Province",
        "postcode": null,
        "country": "Afghanistan",
        "country_code": "af"
      },
      "address": "584, Zaranj, 37698 Nimruz Province, Afghanistan"
    },
    {
      "lat": 30.9567908227044,
      "lon": 61.824335100447115,
      "geoinfo": {
        "display_name": "10 km road Nahri Shahi to Kang Din Mohammad, Muḩammad Ya‘qūb, Zaranj, Nimruz Province, Afghanistan",
        "road": "10 km road Nahri Shahi to Kang Din Mohammad",
        "house_number": null,
        "neighbourhood": null,
        "suburb": null,
        "city_district": null,
        "city": null,
        "state": "Nimruz Province",
        "postcode": null,
        "country": "Afghanistan",
        "country_code": "af"
      },
      "address": "10 km road Nahri Shahi to Kang Din Mohammad, Muḩammad Ya‘qūb, Zaranj, 74421 Nimruz Province, Afghanistan"
    }
  ],
  "updated_at": "2025-10-19T02:24:11.373483+00:00",
  "_kind": "geo_samples"
}