{
  "country_code": "AW",
  "country": "Aruba",
  "city": "Oranjestad",
  "geonameid": 3577154,
  "target_addresses": 25,
  "samples": [
    {
      "lat": 12.543128318615214,
      "lon": -70.03192458872411,
      "geoinfo": {
        "display_name": "97HN12, Ponton, Oranjestad West, Ponton, Oranjestad, Aruba, Netherlands",
        "road": "Ponton",
        "house_number": "97HN12",
        "neighbourhood": "Ponton",
        "suburb": null,
        "city_district": null,
        "city": "Ponton",
        "state": null,
        "postcode": null,
        "country": "Aruba",
        "country_code": "nl"
      },
      "address": "97HN12 Ponton, Oranjestad, Aruba"
    },
    {
      "lat": 12.557770051014034,
      "lon": -70.04054055246651,
      "geoinfo": {
        "display_name": "Washington, Bubali, Aruba, Netherlands",
        "road": "Washington",
        "house_number": null,
        "neighbourhood": "Washington",
        "suburb": null,
        "city_district": null,
        "city": "Bubali",
        "state": null,
        "postcode": null,
        "country": "Aruba",
        "country_code": "nl"
      },
      "address": "Washington, Oranjestad, Aruba"
    },
    {
      "lat": 12.5489642459932,
      "lon": -70.02903409144658,
      "geoinfo": {
        "display_name": "Tanki Flip, Aruba, Netherlands",
        "road": null,
        "house_number": null,
        "neighbourhood": null,
        "suburb": null,
        "city_district": null,
        "city": "Tanki Flip",
        "state": null,
        "postcode": null,
        "country": "Aruba",
        "country_code": "nl"
      },
      "address": "Oranjestad, Aruba"
    },
    {
      "lat": 12.507059400411505,
      "lon": -70.04384445012117,
      "geoinfo": {
        "display_name": "Rancho, Oranjestad Oost, Oranjestad, Aruba, Netherlands",
        "road": null,
        "house_number": null,
        "neighbourhood": "Rancho",
        "suburb": null,
        "city_district": null,
        "city": "Oranjestad",
        "state": null,
        "postcode": null,
        "country": "Aruba",
        "country_code": "nl"
      },
      "address": "Rancho, Oranjestad, Aruba"
    },
    {
      "lat": 12.515504761427115,
      "lon": -69.99479452805798,
      "geoinfo": {
        "display_name": "83A, Caya G.F. Betico Croes, Hooiberg, Wayaca, Aruba, Netherlands",
        "road": "Caya G.F. Betico Croes",
        "house_number": "83A",
        "neighbourhood": "Hooiberg",
        "suburb": null,
        "city_district": null,
        "city": "Wayaca",
        "state": null,
        "postcode": null,
        "country": "Aruba",
        "country_code": "nl"
      },
      "address": "83A Caya G.F. Betico Croes, Oranjestad, Aruba"
    },
    {
      "lat": 12.493150311702356,
      "lon": -69.99560183195014,
      "geoinfo": {
        "display_name": "11A, Mahuma, Oranjestad Oost, Wayaca, Oranjestad, Aruba, Netherlands",
        "road": "Mahuma",
        "house_number": "11A",
        "neighbourhood": "Mahuma",
        "suburb": null,
        "city_district": null,
        "city": "Wayaca",
        "state": null,
        "postcode": null,
        "country": "Aruba",
        "country_code": "nl"
      },
      "address": "11A Mahuma, Oranjestad, Aruba"
    },
    {
      "lat": 12.565127588153036,
      "lon": -70.03260510876902,
      "geoinfo": {
        "display_name": "Caribbean Palm Village, Noord, Aruba, Netherlands",
        "road": "Noord",
        "house_number": null,
        "neighbourhood": null,
        "suburb": "Noord",
        "city_district": null,
        "city": null,
        "state": null,
        "postcode": null,
        "country": "Aruba",
        "country_code": "nl"
      },
      "address": "Noord, Oranjestad, Aruba"
    },
    {
      "lat": 12.51305994241267,
      "lon": -70.02007007517633,
      "geoinfo": {
        "display_name": "27, Guyabastraat, Oranjestad Oost, Dakota, Oranjestad, Aruba, Netherlands",
        "road": "Guyabastraat",
        "house_number": "27",
        "neighbourhood": null,
        "suburb": null,
        "city_district": null,
        "city": "Dakota",
        "state": null,
        "postcode": null,
        "country": "Aruba",
        "country_code": "nl"
      },
      "address": "27 Guyabastraat, Oranjestad, Aruba"
    },
    {
      "lat": 12.502166754451526,
      "lon": -70.01602498991478,
      "geoinfo": {
        "display_name": "Queen Beatrix International Airport, Sabana Berde, Oranjestad Oost, Wayaca, Oranjestad, Aruba, Netherlands",
        "road": "Sabana Berde",
        "house_number": null,
        "neighbourhood": null,
        "suburb": null,
        "city_district": null,
        "city": "Wayaca",
        "state": null,
        "postcode": null,
        "country": "Aruba",
        "country_code": "nl"
      },
      "address": "Sabana Berde, Oranjestad, Aruba"
    },
    {
      "lat": 12.509222739032847,
      "lon": -70.02205996961037,
      "geoinfo": {
        "display_name": "Don Elias Mansur Ballpark, Rumbastraat, Oranjestad Oost, Dakota, Oranjestad, Aruba, Netherlands",
        "road": "Rumbastraat",
        "house_number": null,
        "neighbourhood": null,
        "suburb": null,
        "city_district": null,
        "city": "Dakota",
        "state": null,
        "postcode": null,
        "country": "Aruba",
        "country_code": "nl"
      },
      "address": "Rumbastraat, Oranjestad, Aruba"
    },
    {
      "lat": 12.53760261383054,
      "lon": -70.06165807776878,
      "geoinfo": {
        "display_name": "J.E. Irausquin Boulevard, Bushiri, Oranjestad West, Punta Brabo, Oranjestad, Aruba, Netherlands",
        "road": "J.E. Irausquin Boulevard",
        "house_number": null,
        "neighbourhood": null,
        "suburb": "Bushiri",
        "city_district": null,
        "city": "Punta Brabo",
        "state": null,
        "postcode": null,
        "country": "Aruba",
        "country_code": "nl"
      },
      "address": "J.E. Irausquin Boulevard, Oranjestad, Aruba"
    },
    {
      "lat": 12.506403688213735,
      "lon": -70.02071160489592,
      "geoinfo": {
        "display_name": "Garage Cordia Toyota, 8, Camacuri, Oranjestad Oost, Oranjestad, Aruba, Netherlands",
        "road": "Camacuri",
        "house_number": "8",
        "neighbourhood": null,
        "suburb": null,
        "city_district": null,
        "city": "Oranjestad",
        "state": null,
        "postcode": null,
        "country": "Aruba",
        "country_code": "nl"
      },
      "address": "8 Camacuri, Oranjestad, Aruba"
    },
    {
      "lat": 12.490344608129714,
      "lon": -70.0068815829796,
      "geoinfo": {
        "display_name": "Cas di Paloma, Oranjestad Oost, Wayaca, Oranjestad, Aruba, Netherlands",
        "road": "Cas di Paloma",
        "house_number": null,
        "neighbourhood": null,
        "suburb": null,
        "city_district": null,
        "city": "Wayaca",
        "state": null,
        "postcode": null,
        "country": "Aruba",
        "country_code": "nl"
      },
      "address": "Cas di Paloma, Oranjestad, Aruba"
    },
    {
      "lat": 12.54065462401602,
      "lon": -70.02878641447072,
      "geoinfo": {
        "display_name": "145I, Tanki Leendert, Punto di Oro, Tanki Leendert, Aruba, Netherlands",
        "road": "Tanki Leendert",
        "house_number": "145I",
        "neighbourhood": "Punto di Oro",
        "suburb": null,
        "city_district": null,
        "city": "Tanki Leendert",
        "state": null,
        "postcode": null,
        "country": "Aruba",
        "country_code": "nl"
      },
      "address": "145I Tanki Leendert, Oranjestad, Aruba"
    },
    {
      "lat": 12.545010078034068,
      "lon": -70.03285468454183,
      "geoinfo": {
        "display_name": "Punto di Oro, Tanki Flip, Aruba, Netherlands",
        "road": null,
        "house_number": null,
        "neighbourhood": "Punto di Oro",
        "suburb": null,
        "city_district": null,
        "city": "Tanki Flip",
        "state": null,
        "postcode": null,
        "country": "Aruba",
        "country_code": "nl"
      },
      "address": "Punto di Oro, Oranjestad, Aruba"
    },
    {
      "lat": 12.531053106442664,
      "lon": -70.03475974767616,
      "geoinfo": {
        "display_name": "14, Santa Helenastraat, Madiki, Bushiri, Oranjestad West, Ponton, Oranjestad, Aruba, Netherlands",
        "road": "Santa Helenastraat",
        "house_number": "14",
        "neighbourhood": "Madiki",
        "suburb": "Bushiri",
        "city_district": null,
        "city": "Ponton",
        "state": null,
        "postcode": null,
        "country": "Aruba",
        "country_code": "nl"
      },
      "address": "14 Santa Helenastraat, Oranjestad, Aruba"
    },
    {
      "lat": 12.507061451984749,
      "lon": -70.01270997847452,
      "geoinfo": {
        "display_name": "36, Sabana Blanco, Oranjestad Oost, Wayaca, Oranjestad, Aruba, Netherlands",
        "road": "Sabana Blanco",
        "house_number": "36",
        "neighbourhood": "Sabana Blanco",
        "suburb": null,
        "city_district": null,
        "city": "Wayaca",
        "state": null,
        "postcode": null,
        "country": "Aruba",
        "country_code": "nl"
      },
      "address": "36 Sabana Blanco, Oranjestad, Aruba"
    },
    {
      "lat": 12.497680785301355,
      "lon": -70.00320742365585,
      "geoinfo": {
        "display_name": "28, Buena Vista, Oranjestad Oost, Wayaca, Oranjestad, Aruba, Netherlands",
        "road": "Buena Vista",
        "house_number": "28",
        "neighbourhood": null,
        "suburb": null,
        "city_district": null,
        "city": "Wayaca",
        "state": null,
        "postcode": null,
        "country": "Aruba",
        "country_code": "nl"
      },
      "address": "28 Buena Vista, Oranjestad, Aruba"
    },
    {
      "lat": 12.53060189226516,
      "lon": -70.00501463137059,
      "geoinfo": {
        "display_name": "100F, Paradera, Aruba, Netherlands",
        "road": "Paradera",
        "house_number": "100F",
        "neighbourhood": null,
        "suburb": null,
        "city_district": null,
        "city": "Paradera",
        "state": null,
        "postcode": null,
        "country": "Aruba",
        "country_code": "nl"
      },
      "address": "100F Paradera, Oranjestad, Aruba"
    },
    {
      "lat": 12.502313097939464,
      "lon": -70.02834342879144,
      "geoinfo": {
        "display_name": "Linear Park, Oranjestad Oost, Dakota, Oranjestad, Aruba, Netherlands",
        "road": "Linear Park",
        "house_number": null,
        "neighbourhood": null,
        "suburb": null,
        "city_district": null,
        "city": "Dakota",
        "state": null,
        "postcode": null,
        "country": "Aruba",
        "country_code": "nl"
      },
      "address": "Linear Park, Oranjestad, Aruba"
    },
    {
      "lat": 12.5045677259708,
      "lon": -70.00293092040712,
      "geoinfo": {
        "display_name": "321, Wayaca, Oranjestad Oost, Wayaca, Oranjestad, Aruba, Netherlands",
        "road": "Wayaca",
        "house_number": "321",
        "neighbourhood": "Wayaca",
        "suburb": null,
        "city_district": null,
        "city": "Wayaca",
        "state": null,
        "postcode": null,
        "country": "Aruba",
        "country_code": "nl"
      },
      "address": "321 Wayaca, Oranjestad, Aruba"
    },
    {
      "lat": 12.516259960494207,
      "lon": -70.06077066228313,
      "geoinfo": {
        "display_name": "Bushiri, Oranjestad West, Punta Brabo, Oranjestad, Aruba, Netherlands",
        "road": null,
        "house_number": null,
        "neighbourhood": null,
        "suburb": "Bushiri",
        "city_district": null,
        "city": "Punta Brabo",
        "state": null,
        "postcode": null,
        "country": "Aruba",
        "country_code": "nl"
      },
      "address": "Bushiri, Oranjestad, Aruba"
    },
    {
      "lat": 12.533531933176533,
      "lon": -70.03150264670725,
      "geoinfo": {
        "display_name": "2C, Ponton, Oranjestad West, Ponton, Oranjestad, Aruba, Netherlands",
        "road": "Ponton",
        "house_number": "2C",
        "neighbourhood": "Ponton",
        "suburb": null,
        "city_district": null,
        "city": "Ponton",
        "state": null,
        "postcode": null,
        "country": "Aruba",
        "country_code": "nl"
      },
      "address": "2C Ponton, Oranjestad, Aruba"
    },
    {
      "lat": 12.546111583959254,
      "lon": -70.01559584327302,
      "geoinfo": {
        "display_name": "59A, Catiri, Aruba, Netherlands",
        "road": "Catiri",
        "house_number": "59A",
        "neighbourhood": "Catiri",
        "suburb": null,
        "city_district": null,
        "city": "Catiri",
        "state": null,
        "postcode": null,
        "country": "Aruba",
        "country_code": "nl"
      },
      "address": "59A Catiri, Oranjestad, Aruba"
    },
    {
      "lat": 12.538860943320651,
      "lon": -69.98685822013829,
      "geoinfo": {
        "display_name": "12F, Tamarijn, Piedra Plat, Aruba, Netherlands",
        "road": "Tamarijn",
        "house_number": "12F",
        "neighbourhood": null,
        "suburb": null,
        "city_district": null,
        "city": "Piedra Plat",
        "state": null,
        "postcode": null,
        "country": "Aruba",
        "country_code": "nl"
      },
      "address": "12F Tamarijn, Oranjestad, Aruba"
    },
    {
      "lat": 12.53300593816055,
      "lon": -70.05919201571695,
      "geoinfo": {
        "display_name": "J.E. Irausquin Boulevard, Bushiri, Oranjestad West, Punta Brabo, Oranjestad, Aruba, Netherlands",
        "road": "J.E. Irausquin Boulevard",
        "house_number": null,
        "neighbourhood": null,
        "suburb": "Bushiri",
        "city_district": null,
        "city": "Punta Brabo",
        "state": null,
        "postcode": null,
        "country": "Aruba",
        "country_code": "nl"
      },
      "address": "692, J.E. Irausquin Boulevard, 64056 Oranjestad, Aruba"
    },
    {
      "lat": 12.499754380046577,
      "lon": -70.06164141325772,
      "geoinfo": {
        "display_name": "Bushiri, Oranjestad West, Punta Brabo, Oranjestad, Aruba, Netherlands",
        "road": null,
        "house_number": null,
        "neighbourhood": null,
        "suburb": "Bushiri",
        "city_district": null,
        "city": "Punta Brabo",
        "state": null,
        "postcode": null,
        "country": "Aruba",
        "country_code": "nl"
      },
      "address": "147, Bushiri, 13982 Oranjestad, Aruba"
    },
    {
      "lat": 12.508520835935194,
      "lon": -70.05822599523646,
      "geoinfo": {
        "display_name": "Bushiri, Oranjestad West, Punta Brabo, Oranjestad, Aruba, Netherlands",
        "road": null,
        "house_number": null,
        "neighbourhood": null,
        "suburb": "Bushiri",
        "city_district": null,
        "city": "Punta Brabo",
        "state": null,
        "postcode": null,
        "country": "Aruba",
        "country_code": "nl"
      },
      "address": "230, Bushiri, 40291 Oranjestad, Aruba"
    },
    {
      "lat": 12.501089215314144,
      "lon": -69.98942956117114,
      "geoinfo": {
        "display_name": "Jucuri, Papillon, Santa Cruz, Aruba, Netherlands",
        "road": "Jucuri",
        "house_number": null,
        "neighbourhood": "Papillon",
        "suburb": null,
        "city_district": null,
        "city": "Santa Cruz",
        "state": null,
        "postcode": null,
        "country": "Aruba",
        "country_code": "nl"
      },
      "address": "064, Jucuri, 49805 Oranjestad, Aruba"
    },
    {
      "lat": 12.509533125084191,
      "lon": -70.06357573292163,
      "geoinfo": {
        "display_name": "Bushiri, Oranjestad West, Punta Brabo, Oranjestad, Aruba, Netherlands",
        "road": null,
        "house_number": null,
        "neighbourhood": null,
        "suburb": "Bushiri",
        "city_district": null,
        "city": "Punta Brabo",
        "state": null,
        "postcode": null,
        "country": "Aruba",
        "country_code": "nl"
      },
      "address": "951, Bushiri, 64382 Oranjestad, Aruba"
    },
    {
      "lat": 12.541084355778498,
      "lon": -70.06060015775921,
      "geoinfo": {
        "display_name": "J.E. Irausquin Boulevard, Bushiri, Oranjestad West, Punta Brabo, Oranjestad, Aruba, Netherlands",
        "road": "J.E. Irausquin Boulevard",
        "house_number": null,
        "neighbourhood": null,
        "suburb": "Bushiri",
        "city_district": null,
        "city": "Punta Brabo",
        "state": null,
        "postcode": null,
        "country": "Aruba",
        "country_code": "nl"
      },
      "address": "533, J.E. Irausquin Boulevard, 55535 Oranjestad, Aruba"
    },
    {
      "lat": 12.54090995103965,
      "lon": -70.0154064736986,
      "geoinfo": {
        "display_name": "166C, Tanki Leendert, Aruba, Netherlands",
        "road": "Tanki Leendert",
        "house_number": "166C",
        "neighbourhood": null,
        "suburb": null,
        "city_district": null,
        "city": "Tanki Leendert",
        "state": null,
        "postcode": null,
        "country": "Aruba",
        "country_code": "nl"
      },
      "address": "166C, Tanki Leendert, 31701 Oranjestad, Aruba"
    },
    {
      "lat": 12.499520315973134,
      "lon": -70.00231723861103,
      "geoinfo": {
        "display_name": "Wayaca, Oranjestad Oost, Wayaca, Oranjestad, Aruba, Netherlands",
        "road": "Wayaca",
        "house_number": null,
        "neighbourhood": "Wayaca",
        "suburb": null,
        "city_district": null,
        "city": "Wayaca",
        "state": null,
        "postcode": null,
        "country": "Aruba",
        "country_code": "nl"
      },
      "address": "011, Wayaca, 97595 Oranjestad, Aruba"
    },
    {
      "lat": 12.508349109366382,
      "lon": -70.03080402712104,
      "geoinfo": {
        "display_name": "Linear Park, Oranjestad Oost, Dakota, Oranjestad, Aruba, Netherlands",
        "road": "Linear Park",
        "house_number": null,
        "neighbourhood": null,
        "suburb": null,
        "city_district": null,
        "city": "Dakota",
        "state": null,
        "postcode": null,
        "country": "Aruba",
        "country_code": "nl"
      },
      "address": "790, Linear Park, 57534 Oranjestad, Aruba"
    },
    {
      "lat": 12.518690453312512,
      "lon": -70.01553275343107,
      "geoinfo": {
        "display_name": "8, Appelsinastraat, Oranjestad Oost, Dakota, Oranjestad, Aruba, Netherlands",
        "road": "Appelsinastraat",
        "house_number": "8",
        "neighbourhood": null,
        "suburb": null,
        "city_district": null,
        "city": "Dakota",
        "state": null,
        "postcode": null,
        "country": "Aruba",
        "country_code": "nl"
      },
      "address": "8, Appelsinastraat, 39001 Oranjestad, Aruba"
    },
    {
      "lat": 12.536370078359619,
      "lon": -70.00648122850079,
      "geoinfo": {
        "display_name": "21A, Paradera, Aruba, Netherlands",
        "road": "Paradera",
        "house_number": "21A",
        "neighbourhood": null,
        "suburb": null,
        "city_district": null,
        "city": "Paradera",
        "state": null,
        "postcode": null,
        "country": "Aruba",
        "country_code": "nl"
      },
      "address": "21A, Paradera, 16585 Oranjestad, Aruba"
    },
    {
      "lat": 12.53106591594538,
      "lon": -70.05897782209517,
      "geoinfo": {
        "display_name": "J.E. Irausquin Boulevard, Bushiri, Oranjestad West, Punta Brabo, Oranjestad, Aruba, Netherlands",
        "road": "J.E. Irausquin Boulevard",
        "house_number": null,
        "neighbourhood": null,
        "suburb": "Bushiri",
        "city_district": null,
        "city": "Punta Brabo",
        "state": null,
        "postcode": null,
        "country": "Aruba",
        "country_code": "nl"
      },
      "address": "354, J.E. Irausquin Boulevard, 17943 Oranjestad, Aruba"
    },
    {
      "lat": 12.527052314791801,
      "lon": -70.01371189725671,
      "geoinfo": {
        "display_name": "Avenida Edgar J. (Watty) Vos, Oranjestad Oost, Dakota, Oranjestad, Aruba, Netherlands",
        "road": "Avenida Edgar J. (Watty) Vos",
        "house_number": null,
        "neighbourhood": null,
        "suburb": null,
        "city_district": null,
        "city": "Dakota",
        "state": null,
        "postcode": null,
        "country": "Aruba",
        "country_code": "nl"
      },
      "address": "733, Avenida Edgar J. (Watty) Vos, 85014 Oranjestad, Aruba"
    },
    {
      "lat": 12.530853699749134,
      "lon": -70.02608847627528,
      "geoinfo": {
        "display_name": "82, Solito, Oranjestad West, Ponton, Oranjestad, Aruba, Netherlands",
        "road": "Solito",
        "house_number": "82",
        "neighbourhood": null,
        "suburb": null,
        "city_district": null,
        "city": "Ponton",
        "state": null,
        "postcode": null,
        "country": "Aruba",
        "country_code": "nl"
      },
      "address": "82, Solito, 33693 Oranjestad, Aruba"
    }
  ],
  "updated_at": "2025-10-19T01:00:57.528323+00:00",
  "_kind": "geo_samples"
}