{
  "country_code": "SA",
  "country": "Saudi Arabia",
  "city": "Jizan",
  "geonameid": 105299,
  "target_addresses": 2,
  "samples": [
    {
      "lat": 16.87076036736736,
      "lon": 42.511277388811166,
      "geoinfo": {
        "display_name": "Jizan, Jazan, Jazan Province, 82723, Saudi Arabia",
        "road": null,
        "house_number": null,
        "neighbourhood": null,
        "suburb": null,
        "city_district": null,
        "city": "Jizan",
        "state": "Jazan Province",
        "postcode": "82723",
        "country": "Saudi Arabia",
        "country_code": "sa"
      },
      "address": "Jizan, Jazan Province, Saudi Arabia"
    },
    {
      "lat": 16.88403065684435,
      "lon": 42.564323749696015,
      "geoinfo": {
        "display_name": "As Safa District, Jizan, Jazan, Jazan Province, 82721, Saudi Arabia",
        "road": null,
        "house_number": null,
        "neighbourhood": "As Safa District",
        "suburb": null,
        "city_district": null,
        "city": "Jizan",
        "state": "Jazan Province",
        "postcode": "82721",
        "country": "Saudi Arabia",
        "country_code": "sa"
      },
      "address": "As Safa District, Jizan, Jazan Province, Saudi Arabia"
    },
    {
      "lat": 16.856764700915836,
      "lon": 42.583267572809916,
      "geoinfo": {
        "display_name": "Prince Sultan St, Al Murjan District, Jizan, Jazan, Jazan Province, 82721, Saudi Arabia",
        "road": "Prince Sultan St",
        "house_number": null,
        "neighbourhood": "Al Murjan District",
        "suburb": null,
        "city_district": null,
        "city": "Jizan",
        "state": "Jazan Province",
        "postcode": "82721",
        "country": "Saudi Arabia",
        "country_code": "sa"
      },
      "address": "597, Prince Sultan St, Al Murjan District, Jizan, Jazan, Jazan Province, 82721, Saudi Arabia"
    },
    {
      "lat": 16.930322130480302,
      "lon": 42.54496150578584,
      "geoinfo": {
        "display_name": "Radisson Blu, Cornish, Ash Shati District, Jizan, Jazan, Jazan Province, 45142, Saudi Arabia",
        "road": "Cornish",
        "house_number": null,
        "neighbourhood": "Ash Shati District",
        "suburb": null,
        "city_district": null,
        "city": "Jizan",
        "state": "Jazan Province",
        "postcode": "45142",
        "country": "Saudi Arabia",
        "country_code": "sa"
      },
      "address": "811, Cornish, Jizan, 45142 Jazan Province, Saudi Arabia"
    }
  ],
  "updated_at": "2025-10-19T06:57:14.608573+00:00",
  "_kind": "geo_samples"
}