{
  "country_code": "SA",
  "country": "Saudi Arabia",
  "city": "Khobar",
  "geonameid": 109323,
  "target_addresses": 2,
  "samples": [
    {
      "lat": 26.30690481717029,
      "lon": 50.189859297137794,
      "geoinfo": {
        "display_name": "Al-Quds Street, Al Hada, Al Aqrabiyah, Al Khobar, Khobar Governorate, Eastern Province, 34436, Saudi Arabia",
        "road": "Al-Quds Street",
        "house_number": null,
        "neighbourhood": "Al Hada",
        "suburb": "Al Aqrabiyah",
        "city_district": null,
        "city": "Al Khobar",
        "state": "Eastern Province",
        "postcode": "34436",
        "country": "Saudi Arabia",
        "country_code": "sa"
      },
      "address": "Al-Quds Street, Khobar, Eastern Province, Saudi Arabia"
    },
    {
      "lat": 26.285810794278895,
      "lon": 50.217940229759236,
      "geoinfo": {
        "display_name": "Prince Majid Street, Al Khubar Ash Shamaliyah, Al Khobar, Khobar Governorate, Eastern Province, 34414, Saudi Arabia",
        "road": "Prince Majid Street",
        "house_number": null,
        "neighbourhood": "Al Khubar Ash Shamaliyah",
        "suburb": null,
        "city_district": null,
        "city": "Al Khobar",
        "state": "Eastern Province",
        "postcode": "34414",
        "country": "Saudi Arabia",
        "country_code": "sa"
      },
      "address": "Prince Majid Street, Khobar, Eastern Province, Saudi Arabia"
    },
    {
      "lat": 26.26526517907927,
      "lon": 50.16165656871091,
      "geoinfo": {
        "display_name": "طريق الملك خالد الفرعي, Dhahran, Dammam Governorate, Eastern Province, 34624, Saudi Arabia",
        "road": "طريق الملك خالد الفرعي",
        "house_number": null,
        "neighbourhood": null,
        "suburb": null,
        "city_district": null,
        "city": "Dhahran",
        "state": "Eastern Province",
        "postcode": "34624",
        "country": "Saudi Arabia",
        "country_code": "sa"
      },
      "address": "803, طريق الملك خالد الفرعي, Dhahran, Dammam Governorate, Eastern Province, 34624, Saudi Arabia"
    },
    {
      "lat": 26.27707449896756,
      "lon": 50.20328348142075,
      "geoinfo": {
        "display_name": "Al Khubar Al Janubiyah, Al Khobar, Khobar Governorate, Eastern Province, 23126, Saudi Arabia",
        "road": null,
        "house_number": null,
        "neighbourhood": "Al Khubar Al Janubiyah",
        "suburb": null,
        "city_district": null,
        "city": "Al Khobar",
        "state": "Eastern Province",
        "postcode": "23126",
        "country": "Saudi Arabia",
        "country_code": "sa"
      },
      "address": "377, Al Khubar Al Janubiyah, Al Khobar, Khobar Governorate, Eastern Province, 23126, Saudi Arabia"
    }
  ],
  "updated_at": "2025-10-19T04:37:49.636128+00:00",
  "_kind": "geo_samples"
}