{
  "country_code": "SA",
  "country": "Saudi Arabia",
  "city": "Turubah",
  "geonameid": 393275,
  "target_addresses": 2,
  "samples": [
    {
      "lat": 28.23152517803595,
      "lon": 42.915753495201194,
      "geoinfo": {
        "display_name": "Turubah, Baqa, Ḥa'il Province, Saudi Arabia",
        "road": null,
        "house_number": null,
        "neighbourhood": null,
        "suburb": null,
        "city_district": null,
        "city": "Turubah",
        "state": "Ḥa'il Province",
        "postcode": null,
        "country": "Saudi Arabia",
        "country_code": "sa"
      },
      "address": "Turubah, Ḥa'il Province, Saudi Arabia"
    },
    {
      "lat": 28.233877444837397,
      "lon": 42.90071937100375,
      "geoinfo": {
        "display_name": "70, Turubah, Baqa, Ḥa'il Province, Saudi Arabia",
        "road": "70",
        "house_number": null,
        "neighbourhood": null,
        "suburb": null,
        "city_district": null,
        "city": "Turubah",
        "state": "Ḥa'il Province",
        "postcode": null,
        "country": "Saudi Arabia",
        "country_code": "sa"
      },
      "address": "70, Turubah, Ḥa'il Province, Saudi Arabia"
    },
    {
      "lat": 28.24982872245653,
      "lon": 42.87884669114674,
      "geoinfo": {
        "display_name": "Turubah, Baqa, Ḥa'il Province, Saudi Arabia",
        "road": null,
        "house_number": null,
        "neighbourhood": null,
        "suburb": null,
        "city_district": null,
        "city": "Turubah",
        "state": "Ḥa'il Province",
        "postcode": null,
        "country": "Saudi Arabia",
        "country_code": "sa"
      },
      "address": "280, Turubah, Baqa, 29651 Ḥa'il Province, Saudi Arabia"
    },
    {
      "lat": 28.29241145591072,
      "lon": 42.953272977437585,
      "geoinfo": {
        "display_name": "عرق المظهور, Al Asyah, Al-Qassim Province, Saudi Arabia",
        "road": null,
        "house_number": null,
        "neighbourhood": null,
        "suburb": null,
        "city_district": null,
        "city": null,
        "state": "Al-Qassim Province",
        "postcode": null,
        "country": "Saudi Arabia",
        "country_code": "sa"
      },
      "address": "334, عرق المظهور, Al Asyah, 09890 Al-Qassim Province, Saudi Arabia"
    }
  ],
  "updated_at": "2025-10-19T06:57:37.960360+00:00",
  "_kind": "geo_samples"
}