{
  "country_code": "AI",
  "country": "Anguilla",
  "city": "The Valley",
  "geonameid": 3573374,
  "target_addresses": 100,
  "samples": [
    {
      "lat": 18.222322202877226,
      "lon": -63.055519973110584,
      "geoinfo": {
        "display_name": "North Side Road, North Side, The Valley, AI-2640, Anguilla",
        "road": "North Side Road",
        "house_number": null,
        "neighbourhood": null,
        "suburb": null,
        "city_district": null,
        "city": "The Valley",
        "state": null,
        "postcode": "AI-2640",
        "country": "Anguilla",
        "country_code": "ai"
      },
      "address": "North Side Road, The Valley, Anguilla"
    },
    {
      "lat": 18.236980294440443,
      "lon": -63.091382318392874,
      "geoinfo": {
        "display_name": "Flat Cap Point, The Valley, AI-2640, Anguilla",
        "road": null,
        "house_number": null,
        "neighbourhood": null,
        "suburb": null,
        "city_district": null,
        "city": "The Valley",
        "state": null,
        "postcode": "AI-2640",
        "country": "Anguilla",
        "country_code": "ai"
      },
      "address": "The Valley, Anguilla"
    },
    {
      "lat": 18.18698302890231,
      "lon": -63.05127522150759,
      "geoinfo": {
        "display_name": "Forest Road, The Valley, AI-2640, Anguilla",
        "road": "Forest Road",
        "house_number": null,
        "neighbourhood": null,
        "suburb": null,
        "city_district": null,
        "city": "The Valley",
        "state": null,
        "postcode": "AI-2640",
        "country": "Anguilla",
        "country_code": "ai"
      },
      "address": "Forest Road, The Valley, Anguilla"
    },
    {
      "lat": 18.214989598905916,
      "lon": -63.080677421312295,
      "geoinfo": {
        "display_name": "North View Road, North Hill Village, AI-2640, Anguilla",
        "road": "North View Road",
        "house_number": null,
        "neighbourhood": null,
        "suburb": null,
        "city_district": null,
        "city": "North Hill Village",
        "state": null,
        "postcode": "AI-2640",
        "country": "Anguilla",
        "country_code": "ai"
      },
      "address": "North View Road, The Valley, Anguilla"
    },
    {
      "lat": 18.200179143079367,
      "lon": -63.0427169741277,
      "geoinfo": {
        "display_name": "Tanglewood Road, The Valley, AI-2640, Anguilla",
        "road": "Tanglewood Road",
        "house_number": null,
        "neighbourhood": null,
        "suburb": null,
        "city_district": null,
        "city": "The Valley",
        "state": null,
        "postcode": "AI-2640",
        "country": "Anguilla",
        "country_code": "ai"
      },
      "address": "Tanglewood Road, The Valley, Anguilla"
    },
    {
      "lat": 18.254523875028383,
      "lon": -63.03806103667098,
      "geoinfo": {
        "display_name": "Zemi Beach House, LXR Hotels & Resorts, Brimegin Road, Shoal Bay Village, AI-2640, Anguilla",
        "road": "Brimegin Road",
        "house_number": null,
        "neighbourhood": null,
        "suburb": null,
        "city_district": null,
        "city": "Shoal Bay Village",
        "state": null,
        "postcode": "AI-2640",
        "country": "Anguilla",
        "country_code": "ai"
      },
      "address": "Brimegin Road, The Valley, Anguilla"
    },
    {
      "lat": 18.202917325131384,
      "lon": -63.04478317092595,
      "geoinfo": {
        "display_name": "28, Mount Pleasant Road, The Valley, AI-2640, Anguilla",
        "road": "Mount Pleasant Road",
        "house_number": null,
        "neighbourhood": null,
        "suburb": null,
        "city_district": null,
        "city": "The Valley",
        "state": null,
        "postcode": "AI-2640",
        "country": "Anguilla",
        "country_code": "ai"
      },
      "address": "Mount Pleasant Road, The Valley, Anguilla"
    },
    {
      "lat": 18.230621683371076,
      "lon": -63.06632148309959,
      "geoinfo": {
        "display_name": "Eric Reid Road, North Side, The Valley, AI-2640, Anguilla",
        "road": "Eric Reid Road",
        "house_number": null,
        "neighbourhood": null,
        "suburb": null,
        "city_district": null,
        "city": "The Valley",
        "state": null,
        "postcode": "AI-2640",
        "country": "Anguilla",
        "country_code": "ai"
      },
      "address": "Eric Reid Road, The Valley, Anguilla"
    },
    {
      "lat": 18.236661326172104,
      "lon": -63.07542074329896,
      "geoinfo": {
        "display_name": "Flat Cap Point, Flat Cap Road, The Valley, AI-2640, Anguilla",
        "road": "Flat Cap Road",
        "house_number": null,
        "neighbourhood": null,
        "suburb": null,
        "city_district": null,
        "city": "The Valley",
        "state": null,
        "postcode": "AI-2640",
        "country": "Anguilla",
        "country_code": "ai"
      },
      "address": "Flat Cap Road, The Valley, Anguilla"
    },
    {
      "lat": 18.208206375997435,
      "lon": -63.06964069456471,
      "geoinfo": {
        "display_name": "Government House Drive, George Hill, AI-2640, Anguilla",
        "road": "Government House Drive",
        "house_number": null,
        "neighbourhood": null,
        "suburb": null,
        "city_district": null,
        "city": "George Hill",
        "state": null,
        "postcode": "AI-2640",
        "country": "Anguilla",
        "country_code": "ai"
      },
      "address": "Government House Drive, The Valley, Anguilla"
    },
    {
      "lat": 18.19799047061677,
      "lon": -63.09377692518072,
      "geoinfo": {
        "display_name": "Sandy Ground, Sir Emile Gumbs Drive, Sandy Ground, Anguilla",
        "road": "Sir Emile Gumbs Drive",
        "house_number": null,
        "neighbourhood": null,
        "suburb": null,
        "city_district": null,
        "city": "Sandy Ground",
        "state": null,
        "postcode": null,
        "country": "Anguilla",
        "country_code": "ai"
      },
      "address": "Sir Emile Gumbs Drive, The Valley, Anguilla"
    },
    {
      "lat": 18.2070994879796,
      "lon": -63.0204376181097,
      "geoinfo": {
        "display_name": "James Beard Drive, The Valley, AI-2640, Anguilla",
        "road": "James Beard Drive",
        "house_number": null,
        "neighbourhood": null,
        "suburb": null,
        "city_district": null,
        "city": "The Valley",
        "state": null,
        "postcode": "AI-2640",
        "country": "Anguilla",
        "country_code": "ai"
      },
      "address": "James Beard Drive, The Valley, Anguilla"
    },
    {
      "lat": 18.2011696161699,
      "lon": -63.075546155914544,
      "geoinfo": {
        "display_name": "Edwin Wallace Rey Drive, George Hill, AI-2640, Anguilla",
        "road": "Edwin Wallace Rey Drive",
        "house_number": null,
        "neighbourhood": null,
        "suburb": null,
        "city_district": null,
        "city": "George Hill",
        "state": null,
        "postcode": "AI-2640",
        "country": "Anguilla",
        "country_code": "ai"
      },
      "address": "Edwin Wallace Rey Drive, The Valley, Anguilla"
    },
    {
      "lat": 18.222818418777752,
      "lon": -63.06474434216981,
      "geoinfo": {
        "display_name": "Roaches Hill Road, Crocus Hill, The Valley, AI-2640, Anguilla",
        "road": "Roaches Hill Road",
        "house_number": null,
        "neighbourhood": null,
        "suburb": null,
        "city_district": null,
        "city": "The Valley",
        "state": null,
        "postcode": "AI-2640",
        "country": "Anguilla",
        "country_code": "ai"
      },
      "address": "Roaches Hill Road, The Valley, Anguilla"
    },
    {
      "lat": 18.19783389334047,
      "lon": -63.07591777067623,
      "geoinfo": {
        "display_name": "Swing High Road, North Hill Village, AI-2640, Anguilla",
        "road": "Swing High Road",
        "house_number": null,
        "neighbourhood": null,
        "suburb": null,
        "city_district": null,
        "city": "North Hill Village",
        "state": null,
        "postcode": "AI-2640",
        "country": "Anguilla",
        "country_code": "ai"
      },
      "address": "Swing High Road, The Valley, Anguilla"
    },
    {
      "lat": 18.210894765555082,
      "lon": -63.01478315999908,
      "geoinfo": {
        "display_name": "Long Path Road, The Valley, AI-2640, Anguilla",
        "road": "Long Path Road",
        "house_number": null,
        "neighbourhood": null,
        "suburb": null,
        "city_district": null,
        "city": "The Valley",
        "state": null,
        "postcode": "AI-2640",
        "country": "Anguilla",
        "country_code": "ai"
      },
      "address": "Long Path Road, The Valley, Anguilla"
    },
    {
      "lat": 18.19491541144931,
      "lon": -63.04843206193036,
      "geoinfo": {
        "display_name": "Corito Road, The Valley, AI-2640, Anguilla",
        "road": "Corito Road",
        "house_number": null,
        "neighbourhood": null,
        "suburb": null,
        "city_district": null,
        "city": "The Valley",
        "state": null,
        "postcode": "AI-2640",
        "country": "Anguilla",
        "country_code": "ai"
      },
      "address": "Corito Road, The Valley, Anguilla"
    },
    {
      "lat": 18.229144692228285,
      "lon": -63.03613637840795,
      "geoinfo": {
        "display_name": "Petty's Drive, Little Dix, Stoney Ground, AI-2640, Anguilla",
        "road": "Petty's Drive",
        "house_number": null,
        "neighbourhood": null,
        "suburb": null,
        "city_district": null,
        "city": "Stoney Ground",
        "state": null,
        "postcode": "AI-2640",
        "country": "Anguilla",
        "country_code": "ai"
      },
      "address": "Petty's Drive, The Valley, Anguilla"
    },
    {
      "lat": 18.217599348703775,
      "lon": -63.07104845347888,
      "geoinfo": {
        "display_name": "Katouche Road, Crocus Hill, North Hill Village, AI-2640, Anguilla",
        "road": "Katouche Road",
        "house_number": null,
        "neighbourhood": null,
        "suburb": null,
        "city_district": null,
        "city": "North Hill Village",
        "state": null,
        "postcode": "AI-2640",
        "country": "Anguilla",
        "country_code": "ai"
      },
      "address": "Katouche Road, The Valley, Anguilla"
    },
    {
      "lat": 18.21971039322009,
      "lon": -63.04534962996386,
      "geoinfo": {
        "display_name": "Stoney Ground Road, Cauls Bottom, The Valley, AI-2640, Anguilla",
        "road": "Stoney Ground Road",
        "house_number": null,
        "neighbourhood": null,
        "suburb": null,
        "city_district": null,
        "city": "The Valley",
        "state": null,
        "postcode": "AI-2640",
        "country": "Anguilla",
        "country_code": "ai"
      },
      "address": "Stoney Ground Road, The Valley, Anguilla"
    },
    {
      "lat": 18.231733101428595,
      "lon": -63.06919895837982,
      "geoinfo": {
        "display_name": "Limestone Bay Road, The Valley, AI-2640, Anguilla",
        "road": "Limestone Bay Road",
        "house_number": null,
        "neighbourhood": null,
        "suburb": null,
        "city_district": null,
        "city": "The Valley",
        "state": null,
        "postcode": "AI-2640",
        "country": "Anguilla",
        "country_code": "ai"
      },
      "address": "Limestone Bay Road, The Valley, Anguilla"
    },
    {
      "lat": 18.1813388304195,
      "lon": -63.07185938495994,
      "geoinfo": {
        "display_name": "Jeremiah Gumbs Highway, Blowing Point, AI-2640, Anguilla",
        "road": "Jeremiah Gumbs Highway",
        "house_number": null,
        "neighbourhood": null,
        "suburb": null,
        "city_district": null,
        "city": "Blowing Point",
        "state": null,
        "postcode": "AI-2640",
        "country": "Anguilla",
        "country_code": "ai"
      },
      "address": "Jeremiah Gumbs Highway, The Valley, Anguilla"
    },
    {
      "lat": 18.194345667936613,
      "lon": -63.08786197945172,
      "geoinfo": {
        "display_name": "Atlantic Star Center of Medical Excellence, South Hill Road, South Hill, Anguilla",
        "road": "South Hill Road",
        "house_number": null,
        "neighbourhood": null,
        "suburb": null,
        "city_district": null,
        "city": "South Hill",
        "state": null,
        "postcode": null,
        "country": "Anguilla",
        "country_code": "ai"
      },
      "address": "South Hill Road, The Valley, Anguilla"
    },
    {
      "lat": 18.233865077144465,
      "lon": -63.03265543084934,
      "geoinfo": {
        "display_name": "Watkins Hodge Road, Little Dix, The Valley, AI-2640, Anguilla",
        "road": "Watkins Hodge Road",
        "house_number": null,
        "neighbourhood": null,
        "suburb": null,
        "city_district": null,
        "city": "The Valley",
        "state": null,
        "postcode": "AI-2640",
        "country": "Anguilla",
        "country_code": "ai"
      },
      "address": "Watkins Hodge Road, The Valley, Anguilla"
    },
    {
      "lat": 18.248684087492983,
      "lon": -63.029352706917685,
      "geoinfo": {
        "display_name": "Austin Rogers Road, Little Dix, Shoal Bay Village, AI-2640, Anguilla",
        "road": "Austin Rogers Road",
        "house_number": null,
        "neighbourhood": null,
        "suburb": null,
        "city_district": null,
        "city": "Shoal Bay Village",
        "state": null,
        "postcode": "AI-2640",
        "country": "Anguilla",
        "country_code": "ai"
      },
      "address": "Austin Rogers Road, The Valley, Anguilla"
    },
    {
      "lat": 18.202004349565673,
      "lon": -63.065236143050186,
      "geoinfo": {
        "display_name": "Little Harbour Road North, George Hill, AI-2640, Anguilla",
        "road": "Little Harbour Road North",
        "house_number": null,
        "neighbourhood": null,
        "suburb": null,
        "city_district": null,
        "city": "George Hill",
        "state": null,
        "postcode": "AI-2640",
        "country": "Anguilla",
        "country_code": "ai"
      },
      "address": "Little Harbour Road North, The Valley, Anguilla"
    },
    {
      "lat": 18.231268272607537,
      "lon": -63.049428324630725,
      "geoinfo": {
        "display_name": "True Eyes Road, North Side, The Valley, AI-2640, Anguilla",
        "road": "True Eyes Road",
        "house_number": null,
        "neighbourhood": null,
        "suburb": null,
        "city_district": null,
        "city": "The Valley",
        "state": null,
        "postcode": "AI-2640",
        "country": "Anguilla",
        "country_code": "ai"
      },
      "address": "True Eyes Road, The Valley, Anguilla"
    },
    {
      "lat": 18.218312246012655,
      "lon": -63.058299971620066,
      "geoinfo": {
        "display_name": "Landsome Road, Crocus Hill, The Valley, AI-2640, Anguilla",
        "road": "Landsome Road",
        "house_number": null,
        "neighbourhood": null,
        "suburb": null,
        "city_district": null,
        "city": "The Valley",
        "state": null,
        "postcode": "AI-2640",
        "country": "Anguilla",
        "country_code": "ai"
      },
      "address": "Landsome Road, The Valley, Anguilla"
    },
    {
      "lat": 18.232738948587635,
      "lon": -63.049896695217264,
      "geoinfo": {
        "display_name": "Brimegin Drive, North Side, Stoney Ground, AI-2640, Anguilla",
        "road": "Brimegin Drive",
        "house_number": null,
        "neighbourhood": null,
        "suburb": null,
        "city_district": null,
        "city": "Stoney Ground",
        "state": null,
        "postcode": "AI-2640",
        "country": "Anguilla",
        "country_code": "ai"
      },
      "address": "Brimegin Drive, The Valley, Anguilla"
    },
    {
      "lat": 18.208871627391428,
      "lon": -63.076726605742486,
      "geoinfo": {
        "display_name": "Reverend Leonard Carty Road, Crocus Hill, North Hill Village, AI-2640, Anguilla",
        "road": "Reverend Leonard Carty Road",
        "house_number": null,
        "neighbourhood": null,
        "suburb": null,
        "city_district": null,
        "city": "North Hill Village",
        "state": null,
        "postcode": "AI-2640",
        "country": "Anguilla",
        "country_code": "ai"
      },
      "address": "Reverend Leonard Carty Road, The Valley, Anguilla"
    },
    {
      "lat": 18.201632444543105,
      "lon": -63.05962123382003,
      "geoinfo": {
        "display_name": "Long Ground Road, George Hill, AI-2640, Anguilla",
        "road": "Long Ground Road",
        "house_number": null,
        "neighbourhood": null,
        "suburb": null,
        "city_district": null,
        "city": "George Hill",
        "state": null,
        "postcode": "AI-2640",
        "country": "Anguilla",
        "country_code": "ai"
      },
      "address": "Long Ground Road, The Valley, Anguilla"
    },
    {
      "lat": 18.212766790716806,
      "lon": -63.06866299799034,
      "geoinfo": {
        "display_name": "Katouche Trail, Crocus Hill, North Hill Village, AI-2640, Anguilla",
        "road": "Katouche Trail",
        "house_number": null,
        "neighbourhood": null,
        "suburb": null,
        "city_district": null,
        "city": "North Hill Village",
        "state": null,
        "postcode": "AI-2640",
        "country": "Anguilla",
        "country_code": "ai"
      },
      "address": "Katouche Trail, The Valley, Anguilla"
    },
    {
      "lat": 18.209853705232767,
      "lon": -63.0627422077033,
      "geoinfo": {
        "display_name": "Shale Lane, Crocus Hill, The Valley, AI-2640, Anguilla",
        "road": "Shale Lane",
        "house_number": null,
        "neighbourhood": null,
        "suburb": null,
        "city_district": null,
        "city": "The Valley",
        "state": null,
        "postcode": "AI-2640",
        "country": "Anguilla",
        "country_code": "ai"
      },
      "address": "Shale Lane, The Valley, Anguilla"
    },
    {
      "lat": 18.21676810207195,
      "lon": -63.064383105048826,
      "geoinfo": {
        "display_name": "Pomseratte Road, Crocus Hill, The Valley, AI-2640, Anguilla",
        "road": "Pomseratte Road",
        "house_number": null,
        "neighbourhood": null,
        "suburb": null,
        "city_district": null,
        "city": "The Valley",
        "state": null,
        "postcode": "AI-2640",
        "country": "Anguilla",
        "country_code": "ai"
      },
      "address": "Pomseratte Road, The Valley, Anguilla"
    },
    {
      "lat": 18.213704201753046,
      "lon": -63.0632877065397,
      "geoinfo": {
        "display_name": "Flint Road, Crocus Hill, The Valley, AI-2640, Anguilla",
        "road": "Flint Road",
        "house_number": null,
        "neighbourhood": null,
        "suburb": null,
        "city_district": null,
        "city": "The Valley",
        "state": null,
        "postcode": "AI-2640",
        "country": "Anguilla",
        "country_code": "ai"
      },
      "address": "Flint Road, The Valley, Anguilla"
    },
    {
      "lat": 18.218003756749322,
      "lon": -63.07144288323838,
      "geoinfo": {
        "display_name": "Crocus Bay Road, Crocus Hill, The Valley, AI-2640, Anguilla",
        "road": "Crocus Bay Road",
        "house_number": null,
        "neighbourhood": null,
        "suburb": null,
        "city_district": null,
        "city": "The Valley",
        "state": null,
        "postcode": "AI-2640",
        "country": "Anguilla",
        "country_code": "ai"
      },
      "address": "Crocus Bay Road, The Valley, Anguilla"
    },
    {
      "lat": 18.235669368110955,
      "lon": -63.03918380101308,
      "geoinfo": {
        "display_name": "Little Dix Road, Little Dix, Stoney Ground, AI-2640, Anguilla",
        "road": "Little Dix Road",
        "house_number": null,
        "neighbourhood": null,
        "suburb": null,
        "city_district": null,
        "city": "Stoney Ground",
        "state": null,
        "postcode": "AI-2640",
        "country": "Anguilla",
        "country_code": "ai"
      },
      "address": "Little Dix Road, The Valley, Anguilla"
    },
    {
      "lat": 18.215639226924726,
      "lon": -63.050094369678966,
      "geoinfo": {
        "display_name": "Albena Lake-Hodge Comprehensive School, Albert Lake Drive, The Valley, AI-2640, Anguilla",
        "road": "Albert Lake Drive",
        "house_number": null,
        "neighbourhood": null,
        "suburb": null,
        "city_district": null,
        "city": "The Valley",
        "state": null,
        "postcode": "AI-2640",
        "country": "Anguilla",
        "country_code": "ai"
      },
      "address": "Albert Lake Drive, The Valley, Anguilla"
    },
    {
      "lat": 18.233579139475705,
      "lon": -63.03246285366336,
      "geoinfo": {
        "display_name": "Deep Waters Road, Little Dix, The Valley, AI-2640, Anguilla",
        "road": "Deep Waters Road",
        "house_number": null,
        "neighbourhood": null,
        "suburb": null,
        "city_district": null,
        "city": "The Valley",
        "state": null,
        "postcode": "AI-2640",
        "country": "Anguilla",
        "country_code": "ai"
      },
      "address": "Deep Waters Road, The Valley, Anguilla"
    },
    {
      "lat": 18.216508302459797,
      "lon": -63.04131862524249,
      "geoinfo": {
        "display_name": "Omololu International School, International School Road, Cauls Bottom, The Valley, AI-2640, Anguilla",
        "road": "International School Road",
        "house_number": null,
        "neighbourhood": null,
        "suburb": null,
        "city_district": null,
        "city": "The Valley",
        "state": null,
        "postcode": "AI-2640",
        "country": "Anguilla",
        "country_code": "ai"
      },
      "address": "International School Road, The Valley, Anguilla"
    },
    {
      "lat": 18.20291483214386,
      "lon": -63.07498833124407,
      "geoinfo": {
        "display_name": "North Hill Road, North Hill Village, AI-2640, Anguilla",
        "road": "North Hill Road",
        "house_number": null,
        "neighbourhood": null,
        "suburb": null,
        "city_district": null,
        "city": "North Hill Village",
        "state": null,
        "postcode": "AI-2640",
        "country": "Anguilla",
        "country_code": "ai"
      },
      "address": "North Hill Road, The Valley, Anguilla"
    },
    {
      "lat": 18.215646895737628,
      "lon": -63.062490452882244,
      "geoinfo": {
        "display_name": "Crocus Hill Road, Crocus Hill, The Valley, AI-2640, Anguilla",
        "road": "Crocus Hill Road",
        "house_number": null,
        "neighbourhood": null,
        "suburb": null,
        "city_district": null,
        "city": "The Valley",
        "state": null,
        "postcode": "AI-2640",
        "country": "Anguilla",
        "country_code": "ai"
      },
      "address": "Crocus Hill Road, The Valley, Anguilla"
    },
    {
      "lat": 18.22430582173785,
      "lon": -63.042195531180504,
      "geoinfo": {
        "display_name": "Mammie Drive, Cauls Bottom, Stoney Ground, AI-2640, Anguilla",
        "road": "Mammie Drive",
        "house_number": null,
        "neighbourhood": null,
        "suburb": null,
        "city_district": null,
        "city": "Stoney Ground",
        "state": null,
        "postcode": "AI-2640",
        "country": "Anguilla",
        "country_code": "ai"
      },
      "address": "Mammie Drive, The Valley, Anguilla"
    },
    {
      "lat": 18.221652581519432,
      "lon": -63.03419908945023,
      "geoinfo": {
        "display_name": "Jon-Jon Road, Cauls Bottom, The Valley, AI-2640, Anguilla",
        "road": "Jon-Jon Road",
        "house_number": null,
        "neighbourhood": null,
        "suburb": null,
        "city_district": null,
        "city": "The Valley",
        "state": null,
        "postcode": "AI-2640",
        "country": "Anguilla",
        "country_code": "ai"
      },
      "address": "Jon-Jon Road, The Valley, Anguilla"
    },
    {
      "lat": 18.210450251447785,
      "lon": -63.052693680592085,
      "geoinfo": {
        "display_name": "Parliamentary Drive, The Valley, AI-2640, Anguilla",
        "road": "Parliamentary Drive",
        "house_number": null,
        "neighbourhood": null,
        "suburb": null,
        "city_district": null,
        "city": "The Valley",
        "state": null,
        "postcode": "AI-2640",
        "country": "Anguilla",
        "country_code": "ai"
      },
      "address": "Parliamentary Drive, The Valley, Anguilla"
    },
    {
      "lat": 18.21177282643259,
      "lon": -63.060269681793486,
      "geoinfo": {
        "display_name": "South Valley Road South, Crocus Hill, The Valley, AI-2640, Anguilla",
        "road": "South Valley Road South",
        "house_number": null,
        "neighbourhood": null,
        "suburb": null,
        "city_district": null,
        "city": "The Valley",
        "state": null,
        "postcode": "AI-2640",
        "country": "Anguilla",
        "country_code": "ai"
      },
      "address": "South Valley Road South, The Valley, Anguilla"
    },
    {
      "lat": 18.21659023640114,
      "lon": -63.06625351677537,
      "geoinfo": {
        "display_name": "Old Court House Road, Crocus Hill, The Valley, AI-2640, Anguilla",
        "road": "Old Court House Road",
        "house_number": null,
        "neighbourhood": null,
        "suburb": null,
        "city_district": null,
        "city": "The Valley",
        "state": null,
        "postcode": "AI-2640",
        "country": "Anguilla",
        "country_code": "ai"
      },
      "address": "Old Court House Road, The Valley, Anguilla"
    },
    {
      "lat": 18.225596846960602,
      "lon": -63.03868333672929,
      "geoinfo": {
        "display_name": "Stone Wall Drive, Cauls Bottom, Stoney Ground, AI-2640, Anguilla",
        "road": "Stone Wall Drive",
        "house_number": null,
        "neighbourhood": null,
        "suburb": null,
        "city_district": null,
        "city": "Stoney Ground",
        "state": null,
        "postcode": "AI-2640",
        "country": "Anguilla",
        "country_code": "ai"
      },
      "address": "Stone Wall Drive, The Valley, Anguilla"
    },
    {
      "lat": 18.207629132128872,
      "lon": -63.05489138674186,
      "geoinfo": {
        "display_name": "Clayton J. Lloyd International Airport, Airport Road, The Valley, AI-2640, Anguilla",
        "road": "Airport Road",
        "house_number": null,
        "neighbourhood": null,
        "suburb": null,
        "city_district": null,
        "city": "The Valley",
        "state": null,
        "postcode": "AI-2640",
        "country": "Anguilla",
        "country_code": "ai"
      },
      "address": "Airport Road, The Valley, Anguilla"
    },
    {
      "lat": 18.23269734575074,
      "lon": -63.0476807249495,
      "geoinfo": {
        "display_name": "Brimegin Drive, North Side, Stoney Ground, AI-2640, Anguilla",
        "road": "Brimegin Drive",
        "house_number": null,
        "neighbourhood": null,
        "suburb": null,
        "city_district": null,
        "city": "Stoney Ground",
        "state": null,
        "postcode": "AI-2640",
        "country": "Anguilla",
        "country_code": "ai"
      },
      "address": "804, Brimegin Drive, AI-2640 The Valley, Anguilla"
    },
    {
      "lat": 18.229177783772847,
      "lon": -63.06972845848033,
      "geoinfo": {
        "display_name": "Limestone Bay Road, Stoney Ground, AI-2640, Anguilla",
        "road": "Limestone Bay Road",
        "house_number": null,
        "neighbourhood": null,
        "suburb": null,
        "city_district": null,
        "city": "Stoney Ground",
        "state": null,
        "postcode": "AI-2640",
        "country": "Anguilla",
        "country_code": "ai"
      },
      "address": "209, Limestone Bay Road, AI-2640 The Valley, Anguilla"
    },
    {
      "lat": 18.235798905191395,
      "lon": -63.04547354975303,
      "geoinfo": {
        "display_name": "Brimegin Road, North Side, The Valley, AI-2640, Anguilla",
        "road": "Brimegin Road",
        "house_number": null,
        "neighbourhood": null,
        "suburb": null,
        "city_district": null,
        "city": "The Valley",
        "state": null,
        "postcode": "AI-2640",
        "country": "Anguilla",
        "country_code": "ai"
      },
      "address": "947, Brimegin Road, North Side, The Valley, AI-2640, Anguilla"
    },
    {
      "lat": 18.209805599008266,
      "lon": -63.06163763443214,
      "geoinfo": {
        "display_name": "Shale Lane, Crocus Hill, The Valley, AI-2640, Anguilla",
        "road": "Shale Lane",
        "house_number": null,
        "neighbourhood": null,
        "suburb": null,
        "city_district": null,
        "city": "The Valley",
        "state": null,
        "postcode": "AI-2640",
        "country": "Anguilla",
        "country_code": "ai"
      },
      "address": "008, Shale Lane, Crocus Hill, The Valley, AI-2640, Anguilla"
    },
    {
      "lat": 18.18774622574662,
      "lon": -63.061992230064845,
      "geoinfo": {
        "display_name": "Jeremiah Gumbs Highway, Blowing Point, AI-2640, Anguilla",
        "road": "Jeremiah Gumbs Highway",
        "house_number": null,
        "neighbourhood": null,
        "suburb": null,
        "city_district": null,
        "city": "Blowing Point",
        "state": null,
        "postcode": "AI-2640",
        "country": "Anguilla",
        "country_code": "ai"
      },
      "address": "420, Jeremiah Gumbs Highway, AI-2640 The Valley, Anguilla"
    },
    {
      "lat": 18.20617587569383,
      "lon": -63.0202902722532,
      "geoinfo": {
        "display_name": "James Beard Drive, The Valley, AI-2640, Anguilla",
        "road": "James Beard Drive",
        "house_number": null,
        "neighbourhood": null,
        "suburb": null,
        "city_district": null,
        "city": "The Valley",
        "state": null,
        "postcode": "AI-2640",
        "country": "Anguilla",
        "country_code": "ai"
      },
      "address": "443, James Beard Drive, The Valley, AI-2640, Anguilla"
    },
    {
      "lat": 18.246785276964278,
      "lon": -63.0413422156453,
      "geoinfo": {
        "display_name": "Brimegin Road, Shoal Bay Village, AI-2640, Anguilla",
        "road": "Brimegin Road",
        "house_number": null,
        "neighbourhood": null,
        "suburb": null,
        "city_district": null,
        "city": "Shoal Bay Village",
        "state": null,
        "postcode": "AI-2640",
        "country": "Anguilla",
        "country_code": "ai"
      },
      "address": "288, Brimegin Road, AI-2640 The Valley, Anguilla"
    },
    {
      "lat": 18.233606746271676,
      "lon": -63.060715684577126,
      "geoinfo": {
        "display_name": "North Side, The Valley, AI-2640, Anguilla",
        "road": null,
        "house_number": null,
        "neighbourhood": null,
        "suburb": null,
        "city_district": null,
        "city": "The Valley",
        "state": null,
        "postcode": "AI-2640",
        "country": "Anguilla",
        "country_code": "ai"
      },
      "address": "621, North Side, The Valley, AI-2640, Anguilla"
    },
    {
      "lat": 18.22798969725406,
      "lon": -63.0756956631199,
      "geoinfo": {
        "display_name": "Flat Cap Point, Flat Cap Road, The Valley, AI-2640, Anguilla",
        "road": "Flat Cap Road",
        "house_number": null,
        "neighbourhood": null,
        "suburb": null,
        "city_district": null,
        "city": "The Valley",
        "state": null,
        "postcode": "AI-2640",
        "country": "Anguilla",
        "country_code": "ai"
      },
      "address": "368, Flat Cap Road, AI-2640 The Valley, Anguilla"
    },
    {
      "lat": 18.2241061247672,
      "lon": -63.070971829986206,
      "geoinfo": {
        "display_name": "Pelican Point, Roaches Hill Road, Crocus Hill, The Valley, AI-2640, Anguilla",
        "road": "Roaches Hill Road",
        "house_number": null,
        "neighbourhood": null,
        "suburb": null,
        "city_district": null,
        "city": "The Valley",
        "state": null,
        "postcode": "AI-2640",
        "country": "Anguilla",
        "country_code": "ai"
      },
      "address": "766, Roaches Hill Road, AI-2640 The Valley, Anguilla"
    },
    {
      "lat": 18.239133871541092,
      "lon": -63.092355136735435,
      "geoinfo": {
        "display_name": "Flat Cap Point, The Valley, AI-2640, Anguilla",
        "road": null,
        "house_number": null,
        "neighbourhood": null,
        "suburb": null,
        "city_district": null,
        "city": "The Valley",
        "state": null,
        "postcode": "AI-2640",
        "country": "Anguilla",
        "country_code": "ai"
      },
      "address": "464, Flat Cap Point, The Valley, AI-2640, Anguilla"
    },
    {
      "lat": 18.19897054367447,
      "lon": -63.08529790471407,
      "geoinfo": {
        "display_name": "Sir Emile Gumbs Drive, Sandy Ground, AI-2640, Anguilla",
        "road": "Sir Emile Gumbs Drive",
        "house_number": null,
        "neighbourhood": null,
        "suburb": null,
        "city_district": null,
        "city": "Sandy Ground",
        "state": null,
        "postcode": "AI-2640",
        "country": "Anguilla",
        "country_code": "ai"
      },
      "address": "727, Sir Emile Gumbs Drive, AI-2640 The Valley, Anguilla"
    },
    {
      "lat": 18.21666740389602,
      "lon": -63.060649268899965,
      "geoinfo": {
        "display_name": "Crocus Hill, The Valley, AI-2640, Anguilla",
        "road": null,
        "house_number": null,
        "neighbourhood": null,
        "suburb": null,
        "city_district": null,
        "city": "The Valley",
        "state": null,
        "postcode": "AI-2640",
        "country": "Anguilla",
        "country_code": "ai"
      },
      "address": "321, Crocus Hill, The Valley, AI-2640, Anguilla"
    },
    {
      "lat": 18.20106487831924,
      "lon": -63.02312460737227,
      "geoinfo": {
        "display_name": "Forest Point, The Valley, AI-2640, Anguilla",
        "road": null,
        "house_number": null,
        "neighbourhood": null,
        "suburb": null,
        "city_district": null,
        "city": "The Valley",
        "state": null,
        "postcode": "AI-2640",
        "country": "Anguilla",
        "country_code": "ai"
      },
      "address": "740, Forest Point, The Valley, AI-2640, Anguilla"
    },
    {
      "lat": 18.20331955608935,
      "lon": -63.06016900096986,
      "geoinfo": {
        "display_name": "Clayton J. Lloyd International Airport, Mount Pleasant Road, The Valley, AI-2640, Anguilla",
        "road": "Mount Pleasant Road",
        "house_number": null,
        "neighbourhood": null,
        "suburb": null,
        "city_district": null,
        "city": "The Valley",
        "state": null,
        "postcode": "AI-2640",
        "country": "Anguilla",
        "country_code": "ai"
      },
      "address": "445, Mount Pleasant Road, AI-2640 The Valley, Anguilla"
    },
    {
      "lat": 18.1825210370573,
      "lon": -63.04058846643001,
      "geoinfo": {
        "display_name": "Forest Point, The Valley, AI-2640, Anguilla",
        "road": null,
        "house_number": null,
        "neighbourhood": null,
        "suburb": null,
        "city_district": null,
        "city": "The Valley",
        "state": null,
        "postcode": "AI-2640",
        "country": "Anguilla",
        "country_code": "ai"
      },
      "address": "784, Forest Point, The Valley, AI-2640, Anguilla"
    },
    {
      "lat": 18.199142606746694,
      "lon": -63.04467188281148,
      "geoinfo": {
        "display_name": "Tanglewood Road, The Valley, AI-2640, Anguilla",
        "road": "Tanglewood Road",
        "house_number": null,
        "neighbourhood": null,
        "suburb": null,
        "city_district": null,
        "city": "The Valley",
        "state": null,
        "postcode": "AI-2640",
        "country": "Anguilla",
        "country_code": "ai"
      },
      "address": "570, Tanglewood Road, The Valley, AI-2640, Anguilla"
    },
    {
      "lat": 18.23089854453293,
      "lon": -63.03248766908755,
      "geoinfo": {
        "display_name": "Petty's Drive, Little Dix, Stoney Ground, AI-2640, Anguilla",
        "road": "Petty's Drive",
        "house_number": null,
        "neighbourhood": null,
        "suburb": null,
        "city_district": null,
        "city": "Stoney Ground",
        "state": null,
        "postcode": "AI-2640",
        "country": "Anguilla",
        "country_code": "ai"
      },
      "address": "038, Petty's Drive, AI-2640 The Valley, Anguilla"
    },
    {
      "lat": 18.198059966156436,
      "lon": -63.019659883944875,
      "geoinfo": {
        "display_name": "Forest Point, The Valley, AI-2640, Anguilla",
        "road": null,
        "house_number": null,
        "neighbourhood": null,
        "suburb": null,
        "city_district": null,
        "city": "The Valley",
        "state": null,
        "postcode": "AI-2640",
        "country": "Anguilla",
        "country_code": "ai"
      },
      "address": "812, Forest Point, The Valley, AI-2640, Anguilla"
    },
    {
      "lat": 18.22922380451399,
      "lon": -63.055044902524855,
      "geoinfo": {
        "display_name": "North Side, The Valley, AI-2640, Anguilla",
        "road": null,
        "house_number": null,
        "neighbourhood": null,
        "suburb": null,
        "city_district": null,
        "city": "The Valley",
        "state": null,
        "postcode": "AI-2640",
        "country": "Anguilla",
        "country_code": "ai"
      },
      "address": "981, North Side, The Valley, AI-2640, Anguilla"
    },
    {
      "lat": 18.24141132280272,
      "lon": -63.07863512163995,
      "geoinfo": {
        "display_name": "Flat Cap Point, The Valley, AI-2640, Anguilla",
        "road": null,
        "house_number": null,
        "neighbourhood": null,
        "suburb": null,
        "city_district": null,
        "city": "The Valley",
        "state": null,
        "postcode": "AI-2640",
        "country": "Anguilla",
        "country_code": "ai"
      },
      "address": "112, Flat Cap Point, The Valley, AI-2640, Anguilla"
    },
    {
      "lat": 18.226458769819143,
      "lon": -63.03402026088421,
      "geoinfo": {
        "display_name": "Jon-Jon Road, Cauls Bottom, Stoney Ground, AI-2640, Anguilla",
        "road": "Jon-Jon Road",
        "house_number": null,
        "neighbourhood": null,
        "suburb": null,
        "city_district": null,
        "city": "Stoney Ground",
        "state": null,
        "postcode": "AI-2640",
        "country": "Anguilla",
        "country_code": "ai"
      },
      "address": "919, Jon-Jon Road, AI-2640 The Valley, Anguilla"
    },
    {
      "lat": 18.20084732632049,
      "lon": -63.02398542215873,
      "geoinfo": {
        "display_name": "Long Path Road, The Valley, AI-2640, Anguilla",
        "road": "Long Path Road",
        "house_number": null,
        "neighbourhood": null,
        "suburb": null,
        "city_district": null,
        "city": "The Valley",
        "state": null,
        "postcode": "AI-2640",
        "country": "Anguilla",
        "country_code": "ai"
      },
      "address": "260, Long Path Road, The Valley, AI-2640, Anguilla"
    },
    {
      "lat": 18.240927611600654,
      "lon": -63.03211725047631,
      "geoinfo": {
        "display_name": "Austin Rogers Road, Little Dix, Shoal Bay Village, AI-2640, Anguilla",
        "road": "Austin Rogers Road",
        "house_number": null,
        "neighbourhood": null,
        "suburb": null,
        "city_district": null,
        "city": "Shoal Bay Village",
        "state": null,
        "postcode": "AI-2640",
        "country": "Anguilla",
        "country_code": "ai"
      },
      "address": "919, Austin Rogers Road, AI-2640 The Valley, Anguilla"
    },
    {
      "lat": 18.23825407462833,
      "lon": -63.049513168380706,
      "geoinfo": {
        "display_name": "Brimegin Road, North Side, The Valley, AI-2640, Anguilla",
        "road": "Brimegin Road",
        "house_number": null,
        "neighbourhood": null,
        "suburb": null,
        "city_district": null,
        "city": "The Valley",
        "state": null,
        "postcode": "AI-2640",
        "country": "Anguilla",
        "country_code": "ai"
      },
      "address": "146, Brimegin Road, North Side, The Valley, AI-2640, Anguilla"
    },
    {
      "lat": 18.235376688480827,
      "lon": -63.02297931855013,
      "geoinfo": {
        "display_name": "Deep Waters Road, Little Dix, The Valley, AI-2640, Anguilla",
        "road": "Deep Waters Road",
        "house_number": null,
        "neighbourhood": null,
        "suburb": null,
        "city_district": null,
        "city": "The Valley",
        "state": null,
        "postcode": "AI-2640",
        "country": "Anguilla",
        "country_code": "ai"
      },
      "address": "500, Deep Waters Road, Little Dix, The Valley, AI-2640, Anguilla"
    },
    {
      "lat": 18.241696506352284,
      "lon": -63.02993009089727,
      "geoinfo": {
        "display_name": "Austin Rogers Road, Little Dix, Shoal Bay Village, AI-2640, Anguilla",
        "road": "Austin Rogers Road",
        "house_number": null,
        "neighbourhood": null,
        "suburb": null,
        "city_district": null,
        "city": "Shoal Bay Village",
        "state": null,
        "postcode": "AI-2640",
        "country": "Anguilla",
        "country_code": "ai"
      },
      "address": "620, Austin Rogers Road, AI-2640 The Valley, Anguilla"
    },
    {
      "lat": 18.199939600500862,
      "lon": -63.079712831818384,
      "geoinfo": {
        "display_name": "Sir Emile Gumbs Drive, Sandy Ground, AI-2640, Anguilla",
        "road": "Sir Emile Gumbs Drive",
        "house_number": null,
        "neighbourhood": null,
        "suburb": null,
        "city_district": null,
        "city": "Sandy Ground",
        "state": null,
        "postcode": "AI-2640",
        "country": "Anguilla",
        "country_code": "ai"
      },
      "address": "636, Sir Emile Gumbs Drive, AI-2640 The Valley, Anguilla"
    },
    {
      "lat": 18.221758834654494,
      "lon": -63.05147101883415,
      "geoinfo": {
        "display_name": "North Side, The Valley, AI-2640, Anguilla",
        "road": null,
        "house_number": null,
        "neighbourhood": null,
        "suburb": null,
        "city_district": null,
        "city": "The Valley",
        "state": null,
        "postcode": "AI-2640",
        "country": "Anguilla",
        "country_code": "ai"
      },
      "address": "576, North Side, The Valley, AI-2640, Anguilla"
    },
    {
      "lat": 18.20325612077274,
      "lon": -63.0677048865715,
      "geoinfo": {
        "display_name": "Little Harbour Drive, George Hill, AI-2640, Anguilla",
        "road": "Little Harbour Drive",
        "house_number": null,
        "neighbourhood": null,
        "suburb": null,
        "city_district": null,
        "city": "George Hill",
        "state": null,
        "postcode": "AI-2640",
        "country": "Anguilla",
        "country_code": "ai"
      },
      "address": "616, Little Harbour Drive, AI-2640 The Valley, Anguilla"
    },
    {
      "lat": 18.193719506597432,
      "lon": -63.03987701724635,
      "geoinfo": {
        "display_name": "Long Ground Road, The Valley, AI-2640, Anguilla",
        "road": "Long Ground Road",
        "house_number": null,
        "neighbourhood": null,
        "suburb": null,
        "city_district": null,
        "city": "The Valley",
        "state": null,
        "postcode": "AI-2640",
        "country": "Anguilla",
        "country_code": "ai"
      },
      "address": "569, Long Ground Road, The Valley, AI-2640, Anguilla"
    },
    {
      "lat": 18.18662475870937,
      "lon": -63.0296683983917,
      "geoinfo": {
        "display_name": "Forest Point, The Valley, AI-2640, Anguilla",
        "road": null,
        "house_number": null,
        "neighbourhood": null,
        "suburb": null,
        "city_district": null,
        "city": "The Valley",
        "state": null,
        "postcode": "AI-2640",
        "country": "Anguilla",
        "country_code": "ai"
      },
      "address": "093, Forest Point, The Valley, AI-2640, Anguilla"
    },
    {
      "lat": 18.216446350355596,
      "lon": -63.07746404771502,
      "geoinfo": {
        "display_name": "Katouche Trail, Crocus Hill, North Hill Village, AI-2640, Anguilla",
        "road": "Katouche Trail",
        "house_number": null,
        "neighbourhood": null,
        "suburb": null,
        "city_district": null,
        "city": "North Hill Village",
        "state": null,
        "postcode": "AI-2640",
        "country": "Anguilla",
        "country_code": "ai"
      },
      "address": "730, Katouche Trail, AI-2640 The Valley, Anguilla"
    },
    {
      "lat": 18.23680221655967,
      "lon": -63.09098735265549,
      "geoinfo": {
        "display_name": "Flat Cap Point, The Valley, AI-2640, Anguilla",
        "road": null,
        "house_number": null,
        "neighbourhood": null,
        "suburb": null,
        "city_district": null,
        "city": "The Valley",
        "state": null,
        "postcode": "AI-2640",
        "country": "Anguilla",
        "country_code": "ai"
      },
      "address": "171, Flat Cap Point, The Valley, AI-2640, Anguilla"
    },
    {
      "lat": 18.190303672584335,
      "lon": -63.03589891974907,
      "geoinfo": {
        "display_name": "Forest Point, The Valley, AI-2640, Anguilla",
        "road": null,
        "house_number": null,
        "neighbourhood": null,
        "suburb": null,
        "city_district": null,
        "city": "The Valley",
        "state": null,
        "postcode": "AI-2640",
        "country": "Anguilla",
        "country_code": "ai"
      },
      "address": "890, Forest Point, The Valley, AI-2640, Anguilla"
    },
    {
      "lat": 18.237779355560008,
      "lon": -63.060469178914396,
      "geoinfo": {
        "display_name": "Eric Reid Road, North Side, The Valley, AI-2640, Anguilla",
        "road": "Eric Reid Road",
        "house_number": null,
        "neighbourhood": null,
        "suburb": null,
        "city_district": null,
        "city": "The Valley",
        "state": null,
        "postcode": "AI-2640",
        "country": "Anguilla",
        "country_code": "ai"
      },
      "address": "976, Eric Reid Road, North Side, The Valley, AI-2640, Anguilla"
    },
    {
      "lat": 18.218650812419188,
      "lon": -63.0828759138476,
      "geoinfo": {
        "display_name": "Pelican Point, The Valley, AI-2640, Anguilla",
        "road": null,
        "house_number": null,
        "neighbourhood": null,
        "suburb": null,
        "city_district": null,
        "city": "The Valley",
        "state": null,
        "postcode": "AI-2640",
        "country": "Anguilla",
        "country_code": "ai"
      },
      "address": "430, Pelican Point, The Valley, AI-2640, Anguilla"
    },
    {
      "lat": 18.202130481633297,
      "lon": -63.01497086412618,
      "geoinfo": {
        "display_name": "The Farrington, The Valley, AI-2640, Anguilla",
        "road": null,
        "house_number": null,
        "neighbourhood": null,
        "suburb": null,
        "city_district": null,
        "city": "The Valley",
        "state": null,
        "postcode": "AI-2640",
        "country": "Anguilla",
        "country_code": "ai"
      },
      "address": "589, The Farrington, The Valley, AI-2640, Anguilla"
    },
    {
      "lat": 18.22603019986144,
      "lon": -63.08126971637973,
      "geoinfo": {
        "display_name": "Flat Cap Point, The Valley, AI-2640, Anguilla",
        "road": null,
        "house_number": null,
        "neighbourhood": null,
        "suburb": null,
        "city_district": null,
        "city": "The Valley",
        "state": null,
        "postcode": "AI-2640",
        "country": "Anguilla",
        "country_code": "ai"
      },
      "address": "985, Flat Cap Point, The Valley, AI-2640, Anguilla"
    },
    {
      "lat": 18.202046233225833,
      "lon": -63.07732309330423,
      "geoinfo": {
        "display_name": "Sir Emile Gumbs Drive, Sandy Ground, AI-2640, Anguilla",
        "road": "Sir Emile Gumbs Drive",
        "house_number": null,
        "neighbourhood": null,
        "suburb": null,
        "city_district": null,
        "city": "Sandy Ground",
        "state": null,
        "postcode": "AI-2640",
        "country": "Anguilla",
        "country_code": "ai"
      },
      "address": "007, Sir Emile Gumbs Drive, AI-2640 The Valley, Anguilla"
    },
    {
      "lat": 18.225782765786352,
      "lon": -63.07218627474035,
      "geoinfo": {
        "display_name": "Black Point, Roaches Hill Road, The Valley, AI-2640, Anguilla",
        "road": "Roaches Hill Road",
        "house_number": null,
        "neighbourhood": null,
        "suburb": null,
        "city_district": null,
        "city": "The Valley",
        "state": null,
        "postcode": "AI-2640",
        "country": "Anguilla",
        "country_code": "ai"
      },
      "address": "470, Roaches Hill Road, AI-2640 The Valley, Anguilla"
    },
    {
      "lat": 18.240442116289934,
      "lon": -63.049528790135824,
      "geoinfo": {
        "display_name": "Brimegin Road, North Side, The Valley, AI-2640, Anguilla",
        "road": "Brimegin Road",
        "house_number": null,
        "neighbourhood": null,
        "suburb": null,
        "city_district": null,
        "city": "The Valley",
        "state": null,
        "postcode": "AI-2640",
        "country": "Anguilla",
        "country_code": "ai"
      },
      "address": "140, Brimegin Road, North Side, The Valley, AI-2640, Anguilla"
    },
    {
      "lat": 18.1847158881001,
      "lon": -63.06479776761623,
      "geoinfo": {
        "display_name": "Jeremiah Gumbs Highway, Blowing Point, AI-2640, Anguilla",
        "road": "Jeremiah Gumbs Highway",
        "house_number": null,
        "neighbourhood": null,
        "suburb": null,
        "city_district": null,
        "city": "Blowing Point",
        "state": null,
        "postcode": "AI-2640",
        "country": "Anguilla",
        "country_code": "ai"
      },
      "address": "376, Jeremiah Gumbs Highway, AI-2640 The Valley, Anguilla"
    },
    {
      "lat": 18.248719749160774,
      "lon": -63.08461747115853,
      "geoinfo": {
        "display_name": "Flat Cap Point, The Valley, AI-2640, Anguilla",
        "road": null,
        "house_number": null,
        "neighbourhood": null,
        "suburb": null,
        "city_district": null,
        "city": "The Valley",
        "state": null,
        "postcode": "AI-2640",
        "country": "Anguilla",
        "country_code": "ai"
      },
      "address": "137, Flat Cap Point, The Valley, AI-2640, Anguilla"
    },
    {
      "lat": 18.194032600317215,
      "lon": -63.03272495865667,
      "geoinfo": {
        "display_name": "Forest Point, The Valley, AI-2640, Anguilla",
        "road": null,
        "house_number": null,
        "neighbourhood": null,
        "suburb": null,
        "city_district": null,
        "city": "The Valley",
        "state": null,
        "postcode": "AI-2640",
        "country": "Anguilla",
        "country_code": "ai"
      },
      "address": "439, Forest Point, The Valley, AI-2640, Anguilla"
    },
    {
      "lat": 18.225959366021165,
      "lon": -63.05397116837231,
      "geoinfo": {
        "display_name": "North Side Road, North Side, The Valley, AI-2640, Anguilla",
        "road": "North Side Road",
        "house_number": null,
        "neighbourhood": null,
        "suburb": null,
        "city_district": null,
        "city": "The Valley",
        "state": null,
        "postcode": "AI-2640",
        "country": "Anguilla",
        "country_code": "ai"
      },
      "address": "435, North Side Road, North Side, The Valley, AI-2640, Anguilla"
    },
    {
      "lat": 18.180307740472433,
      "lon": -63.03386968439312,
      "geoinfo": {
        "display_name": "Forest Point, The Valley, AI-2640, Anguilla",
        "road": null,
        "house_number": null,
        "neighbourhood": null,
        "suburb": null,
        "city_district": null,
        "city": "The Valley",
        "state": null,
        "postcode": "AI-2640",
        "country": "Anguilla",
        "country_code": "ai"
      },
      "address": "863, Forest Point, The Valley, AI-2640, Anguilla"
    },
    {
      "lat": 18.236421048296044,
      "lon": -63.04562811206188,
      "geoinfo": {
        "display_name": "Brimegin Road, North Side, The Valley, AI-2640, Anguilla",
        "road": "Brimegin Road",
        "house_number": null,
        "neighbourhood": null,
        "suburb": null,
        "city_district": null,
        "city": "The Valley",
        "state": null,
        "postcode": "AI-2640",
        "country": "Anguilla",
        "country_code": "ai"
      },
      "address": "922, Brimegin Road, North Side, The Valley, AI-2640, Anguilla"
    },
    {
      "lat": 18.214486914490262,
      "lon": -63.0697888158718,
      "geoinfo": {
        "display_name": "Katouche Road, Crocus Hill, The Valley, AI-2640, Anguilla",
        "road": "Katouche Road",
        "house_number": null,
        "neighbourhood": null,
        "suburb": null,
        "city_district": null,
        "city": "The Valley",
        "state": null,
        "postcode": "AI-2640",
        "country": "Anguilla",
        "country_code": "ai"
      },
      "address": "825, Katouche Road, Crocus Hill, The Valley, AI-2640, Anguilla"
    },
    {
      "lat": 18.20720330121701,
      "lon": -63.055951359927015,
      "geoinfo": {
        "display_name": "Edwin Wallace Rey Drive, George Hill, AI-2640, Anguilla",
        "road": "Edwin Wallace Rey Drive",
        "house_number": null,
        "neighbourhood": null,
        "suburb": null,
        "city_district": null,
        "city": "George Hill",
        "state": null,
        "postcode": "AI-2640",
        "country": "Anguilla",
        "country_code": "ai"
      },
      "address": "273, Edwin Wallace Rey Drive, AI-2640 The Valley, Anguilla"
    },
    {
      "lat": 18.23936491098597,
      "lon": -63.04885769613561,
      "geoinfo": {
        "display_name": "Brimegin Road, North Side, The Valley, AI-2640, Anguilla",
        "road": "Brimegin Road",
        "house_number": null,
        "neighbourhood": null,
        "suburb": null,
        "city_district": null,
        "city": "The Valley",
        "state": null,
        "postcode": "AI-2640",
        "country": "Anguilla",
        "country_code": "ai"
      },
      "address": "076, Brimegin Road, North Side, The Valley, AI-2640, Anguilla"
    },
    {
      "lat": 18.248208632406605,
      "lon": -63.07689035895133,
      "geoinfo": {
        "display_name": "Flat Cap Point, The Valley, AI-2640, Anguilla",
        "road": null,
        "house_number": null,
        "neighbourhood": null,
        "suburb": null,
        "city_district": null,
        "city": "The Valley",
        "state": null,
        "postcode": "AI-2640",
        "country": "Anguilla",
        "country_code": "ai"
      },
      "address": "789, Flat Cap Point, The Valley, AI-2640, Anguilla"
    },
    {
      "lat": 18.244202695991216,
      "lon": -63.0723789341144,
      "geoinfo": {
        "display_name": "Flat Cap Point, The Valley, AI-2640, Anguilla",
        "road": null,
        "house_number": null,
        "neighbourhood": null,
        "suburb": null,
        "city_district": null,
        "city": "The Valley",
        "state": null,
        "postcode": "AI-2640",
        "country": "Anguilla",
        "country_code": "ai"
      },
      "address": "114, Flat Cap Point, The Valley, AI-2640, Anguilla"
    }
  ],
  "updated_at": "2025-10-19T00:52:29.578661+00:00",
  "_kind": "geo_samples"
}