{
  "country_code": "ZW",
  "country": "Zimbabwe",
  "city": "Chinhoyi",
  "geonameid": 893697,
  "target_addresses": 4,
  "samples": [
    {
      "lat": -17.368104548053704,
      "lon": 30.17042770574838,
      "geoinfo": {
        "display_name": "10888, Oriole, Mapako, Chinhoyi, Makonde, Mashonaland West Province, Zimbabwe",
        "road": "Oriole",
        "house_number": "10888",
        "neighbourhood": "Mapako",
        "suburb": "Mapako",
        "city_district": null,
        "city": "Chinhoyi",
        "state": "Mashonaland West Province",
        "postcode": null,
        "country": "Zimbabwe",
        "country_code": "zw"
      },
      "address": "10888 Oriole, Chinhoyi, Mashonaland West Province, Zimbabwe"
    },
    {
      "lat": -17.323364414626965,
      "lon": 30.197230365121438,
      "geoinfo": {
        "display_name": "Chinhoyi, Makonde, Mashonaland West Province, Zimbabwe",
        "road": null,
        "house_number": null,
        "neighbourhood": null,
        "suburb": null,
        "city_district": null,
        "city": "Chinhoyi",
        "state": "Mashonaland West Province",
        "postcode": null,
        "country": "Zimbabwe",
        "country_code": "zw"
      },
      "address": "Chinhoyi, Mashonaland West Province, Zimbabwe"
    },
    {
      "lat": -17.38102649835952,
      "lon": 30.1843794884399,
      "geoinfo": {
        "display_name": "7128, Greenwood Terrace, Industrial Sites, Chinhoyi, Makonde, Mashonaland West Province, Zimbabwe",
        "road": "Greenwood Terrace",
        "house_number": "7128",
        "neighbourhood": null,
        "suburb": "Industrial Sites",
        "city_district": null,
        "city": "Chinhoyi",
        "state": "Mashonaland West Province",
        "postcode": null,
        "country": "Zimbabwe",
        "country_code": "zw"
      },
      "address": "7128 Greenwood Terrace, Chinhoyi, Mashonaland West Province, Zimbabwe"
    },
    {
      "lat": -17.375652826779966,
      "lon": 30.20951747955698,
      "geoinfo": {
        "display_name": "15938, Nemakonde Way, Hunyani, Chinhoyi, Makonde, Mashonaland West Province, Zimbabwe",
        "road": "Nemakonde Way",
        "house_number": "15938",
        "neighbourhood": null,
        "suburb": "Hunyani",
        "city_district": null,
        "city": "Chinhoyi",
        "state": "Mashonaland West Province",
        "postcode": null,
        "country": "Zimbabwe",
        "country_code": "zw"
      },
      "address": "15938 Nemakonde Way, Chinhoyi, Mashonaland West Province, Zimbabwe"
    },
    {
      "lat": -17.36490598627705,
      "lon": 30.22098793582944,
      "geoinfo": {
        "display_name": "Zvimba, Mashonaland West Province, Zimbabwe",
        "road": null,
        "house_number": null,
        "neighbourhood": null,
        "suburb": null,
        "city_district": null,
        "city": null,
        "state": "Mashonaland West Province",
        "postcode": null,
        "country": "Zimbabwe",
        "country_code": "zw"
      },
      "address": "965, Zvimba, 87789 Mashonaland West Province, Zimbabwe"
    },
    {
      "lat": -17.348893523222724,
      "lon": 30.206477895219752,
      "geoinfo": {
        "display_name": "Chinhoyi University of Technology, Magamba Road, Orange Grove, Chinhoyi, Makonde, Mashonaland West Province, Zimbabwe",
        "road": "Magamba Road",
        "house_number": null,
        "neighbourhood": null,
        "suburb": "Orange Grove",
        "city_district": null,
        "city": "Chinhoyi",
        "state": "Mashonaland West Province",
        "postcode": null,
        "country": "Zimbabwe",
        "country_code": "zw"
      },
      "address": "516, Magamba Road, Chinhoyi, 76848 Mashonaland West Province, Zimbabwe"
    },
    {
      "lat": -17.396966629190384,
      "lon": 30.22945872121919,
      "geoinfo": {
        "display_name": "Zvimba, Mashonaland West Province, Zimbabwe",
        "road": null,
        "house_number": null,
        "neighbourhood": null,
        "suburb": null,
        "city_district": null,
        "city": null,
        "state": "Mashonaland West Province",
        "postcode": null,
        "country": "Zimbabwe",
        "country_code": "zw"
      },
      "address": "982, Zvimba, 92066 Mashonaland West Province, Zimbabwe"
    },
    {
      "lat": -17.361875971651447,
      "lon": 30.178998355138255,
      "geoinfo": {
        "display_name": "5821, Schonland Close, Mzari, Chinhoyi, Makonde, Mashonaland West Province, Zimbabwe",
        "road": "Schonland Close",
        "house_number": "5821",
        "neighbourhood": "Mzari",
        "suburb": "Mzari",
        "city_district": null,
        "city": "Chinhoyi",
        "state": "Mashonaland West Province",
        "postcode": null,
        "country": "Zimbabwe",
        "country_code": "zw"
      },
      "address": "5821, Schonland Close, Mzari, Chinhoyi, Makonde, 09728 Mashonaland West Province, Zimbabwe"
    }
  ],
  "updated_at": "2025-10-19T11:43:53.371783+00:00",
  "_kind": "geo_samples"
}