{
  "country_code": "ZW",
  "country": "Zimbabwe",
  "city": "Gokwe",
  "geonameid": 890983,
  "target_addresses": 4,
  "samples": [
    {
      "lat": -18.1970963799686,
      "lon": 28.90795095041416,
      "geoinfo": {
        "display_name": "Gokwe, Gokwe South, Midlands Province, Zimbabwe",
        "road": null,
        "house_number": null,
        "neighbourhood": null,
        "suburb": null,
        "city_district": null,
        "city": "Gokwe",
        "state": "Midlands Province",
        "postcode": null,
        "country": "Zimbabwe",
        "country_code": "zw"
      },
      "address": "Gokwe, Midlands Province, Zimbabwe"
    },
    {
      "lat": -18.23548454078349,
      "lon": 28.96139852621133,
      "geoinfo": {
        "display_name": "Kwekwe-Gokwe Road, Mapfungautsi, Gokwe, Gokwe South, Midlands Province, Zimbabwe",
        "road": "Kwekwe-Gokwe Road",
        "house_number": null,
        "neighbourhood": null,
        "suburb": null,
        "city_district": null,
        "city": "Gokwe",
        "state": "Midlands Province",
        "postcode": null,
        "country": "Zimbabwe",
        "country_code": "zw"
      },
      "address": "Kwekwe-Gokwe Road, Gokwe, Midlands Province, Zimbabwe"
    },
    {
      "lat": -18.22797316658282,
      "lon": 28.900550586121334,
      "geoinfo": {
        "display_name": "Gokwe, Gokwe South, Midlands Province, Zimbabwe",
        "road": null,
        "house_number": null,
        "neighbourhood": null,
        "suburb": null,
        "city_district": null,
        "city": "Gokwe",
        "state": "Midlands Province",
        "postcode": null,
        "country": "Zimbabwe",
        "country_code": "zw"
      },
      "address": "483, Gokwe, Gokwe South, 50646 Midlands Province, Zimbabwe"
    },
    {
      "lat": -18.184139419895143,
      "lon": 28.931233931678477,
      "geoinfo": {
        "display_name": "Gokwe South, Midlands Province, Zimbabwe",
        "road": null,
        "house_number": null,
        "neighbourhood": null,
        "suburb": null,
        "city_district": null,
        "city": null,
        "state": "Midlands Province",
        "postcode": null,
        "country": "Zimbabwe",
        "country_code": "zw"
      },
      "address": "555, Gokwe South, 93418 Midlands Province, Zimbabwe"
    },
    {
      "lat": -18.24180004676122,
      "lon": 28.93102529975225,
      "geoinfo": {
        "display_name": "Manyoni, Gokwe South, Midlands Province, Zimbabwe",
        "road": null,
        "house_number": null,
        "neighbourhood": null,
        "suburb": null,
        "city_district": null,
        "city": "Manyoni",
        "state": "Midlands Province",
        "postcode": null,
        "country": "Zimbabwe",
        "country_code": "zw"
      },
      "address": "531, Manyoni, Gokwe South, 35951 Midlands Province, Zimbabwe"
    },
    {
      "lat": -18.240312709835706,
      "lon": 28.91852534452651,
      "geoinfo": {
        "display_name": "Gokwe, Gokwe South, Midlands Province, Zimbabwe",
        "road": null,
        "house_number": null,
        "neighbourhood": null,
        "suburb": null,
        "city_district": null,
        "city": "Gokwe",
        "state": "Midlands Province",
        "postcode": null,
        "country": "Zimbabwe",
        "country_code": "zw"
      },
      "address": "515, Gokwe, Gokwe South, 38085 Midlands Province, Zimbabwe"
    }
  ],
  "updated_at": "2025-10-19T05:48:48.028574+00:00",
  "_kind": "geo_samples"
}