{
  "country_code": "ZW",
  "country": "Zimbabwe",
  "city": "Kadoma",
  "geonameid": 889453,
  "target_addresses": 4,
  "samples": [
    {
      "lat": -18.377749470647572,
      "lon": 29.918769726676818,
      "geoinfo": {
        "display_name": "Waverly, Kadoma, Mashonaland West Province, Zimbabwe",
        "road": null,
        "house_number": null,
        "neighbourhood": null,
        "suburb": "Waverly",
        "city_district": null,
        "city": "Kadoma",
        "state": "Mashonaland West Province",
        "postcode": null,
        "country": "Zimbabwe",
        "country_code": "zw"
      },
      "address": "Waverly, Kadoma, Mashonaland West Province, Zimbabwe"
    },
    {
      "lat": -18.32542029963129,
      "lon": 29.92600061442642,
      "geoinfo": {
        "display_name": "R2, Martin Spur, Kadoma, Mashonaland West Province, Zimbabwe",
        "road": "R2",
        "house_number": null,
        "neighbourhood": null,
        "suburb": null,
        "city_district": null,
        "city": "Kadoma",
        "state": "Mashonaland West Province",
        "postcode": null,
        "country": "Zimbabwe",
        "country_code": "zw"
      },
      "address": "R2, Kadoma, Mashonaland West Province, Zimbabwe"
    },
    {
      "lat": -18.296912609439822,
      "lon": 29.92366180695815,
      "geoinfo": {
        "display_name": "Westview, Kadoma, Mashonaland West Province, Zimbabwe",
        "road": null,
        "house_number": null,
        "neighbourhood": null,
        "suburb": "Westview",
        "city_district": null,
        "city": "Kadoma",
        "state": "Mashonaland West Province",
        "postcode": null,
        "country": "Zimbabwe",
        "country_code": "zw"
      },
      "address": "Westview, Kadoma, Mashonaland West Province, Zimbabwe"
    },
    {
      "lat": -18.290053609357862,
      "lon": 29.91851199201071,
      "geoinfo": {
        "display_name": "Eiffel Flats, Kadoma, Mashonaland West Province, Zimbabwe",
        "road": null,
        "house_number": null,
        "neighbourhood": null,
        "suburb": null,
        "city_district": null,
        "city": "Eiffel Flats",
        "state": "Mashonaland West Province",
        "postcode": null,
        "country": "Zimbabwe",
        "country_code": "zw"
      },
      "address": "Kadoma, Mashonaland West Province, Zimbabwe"
    },
    {
      "lat": -18.307204734110268,
      "lon": 29.941893967121853,
      "geoinfo": {
        "display_name": "R2, Martin Spur, Kadoma, Mashonaland West Province, Zimbabwe",
        "road": "R2",
        "house_number": null,
        "neighbourhood": null,
        "suburb": null,
        "city_district": null,
        "city": "Kadoma",
        "state": "Mashonaland West Province",
        "postcode": null,
        "country": "Zimbabwe",
        "country_code": "zw"
      },
      "address": "R2, Martin Spur, Kadoma, 70832 Mashonaland West Province, Zimbabwe"
    },
    {
      "lat": -18.334702463654086,
      "lon": 29.87237646929914,
      "geoinfo": {
        "display_name": "Rimuka, Kadoma, Mashonaland West Province, Zimbabwe",
        "road": null,
        "house_number": null,
        "neighbourhood": null,
        "suburb": "Rimuka",
        "city_district": null,
        "city": "Kadoma",
        "state": "Mashonaland West Province",
        "postcode": null,
        "country": "Zimbabwe",
        "country_code": "zw"
      },
      "address": "898, Rimuka, Kadoma, 09210 Mashonaland West Province, Zimbabwe"
    },
    {
      "lat": -18.33590407329908,
      "lon": 29.925458018957556,
      "geoinfo": {
        "display_name": "Bulawayo Road, Waverly, Kadoma, Mashonaland West Province, Zimbabwe",
        "road": "Bulawayo Road",
        "house_number": null,
        "neighbourhood": null,
        "suburb": "Waverly",
        "city_district": null,
        "city": "Kadoma",
        "state": "Mashonaland West Province",
        "postcode": null,
        "country": "Zimbabwe",
        "country_code": "zw"
      },
      "address": "912, Bulawayo Road, Waverly, Kadoma, 43026 Mashonaland West Province, Zimbabwe"
    },
    {
      "lat": -18.31643046678341,
      "lon": 29.95385671169956,
      "geoinfo": {
        "display_name": "Eiffel Flats, Kadoma, Mashonaland West Province, Zimbabwe",
        "road": null,
        "house_number": null,
        "neighbourhood": null,
        "suburb": null,
        "city_district": null,
        "city": "Eiffel Flats",
        "state": "Mashonaland West Province",
        "postcode": null,
        "country": "Zimbabwe",
        "country_code": "zw"
      },
      "address": "443, Eiffel Flats, Kadoma, 37191 Mashonaland West Province, Zimbabwe"
    }
  ],
  "updated_at": "2025-10-19T05:48:36.179990+00:00",
  "_kind": "geo_samples"
}