{
  "country_code": "ZW",
  "country": "Zimbabwe",
  "city": "Mutare",
  "geonameid": 884979,
  "target_addresses": 4,
  "samples": [
    {
      "lat": -18.98503397710175,
      "lon": 32.62864809518922,
      "geoinfo": {
        "display_name": "Sakubva, Mutare, Manicaland Province, Zimbabwe",
        "road": null,
        "house_number": null,
        "neighbourhood": null,
        "suburb": "Sakubva",
        "city_district": null,
        "city": "Mutare",
        "state": "Manicaland Province",
        "postcode": null,
        "country": "Zimbabwe",
        "country_code": "zw"
      },
      "address": "Sakubva, Mutare, Manicaland Province, Zimbabwe"
    },
    {
      "lat": -18.9660494352269,
      "lon": 32.66504390029471,
      "geoinfo": {
        "display_name": "Mutare Provincial Hospital, 19, Robert Mugabe Avenue, Mutare, Manicaland Province, Zimbabwe",
        "road": "Robert Mugabe Avenue",
        "house_number": "19",
        "neighbourhood": null,
        "suburb": null,
        "city_district": null,
        "city": "Mutare",
        "state": "Manicaland Province",
        "postcode": null,
        "country": "Zimbabwe",
        "country_code": "zw"
      },
      "address": "19 Robert Mugabe Avenue, Mutare, Manicaland Province, Zimbabwe"
    },
    {
      "lat": -18.99442278511279,
      "lon": 32.705014932344675,
      "geoinfo": {
        "display_name": "Mutare, Manicaland Province, Zimbabwe",
        "road": null,
        "house_number": null,
        "neighbourhood": null,
        "suburb": null,
        "city_district": null,
        "city": "Mutare",
        "state": "Manicaland Province",
        "postcode": null,
        "country": "Zimbabwe",
        "country_code": "zw"
      },
      "address": "Mutare, Manicaland Province, Zimbabwe"
    },
    {
      "lat": -18.959179152592945,
      "lon": 32.67758100825646,
      "geoinfo": {
        "display_name": "Jason Moyo Drive, Mutare, Manicaland Province, Zimbabwe",
        "road": "Jason Moyo Drive",
        "house_number": null,
        "neighbourhood": null,
        "suburb": null,
        "city_district": null,
        "city": "Mutare",
        "state": "Manicaland Province",
        "postcode": null,
        "country": "Zimbabwe",
        "country_code": "zw"
      },
      "address": "Jason Moyo Drive, Mutare, Manicaland Province, Zimbabwe"
    },
    {
      "lat": -18.97939561605258,
      "lon": 32.64239502677058,
      "geoinfo": {
        "display_name": "Chikanga, Mutare, Manicaland Province, Zimbabwe",
        "road": null,
        "house_number": null,
        "neighbourhood": null,
        "suburb": "Chikanga",
        "city_district": null,
        "city": "Mutare",
        "state": "Manicaland Province",
        "postcode": null,
        "country": "Zimbabwe",
        "country_code": "zw"
      },
      "address": "040, Chikanga, Mutare, 78650 Manicaland Province, Zimbabwe"
    },
    {
      "lat": -18.952738021914374,
      "lon": 32.65765168690465,
      "geoinfo": {
        "display_name": "R5, Mutare, Manicaland Province, Zimbabwe",
        "road": "R5",
        "house_number": null,
        "neighbourhood": null,
        "suburb": null,
        "city_district": null,
        "city": "Mutare",
        "state": "Manicaland Province",
        "postcode": null,
        "country": "Zimbabwe",
        "country_code": "zw"
      },
      "address": "R5, Mutare, 97909 Manicaland Province, Zimbabwe"
    },
    {
      "lat": -18.952087249271184,
      "lon": 32.648362422576646,
      "geoinfo": {
        "display_name": "R5, Mutare, Manicaland Province, Zimbabwe",
        "road": "R5",
        "house_number": null,
        "neighbourhood": null,
        "suburb": null,
        "city_district": null,
        "city": "Mutare",
        "state": "Manicaland Province",
        "postcode": null,
        "country": "Zimbabwe",
        "country_code": "zw"
      },
      "address": "R5, Mutare, 46726 Manicaland Province, Zimbabwe"
    },
    {
      "lat": -18.9691924262226,
      "lon": 32.62834752489128,
      "geoinfo": {
        "display_name": "Magamba Drive, Chikanga, Mutare, Manicaland Province, Zimbabwe",
        "road": "Magamba Drive",
        "house_number": null,
        "neighbourhood": null,
        "suburb": "Chikanga",
        "city_district": null,
        "city": "Mutare",
        "state": "Manicaland Province",
        "postcode": null,
        "country": "Zimbabwe",
        "country_code": "zw"
      },
      "address": "882, Magamba Drive, Chikanga, Mutare, 13676 Manicaland Province, Zimbabwe"
    }
  ],
  "updated_at": "2025-10-19T07:59:50.254681+00:00",
  "_kind": "geo_samples"
}