{
  "country_code": "PG",
  "country": "Papua New Guinea",
  "city": "Bulolo",
  "geonameid": 2098869,
  "target_addresses": 8,
  "samples": [
    {
      "lat": -7.210481785382241,
      "lon": 146.64533492677126,
      "geoinfo": {
        "display_name": "CNG Timbers, Bulolo, Bulolo District, Morobe, Momase Region, Papua New Guinea",
        "road": null,
        "house_number": null,
        "neighbourhood": null,
        "suburb": null,
        "city_district": null,
        "city": "Bulolo",
        "state": "Morobe",
        "postcode": null,
        "country": "Papua New Guinea",
        "country_code": "pg"
      },
      "address": "Bulolo, Morobe, Papua New Guinea"
    },
    {
      "lat": -7.213692306022696,
      "lon": 146.6287570713475,
      "geoinfo": {
        "display_name": "PNG National Forest Service, Menyamya Highway, Society, Bulolo District, Morobe, Momase Region, Papua New Guinea",
        "road": "Menyamya Highway",
        "house_number": null,
        "neighbourhood": null,
        "suburb": null,
        "city_district": null,
        "city": "Society",
        "state": "Morobe",
        "postcode": null,
        "country": "Papua New Guinea",
        "country_code": "pg"
      },
      "address": "Menyamya Highway, Bulolo, Morobe, Papua New Guinea"
    },
    {
      "lat": -7.211896850749772,
      "lon": 146.635011609658,
      "geoinfo": {
        "display_name": "Bulolo Golf Course, Church Road, Bulolo, Bulolo District, Morobe, Momase Region, Papua New Guinea",
        "road": "Church Road",
        "house_number": null,
        "neighbourhood": null,
        "suburb": null,
        "city_district": null,
        "city": "Bulolo",
        "state": "Morobe",
        "postcode": null,
        "country": "Papua New Guinea",
        "country_code": "pg"
      },
      "address": "Church Road, Bulolo, Morobe, Papua New Guinea"
    },
    {
      "lat": -7.214930303513813,
      "lon": 146.64708308741717,
      "geoinfo": {
        "display_name": "Bulolo Airport, Wau-Bulolo Highway, Aitape & Yanguru Settlements, Bulolo, Bulolo District, Morobe, Momase Region, Papua New Guinea",
        "road": "Wau-Bulolo Highway",
        "house_number": null,
        "neighbourhood": null,
        "suburb": null,
        "city_district": null,
        "city": "Bulolo",
        "state": "Morobe",
        "postcode": null,
        "country": "Papua New Guinea",
        "country_code": "pg"
      },
      "address": "Wau-Bulolo Highway, Bulolo, Morobe, Papua New Guinea"
    },
    {
      "lat": -7.234303430165469,
      "lon": 146.6131903351262,
      "geoinfo": {
        "display_name": "Hidden Valley Mine Site Road, Hauya Hikingangowe, Payatawa, Bulolo District, Morobe, Momase Region, Papua New Guinea",
        "road": "Hidden Valley Mine Site Road",
        "house_number": null,
        "neighbourhood": null,
        "suburb": null,
        "city_district": null,
        "city": "Payatawa",
        "state": "Morobe",
        "postcode": null,
        "country": "Papua New Guinea",
        "country_code": "pg"
      },
      "address": "Hidden Valley Mine Site Road, Bulolo, Morobe, Papua New Guinea"
    },
    {
      "lat": -7.184565221367113,
      "lon": 146.62448316754597,
      "geoinfo": {
        "display_name": "Road 25, Baius, Bulolo District, Morobe, Momase Region, Papua New Guinea",
        "road": "Road 25",
        "house_number": null,
        "neighbourhood": null,
        "suburb": null,
        "city_district": null,
        "city": "Baius",
        "state": "Morobe",
        "postcode": null,
        "country": "Papua New Guinea",
        "country_code": "pg"
      },
      "address": "Road 25, Bulolo, Morobe, Papua New Guinea"
    },
    {
      "lat": -7.210545142260854,
      "lon": 146.6137757708038,
      "geoinfo": {
        "display_name": "Road 01, Bulolo District, Morobe, Momase Region, Papua New Guinea",
        "road": "Road 01",
        "house_number": null,
        "neighbourhood": null,
        "suburb": null,
        "city_district": null,
        "city": null,
        "state": "Morobe",
        "postcode": null,
        "country": "Papua New Guinea",
        "country_code": "pg"
      },
      "address": "Road 01, Bulolo, Morobe, Papua New Guinea"
    },
    {
      "lat": -7.213365001456496,
      "lon": 146.65846075921118,
      "geoinfo": {
        "display_name": "Number Two Ship, Siapan, Bulolo District, Morobe, Momase Region, Papua New Guinea",
        "road": null,
        "house_number": null,
        "neighbourhood": null,
        "suburb": null,
        "city_district": null,
        "city": "Siapan",
        "state": "Morobe",
        "postcode": null,
        "country": "Papua New Guinea",
        "country_code": "pg"
      },
      "address": "763, Bulolo, 85674 Morobe, Papua New Guinea"
    },
    {
      "lat": -7.193300068461565,
      "lon": 146.61419614177566,
      "geoinfo": {
        "display_name": "Road 25, Baius, Bulolo District, Morobe, Momase Region, Papua New Guinea",
        "road": "Road 25",
        "house_number": null,
        "neighbourhood": null,
        "suburb": null,
        "city_district": null,
        "city": "Baius",
        "state": "Morobe",
        "postcode": null,
        "country": "Papua New Guinea",
        "country_code": "pg"
      },
      "address": "Road 25, Baius, Bulolo District, Morobe, 74564 Momase Region, Papua New Guinea"
    },
    {
      "lat": -7.186884386444471,
      "lon": 146.67147380111825,
      "geoinfo": {
        "display_name": "Kebi, Bulolo District, Morobe, Momase Region, Papua New Guinea",
        "road": null,
        "house_number": null,
        "neighbourhood": null,
        "suburb": null,
        "city_district": null,
        "city": "Kebi",
        "state": "Morobe",
        "postcode": null,
        "country": "Papua New Guinea",
        "country_code": "pg"
      },
      "address": "661, Kebi, Bulolo District, Morobe, 52809 Momase Region, Papua New Guinea"
    },
    {
      "lat": -7.194440655438642,
      "lon": 146.63780306332276,
      "geoinfo": {
        "display_name": "Impact Bible College, Saksak Road, Bulolo, Bulolo District, Morobe, Momase Region, Papua New Guinea",
        "road": "Saksak Road",
        "house_number": null,
        "neighbourhood": null,
        "suburb": null,
        "city_district": null,
        "city": "Bulolo",
        "state": "Morobe",
        "postcode": null,
        "country": "Papua New Guinea",
        "country_code": "pg"
      },
      "address": "243, Saksak Road, Bulolo, 16253 Morobe, Papua New Guinea"
    },
    {
      "lat": -7.181103496885613,
      "lon": 146.65407934377845,
      "geoinfo": {
        "display_name": "Baius, Bulolo District, Morobe, Momase Region, Papua New Guinea",
        "road": null,
        "house_number": null,
        "neighbourhood": null,
        "suburb": null,
        "city_district": null,
        "city": "Baius",
        "state": "Morobe",
        "postcode": null,
        "country": "Papua New Guinea",
        "country_code": "pg"
      },
      "address": "286, Baius, Bulolo District, Morobe, 10601 Momase Region, Papua New Guinea"
    },
    {
      "lat": -7.211267090475931,
      "lon": 146.65558980938417,
      "geoinfo": {
        "display_name": "Number Two Ship, Siapan, Bulolo District, Morobe, Momase Region, Papua New Guinea",
        "road": null,
        "house_number": null,
        "neighbourhood": null,
        "suburb": null,
        "city_district": null,
        "city": "Siapan",
        "state": "Morobe",
        "postcode": null,
        "country": "Papua New Guinea",
        "country_code": "pg"
      },
      "address": "461, Bulolo, 96036 Morobe, Papua New Guinea"
    },
    {
      "lat": -7.211973303092498,
      "lon": 146.61304520012055,
      "geoinfo": {
        "display_name": "Menyamya Highway, Society, Bulolo District, Morobe, Momase Region, Papua New Guinea",
        "road": "Menyamya Highway",
        "house_number": null,
        "neighbourhood": null,
        "suburb": null,
        "city_district": null,
        "city": "Society",
        "state": "Morobe",
        "postcode": null,
        "country": "Papua New Guinea",
        "country_code": "pg"
      },
      "address": "474, Menyamya Highway, Society, Bulolo District, Morobe, 14293 Momase Region, Papua New Guinea"
    },
    {
      "lat": -7.180832711276626,
      "lon": 146.6027530455181,
      "geoinfo": {
        "display_name": "Baius, Bulolo District, Morobe, Momase Region, Papua New Guinea",
        "road": null,
        "house_number": null,
        "neighbourhood": null,
        "suburb": null,
        "city_district": null,
        "city": "Baius",
        "state": "Morobe",
        "postcode": null,
        "country": "Papua New Guinea",
        "country_code": "pg"
      },
      "address": "442, Baius, Bulolo District, Morobe, 39216 Momase Region, Papua New Guinea"
    }
  ],
  "updated_at": "2025-10-19T06:34:04.376928+00:00",
  "_kind": "geo_samples"
}