{
  "country_code": "PG",
  "country": "Papua New Guinea",
  "city": "Kokopo",
  "geonameid": 2093685,
  "target_addresses": 8,
  "samples": [
    {
      "lat": -4.356857484573574,
      "lon": 152.26628555945175,
      "geoinfo": {
        "display_name": "Raniolo, Kokopo, Kokopo District, East New Britain, Islands Region, Papua New Guinea",
        "road": null,
        "house_number": null,
        "neighbourhood": null,
        "suburb": "Raniolo",
        "city_district": null,
        "city": "Kokopo",
        "state": "East New Britain",
        "postcode": null,
        "country": "Papua New Guinea",
        "country_code": "pg"
      },
      "address": "Raniolo, Kokopo, East New Britain, Papua New Guinea"
    },
    {
      "lat": -4.365489493520927,
      "lon": 152.2809748069164,
      "geoinfo": {
        "display_name": "Vunabosco Agro-Technical Secondary School, Eagle Street, Kenabot, Kokopo, Kokopo District, East New Britain, Islands Region, Papua New Guinea",
        "road": "Eagle Street",
        "house_number": null,
        "neighbourhood": null,
        "suburb": "Kenabot",
        "city_district": null,
        "city": "Kokopo",
        "state": "East New Britain",
        "postcode": null,
        "country": "Papua New Guinea",
        "country_code": "pg"
      },
      "address": "Eagle Street, Kokopo, East New Britain, Papua New Guinea"
    },
    {
      "lat": -4.300157321560295,
      "lon": 152.25808803460066,
      "geoinfo": {
        "display_name": "Raluana, Kokopo District, East New Britain, Islands Region, Papua New Guinea",
        "road": null,
        "house_number": null,
        "neighbourhood": null,
        "suburb": null,
        "city_district": null,
        "city": "Raluana",
        "state": "East New Britain",
        "postcode": null,
        "country": "Papua New Guinea",
        "country_code": "pg"
      },
      "address": "Kokopo, East New Britain, Papua New Guinea"
    },
    {
      "lat": -4.3506525865511385,
      "lon": 152.2662194214636,
      "geoinfo": {
        "display_name": "Hornbill Crescent, Kenabot, Kokopo, Kokopo District, East New Britain, Islands Region, Papua New Guinea",
        "road": "Hornbill Crescent",
        "house_number": null,
        "neighbourhood": null,
        "suburb": "Kenabot",
        "city_district": null,
        "city": "Kokopo",
        "state": "East New Britain",
        "postcode": null,
        "country": "Papua New Guinea",
        "country_code": "pg"
      },
      "address": "Hornbill Crescent, Kokopo, East New Britain, Papua New Guinea"
    },
    {
      "lat": -4.3172818657326575,
      "lon": 152.29378216973683,
      "geoinfo": {
        "display_name": "Vunapope, Kokopo, Kokopo District, East New Britain, Islands Region, Papua New Guinea",
        "road": null,
        "house_number": null,
        "neighbourhood": null,
        "suburb": "Vunapope",
        "city_district": null,
        "city": "Kokopo",
        "state": "East New Britain",
        "postcode": null,
        "country": "Papua New Guinea",
        "country_code": "pg"
      },
      "address": "Vunapope, Kokopo, East New Britain, Papua New Guinea"
    },
    {
      "lat": -4.336415864683914,
      "lon": 152.26878394423304,
      "geoinfo": {
        "display_name": "Kokopo Golf Course, Williams Road, Matanatava, Kokopo, Kokopo District, East New Britain, Islands Region, Papua New Guinea",
        "road": "Williams Road",
        "house_number": null,
        "neighbourhood": null,
        "suburb": null,
        "city_district": null,
        "city": "Kokopo",
        "state": "East New Britain",
        "postcode": null,
        "country": "Papua New Guinea",
        "country_code": "pg"
      },
      "address": "Williams Road, Kokopo, East New Britain, Papua New Guinea"
    },
    {
      "lat": -4.317554659444456,
      "lon": 152.2393345181048,
      "geoinfo": {
        "display_name": "Malapau Beach Resort, Kokopo-Rabaul Road, Butuwin Health Center, Raburua, Kokopo District, East New Britain, Islands Region, Papua New Guinea",
        "road": "Kokopo-Rabaul Road",
        "house_number": null,
        "neighbourhood": null,
        "suburb": null,
        "city_district": null,
        "city": "Raburua",
        "state": "East New Britain",
        "postcode": null,
        "country": "Papua New Guinea",
        "country_code": "pg"
      },
      "address": "Kokopo-Rabaul Road, Kokopo, East New Britain, Papua New Guinea"
    },
    {
      "lat": -4.346470689907944,
      "lon": 152.3035617767917,
      "geoinfo": {
        "display_name": "Takubar, Kokopo District, East New Britain, Islands Region, Papua New Guinea",
        "road": null,
        "house_number": null,
        "neighbourhood": null,
        "suburb": "Takubar",
        "city_district": null,
        "city": null,
        "state": "East New Britain",
        "postcode": null,
        "country": "Papua New Guinea",
        "country_code": "pg"
      },
      "address": "Takubar, Kokopo, East New Britain, Papua New Guinea"
    },
    {
      "lat": -4.31783568872597,
      "lon": 152.252667823546,
      "geoinfo": {
        "display_name": "Butuwin Health Center, Kokopo District, East New Britain, Islands Region, Papua New Guinea",
        "road": null,
        "house_number": null,
        "neighbourhood": null,
        "suburb": null,
        "city_district": null,
        "city": null,
        "state": "East New Britain",
        "postcode": null,
        "country": "Papua New Guinea",
        "country_code": "pg"
      },
      "address": "352, Butuwin Health Center, Kokopo District, East New Britain, 07197 Islands Region, Papua New Guinea"
    },
    {
      "lat": -4.355998182189594,
      "lon": 152.2435115738285,
      "geoinfo": {
        "display_name": "Bitapabeke, Kokopo District, East New Britain, Islands Region, Papua New Guinea",
        "road": null,
        "house_number": null,
        "neighbourhood": null,
        "suburb": null,
        "city_district": null,
        "city": "Bitapabeke",
        "state": "East New Britain",
        "postcode": null,
        "country": "Papua New Guinea",
        "country_code": "pg"
      },
      "address": "865, Bitapabeke, Kokopo District, East New Britain, 67716 Islands Region, Papua New Guinea"
    },
    {
      "lat": -4.324143878948667,
      "lon": 152.29097460703738,
      "geoinfo": {
        "display_name": "Vunapope, Kokopo, Kokopo District, East New Britain, Islands Region, Papua New Guinea",
        "road": null,
        "house_number": null,
        "neighbourhood": null,
        "suburb": "Vunapope",
        "city_district": null,
        "city": "Kokopo",
        "state": "East New Britain",
        "postcode": null,
        "country": "Papua New Guinea",
        "country_code": "pg"
      },
      "address": "175, Vunapope, Kokopo, Kokopo District, East New Britain, 39774 Islands Region, Papua New Guinea"
    },
    {
      "lat": -4.323670705046239,
      "lon": 152.27578444549206,
      "geoinfo": {
        "display_name": "Vunapope, Kokopo, Kokopo District, East New Britain, Islands Region, Papua New Guinea",
        "road": null,
        "house_number": null,
        "neighbourhood": null,
        "suburb": "Vunapope",
        "city_district": null,
        "city": "Kokopo",
        "state": "East New Britain",
        "postcode": null,
        "country": "Papua New Guinea",
        "country_code": "pg"
      },
      "address": "024, Vunapope, Kokopo, Kokopo District, East New Britain, 97382 Islands Region, Papua New Guinea"
    },
    {
      "lat": -4.3614135270565875,
      "lon": 152.30012457472864,
      "geoinfo": {
        "display_name": "Vunapau Catholic Mission, Kabaleo, Kokopo District, East New Britain, Islands Region, Papua New Guinea",
        "road": null,
        "house_number": null,
        "neighbourhood": null,
        "suburb": null,
        "city_district": null,
        "city": "Kabaleo",
        "state": "East New Britain",
        "postcode": null,
        "country": "Papua New Guinea",
        "country_code": "pg"
      },
      "address": "321, Vunapau Catholic Mission, Kabaleo, Kokopo District, East New Britain, 13921 Islands Region, Papua New Guinea"
    },
    {
      "lat": -4.375346549805896,
      "lon": 152.29785288165212,
      "geoinfo": {
        "display_name": "Takubar, Livuan, Kokopo District, East New Britain, Islands Region, Papua New Guinea",
        "road": null,
        "house_number": null,
        "neighbourhood": null,
        "suburb": "Takubar",
        "city_district": null,
        "city": "Livuan",
        "state": "East New Britain",
        "postcode": null,
        "country": "Papua New Guinea",
        "country_code": "pg"
      },
      "address": "807, Takubar, Kokopo, 12347 East New Britain, Papua New Guinea"
    },
    {
      "lat": -4.309785370170544,
      "lon": 152.24564051963185,
      "geoinfo": {
        "display_name": "Butuwin Health Center, Kokopo District, East New Britain, Islands Region, Papua New Guinea",
        "road": null,
        "house_number": null,
        "neighbourhood": null,
        "suburb": null,
        "city_district": null,
        "city": null,
        "state": "East New Britain",
        "postcode": null,
        "country": "Papua New Guinea",
        "country_code": "pg"
      },
      "address": "888, Butuwin Health Center, Kokopo District, East New Britain, 82776 Islands Region, Papua New Guinea"
    },
    {
      "lat": -4.323227595725369,
      "lon": 152.29292704652522,
      "geoinfo": {
        "display_name": "Vunapope, Kokopo, Kokopo District, East New Britain, Islands Region, Papua New Guinea",
        "road": null,
        "house_number": null,
        "neighbourhood": null,
        "suburb": "Vunapope",
        "city_district": null,
        "city": "Kokopo",
        "state": "East New Britain",
        "postcode": null,
        "country": "Papua New Guinea",
        "country_code": "pg"
      },
      "address": "186, Vunapope, Kokopo, Kokopo District, East New Britain, 24142 Islands Region, Papua New Guinea"
    }
  ],
  "updated_at": "2025-10-19T06:27:35.574103+00:00",
  "_kind": "geo_samples"
}