{
  "country_code": "PG",
  "country": "Papua New Guinea",
  "city": "Lae",
  "geonameid": 2092740,
  "target_addresses": 44,
  "samples": [
    {
      "lat": -6.711629111297474,
      "lon": 146.97856866477846,
      "geoinfo": {
        "display_name": "Lae-Nadzab Highway, Bugandi, Lae, Lae District, Morobe, Momase Region, Papua New Guinea",
        "road": "Lae-Nadzab Highway",
        "house_number": null,
        "neighbourhood": null,
        "suburb": "Bugandi",
        "city_district": null,
        "city": "Lae",
        "state": "Morobe",
        "postcode": null,
        "country": "Papua New Guinea",
        "country_code": "pg"
      },
      "address": "Lae-Nadzab Highway, Lae, Morobe, Papua New Guinea"
    },
    {
      "lat": -6.731419508308224,
      "lon": 147.0403937543198,
      "geoinfo": {
        "display_name": "Wagang, Lae District, Morobe, Momase Region, Papua New Guinea",
        "road": null,
        "house_number": null,
        "neighbourhood": null,
        "suburb": null,
        "city_district": null,
        "city": "Wagang",
        "state": "Morobe",
        "postcode": null,
        "country": "Papua New Guinea",
        "country_code": "pg"
      },
      "address": "Lae, Morobe, Papua New Guinea"
    },
    {
      "lat": -6.701474409586443,
      "lon": 147.01848950046286,
      "geoinfo": {
        "display_name": "Malahang, Lae, Lae District, Morobe, Momase Region, Papua New Guinea",
        "road": null,
        "house_number": null,
        "neighbourhood": null,
        "suburb": "Malahang",
        "city_district": null,
        "city": "Lae",
        "state": "Morobe",
        "postcode": null,
        "country": "Papua New Guinea",
        "country_code": "pg"
      },
      "address": "Malahang, Lae, Morobe, Papua New Guinea"
    },
    {
      "lat": -6.714203642179691,
      "lon": 147.0096921925834,
      "geoinfo": {
        "display_name": "Busurum Settlement, Butibam, Lae, Lae District, Morobe, Momase Region, Papua New Guinea",
        "road": null,
        "house_number": null,
        "neighbourhood": null,
        "suburb": "Butibam",
        "city_district": null,
        "city": "Lae",
        "state": "Morobe",
        "postcode": null,
        "country": "Papua New Guinea",
        "country_code": "pg"
      },
      "address": "Butibam, Lae, Morobe, Papua New Guinea"
    },
    {
      "lat": -6.737133197307704,
      "lon": 147.01901680071694,
      "geoinfo": {
        "display_name": "Bumbu Settlement, Chinatown, Lae, Lae District, Morobe, Momase Region, Papua New Guinea",
        "road": null,
        "house_number": null,
        "neighbourhood": null,
        "suburb": "Chinatown",
        "city_district": null,
        "city": "Lae",
        "state": "Morobe",
        "postcode": null,
        "country": "Papua New Guinea",
        "country_code": "pg"
      },
      "address": "Chinatown, Lae, Morobe, Papua New Guinea"
    },
    {
      "lat": -6.7627266596817135,
      "lon": 147.00851589357146,
      "geoinfo": {
        "display_name": "Voco Point, Lae, Lae District, Morobe, Momase Region, Papua New Guinea",
        "road": null,
        "house_number": null,
        "neighbourhood": null,
        "suburb": "Voco Point",
        "city_district": null,
        "city": "Lae",
        "state": "Morobe",
        "postcode": null,
        "country": "Papua New Guinea",
        "country_code": "pg"
      },
      "address": "Voco Point, Lae, Morobe, Papua New Guinea"
    },
    {
      "lat": -6.726849422174516,
      "lon": 146.9566860300134,
      "geoinfo": {
        "display_name": "Bugandi, Lae, Lae District, Morobe, Momase Region, Papua New Guinea",
        "road": null,
        "house_number": null,
        "neighbourhood": null,
        "suburb": "Bugandi",
        "city_district": null,
        "city": "Lae",
        "state": "Morobe",
        "postcode": null,
        "country": "Papua New Guinea",
        "country_code": "pg"
      },
      "address": "Bugandi, Lae, Morobe, Papua New Guinea"
    },
    {
      "lat": -6.7063278260650305,
      "lon": 146.98766632287237,
      "geoinfo": {
        "display_name": "Eriku, Lae, Lae District, Morobe, Momase Region, Papua New Guinea",
        "road": null,
        "house_number": null,
        "neighbourhood": null,
        "suburb": "Eriku",
        "city_district": null,
        "city": "Lae",
        "state": "Morobe",
        "postcode": null,
        "country": "Papua New Guinea",
        "country_code": "pg"
      },
      "address": "Eriku, Lae, Morobe, Papua New Guinea"
    },
    {
      "lat": -6.722476553179116,
      "lon": 147.01970020532664,
      "geoinfo": {
        "display_name": "Ampo Lutheran Mission, Butibam, Lae, Lae District, Morobe, Momase Region, Papua New Guinea",
        "road": null,
        "house_number": null,
        "neighbourhood": null,
        "suburb": "Butibam",
        "city_district": null,
        "city": "Lae",
        "state": "Morobe",
        "postcode": null,
        "country": "Papua New Guinea",
        "country_code": "pg"
      },
      "address": "Ampo Lutheran Mission, Butibam, Lae, Lae District, Morobe, 96925 Momase Region, Papua New Guinea"
    },
    {
      "lat": -6.708883458344516,
      "lon": 147.03324928258115,
      "geoinfo": {
        "display_name": "Yanga Village, Malahang, Yanga, Lae District, Morobe, Momase Region, Papua New Guinea",
        "road": null,
        "house_number": null,
        "neighbourhood": null,
        "suburb": "Malahang",
        "city_district": null,
        "city": "Yanga",
        "state": "Morobe",
        "postcode": null,
        "country": "Papua New Guinea",
        "country_code": "pg"
      },
      "address": "Yanga Village, Malahang, Yanga, Lae District, Morobe, 31885 Momase Region, Papua New Guinea"
    },
    {
      "lat": -6.753290225036861,
      "lon": 146.99533440503197,
      "geoinfo": {
        "display_name": "Voco Point, Lae, Lae District, Morobe, Momase Region, Papua New Guinea",
        "road": null,
        "house_number": null,
        "neighbourhood": null,
        "suburb": "Voco Point",
        "city_district": null,
        "city": "Lae",
        "state": "Morobe",
        "postcode": null,
        "country": "Papua New Guinea",
        "country_code": "pg"
      },
      "address": "Voco Point, Lae, Lae District, Morobe, 27165 Momase Region, Papua New Guinea"
    },
    {
      "lat": -6.720096155227463,
      "lon": 146.97911528564944,
      "geoinfo": {
        "display_name": "Bugandi Secondary School, Highlands Highway, Bugandi, Lae, Lae District, Morobe, Momase Region, Papua New Guinea",
        "road": "Highlands Highway",
        "house_number": null,
        "neighbourhood": null,
        "suburb": "Bugandi",
        "city_district": null,
        "city": "Lae",
        "state": "Morobe",
        "postcode": null,
        "country": "Papua New Guinea",
        "country_code": "pg"
      },
      "address": "Bugandi Secondary School, Highlands Highway, Bugandi, Lae, Lae District, Morobe, 65003 Momase Region, Papua New Guinea"
    },
    {
      "lat": -6.704181067413634,
      "lon": 146.99067308243005,
      "geoinfo": {
        "display_name": "Bundi Road, Bundi Camp, Eriku, Lae, Lae District, Morobe, Momase Region, Papua New Guinea",
        "road": "Bundi Road",
        "house_number": null,
        "neighbourhood": null,
        "suburb": "Eriku",
        "city_district": null,
        "city": "Lae",
        "state": "Morobe",
        "postcode": null,
        "country": "Papua New Guinea",
        "country_code": "pg"
      },
      "address": "Bundi Road, Bundi Camp, Eriku, Lae, Lae District, Morobe, 58086 Momase Region, Papua New Guinea"
    },
    {
      "lat": -6.756111238632937,
      "lon": 146.99416517232345,
      "geoinfo": {
        "display_name": "Voco Point, Lae, Lae District, Morobe, Momase Region, Papua New Guinea",
        "road": null,
        "house_number": null,
        "neighbourhood": null,
        "suburb": "Voco Point",
        "city_district": null,
        "city": "Lae",
        "state": "Morobe",
        "postcode": null,
        "country": "Papua New Guinea",
        "country_code": "pg"
      },
      "address": "407, Voco Point, Lae, Lae District, Morobe, 73582 Momase Region, Papua New Guinea"
    },
    {
      "lat": -6.68796407530797,
      "lon": 147.01752119443563,
      "geoinfo": {
        "display_name": "Poaba Settlement, Omili, Lae, Lae District, Morobe, Momase Region, Papua New Guinea",
        "road": null,
        "house_number": null,
        "neighbourhood": null,
        "suburb": "Omili",
        "city_district": null,
        "city": "Lae",
        "state": "Morobe",
        "postcode": null,
        "country": "Papua New Guinea",
        "country_code": "pg"
      },
      "address": "480, Omili, Lae, 24159 Morobe, Papua New Guinea"
    },
    {
      "lat": -6.725336716804233,
      "lon": 146.9977298911469,
      "geoinfo": {
        "display_name": "Hotel Morobe, Coronation Drive, Top Town, Lae, Lae District, Morobe, Momase Region, Papua New Guinea",
        "road": "Coronation Drive",
        "house_number": null,
        "neighbourhood": null,
        "suburb": "Top Town",
        "city_district": null,
        "city": "Lae",
        "state": "Morobe",
        "postcode": null,
        "country": "Papua New Guinea",
        "country_code": "pg"
      },
      "address": "700, Coronation Drive, Lae, 15616 Morobe, Papua New Guinea"
    },
    {
      "lat": -6.725814740451651,
      "lon": 147.01125092111212,
      "geoinfo": {
        "display_name": "West Butibam Villag, Butibam, Lae, Lae District, Morobe, Momase Region, Papua New Guinea",
        "road": null,
        "house_number": null,
        "neighbourhood": null,
        "suburb": "Butibam",
        "city_district": null,
        "city": "Lae",
        "state": "Morobe",
        "postcode": null,
        "country": "Papua New Guinea",
        "country_code": "pg"
      },
      "address": "229, West Butibam Villag, Butibam, Lae, Lae District, Morobe, 70009 Momase Region, Papua New Guinea"
    },
    {
      "lat": -6.684869565160821,
      "lon": 147.0027523248609,
      "geoinfo": {
        "display_name": "Lae, Lae District, Morobe, Momase Region, Papua New Guinea",
        "road": null,
        "house_number": null,
        "neighbourhood": null,
        "suburb": null,
        "city_district": null,
        "city": "Lae",
        "state": "Morobe",
        "postcode": null,
        "country": "Papua New Guinea",
        "country_code": "pg"
      },
      "address": "841, Lae, Lae District, Morobe, 75748 Momase Region, Papua New Guinea"
    },
    {
      "lat": -6.712920899195577,
      "lon": 146.98506425086944,
      "geoinfo": {
        "display_name": "Lae Golf Course, Markham Road, Dowsett, Lae, Lae District, Morobe, Momase Region, Papua New Guinea",
        "road": "Markham Road",
        "house_number": null,
        "neighbourhood": null,
        "suburb": "Dowsett",
        "city_district": null,
        "city": "Lae",
        "state": "Morobe",
        "postcode": null,
        "country": "Papua New Guinea",
        "country_code": "pg"
      },
      "address": "442, Markham Road, Lae, 13142 Morobe, Papua New Guinea"
    },
    {
      "lat": -6.750360296480351,
      "lon": 147.0268731700376,
      "geoinfo": {
        "display_name": "Wagang, Lae District, Morobe, Momase Region, Papua New Guinea",
        "road": null,
        "house_number": null,
        "neighbourhood": null,
        "suburb": null,
        "city_district": null,
        "city": "Wagang",
        "state": "Morobe",
        "postcode": null,
        "country": "Papua New Guinea",
        "country_code": "pg"
      },
      "address": "484, Wagang, Lae District, Morobe, 28244 Momase Region, Papua New Guinea"
    },
    {
      "lat": -6.7611163644342955,
      "lon": 146.9803732088327,
      "geoinfo": {
        "display_name": "Labubutu, Huon District, Morobe, Momase Region, Papua New Guinea",
        "road": null,
        "house_number": null,
        "neighbourhood": null,
        "suburb": null,
        "city_district": null,
        "city": "Labubutu",
        "state": "Morobe",
        "postcode": null,
        "country": "Papua New Guinea",
        "country_code": "pg"
      },
      "address": "381, Lae, 42419 Morobe, Papua New Guinea"
    },
    {
      "lat": -6.732328440498126,
      "lon": 146.9813424486928,
      "geoinfo": {
        "display_name": "Mangola Street, Dowsett, Lae, Lae District, Morobe, Momase Region, Papua New Guinea",
        "road": "Mangola Street",
        "house_number": null,
        "neighbourhood": null,
        "suburb": "Dowsett",
        "city_district": null,
        "city": "Lae",
        "state": "Morobe",
        "postcode": null,
        "country": "Papua New Guinea",
        "country_code": "pg"
      },
      "address": "648, Mangola Street, Dowsett, Lae, Lae District, Morobe, 62405 Momase Region, Papua New Guinea"
    },
    {
      "lat": -6.694527566115296,
      "lon": 146.99272881408598,
      "geoinfo": {
        "display_name": "Timber and Forestry Training College, Buimo Road, Eriku, Lae, Lae District, Morobe, Momase Region, Papua New Guinea",
        "road": "Buimo Road",
        "house_number": null,
        "neighbourhood": null,
        "suburb": "Eriku",
        "city_district": null,
        "city": "Lae",
        "state": "Morobe",
        "postcode": null,
        "country": "Papua New Guinea",
        "country_code": "pg"
      },
      "address": "546, Buimo Road, Lae, 95616 Morobe, Papua New Guinea"
    },
    {
      "lat": -6.762255649668965,
      "lon": 146.982021991838,
      "geoinfo": {
        "display_name": "Labubutu, Huon District, Morobe, Momase Region, Papua New Guinea",
        "road": null,
        "house_number": null,
        "neighbourhood": null,
        "suburb": null,
        "city_district": null,
        "city": "Labubutu",
        "state": "Morobe",
        "postcode": null,
        "country": "Papua New Guinea",
        "country_code": "pg"
      },
      "address": "599, Lae, 63601 Morobe, Papua New Guinea"
    },
    {
      "lat": -6.697777007277681,
      "lon": 146.98259562324145,
      "geoinfo": {
        "display_name": "Lae, Lae District, Morobe, Momase Region, Papua New Guinea",
        "road": null,
        "house_number": null,
        "neighbourhood": null,
        "suburb": null,
        "city_district": null,
        "city": "Lae",
        "state": "Morobe",
        "postcode": null,
        "country": "Papua New Guinea",
        "country_code": "pg"
      },
      "address": "621, Lae, Lae District, Morobe, 50520 Momase Region, Papua New Guinea"
    },
    {
      "lat": -6.711763478599082,
      "lon": 147.02383641924828,
      "geoinfo": {
        "display_name": "Lutheran Shipping Compound, Malahang, Lae, Lae District, Morobe, Momase Region, Papua New Guinea",
        "road": null,
        "house_number": null,
        "neighbourhood": null,
        "suburb": "Malahang",
        "city_district": null,
        "city": "Lae",
        "state": "Morobe",
        "postcode": null,
        "country": "Papua New Guinea",
        "country_code": "pg"
      },
      "address": "704, Lutheran Shipping Compound, Malahang, Lae, Lae District, Morobe, 48180 Momase Region, Papua New Guinea"
    },
    {
      "lat": -6.694174293000539,
      "lon": 147.01056076502428,
      "geoinfo": {
        "display_name": "Omili, Lae, Lae District, Morobe, Momase Region, Papua New Guinea",
        "road": null,
        "house_number": null,
        "neighbourhood": null,
        "suburb": "Omili",
        "city_district": null,
        "city": "Lae",
        "state": "Morobe",
        "postcode": null,
        "country": "Papua New Guinea",
        "country_code": "pg"
      },
      "address": "348, Omili, Lae, Lae District, Morobe, 33281 Momase Region, Papua New Guinea"
    },
    {
      "lat": -6.739350177969838,
      "lon": 146.954810029415,
      "geoinfo": {
        "display_name": "Labubutu, Huon District, Morobe, Momase Region, Papua New Guinea",
        "road": null,
        "house_number": null,
        "neighbourhood": null,
        "suburb": null,
        "city_district": null,
        "city": "Labubutu",
        "state": "Morobe",
        "postcode": null,
        "country": "Papua New Guinea",
        "country_code": "pg"
      },
      "address": "431, Lae, 68439 Morobe, Papua New Guinea"
    },
    {
      "lat": -6.683039557704817,
      "lon": 147.01286703840725,
      "geoinfo": {
        "display_name": "Poaba Settlement, Lae, Lae District, Morobe, Momase Region, Papua New Guinea",
        "road": null,
        "house_number": null,
        "neighbourhood": null,
        "suburb": null,
        "city_district": null,
        "city": "Lae",
        "state": "Morobe",
        "postcode": null,
        "country": "Papua New Guinea",
        "country_code": "pg"
      },
      "address": "883, Poaba Settlement, Lae, Lae District, Morobe, 54769 Momase Region, Papua New Guinea"
    },
    {
      "lat": -6.706950644053318,
      "lon": 146.96689230694378,
      "geoinfo": {
        "display_name": "Wain-Erap Settlement, Bugandi, Lae, Lae District, Morobe, Momase Region, Papua New Guinea",
        "road": null,
        "house_number": null,
        "neighbourhood": null,
        "suburb": "Bugandi",
        "city_district": null,
        "city": "Lae",
        "state": "Morobe",
        "postcode": null,
        "country": "Papua New Guinea",
        "country_code": "pg"
      },
      "address": "803, Bugandi, Lae, 90216 Morobe, Papua New Guinea"
    },
    {
      "lat": -6.699895198630515,
      "lon": 146.9873102351905,
      "geoinfo": {
        "display_name": "Bugandi, Lae, Lae District, Morobe, Momase Region, Papua New Guinea",
        "road": null,
        "house_number": null,
        "neighbourhood": null,
        "suburb": "Bugandi",
        "city_district": null,
        "city": "Lae",
        "state": "Morobe",
        "postcode": null,
        "country": "Papua New Guinea",
        "country_code": "pg"
      },
      "address": "721, Bugandi, Lae, Lae District, Morobe, 18080 Momase Region, Papua New Guinea"
    },
    {
      "lat": -6.703802315397205,
      "lon": 147.02875402068068,
      "geoinfo": {
        "display_name": "Malahang Industrial Centre, Malahang, Yanga, Lae District, Morobe, Momase Region, Papua New Guinea",
        "road": null,
        "house_number": null,
        "neighbourhood": null,
        "suburb": "Malahang",
        "city_district": null,
        "city": "Yanga",
        "state": "Morobe",
        "postcode": null,
        "country": "Papua New Guinea",
        "country_code": "pg"
      },
      "address": "906, Malahang Industrial Centre, Malahang, Yanga, Lae District, Morobe, 36282 Momase Region, Papua New Guinea"
    },
    {
      "lat": -6.710292574445821,
      "lon": 146.99064800822657,
      "geoinfo": {
        "display_name": "Oak Street, Eriku, Lae, Lae District, Morobe, Momase Region, Papua New Guinea",
        "road": "Oak Street",
        "house_number": null,
        "neighbourhood": null,
        "suburb": "Eriku",
        "city_district": null,
        "city": "Lae",
        "state": "Morobe",
        "postcode": null,
        "country": "Papua New Guinea",
        "country_code": "pg"
      },
      "address": "211, Oak Street, Eriku, Lae, Lae District, Morobe, 09554 Momase Region, Papua New Guinea"
    },
    {
      "lat": -6.74898117459923,
      "lon": 147.00473188637736,
      "geoinfo": {
        "display_name": "Voco Point, Lae, Lae District, Morobe, Momase Region, Papua New Guinea",
        "road": null,
        "house_number": null,
        "neighbourhood": null,
        "suburb": "Voco Point",
        "city_district": null,
        "city": "Lae",
        "state": "Morobe",
        "postcode": null,
        "country": "Papua New Guinea",
        "country_code": "pg"
      },
      "address": "163, Voco Point, Lae, Lae District, Morobe, 10841 Momase Region, Papua New Guinea"
    },
    {
      "lat": -6.7592761087080175,
      "lon": 146.98842395016362,
      "geoinfo": {
        "display_name": "Labubutu, Huon District, Morobe, Momase Region, Papua New Guinea",
        "road": null,
        "house_number": null,
        "neighbourhood": null,
        "suburb": null,
        "city_district": null,
        "city": "Labubutu",
        "state": "Morobe",
        "postcode": null,
        "country": "Papua New Guinea",
        "country_code": "pg"
      },
      "address": "552, Lae, 64710 Morobe, Papua New Guinea"
    },
    {
      "lat": -6.695071580237541,
      "lon": 147.02788863697597,
      "geoinfo": {
        "display_name": "Busu Compound, Malahang, Lae, Lae District, Morobe, Momase Region, Papua New Guinea",
        "road": null,
        "house_number": null,
        "neighbourhood": null,
        "suburb": "Malahang",
        "city_district": null,
        "city": "Lae",
        "state": "Morobe",
        "postcode": null,
        "country": "Papua New Guinea",
        "country_code": "pg"
      },
      "address": "366, Malahang, Lae, 23262 Morobe, Papua New Guinea"
    },
    {
      "lat": -6.7433870655788555,
      "lon": 146.9998211574226,
      "geoinfo": {
        "display_name": "The Esplanade, Voco Point, Lae, Lae District, Morobe, Momase Region, Papua New Guinea",
        "road": "The Esplanade",
        "house_number": null,
        "neighbourhood": null,
        "suburb": "Voco Point",
        "city_district": null,
        "city": "Lae",
        "state": "Morobe",
        "postcode": null,
        "country": "Papua New Guinea",
        "country_code": "pg"
      },
      "address": "704, The Esplanade, Voco Point, Lae, Lae District, Morobe, 05985 Momase Region, Papua New Guinea"
    },
    {
      "lat": -6.750218434385577,
      "lon": 146.9913772891948,
      "geoinfo": {
        "display_name": "Voco Point, Lae, Lae District, Morobe, Momase Region, Papua New Guinea",
        "road": null,
        "house_number": null,
        "neighbourhood": null,
        "suburb": "Voco Point",
        "city_district": null,
        "city": "Lae",
        "state": "Morobe",
        "postcode": null,
        "country": "Papua New Guinea",
        "country_code": "pg"
      },
      "address": "701, Voco Point, Lae, Lae District, Morobe, 27658 Momase Region, Papua New Guinea"
    },
    {
      "lat": -6.7449662408853595,
      "lon": 146.99301638389173,
      "geoinfo": {
        "display_name": "Montoro Street, Bismarck Maritime Wharf, Top Town, Lae, Lae District, Morobe, Momase Region, Papua New Guinea",
        "road": "Montoro Street",
        "house_number": null,
        "neighbourhood": null,
        "suburb": "Top Town",
        "city_district": null,
        "city": "Lae",
        "state": "Morobe",
        "postcode": null,
        "country": "Papua New Guinea",
        "country_code": "pg"
      },
      "address": "030, Montoro Street, Bismarck Maritime Wharf, Top Town, Lae, Lae District, Morobe, 14540 Momase Region, Papua New Guinea"
    },
    {
      "lat": -6.727593789979124,
      "lon": 146.9936442629441,
      "geoinfo": {
        "display_name": "Top Town, Lae, Lae District, Morobe, Momase Region, Papua New Guinea",
        "road": null,
        "house_number": null,
        "neighbourhood": null,
        "suburb": "Top Town",
        "city_district": null,
        "city": "Lae",
        "state": "Morobe",
        "postcode": null,
        "country": "Papua New Guinea",
        "country_code": "pg"
      },
      "address": "955, Top Town, Lae, Lae District, Morobe, 56274 Momase Region, Papua New Guinea"
    },
    {
      "lat": -6.688505875353998,
      "lon": 146.97793834890166,
      "geoinfo": {
        "display_name": "East Taraka, Lae, Lae District, Morobe, Momase Region, Papua New Guinea",
        "road": null,
        "house_number": null,
        "neighbourhood": null,
        "suburb": "East Taraka",
        "city_district": null,
        "city": "Lae",
        "state": "Morobe",
        "postcode": null,
        "country": "Papua New Guinea",
        "country_code": "pg"
      },
      "address": "612, East Taraka, Lae, Lae District, Morobe, 72536 Momase Region, Papua New Guinea"
    },
    {
      "lat": -6.693031577448875,
      "lon": 147.00650361189813,
      "geoinfo": {
        "display_name": "Omili, Lae, Lae District, Morobe, Momase Region, Papua New Guinea",
        "road": null,
        "house_number": null,
        "neighbourhood": null,
        "suburb": "Omili",
        "city_district": null,
        "city": "Lae",
        "state": "Morobe",
        "postcode": null,
        "country": "Papua New Guinea",
        "country_code": "pg"
      },
      "address": "132, Omili, Lae, Lae District, Morobe, 70056 Momase Region, Papua New Guinea"
    },
    {
      "lat": -6.694416580563727,
      "lon": 146.97311301658192,
      "geoinfo": {
        "display_name": "Bugandi, Lae, Lae District, Morobe, Momase Region, Papua New Guinea",
        "road": null,
        "house_number": null,
        "neighbourhood": null,
        "suburb": "Bugandi",
        "city_district": null,
        "city": "Lae",
        "state": "Morobe",
        "postcode": null,
        "country": "Papua New Guinea",
        "country_code": "pg"
      },
      "address": "965, Bugandi, Lae, Lae District, Morobe, 92794 Momase Region, Papua New Guinea"
    },
    {
      "lat": -6.746956661861288,
      "lon": 146.98636420021143,
      "geoinfo": {
        "display_name": "Marsina Street, PNG Taiheiyo Cement, Lae, Lae District, Morobe, Momase Region, Papua New Guinea",
        "road": "Marsina Street",
        "house_number": null,
        "neighbourhood": null,
        "suburb": null,
        "city_district": null,
        "city": "Lae",
        "state": "Morobe",
        "postcode": null,
        "country": "Papua New Guinea",
        "country_code": "pg"
      },
      "address": "358, Marsina Street, PNG Taiheiyo Cement, Lae, Lae District, Morobe, 59212 Momase Region, Papua New Guinea"
    }
  ],
  "updated_at": "2025-10-19T06:07:26.957484+00:00",
  "_kind": "geo_samples"
}