{
  "country_code": "PG",
  "country": "Papua New Guinea",
  "city": "Popondetta",
  "geonameid": 2088163,
  "target_addresses": 8,
  "samples": [
    {
      "lat": -8.788987537709932,
      "lon": 148.2434083252015,
      "geoinfo": {
        "display_name": "Jonita, Ijivitari District, Oro, Southern Region, Papua New Guinea",
        "road": null,
        "house_number": null,
        "neighbourhood": null,
        "suburb": null,
        "city_district": null,
        "city": "Jonita",
        "state": "Oro",
        "postcode": null,
        "country": "Papua New Guinea",
        "country_code": "pg"
      },
      "address": "Popondetta, Oro, Papua New Guinea"
    },
    {
      "lat": -8.738421281728607,
      "lon": 148.24159577718527,
      "geoinfo": {
        "display_name": "Papua New Guinea University of Natural Resources and Environment, cove street, Popondetta, Ijivitari District, Oro, Southern Region, Papua New Guinea",
        "road": "cove street",
        "house_number": null,
        "neighbourhood": null,
        "suburb": null,
        "city_district": null,
        "city": "Popondetta",
        "state": "Oro",
        "postcode": null,
        "country": "Papua New Guinea",
        "country_code": "pg"
      },
      "address": "cove street, Popondetta, Oro, Papua New Guinea"
    },
    {
      "lat": -8.797462254299212,
      "lon": 148.25905310556132,
      "geoinfo": {
        "display_name": "Popondetta, Ijivitari District, Oro, Southern Region, Papua New Guinea",
        "road": null,
        "house_number": null,
        "neighbourhood": null,
        "suburb": null,
        "city_district": null,
        "city": "Popondetta",
        "state": "Oro",
        "postcode": null,
        "country": "Papua New Guinea",
        "country_code": "pg"
      },
      "address": "420, Popondetta, Ijivitari District, Oro, 82873 Southern Region, Papua New Guinea"
    },
    {
      "lat": -8.76714844156807,
      "lon": 148.19613812290842,
      "geoinfo": {
        "display_name": "Popondetta, Ijivitari District, Oro, Southern Region, Papua New Guinea",
        "road": null,
        "house_number": null,
        "neighbourhood": null,
        "suburb": null,
        "city_district": null,
        "city": "Popondetta",
        "state": "Oro",
        "postcode": null,
        "country": "Papua New Guinea",
        "country_code": "pg"
      },
      "address": "716, Popondetta, Ijivitari District, Oro, 48369 Southern Region, Papua New Guinea"
    },
    {
      "lat": -8.74730207321014,
      "lon": 148.26044091483234,
      "geoinfo": {
        "display_name": "Popondetta, Ijivitari District, Oro, Southern Region, Papua New Guinea",
        "road": null,
        "house_number": null,
        "neighbourhood": null,
        "suburb": null,
        "city_district": null,
        "city": "Popondetta",
        "state": "Oro",
        "postcode": null,
        "country": "Papua New Guinea",
        "country_code": "pg"
      },
      "address": "449, Popondetta, Ijivitari District, Oro, 84272 Southern Region, Papua New Guinea"
    },
    {
      "lat": -8.726444876645578,
      "lon": 148.2413085913136,
      "geoinfo": {
        "display_name": "Irigi, Ijivitari District, Oro, Southern Region, Papua New Guinea",
        "road": null,
        "house_number": null,
        "neighbourhood": null,
        "suburb": null,
        "city_district": null,
        "city": "Irigi",
        "state": "Oro",
        "postcode": null,
        "country": "Papua New Guinea",
        "country_code": "pg"
      },
      "address": "426, Popondetta, 05264 Oro, Papua New Guinea"
    },
    {
      "lat": -8.756428768352867,
      "lon": 148.19621276885752,
      "geoinfo": {
        "display_name": "Moale, Sohe District, Oro, Southern Region, Papua New Guinea",
        "road": null,
        "house_number": null,
        "neighbourhood": null,
        "suburb": null,
        "city_district": null,
        "city": "Moale",
        "state": "Oro",
        "postcode": null,
        "country": "Papua New Guinea",
        "country_code": "pg"
      },
      "address": "427, Popondetta, 66583 Oro, Papua New Guinea"
    },
    {
      "lat": -8.77390362327935,
      "lon": 148.19494382489347,
      "geoinfo": {
        "display_name": "Popondetta, Ijivitari District, Oro, Southern Region, Papua New Guinea",
        "road": null,
        "house_number": null,
        "neighbourhood": null,
        "suburb": null,
        "city_district": null,
        "city": "Popondetta",
        "state": "Oro",
        "postcode": null,
        "country": "Papua New Guinea",
        "country_code": "pg"
      },
      "address": "445, Popondetta, Ijivitari District, Oro, 90256 Southern Region, Papua New Guinea"
    },
    {
      "lat": -8.800096347209651,
      "lon": 148.22522971322732,
      "geoinfo": {
        "display_name": "Popondetta, Ijivitari District, Oro, Southern Region, Papua New Guinea",
        "road": null,
        "house_number": null,
        "neighbourhood": null,
        "suburb": null,
        "city_district": null,
        "city": "Popondetta",
        "state": "Oro",
        "postcode": null,
        "country": "Papua New Guinea",
        "country_code": "pg"
      },
      "address": "315, Popondetta, Ijivitari District, Oro, 02578 Southern Region, Papua New Guinea"
    },
    {
      "lat": -8.761480384639805,
      "lon": 148.2297208297888,
      "geoinfo": {
        "display_name": "Popondetta, Ijivitari District, Oro, Southern Region, Papua New Guinea",
        "road": null,
        "house_number": null,
        "neighbourhood": null,
        "suburb": null,
        "city_district": null,
        "city": "Popondetta",
        "state": "Oro",
        "postcode": null,
        "country": "Papua New Guinea",
        "country_code": "pg"
      },
      "address": "331, Popondetta, Ijivitari District, Oro, 72362 Southern Region, Papua New Guinea"
    }
  ],
  "updated_at": "2025-10-19T04:14:17.781637+00:00",
  "_kind": "geo_samples"
}