{
  "country_code": "ER",
  "country": "Eritrea",
  "city": "Asmara",
  "geonameid": 343300,
  "target_addresses": 86,
  "samples": [
    {
      "lat": 15.361370688600804,
      "lon": 38.965801746339665,
      "geoinfo": {
        "display_name": "Asmara, Maekel Region, Eritrea",
        "road": null,
        "house_number": null,
        "neighbourhood": null,
        "suburb": null,
        "city_district": null,
        "city": "Asmara",
        "state": "Maekel Region",
        "postcode": null,
        "country": "Eritrea",
        "country_code": "er"
      },
      "address": "Asmara, Maekel Region, Eritrea"
    },
    {
      "lat": 15.294707672749542,
      "lon": 38.93346774103125,
      "geoinfo": {
        "display_name": "ጽርግያ አስመራ ደቀምሓረ, Adi Hawisha, Maekel Region, Eritrea",
        "road": "ጽርግያ አስመራ ደቀምሓረ",
        "house_number": null,
        "neighbourhood": null,
        "suburb": null,
        "city_district": null,
        "city": "Adi Hawisha",
        "state": "Maekel Region",
        "postcode": null,
        "country": "Eritrea",
        "country_code": "er"
      },
      "address": "ጽርግያ አስመራ ደቀምሓረ, Asmara, Maekel Region, Eritrea"
    },
    {
      "lat": 15.369542243239364,
      "lon": 38.917340550745735,
      "geoinfo": {
        "display_name": "طريق كرن - أسمرة ጽርግያ አስመራ ከረን, Asmara, Maekel Region, Eritrea",
        "road": "طريق كرن - أسمرة ጽርግያ አስመራ ከረን",
        "house_number": null,
        "neighbourhood": null,
        "suburb": null,
        "city_district": null,
        "city": "Asmara",
        "state": "Maekel Region",
        "postcode": null,
        "country": "Eritrea",
        "country_code": "er"
      },
      "address": "طريق كرن - أسمرة ጽርግያ አስመራ ከረን, Asmara, Maekel Region, Eritrea"
    },
    {
      "lat": 15.29541092182986,
      "lon": 38.92829121675826,
      "geoinfo": {
        "display_name": "Asmara mereb, Asmara, Maekel Region, Eritrea",
        "road": "Asmara mereb",
        "house_number": null,
        "neighbourhood": null,
        "suburb": null,
        "city_district": null,
        "city": "Asmara",
        "state": "Maekel Region",
        "postcode": null,
        "country": "Eritrea",
        "country_code": "er"
      },
      "address": "Asmara mereb, Asmara, Maekel Region, Eritrea"
    },
    {
      "lat": 15.34069553989679,
      "lon": 38.90253107862335,
      "geoinfo": {
        "display_name": "'Ādi Segdo Elementary School, Imbeyto Street, Asmara, Maekel Region, Eritrea",
        "road": "Imbeyto Street",
        "house_number": null,
        "neighbourhood": null,
        "suburb": null,
        "city_district": null,
        "city": "Asmara",
        "state": "Maekel Region",
        "postcode": null,
        "country": "Eritrea",
        "country_code": "er"
      },
      "address": "Imbeyto Street, Asmara, Maekel Region, Eritrea"
    },
    {
      "lat": 15.301064751089507,
      "lon": 38.93316387761607,
      "geoinfo": {
        "display_name": "Sahil Avenue, Kahawta, Asmara, Maekel Region, Eritrea",
        "road": "Sahil Avenue",
        "house_number": null,
        "neighbourhood": null,
        "suburb": null,
        "city_district": null,
        "city": "Asmara",
        "state": "Maekel Region",
        "postcode": null,
        "country": "Eritrea",
        "country_code": "er"
      },
      "address": "Sahil Avenue, Asmara, Maekel Region, Eritrea"
    },
    {
      "lat": 15.33718832752074,
      "lon": 38.940826064314365,
      "geoinfo": {
        "display_name": "Synagogue d'Asmara, Seraye Street, Asmara, Maekel Region, Eritrea",
        "road": "Seraye Street",
        "house_number": null,
        "neighbourhood": null,
        "suburb": null,
        "city_district": null,
        "city": "Asmara",
        "state": "Maekel Region",
        "postcode": null,
        "country": "Eritrea",
        "country_code": "er"
      },
      "address": "Seraye Street, Asmara, Maekel Region, Eritrea"
    },
    {
      "lat": 15.341677891294719,
      "lon": 38.9281986862496,
      "geoinfo": {
        "display_name": "University of Asmara, شارع 117-2, Asmara, Maekel Region, Eritrea",
        "road": "شارع 117-2",
        "house_number": null,
        "neighbourhood": null,
        "suburb": null,
        "city_district": null,
        "city": "Asmara",
        "state": "Maekel Region",
        "postcode": null,
        "country": "Eritrea",
        "country_code": "er"
      },
      "address": "شارع 117-2, Asmara, Maekel Region, Eritrea"
    },
    {
      "lat": 15.303353020729666,
      "lon": 38.9034150656983,
      "geoinfo": {
        "display_name": "Hday Street, Asmara, Maekel Region, Eritrea",
        "road": "Hday Street",
        "house_number": null,
        "neighbourhood": null,
        "suburb": null,
        "city_district": null,
        "city": "Asmara",
        "state": "Maekel Region",
        "postcode": null,
        "country": "Eritrea",
        "country_code": "er"
      },
      "address": "Hday Street, Asmara, Maekel Region, Eritrea"
    },
    {
      "lat": 15.34176397662838,
      "lon": 38.93742724442884,
      "geoinfo": {
        "display_name": "Keyh Bahri Street, Asmara, Maekel Region, Eritrea",
        "road": "Keyh Bahri Street",
        "house_number": null,
        "neighbourhood": null,
        "suburb": null,
        "city_district": null,
        "city": "Asmara",
        "state": "Maekel Region",
        "postcode": null,
        "country": "Eritrea",
        "country_code": "er"
      },
      "address": "Keyh Bahri Street, Asmara, Maekel Region, Eritrea"
    },
    {
      "lat": 15.32207309639648,
      "lon": 38.940205446259846,
      "geoinfo": {
        "display_name": "ጎደና ሃዘጋ, Gheza Banda, Asmara, Maekel Region, Eritrea",
        "road": "ጎደና ሃዘጋ",
        "house_number": null,
        "neighbourhood": null,
        "suburb": null,
        "city_district": null,
        "city": "Asmara",
        "state": "Maekel Region",
        "postcode": null,
        "country": "Eritrea",
        "country_code": "er"
      },
      "address": "ጎደና ሃዘጋ, Asmara, Maekel Region, Eritrea"
    },
    {
      "lat": 15.376420175709592,
      "lon": 38.95559294397117,
      "geoinfo": {
        "display_name": "Asmara, Maekel Region, Eritrea",
        "road": null,
        "house_number": null,
        "neighbourhood": null,
        "suburb": null,
        "city_district": null,
        "city": "Asmara",
        "state": "Maekel Region",
        "postcode": null,
        "country": "Eritrea",
        "country_code": "er"
      },
      "address": "Asmara, 64788 Maekel Region, Eritrea"
    },
    {
      "lat": 15.344395222326071,
      "lon": 38.94317129516567,
      "geoinfo": {
        "display_name": "Abbashaui, Asmara, Maekel Region, Eritrea",
        "road": null,
        "house_number": null,
        "neighbourhood": null,
        "suburb": null,
        "city_district": null,
        "city": "Asmara",
        "state": "Maekel Region",
        "postcode": null,
        "country": "Eritrea",
        "country_code": "er"
      },
      "address": "Asmara, 95958 Maekel Region, Eritrea"
    },
    {
      "lat": 15.351997572422837,
      "lon": 38.911747929218016,
      "geoinfo": {
        "display_name": "Asmara, Maekel Region, Eritrea",
        "road": null,
        "house_number": null,
        "neighbourhood": null,
        "suburb": null,
        "city_district": null,
        "city": "Asmara",
        "state": "Maekel Region",
        "postcode": null,
        "country": "Eritrea",
        "country_code": "er"
      },
      "address": "Asmara, 68125 Maekel Region, Eritrea"
    },
    {
      "lat": 15.353919815636093,
      "lon": 38.93494332249746,
      "geoinfo": {
        "display_name": "Asmara, Maekel Region, Eritrea",
        "road": null,
        "house_number": null,
        "neighbourhood": null,
        "suburb": null,
        "city_district": null,
        "city": "Asmara",
        "state": "Maekel Region",
        "postcode": null,
        "country": "Eritrea",
        "country_code": "er"
      },
      "address": "Asmara, 28434 Maekel Region, Eritrea"
    },
    {
      "lat": 15.328785012946668,
      "lon": 38.96033738719221,
      "geoinfo": {
        "display_name": "Asmara, Maekel Region, Eritrea",
        "road": null,
        "house_number": null,
        "neighbourhood": null,
        "suburb": null,
        "city_district": null,
        "city": "Asmara",
        "state": "Maekel Region",
        "postcode": null,
        "country": "Eritrea",
        "country_code": "er"
      },
      "address": "Asmara, 18767 Maekel Region, Eritrea"
    },
    {
      "lat": 15.368252299040753,
      "lon": 38.91506075335272,
      "geoinfo": {
        "display_name": "طريق كرن - أسمرة ጽርግያ አስመራ ከረን, Asmara, Maekel Region, Eritrea",
        "road": "طريق كرن - أسمرة ጽርግያ አስመራ ከረን",
        "house_number": null,
        "neighbourhood": null,
        "suburb": null,
        "city_district": null,
        "city": "Asmara",
        "state": "Maekel Region",
        "postcode": null,
        "country": "Eritrea",
        "country_code": "er"
      },
      "address": "طريق كرن - أسمرة ጽርግያ አስመራ ከረን, Asmara, 46718 Maekel Region, Eritrea"
    },
    {
      "lat": 15.324558167799045,
      "lon": 38.969198733425024,
      "geoinfo": {
        "display_name": "Asmara, Maekel Region, Eritrea",
        "road": null,
        "house_number": null,
        "neighbourhood": null,
        "suburb": null,
        "city_district": null,
        "city": "Asmara",
        "state": "Maekel Region",
        "postcode": null,
        "country": "Eritrea",
        "country_code": "er"
      },
      "address": "Asmara, 87153 Maekel Region, Eritrea"
    },
    {
      "lat": 15.341997327048167,
      "lon": 38.96746673432857,
      "geoinfo": {
        "display_name": "Asmara, Maekel Region, Eritrea",
        "road": null,
        "house_number": null,
        "neighbourhood": null,
        "suburb": null,
        "city_district": null,
        "city": "Asmara",
        "state": "Maekel Region",
        "postcode": null,
        "country": "Eritrea",
        "country_code": "er"
      },
      "address": "Asmara, 69451 Maekel Region, Eritrea"
    },
    {
      "lat": 15.330126496855572,
      "lon": 38.91977930258811,
      "geoinfo": {
        "display_name": "Tiravolo, Asmara, Maekel Region, Eritrea",
        "road": null,
        "house_number": null,
        "neighbourhood": null,
        "suburb": null,
        "city_district": null,
        "city": "Asmara",
        "state": "Maekel Region",
        "postcode": null,
        "country": "Eritrea",
        "country_code": "er"
      },
      "address": "Asmara, 87923 Maekel Region, Eritrea"
    },
    {
      "lat": 15.361147626680955,
      "lon": 38.93727323528732,
      "geoinfo": {
        "display_name": "Mihram Chira, Asmara, Maekel Region, Eritrea",
        "road": null,
        "house_number": null,
        "neighbourhood": null,
        "suburb": null,
        "city_district": null,
        "city": "Asmara",
        "state": "Maekel Region",
        "postcode": null,
        "country": "Eritrea",
        "country_code": "er"
      },
      "address": "Asmara, 55021 Maekel Region, Eritrea"
    },
    {
      "lat": 15.35519691207514,
      "lon": 38.93074164013041,
      "geoinfo": {
        "display_name": "Asmara, Maekel Region, Eritrea",
        "road": null,
        "house_number": null,
        "neighbourhood": null,
        "suburb": null,
        "city_district": null,
        "city": "Asmara",
        "state": "Maekel Region",
        "postcode": null,
        "country": "Eritrea",
        "country_code": "er"
      },
      "address": "Asmara, 38915 Maekel Region, Eritrea"
    },
    {
      "lat": 15.330105551725572,
      "lon": 38.900188665111436,
      "geoinfo": {
        "display_name": "Asmara, Maekel Region, Eritrea",
        "road": null,
        "house_number": null,
        "neighbourhood": null,
        "suburb": null,
        "city_district": null,
        "city": "Asmara",
        "state": "Maekel Region",
        "postcode": null,
        "country": "Eritrea",
        "country_code": "er"
      },
      "address": "Asmara, 87696 Maekel Region, Eritrea"
    },
    {
      "lat": 15.364770269392352,
      "lon": 38.90921816484467,
      "geoinfo": {
        "display_name": "Asmara, Maekel Region, Eritrea",
        "road": null,
        "house_number": null,
        "neighbourhood": null,
        "suburb": null,
        "city_district": null,
        "city": "Asmara",
        "state": "Maekel Region",
        "postcode": null,
        "country": "Eritrea",
        "country_code": "er"
      },
      "address": "Asmara, 62092 Maekel Region, Eritrea"
    },
    {
      "lat": 15.36336246662011,
      "lon": 38.911640879075456,
      "geoinfo": {
        "display_name": "Asmara, Maekel Region, Eritrea",
        "road": null,
        "house_number": null,
        "neighbourhood": null,
        "suburb": null,
        "city_district": null,
        "city": "Asmara",
        "state": "Maekel Region",
        "postcode": null,
        "country": "Eritrea",
        "country_code": "er"
      },
      "address": "Asmara, 51821 Maekel Region, Eritrea"
    },
    {
      "lat": 15.331814669049933,
      "lon": 38.965554932502755,
      "geoinfo": {
        "display_name": "Tsolot, Maekel Region, Eritrea",
        "road": null,
        "house_number": null,
        "neighbourhood": null,
        "suburb": null,
        "city_district": null,
        "city": "Tsolot",
        "state": "Maekel Region",
        "postcode": null,
        "country": "Eritrea",
        "country_code": "er"
      },
      "address": "Asmara, 31351 Maekel Region, Eritrea"
    },
    {
      "lat": 15.30851166146702,
      "lon": 38.92903814292255,
      "geoinfo": {
        "display_name": "P-3, Asmara Textile Factory, Asmara, Maekel Region, Eritrea",
        "road": "P-3",
        "house_number": null,
        "neighbourhood": null,
        "suburb": null,
        "city_district": null,
        "city": "Asmara",
        "state": "Maekel Region",
        "postcode": null,
        "country": "Eritrea",
        "country_code": "er"
      },
      "address": "P-3, Asmara Textile Factory, Asmara, Maekel Region, Eritrea"
    },
    {
      "lat": 15.372385533000331,
      "lon": 38.952420267300326,
      "geoinfo": {
        "display_name": "Asmara, Maekel Region, Eritrea",
        "road": null,
        "house_number": null,
        "neighbourhood": null,
        "suburb": null,
        "city_district": null,
        "city": "Asmara",
        "state": "Maekel Region",
        "postcode": null,
        "country": "Eritrea",
        "country_code": "er"
      },
      "address": "Asmara, 71935 Maekel Region, Eritrea"
    },
    {
      "lat": 15.37758942215953,
      "lon": 38.91486592887262,
      "geoinfo": {
        "display_name": "Adi Abeto, Asmara, Maekel Region, Eritrea",
        "road": null,
        "house_number": null,
        "neighbourhood": null,
        "suburb": null,
        "city_district": null,
        "city": "Asmara",
        "state": "Maekel Region",
        "postcode": null,
        "country": "Eritrea",
        "country_code": "er"
      },
      "address": "Adi Abeto, Asmara, 78446 Maekel Region, Eritrea"
    },
    {
      "lat": 15.343581763073546,
      "lon": 38.933591839166354,
      "geoinfo": {
        "display_name": "117-12 Street, Asmara, Maekel Region, Eritrea",
        "road": "117-12 Street",
        "house_number": null,
        "neighbourhood": null,
        "suburb": null,
        "city_district": null,
        "city": "Asmara",
        "state": "Maekel Region",
        "postcode": null,
        "country": "Eritrea",
        "country_code": "er"
      },
      "address": "117-12 Street, Asmara, Maekel Region, Eritrea"
    },
    {
      "lat": 15.320277286964386,
      "lon": 38.956804508939626,
      "geoinfo": {
        "display_name": "Gheza Banda, Asmara, Maekel Region, Eritrea",
        "road": null,
        "house_number": null,
        "neighbourhood": null,
        "suburb": null,
        "city_district": null,
        "city": "Asmara",
        "state": "Maekel Region",
        "postcode": null,
        "country": "Eritrea",
        "country_code": "er"
      },
      "address": "670, Gheza Banda, Asmara, 06991 Maekel Region, Eritrea"
    },
    {
      "lat": 15.350670379258933,
      "lon": 38.968049512791296,
      "geoinfo": {
        "display_name": "Asmara, Maekel Region, Eritrea",
        "road": null,
        "house_number": null,
        "neighbourhood": null,
        "suburb": null,
        "city_district": null,
        "city": "Asmara",
        "state": "Maekel Region",
        "postcode": null,
        "country": "Eritrea",
        "country_code": "er"
      },
      "address": "751, Asmara, 53185 Maekel Region, Eritrea"
    },
    {
      "lat": 15.37203736194264,
      "lon": 38.92904142491,
      "geoinfo": {
        "display_name": "Asmara, Maekel Region, Eritrea",
        "road": null,
        "house_number": null,
        "neighbourhood": null,
        "suburb": null,
        "city_district": null,
        "city": "Asmara",
        "state": "Maekel Region",
        "postcode": null,
        "country": "Eritrea",
        "country_code": "er"
      },
      "address": "177, Asmara, 71523 Maekel Region, Eritrea"
    },
    {
      "lat": 15.299540165102933,
      "lon": 38.95538296315717,
      "geoinfo": {
        "display_name": "Asmara, Maekel Region, Eritrea",
        "road": null,
        "house_number": null,
        "neighbourhood": null,
        "suburb": null,
        "city_district": null,
        "city": "Asmara",
        "state": "Maekel Region",
        "postcode": null,
        "country": "Eritrea",
        "country_code": "er"
      },
      "address": "348, Asmara, 19490 Maekel Region, Eritrea"
    },
    {
      "lat": 15.345454493547619,
      "lon": 38.92710375636495,
      "geoinfo": {
        "display_name": "Asmara, Maekel Region, Eritrea",
        "road": null,
        "house_number": null,
        "neighbourhood": null,
        "suburb": null,
        "city_district": null,
        "city": "Asmara",
        "state": "Maekel Region",
        "postcode": null,
        "country": "Eritrea",
        "country_code": "er"
      },
      "address": "350, Asmara, 10583 Maekel Region, Eritrea"
    },
    {
      "lat": 15.335216582190647,
      "lon": 38.951533219339105,
      "geoinfo": {
        "display_name": "Gheza Banda, Asmara, Maekel Region, Eritrea",
        "road": null,
        "house_number": null,
        "neighbourhood": null,
        "suburb": null,
        "city_district": null,
        "city": "Asmara",
        "state": "Maekel Region",
        "postcode": null,
        "country": "Eritrea",
        "country_code": "er"
      },
      "address": "766, Gheza Banda, Asmara, 40195 Maekel Region, Eritrea"
    },
    {
      "lat": 15.297090053313749,
      "lon": 38.936196128007396,
      "geoinfo": {
        "display_name": "Kahawta, Asmara, Maekel Region, Eritrea",
        "road": null,
        "house_number": null,
        "neighbourhood": null,
        "suburb": null,
        "city_district": null,
        "city": "Asmara",
        "state": "Maekel Region",
        "postcode": null,
        "country": "Eritrea",
        "country_code": "er"
      },
      "address": "940, Kahawta, Asmara, 97537 Maekel Region, Eritrea"
    },
    {
      "lat": 15.36530516402995,
      "lon": 38.932416871409075,
      "geoinfo": {
        "display_name": "Asmara, Maekel Region, Eritrea",
        "road": null,
        "house_number": null,
        "neighbourhood": null,
        "suburb": null,
        "city_district": null,
        "city": "Asmara",
        "state": "Maekel Region",
        "postcode": null,
        "country": "Eritrea",
        "country_code": "er"
      },
      "address": "438, Asmara, 08266 Maekel Region, Eritrea"
    },
    {
      "lat": 15.298670475780353,
      "lon": 38.93561344723278,
      "geoinfo": {
        "display_name": "Kahawta, Asmara, Maekel Region, Eritrea",
        "road": null,
        "house_number": null,
        "neighbourhood": null,
        "suburb": null,
        "city_district": null,
        "city": "Asmara",
        "state": "Maekel Region",
        "postcode": null,
        "country": "Eritrea",
        "country_code": "er"
      },
      "address": "972, Kahawta, Asmara, 94584 Maekel Region, Eritrea"
    },
    {
      "lat": 15.343141818336559,
      "lon": 38.975074235546586,
      "geoinfo": {
        "display_name": "Asmara, Maekel Region, Eritrea",
        "road": null,
        "house_number": null,
        "neighbourhood": null,
        "suburb": null,
        "city_district": null,
        "city": "Asmara",
        "state": "Maekel Region",
        "postcode": null,
        "country": "Eritrea",
        "country_code": "er"
      },
      "address": "502, Asmara, 93623 Maekel Region, Eritrea"
    },
    {
      "lat": 15.32023489794543,
      "lon": 38.94180491343202,
      "geoinfo": {
        "display_name": "Gheza Banda, Asmara, Maekel Region, Eritrea",
        "road": null,
        "house_number": null,
        "neighbourhood": null,
        "suburb": null,
        "city_district": null,
        "city": "Asmara",
        "state": "Maekel Region",
        "postcode": null,
        "country": "Eritrea",
        "country_code": "er"
      },
      "address": "589, Gheza Banda, Asmara, 61846 Maekel Region, Eritrea"
    },
    {
      "lat": 15.311014094336553,
      "lon": 38.92378394662498,
      "geoinfo": {
        "display_name": "Asmara, Maekel Region, Eritrea",
        "road": null,
        "house_number": null,
        "neighbourhood": null,
        "suburb": null,
        "city_district": null,
        "city": "Asmara",
        "state": "Maekel Region",
        "postcode": null,
        "country": "Eritrea",
        "country_code": "er"
      },
      "address": "598, Asmara, 73348 Maekel Region, Eritrea"
    },
    {
      "lat": 15.354258848577846,
      "lon": 38.935128264653926,
      "geoinfo": {
        "display_name": "Asmara, Maekel Region, Eritrea",
        "road": null,
        "house_number": null,
        "neighbourhood": null,
        "suburb": null,
        "city_district": null,
        "city": "Asmara",
        "state": "Maekel Region",
        "postcode": null,
        "country": "Eritrea",
        "country_code": "er"
      },
      "address": "127, Asmara, 71691 Maekel Region, Eritrea"
    },
    {
      "lat": 15.301909128531795,
      "lon": 38.92721823145259,
      "geoinfo": {
        "display_name": "Asmara, Maekel Region, Eritrea",
        "road": null,
        "house_number": null,
        "neighbourhood": null,
        "suburb": null,
        "city_district": null,
        "city": "Asmara",
        "state": "Maekel Region",
        "postcode": null,
        "country": "Eritrea",
        "country_code": "er"
      },
      "address": "486, Asmara, 32820 Maekel Region, Eritrea"
    },
    {
      "lat": 15.366962491785786,
      "lon": 38.95326417617491,
      "geoinfo": {
        "display_name": "Asmara, Maekel Region, Eritrea",
        "road": null,
        "house_number": null,
        "neighbourhood": null,
        "suburb": null,
        "city_district": null,
        "city": "Asmara",
        "state": "Maekel Region",
        "postcode": null,
        "country": "Eritrea",
        "country_code": "er"
      },
      "address": "344, Asmara, 73115 Maekel Region, Eritrea"
    },
    {
      "lat": 15.297306797670847,
      "lon": 38.91977286999785,
      "geoinfo": {
        "display_name": "Asmara International Airport, Asmara mereb, Asmara, Maekel Region, Eritrea",
        "road": "Asmara mereb",
        "house_number": null,
        "neighbourhood": null,
        "suburb": null,
        "city_district": null,
        "city": "Asmara",
        "state": "Maekel Region",
        "postcode": null,
        "country": "Eritrea",
        "country_code": "er"
      },
      "address": "116, Asmara mereb, Asmara, 36768 Maekel Region, Eritrea"
    },
    {
      "lat": 15.362852262499018,
      "lon": 38.94919614820584,
      "geoinfo": {
        "display_name": "Asmara, Maekel Region, Eritrea",
        "road": null,
        "house_number": null,
        "neighbourhood": null,
        "suburb": null,
        "city_district": null,
        "city": "Asmara",
        "state": "Maekel Region",
        "postcode": null,
        "country": "Eritrea",
        "country_code": "er"
      },
      "address": "439, Asmara, 49507 Maekel Region, Eritrea"
    },
    {
      "lat": 15.329500005623217,
      "lon": 38.91098269194271,
      "geoinfo": {
        "display_name": "Asmara, Maekel Region, Eritrea",
        "road": null,
        "house_number": null,
        "neighbourhood": null,
        "suburb": null,
        "city_district": null,
        "city": "Asmara",
        "state": "Maekel Region",
        "postcode": null,
        "country": "Eritrea",
        "country_code": "er"
      },
      "address": "172, Asmara, 58172 Maekel Region, Eritrea"
    },
    {
      "lat": 15.29713641483903,
      "lon": 38.91784316600531,
      "geoinfo": {
        "display_name": "Asmara International Airport, Asmara mereb, Asmara, Maekel Region, Eritrea",
        "road": "Asmara mereb",
        "house_number": null,
        "neighbourhood": null,
        "suburb": null,
        "city_district": null,
        "city": "Asmara",
        "state": "Maekel Region",
        "postcode": null,
        "country": "Eritrea",
        "country_code": "er"
      },
      "address": "431, Asmara mereb, Asmara, 02623 Maekel Region, Eritrea"
    },
    {
      "lat": 15.30191879191574,
      "lon": 38.91734635308664,
      "geoinfo": {
        "display_name": "Asmara Airbase, Asmara mereb, Asmara, Maekel Region, Eritrea",
        "road": "Asmara mereb",
        "house_number": null,
        "neighbourhood": null,
        "suburb": null,
        "city_district": null,
        "city": "Asmara",
        "state": "Maekel Region",
        "postcode": null,
        "country": "Eritrea",
        "country_code": "er"
      },
      "address": "409, Asmara mereb, Asmara, 95105 Maekel Region, Eritrea"
    },
    {
      "lat": 15.348666369014555,
      "lon": 38.957486563665626,
      "geoinfo": {
        "display_name": "Asmara, Maekel Region, Eritrea",
        "road": null,
        "house_number": null,
        "neighbourhood": null,
        "suburb": null,
        "city_district": null,
        "city": "Asmara",
        "state": "Maekel Region",
        "postcode": null,
        "country": "Eritrea",
        "country_code": "er"
      },
      "address": "018, Asmara, 64009 Maekel Region, Eritrea"
    },
    {
      "lat": 15.346575185039185,
      "lon": 38.90481267378214,
      "geoinfo": {
        "display_name": "Asmara, Maekel Region, Eritrea",
        "road": null,
        "house_number": null,
        "neighbourhood": null,
        "suburb": null,
        "city_district": null,
        "city": "Asmara",
        "state": "Maekel Region",
        "postcode": null,
        "country": "Eritrea",
        "country_code": "er"
      },
      "address": "137, Asmara, 35418 Maekel Region, Eritrea"
    },
    {
      "lat": 15.36611556274932,
      "lon": 38.89744159958218,
      "geoinfo": {
        "display_name": "Asmara, Maekel Region, Eritrea",
        "road": null,
        "house_number": null,
        "neighbourhood": null,
        "suburb": null,
        "city_district": null,
        "city": "Asmara",
        "state": "Maekel Region",
        "postcode": null,
        "country": "Eritrea",
        "country_code": "er"
      },
      "address": "238, Asmara, 58106 Maekel Region, Eritrea"
    },
    {
      "lat": 15.356958162064878,
      "lon": 38.900669742031575,
      "geoinfo": {
        "display_name": "Asmara, Maekel Region, Eritrea",
        "road": null,
        "house_number": null,
        "neighbourhood": null,
        "suburb": null,
        "city_district": null,
        "city": "Asmara",
        "state": "Maekel Region",
        "postcode": null,
        "country": "Eritrea",
        "country_code": "er"
      },
      "address": "290, Asmara, 17601 Maekel Region, Eritrea"
    },
    {
      "lat": 15.381027400976372,
      "lon": 38.919573095039006,
      "geoinfo": {
        "display_name": "Asmara, Maekel Region, Eritrea",
        "road": null,
        "house_number": null,
        "neighbourhood": null,
        "suburb": null,
        "city_district": null,
        "city": "Asmara",
        "state": "Maekel Region",
        "postcode": null,
        "country": "Eritrea",
        "country_code": "er"
      },
      "address": "487, Asmara, 80398 Maekel Region, Eritrea"
    },
    {
      "lat": 15.313405083451272,
      "lon": 38.9643179849549,
      "geoinfo": {
        "display_name": "Tsolot, Maekel Region, Eritrea",
        "road": null,
        "house_number": null,
        "neighbourhood": null,
        "suburb": null,
        "city_district": null,
        "city": "Tsolot",
        "state": "Maekel Region",
        "postcode": null,
        "country": "Eritrea",
        "country_code": "er"
      },
      "address": "241, Asmara, 55184 Maekel Region, Eritrea"
    },
    {
      "lat": 15.308474163078513,
      "lon": 38.93733392619271,
      "geoinfo": {
        "display_name": "Asmara, Maekel Region, Eritrea",
        "road": null,
        "house_number": null,
        "neighbourhood": null,
        "suburb": null,
        "city_district": null,
        "city": "Asmara",
        "state": "Maekel Region",
        "postcode": null,
        "country": "Eritrea",
        "country_code": "er"
      },
      "address": "401, Asmara, 44349 Maekel Region, Eritrea"
    },
    {
      "lat": 15.342798117779674,
      "lon": 38.9608506993857,
      "geoinfo": {
        "display_name": "Asmara, Maekel Region, Eritrea",
        "road": null,
        "house_number": null,
        "neighbourhood": null,
        "suburb": null,
        "city_district": null,
        "city": "Asmara",
        "state": "Maekel Region",
        "postcode": null,
        "country": "Eritrea",
        "country_code": "er"
      },
      "address": "436, Asmara, 86173 Maekel Region, Eritrea"
    },
    {
      "lat": 15.296100547025242,
      "lon": 38.94585317616431,
      "geoinfo": {
        "display_name": "Asmara, Maekel Region, Eritrea",
        "road": null,
        "house_number": null,
        "neighbourhood": null,
        "suburb": null,
        "city_district": null,
        "city": "Asmara",
        "state": "Maekel Region",
        "postcode": null,
        "country": "Eritrea",
        "country_code": "er"
      },
      "address": "420, Asmara, 63670 Maekel Region, Eritrea"
    },
    {
      "lat": 15.336023159378517,
      "lon": 38.94083248584816,
      "geoinfo": {
        "display_name": "176-15 Street, Asmara, Maekel Region, Eritrea",
        "road": "176-15 Street",
        "house_number": null,
        "neighbourhood": null,
        "suburb": null,
        "city_district": null,
        "city": "Asmara",
        "state": "Maekel Region",
        "postcode": null,
        "country": "Eritrea",
        "country_code": "er"
      },
      "address": "176-15 Street, Asmara, Maekel Region, Eritrea"
    },
    {
      "lat": 15.344784217812313,
      "lon": 38.95778536807446,
      "geoinfo": {
        "display_name": "Asmara - Massawa Road, Hinzi, Maekel Region, Eritrea",
        "road": "Asmara - Massawa Road",
        "house_number": null,
        "neighbourhood": null,
        "suburb": null,
        "city_district": null,
        "city": "Hinzi",
        "state": "Maekel Region",
        "postcode": null,
        "country": "Eritrea",
        "country_code": "er"
      },
      "address": "421, Asmara - Massawa Road, Hinzi, 65892 Maekel Region, Eritrea"
    },
    {
      "lat": 15.353943527679322,
      "lon": 38.93402330995683,
      "geoinfo": {
        "display_name": "Asmara, Maekel Region, Eritrea",
        "road": null,
        "house_number": null,
        "neighbourhood": null,
        "suburb": null,
        "city_district": null,
        "city": "Asmara",
        "state": "Maekel Region",
        "postcode": null,
        "country": "Eritrea",
        "country_code": "er"
      },
      "address": "191, Asmara, 03007 Maekel Region, Eritrea"
    },
    {
      "lat": 15.325325549110952,
      "lon": 38.91265562986984,
      "geoinfo": {
        "display_name": "Asmara, Maekel Region, Eritrea",
        "road": null,
        "house_number": null,
        "neighbourhood": null,
        "suburb": null,
        "city_district": null,
        "city": "Asmara",
        "state": "Maekel Region",
        "postcode": null,
        "country": "Eritrea",
        "country_code": "er"
      },
      "address": "802, Asmara, 24439 Maekel Region, Eritrea"
    },
    {
      "lat": 15.308797704355605,
      "lon": 38.946258146260035,
      "geoinfo": {
        "display_name": "Asmara, Maekel Region, Eritrea",
        "road": null,
        "house_number": null,
        "neighbourhood": null,
        "suburb": null,
        "city_district": null,
        "city": "Asmara",
        "state": "Maekel Region",
        "postcode": null,
        "country": "Eritrea",
        "country_code": "er"
      },
      "address": "480, Asmara, 10669 Maekel Region, Eritrea"
    },
    {
      "lat": 15.371136840478446,
      "lon": 38.917638455832694,
      "geoinfo": {
        "display_name": "طريق كرن - أسمرة ጽርግያ አስመራ ከረን, Asmara, Maekel Region, Eritrea",
        "road": "طريق كرن - أسمرة ጽርግያ አስመራ ከረን",
        "house_number": null,
        "neighbourhood": null,
        "suburb": null,
        "city_district": null,
        "city": "Asmara",
        "state": "Maekel Region",
        "postcode": null,
        "country": "Eritrea",
        "country_code": "er"
      },
      "address": "236, طريق كرن - أسمرة ጽርግያ አስመራ ከረን, Asmara, 95907 Maekel Region, Eritrea"
    },
    {
      "lat": 15.294293189875843,
      "lon": 38.938278663047946,
      "geoinfo": {
        "display_name": "Kahawta, Asmara, Maekel Region, Eritrea",
        "road": null,
        "house_number": null,
        "neighbourhood": null,
        "suburb": null,
        "city_district": null,
        "city": "Asmara",
        "state": "Maekel Region",
        "postcode": null,
        "country": "Eritrea",
        "country_code": "er"
      },
      "address": "177, Kahawta, Asmara, 77970 Maekel Region, Eritrea"
    },
    {
      "lat": 15.367112428757038,
      "lon": 38.94575274851617,
      "geoinfo": {
        "display_name": "Asmara, Maekel Region, Eritrea",
        "road": null,
        "house_number": null,
        "neighbourhood": null,
        "suburb": null,
        "city_district": null,
        "city": "Asmara",
        "state": "Maekel Region",
        "postcode": null,
        "country": "Eritrea",
        "country_code": "er"
      },
      "address": "134, Asmara, 49149 Maekel Region, Eritrea"
    },
    {
      "lat": 15.342518337281186,
      "lon": 38.935895072710395,
      "geoinfo": {
        "display_name": "Asmara, Maekel Region, Eritrea",
        "road": null,
        "house_number": null,
        "neighbourhood": null,
        "suburb": null,
        "city_district": null,
        "city": "Asmara",
        "state": "Maekel Region",
        "postcode": null,
        "country": "Eritrea",
        "country_code": "er"
      },
      "address": "995, Asmara, 78395 Maekel Region, Eritrea"
    },
    {
      "lat": 15.363910831892955,
      "lon": 38.90690084354126,
      "geoinfo": {
        "display_name": "Adi Abeto, Asmara, Maekel Region, Eritrea",
        "road": null,
        "house_number": null,
        "neighbourhood": null,
        "suburb": null,
        "city_district": null,
        "city": "Asmara",
        "state": "Maekel Region",
        "postcode": null,
        "country": "Eritrea",
        "country_code": "er"
      },
      "address": "446, Adi Abeto, Asmara, 64840 Maekel Region, Eritrea"
    },
    {
      "lat": 15.317479424257412,
      "lon": 38.90617337563453,
      "geoinfo": {
        "display_name": "Asmara, Maekel Region, Eritrea",
        "road": null,
        "house_number": null,
        "neighbourhood": null,
        "suburb": null,
        "city_district": null,
        "city": "Asmara",
        "state": "Maekel Region",
        "postcode": null,
        "country": "Eritrea",
        "country_code": "er"
      },
      "address": "167, Asmara, 42009 Maekel Region, Eritrea"
    },
    {
      "lat": 15.36769306999371,
      "lon": 38.95205048533825,
      "geoinfo": {
        "display_name": "Asmara, Maekel Region, Eritrea",
        "road": null,
        "house_number": null,
        "neighbourhood": null,
        "suburb": null,
        "city_district": null,
        "city": "Asmara",
        "state": "Maekel Region",
        "postcode": null,
        "country": "Eritrea",
        "country_code": "er"
      },
      "address": "443, Asmara, 57429 Maekel Region, Eritrea"
    },
    {
      "lat": 15.35256096729641,
      "lon": 38.91147272347384,
      "geoinfo": {
        "display_name": "Asmara, Maekel Region, Eritrea",
        "road": null,
        "house_number": null,
        "neighbourhood": null,
        "suburb": null,
        "city_district": null,
        "city": "Asmara",
        "state": "Maekel Region",
        "postcode": null,
        "country": "Eritrea",
        "country_code": "er"
      },
      "address": "787, Asmara, 93374 Maekel Region, Eritrea"
    },
    {
      "lat": 15.358625064977707,
      "lon": 38.94333679610953,
      "geoinfo": {
        "display_name": "Diaa Islamic School, Mai Lam Street, Abbashaui, Asmara, Maekel Region, Eritrea",
        "road": "Mai Lam Street",
        "house_number": null,
        "neighbourhood": null,
        "suburb": null,
        "city_district": null,
        "city": "Asmara",
        "state": "Maekel Region",
        "postcode": null,
        "country": "Eritrea",
        "country_code": "er"
      },
      "address": "773, Mai Lam Street, Asmara, 81681 Maekel Region, Eritrea"
    },
    {
      "lat": 15.363168703913585,
      "lon": 38.905692550009185,
      "geoinfo": {
        "display_name": "Adi Abeto, Asmara, Maekel Region, Eritrea",
        "road": null,
        "house_number": null,
        "neighbourhood": null,
        "suburb": null,
        "city_district": null,
        "city": "Asmara",
        "state": "Maekel Region",
        "postcode": null,
        "country": "Eritrea",
        "country_code": "er"
      },
      "address": "957, Adi Abeto, Asmara, 27333 Maekel Region, Eritrea"
    },
    {
      "lat": 15.3418211230237,
      "lon": 38.90988622478941,
      "geoinfo": {
        "display_name": "Asmara, Maekel Region, Eritrea",
        "road": null,
        "house_number": null,
        "neighbourhood": null,
        "suburb": null,
        "city_district": null,
        "city": "Asmara",
        "state": "Maekel Region",
        "postcode": null,
        "country": "Eritrea",
        "country_code": "er"
      },
      "address": "920, Asmara, 27517 Maekel Region, Eritrea"
    },
    {
      "lat": 15.371264503153537,
      "lon": 38.92995202218302,
      "geoinfo": {
        "display_name": "Asmara, Maekel Region, Eritrea",
        "road": null,
        "house_number": null,
        "neighbourhood": null,
        "suburb": null,
        "city_district": null,
        "city": "Asmara",
        "state": "Maekel Region",
        "postcode": null,
        "country": "Eritrea",
        "country_code": "er"
      },
      "address": "894, Asmara, 57454 Maekel Region, Eritrea"
    },
    {
      "lat": 15.359240992028106,
      "lon": 38.917280139736164,
      "geoinfo": {
        "display_name": "Asmara, Maekel Region, Eritrea",
        "road": null,
        "house_number": null,
        "neighbourhood": null,
        "suburb": null,
        "city_district": null,
        "city": "Asmara",
        "state": "Maekel Region",
        "postcode": null,
        "country": "Eritrea",
        "country_code": "er"
      },
      "address": "511, Asmara, 59138 Maekel Region, Eritrea"
    },
    {
      "lat": 15.35337218596092,
      "lon": 38.931163019166334,
      "geoinfo": {
        "display_name": "Asmara, Maekel Region, Eritrea",
        "road": null,
        "house_number": null,
        "neighbourhood": null,
        "suburb": null,
        "city_district": null,
        "city": "Asmara",
        "state": "Maekel Region",
        "postcode": null,
        "country": "Eritrea",
        "country_code": "er"
      },
      "address": "529, Asmara, 92673 Maekel Region, Eritrea"
    },
    {
      "lat": 15.305782826123826,
      "lon": 38.9184656838356,
      "geoinfo": {
        "display_name": "Asmara, Maekel Region, Eritrea",
        "road": null,
        "house_number": null,
        "neighbourhood": null,
        "suburb": null,
        "city_district": null,
        "city": "Asmara",
        "state": "Maekel Region",
        "postcode": null,
        "country": "Eritrea",
        "country_code": "er"
      },
      "address": "931, Asmara, 50773 Maekel Region, Eritrea"
    },
    {
      "lat": 15.319180726140555,
      "lon": 38.9469664556761,
      "geoinfo": {
        "display_name": "Asmara, Maekel Region, Eritrea",
        "road": null,
        "house_number": null,
        "neighbourhood": null,
        "suburb": null,
        "city_district": null,
        "city": "Asmara",
        "state": "Maekel Region",
        "postcode": null,
        "country": "Eritrea",
        "country_code": "er"
      },
      "address": "959, Asmara, 43513 Maekel Region, Eritrea"
    },
    {
      "lat": 15.303345197580361,
      "lon": 38.95935182831194,
      "geoinfo": {
        "display_name": "Tsolot, Maekel Region, Eritrea",
        "road": null,
        "house_number": null,
        "neighbourhood": null,
        "suburb": null,
        "city_district": null,
        "city": "Tsolot",
        "state": "Maekel Region",
        "postcode": null,
        "country": "Eritrea",
        "country_code": "er"
      },
      "address": "328, Asmara, 40143 Maekel Region, Eritrea"
    },
    {
      "lat": 15.315421745291783,
      "lon": 38.93478792704151,
      "geoinfo": {
        "display_name": "Asmara, Maekel Region, Eritrea",
        "road": null,
        "house_number": null,
        "neighbourhood": null,
        "suburb": null,
        "city_district": null,
        "city": "Asmara",
        "state": "Maekel Region",
        "postcode": null,
        "country": "Eritrea",
        "country_code": "er"
      },
      "address": "315, Asmara, 21112 Maekel Region, Eritrea"
    },
    {
      "lat": 15.310471118926479,
      "lon": 38.94276431253185,
      "geoinfo": {
        "display_name": "Asmara, Maekel Region, Eritrea",
        "road": null,
        "house_number": null,
        "neighbourhood": null,
        "suburb": null,
        "city_district": null,
        "city": "Asmara",
        "state": "Maekel Region",
        "postcode": null,
        "country": "Eritrea",
        "country_code": "er"
      },
      "address": "183, Asmara, 35451 Maekel Region, Eritrea"
    },
    {
      "lat": 15.31445462942314,
      "lon": 38.934023524844385,
      "geoinfo": {
        "display_name": "Asmara, Maekel Region, Eritrea",
        "road": null,
        "house_number": null,
        "neighbourhood": null,
        "suburb": null,
        "city_district": null,
        "city": "Asmara",
        "state": "Maekel Region",
        "postcode": null,
        "country": "Eritrea",
        "country_code": "er"
      },
      "address": "513, Asmara, 17192 Maekel Region, Eritrea"
    },
    {
      "lat": 15.347154688781501,
      "lon": 38.90210827985818,
      "geoinfo": {
        "display_name": "Asmara, Maekel Region, Eritrea",
        "road": null,
        "house_number": null,
        "neighbourhood": null,
        "suburb": null,
        "city_district": null,
        "city": "Asmara",
        "state": "Maekel Region",
        "postcode": null,
        "country": "Eritrea",
        "country_code": "er"
      },
      "address": "682, Asmara, 33767 Maekel Region, Eritrea"
    },
    {
      "lat": 15.352937450935661,
      "lon": 38.93447553491781,
      "geoinfo": {
        "display_name": "Asmara, Maekel Region, Eritrea",
        "road": null,
        "house_number": null,
        "neighbourhood": null,
        "suburb": null,
        "city_district": null,
        "city": "Asmara",
        "state": "Maekel Region",
        "postcode": null,
        "country": "Eritrea",
        "country_code": "er"
      },
      "address": "333, Asmara, 77979 Maekel Region, Eritrea"
    }
  ],
  "updated_at": "2025-10-19T04:23:46.779954+00:00",
  "_kind": "geo_samples"
}