{
  "country_code": "CR",
  "country": "Costa Rica",
  "city": "Calle Blancos",
  "geonameid": 3624509,
  "target_addresses": 3,
  "samples": [
    {
      "lat": 9.945889480018819,
      "lon": -84.0778817910025,
      "geoinfo": {
        "display_name": "Calle 1, La Conejera, Ciudad de San José, Goicoechea, San Jose Province, 10803, Costa Rica",
        "road": "Calle 1",
        "house_number": null,
        "neighbourhood": "La Conejera",
        "suburb": null,
        "city_district": null,
        "city": "Ciudad de San José",
        "state": null,
        "postcode": "10803",
        "country": "Costa Rica",
        "country_code": "cr"
      },
      "address": "Calle 1, Calle Blancos, Costa Rica"
    },
    {
      "lat": 9.969128130669091,
      "lon": -84.06271685672306,
      "geoinfo": {
        "display_name": "Calle 39, Virginia, Ciudad de San José, Tibás, San Jose Province, 11301, Costa Rica",
        "road": "Calle 39",
        "house_number": null,
        "neighbourhood": "Virginia",
        "suburb": null,
        "city_district": null,
        "city": "Ciudad de San José",
        "state": null,
        "postcode": "11301",
        "country": "Costa Rica",
        "country_code": "cr"
      },
      "address": "Calle 39, Calle Blancos, Costa Rica"
    },
    {
      "lat": 9.926493405743571,
      "lon": -84.05888569203248,
      "geoinfo": {
        "display_name": "Grupo Columbia, Avenida 20, Yoses Sur, Ciudad de San José, San José, San Jose Province, 10105, Costa Rica",
        "road": "Avenida 20",
        "house_number": null,
        "neighbourhood": "Yoses Sur",
        "suburb": null,
        "city_district": null,
        "city": "Ciudad de San José",
        "state": null,
        "postcode": "10105",
        "country": "Costa Rica",
        "country_code": "cr"
      },
      "address": "Avenida 20, Calle Blancos, Costa Rica"
    },
    {
      "lat": 9.978429062118378,
      "lon": -84.07990045025548,
      "geoinfo": {
        "display_name": "Barquero, Santo Tomás, Santo Domingo, Heredia Province, 40305, Costa Rica",
        "road": null,
        "house_number": null,
        "neighbourhood": "Barquero",
        "suburb": null,
        "city_district": null,
        "city": "Santo Tomás",
        "state": null,
        "postcode": "40305",
        "country": "Costa Rica",
        "country_code": "cr"
      },
      "address": "352, Barquero, Santo Tomás, Santo Domingo, Heredia Province, 40305, Costa Rica"
    },
    {
      "lat": 9.957973895323352,
      "lon": -84.07690868794032,
      "geoinfo": {
        "display_name": "Avenida 53, El Valle, Ciudad de San José, Tibás, San Jose Province, 11301, Costa Rica",
        "road": "Avenida 53",
        "house_number": null,
        "neighbourhood": "El Valle",
        "suburb": null,
        "city_district": null,
        "city": "Ciudad de San José",
        "state": null,
        "postcode": "11301",
        "country": "Costa Rica",
        "country_code": "cr"
      },
      "address": "Avenida 53, El Valle, Ciudad de San José, Tibás, San Jose Province, 11301, Costa Rica"
    },
    {
      "lat": 9.935930615604445,
      "lon": -84.0428539702593,
      "geoinfo": {
        "display_name": "Avenida 13, González Flores, Ciudad de San José, Montes de Oca, San Jose Province, 11501, Costa Rica",
        "road": "Avenida 13",
        "house_number": null,
        "neighbourhood": "González Flores",
        "suburb": null,
        "city_district": null,
        "city": "Ciudad de San José",
        "state": null,
        "postcode": "11501",
        "country": "Costa Rica",
        "country_code": "cr"
      },
      "address": "Avenida 13, González Flores, Ciudad de San José, Montes de Oca, San Jose Province, 11501, Costa Rica"
    }
  ],
  "updated_at": "2025-10-19T03:44:44.280256+00:00",
  "_kind": "geo_samples"
}