{
  "country_code": "CR",
  "country": "Costa Rica",
  "city": "Heredia",
  "geonameid": 3623486,
  "target_addresses": 3,
  "samples": [
    {
      "lat": 9.992747107859385,
      "lon": -84.15662015924177,
      "geoinfo": {
        "display_name": "Calle 1, La Aurora, San Francisco, Heredia, Heredia Province, 40103, Costa Rica",
        "road": "Calle 1",
        "house_number": null,
        "neighbourhood": "La Aurora",
        "suburb": null,
        "city_district": null,
        "city": "San Francisco",
        "state": null,
        "postcode": "40103",
        "country": "Costa Rica",
        "country_code": "cr"
      },
      "address": "Calle 1, Heredia, Costa Rica"
    },
    {
      "lat": 10.019337889119013,
      "lon": -84.14478623502919,
      "geoinfo": {
        "display_name": "Sala de Eventos La Hacienda, Calle Vico Ruíz, Barrantes, San Lorenzo, Barrantes, Flores, Heredia Province, 40802, Costa Rica",
        "road": "Calle Vico Ruíz",
        "house_number": null,
        "neighbourhood": "Barrantes",
        "suburb": null,
        "city_district": null,
        "city": "Barrantes",
        "state": null,
        "postcode": "40802",
        "country": "Costa Rica",
        "country_code": "cr"
      },
      "address": "Calle Vico Ruíz, Heredia, Costa Rica"
    },
    {
      "lat": 9.975927380523546,
      "lon": -84.10865929621914,
      "geoinfo": {
        "display_name": "Calle Rincón del Valle, Rincón de Ricardo, Rincón de Sabanilla, San Pablo, Heredia Province, 40902, Costa Rica",
        "road": "Calle Rincón del Valle",
        "house_number": null,
        "neighbourhood": "Rincón de Ricardo",
        "suburb": null,
        "city_district": null,
        "city": "Rincón de Sabanilla",
        "state": null,
        "postcode": "40902",
        "country": "Costa Rica",
        "country_code": "cr"
      },
      "address": "Calle Rincón del Valle, Heredia, Costa Rica"
    },
    {
      "lat": 10.030984180838466,
      "lon": -84.11433495243556,
      "geoinfo": {
        "display_name": "Calle Los Naranjos, Santa Lucía, Barva, Heredia Province, 40205, Costa Rica",
        "road": "Calle Los Naranjos",
        "house_number": null,
        "neighbourhood": null,
        "suburb": null,
        "city_district": null,
        "city": "Santa Lucía",
        "state": null,
        "postcode": "40205",
        "country": "Costa Rica",
        "country_code": "cr"
      },
      "address": "184, Calle Los Naranjos, Santa Lucía, Barva, Heredia Province, 40205, Costa Rica"
    },
    {
      "lat": 10.030487925525842,
      "lon": -84.13900115511065,
      "geoinfo": {
        "display_name": "Clínica Médica San Pedro, Vía 128, La Máquina, San Pedro, Barva, Heredia Province, 40202, Costa Rica",
        "road": "Vía 128",
        "house_number": null,
        "neighbourhood": "La Máquina",
        "suburb": null,
        "city_district": null,
        "city": "San Pedro",
        "state": null,
        "postcode": "40202",
        "country": "Costa Rica",
        "country_code": "cr"
      },
      "address": "Clínica Médica San Pedro, Vía 128, La Máquina, San Pedro, Barva, Heredia Province, 40202, Costa Rica"
    },
    {
      "lat": 10.024177200095183,
      "lon": -84.13212001250663,
      "geoinfo": {
        "display_name": "Calle Las Adelitas, Cementerio, San Pablo, Barva, Heredia Province, 40203, Costa Rica",
        "road": "Calle Las Adelitas",
        "house_number": null,
        "neighbourhood": "Cementerio",
        "suburb": null,
        "city_district": null,
        "city": "San Pablo",
        "state": null,
        "postcode": "40203",
        "country": "Costa Rica",
        "country_code": "cr"
      },
      "address": "872, Calle Las Adelitas, Cementerio, San Pablo, Barva, Heredia Province, 40203, Costa Rica"
    }
  ],
  "updated_at": "2025-10-19T03:34:06.846040+00:00",
  "_kind": "geo_samples"
}