{
  "country_code": "CR",
  "country": "Costa Rica",
  "city": "Ipís",
  "geonameid": 3623394,
  "target_addresses": 3,
  "samples": [
    {
      "lat": 10.00068440757949,
      "lon": -84.02408921763957,
      "geoinfo": {
        "display_name": "Vía 308, Paracito, Santo Domingo, Heredia Province, 11402, Costa Rica",
        "road": "Vía 308",
        "house_number": null,
        "neighbourhood": null,
        "suburb": null,
        "city_district": null,
        "city": "Paracito",
        "state": null,
        "postcode": "11402",
        "country": "Costa Rica",
        "country_code": "cr"
      },
      "address": "Vía 308, Ipís, Costa Rica"
    },
    {
      "lat": 9.966869093380623,
      "lon": -84.04571064062858,
      "geoinfo": {
        "display_name": "Liceo de Moravia, Avenida 71, San Blas, San Vicente, Moravia, San Jose Province, 11401, Costa Rica",
        "road": "Avenida 71",
        "house_number": null,
        "neighbourhood": "San Blas",
        "suburb": null,
        "city_district": null,
        "city": "San Vicente",
        "state": null,
        "postcode": "11401",
        "country": "Costa Rica",
        "country_code": "cr"
      },
      "address": "Avenida 71, Ipís, Costa Rica"
    },
    {
      "lat": 9.970257096599854,
      "lon": -84.01402845396767,
      "geoinfo": {
        "display_name": "Comité Olímpico Nacional de Costa Rica, Vía 216, San Martín II, San Isidro, Vázquez de Coronado, San Jose Province, 11101, Costa Rica",
        "road": "Vía 216",
        "house_number": null,
        "neighbourhood": "San Martín II",
        "suburb": null,
        "city_district": null,
        "city": "San Isidro",
        "state": null,
        "postcode": "11101",
        "country": "Costa Rica",
        "country_code": "cr"
      },
      "address": "Vía 216, Ipís, Costa Rica"
    },
    {
      "lat": 10.00310246533295,
      "lon": -84.02412063460609,
      "geoinfo": {
        "display_name": "Vía 308, Ciudad de San José, Moravia, San Jose Province, 11402, Costa Rica",
        "road": "Vía 308",
        "house_number": null,
        "neighbourhood": null,
        "suburb": null,
        "city_district": null,
        "city": "Ciudad de San José",
        "state": null,
        "postcode": "11402",
        "country": "Costa Rica",
        "country_code": "cr"
      },
      "address": "Vía 308, Ciudad de San José, Moravia, San Jose Province, 11402, Costa Rica"
    },
    {
      "lat": 9.994395522738884,
      "lon": -83.98826763039241,
      "geoinfo": {
        "display_name": "Calle La Guaba, La Guaba, Cascajal, San Pedro, Ciudad de San José, Vázquez de Coronado, San Jose Province, 11105, Costa Rica",
        "road": "Calle La Guaba",
        "house_number": null,
        "neighbourhood": "La Guaba",
        "suburb": null,
        "city_district": null,
        "city": "Ciudad de San José",
        "state": null,
        "postcode": "11105",
        "country": "Costa Rica",
        "country_code": "cr"
      },
      "address": "193, Calle La Guaba, La Guaba, Cascajal, San Pedro, Ciudad de San José, Vázquez de Coronado, San Jose Province, 11105, Costa Rica"
    },
    {
      "lat": 9.946051639199283,
      "lon": -84.00828107227548,
      "geoinfo": {
        "display_name": "Plaza Deportes Salitrillos, Calle La Plaza, Salitrillos, Ciudad de San José, Montes de Oca, San Jose Province, 11504, Costa Rica",
        "road": "Calle La Plaza",
        "house_number": null,
        "neighbourhood": "Salitrillos",
        "suburb": null,
        "city_district": null,
        "city": "Ciudad de San José",
        "state": null,
        "postcode": "11504",
        "country": "Costa Rica",
        "country_code": "cr"
      },
      "address": "625, Calle La Plaza, 11504 Ipís, Costa Rica"
    }
  ],
  "updated_at": "2025-10-19T02:03:50.007711+00:00",
  "_kind": "geo_samples"
}