{
  "country_code": "CR",
  "country": "Costa Rica",
  "city": "Patarrá",
  "geonameid": 3622507,
  "target_addresses": 3,
  "samples": [
    {
      "lat": 9.863936234664335,
      "lon": -84.0357451865796,
      "geoinfo": {
        "display_name": "Calle Patarrá, Guatuso, Ciudad de San José, Desamparados, San Jose Province, 10307, Costa Rica",
        "road": "Calle Patarrá",
        "house_number": null,
        "neighbourhood": "Guatuso",
        "suburb": null,
        "city_district": null,
        "city": "Ciudad de San José",
        "state": null,
        "postcode": "10307",
        "country": "Costa Rica",
        "country_code": "cr"
      },
      "address": "Calle Patarrá, Patarrá, Costa Rica"
    },
    {
      "lat": 9.848038245948482,
      "lon": -84.02928701802252,
      "geoinfo": {
        "display_name": "Calle La Sevilla, Ciudad de San José, Desamparados, San Jose Province, 10307, Costa Rica",
        "road": "Calle La Sevilla",
        "house_number": null,
        "neighbourhood": null,
        "suburb": null,
        "city_district": null,
        "city": "Ciudad de San José",
        "state": null,
        "postcode": "10307",
        "country": "Costa Rica",
        "country_code": "cr"
      },
      "address": "Calle La Sevilla, Patarrá, Costa Rica"
    },
    {
      "lat": 9.85498279820183,
      "lon": -84.0155826579566,
      "geoinfo": {
        "display_name": "Calle Picacho, Quebradilla, Cartago, Cartago Province, 10307, Costa Rica",
        "road": "Calle Picacho",
        "house_number": null,
        "neighbourhood": null,
        "suburb": null,
        "city_district": null,
        "city": "Quebradilla",
        "state": null,
        "postcode": "10307",
        "country": "Costa Rica",
        "country_code": "cr"
      },
      "address": "Calle Picacho, Patarrá, Costa Rica"
    },
    {
      "lat": 9.901325336817521,
      "lon": -84.07132450880648,
      "geoinfo": {
        "display_name": "Calle 21, Jazmín, San Sebastián, San José, San Jose Province, 10111, Costa Rica",
        "road": "Calle 21",
        "house_number": null,
        "neighbourhood": "Jazmín",
        "suburb": null,
        "city_district": null,
        "city": "San Sebastián",
        "state": null,
        "postcode": "10111",
        "country": "Costa Rica",
        "country_code": "cr"
      },
      "address": "Calle 21, Jazmín, San Sebastián, San José, San Jose Province, 10111, Costa Rica"
    },
    {
      "lat": 9.913515070987087,
      "lon": -84.03809051150535,
      "geoinfo": {
        "display_name": "Avenida 46, Miramontes, Ciudad de San José, Curridabat, San Jose Province, 11801, Costa Rica",
        "road": "Avenida 46",
        "house_number": null,
        "neighbourhood": "Miramontes",
        "suburb": null,
        "city_district": null,
        "city": "Ciudad de San José",
        "state": null,
        "postcode": "11801",
        "country": "Costa Rica",
        "country_code": "cr"
      },
      "address": "Avenida 46, Miramontes, Ciudad de San José, Curridabat, San Jose Province, 11801, Costa Rica"
    },
    {
      "lat": 9.89627163141765,
      "lon": -84.0661315299067,
      "geoinfo": {
        "display_name": "Calle Central, Fallas, Ciudad de San José, Desamparados, San Jose Province, 10301, Costa Rica",
        "road": "Calle Central",
        "house_number": null,
        "neighbourhood": "Fallas",
        "suburb": null,
        "city_district": null,
        "city": "Ciudad de San José",
        "state": null,
        "postcode": "10301",
        "country": "Costa Rica",
        "country_code": "cr"
      },
      "address": "784, Calle Central, Fallas, Ciudad de San José, Desamparados, San Jose Province, 10301, Costa Rica"
    }
  ],
  "updated_at": "2025-10-19T04:00:47.858274+00:00",
  "_kind": "geo_samples"
}