{
  "country_code": "CR",
  "country": "Costa Rica",
  "city": "Purral",
  "geonameid": 3622217,
  "target_addresses": 3,
  "samples": [
    {
      "lat": 9.929555745780434,
      "lon": -84.02817400895138,
      "geoinfo": {
        "display_name": "Avenida 8A, Altamonte, Ciudad de San José, Curridabat, San Jose Province, 11802, Costa Rica",
        "road": "Avenida 8A",
        "house_number": null,
        "neighbourhood": "Altamonte",
        "suburb": null,
        "city_district": null,
        "city": "Ciudad de San José",
        "state": null,
        "postcode": "11802",
        "country": "Costa Rica",
        "country_code": "cr"
      },
      "address": "Avenida 8A, Purral, Costa Rica"
    },
    {
      "lat": 9.941397865315837,
      "lon": -84.05170134690187,
      "geoinfo": {
        "display_name": "Calle 55, Resid. Los Profesores, Ciudad de San José, Montes de Oca, San Jose Province, 11503, Costa Rica",
        "road": "Calle 55",
        "house_number": null,
        "neighbourhood": null,
        "suburb": null,
        "city_district": null,
        "city": "Ciudad de San José",
        "state": null,
        "postcode": "11503",
        "country": "Costa Rica",
        "country_code": "cr"
      },
      "address": "Calle 55, Purral, Costa Rica"
    },
    {
      "lat": 9.960335430663294,
      "lon": -84.04950413404048,
      "geoinfo": {
        "display_name": "Avenida 61, La Guaria, Ciudad de San José, Moravia, San Jose Province, 11401, Costa Rica",
        "road": "Avenida 61",
        "house_number": null,
        "neighbourhood": "La Guaria",
        "suburb": null,
        "city_district": null,
        "city": "Ciudad de San José",
        "state": null,
        "postcode": "11401",
        "country": "Costa Rica",
        "country_code": "cr"
      },
      "address": "Avenida 61, Purral, Costa Rica"
    },
    {
      "lat": 9.916748550980294,
      "lon": -84.04406826039887,
      "geoinfo": {
        "display_name": "Vía 215, El Hogar, Ciudad de San José, Curridabat, San Jose Province, 11801, Costa Rica",
        "road": "Vía 215",
        "house_number": null,
        "neighbourhood": "El Hogar",
        "suburb": null,
        "city_district": null,
        "city": "Ciudad de San José",
        "state": null,
        "postcode": "11801",
        "country": "Costa Rica",
        "country_code": "cr"
      },
      "address": "Vía 215, El Hogar, Ciudad de San José, Curridabat, San Jose Province, 11801, Costa Rica"
    },
    {
      "lat": 9.965317535628426,
      "lon": -84.01713511324067,
      "geoinfo": {
        "display_name": "Vía 218, Colonia Rodrigo Facio, Ciudad de San José, Goicoechea, San Jose Province, 10805, Costa Rica",
        "road": "Vía 218",
        "house_number": null,
        "neighbourhood": "Colonia Rodrigo Facio",
        "suburb": null,
        "city_district": null,
        "city": "Ciudad de San José",
        "state": null,
        "postcode": "10805",
        "country": "Costa Rica",
        "country_code": "cr"
      },
      "address": "Vía 218, Colonia Rodrigo Facio, Ciudad de San José, Goicoechea, San Jose Province, 10805, Costa Rica"
    },
    {
      "lat": 9.915589203839552,
      "lon": -84.03150456711698,
      "geoinfo": {
        "display_name": "Vía 2, Ciudad de San José, Curridabat, San Jose Province, 11801, Costa Rica",
        "road": "Vía 2",
        "house_number": null,
        "neighbourhood": null,
        "suburb": null,
        "city_district": null,
        "city": "Ciudad de San José",
        "state": null,
        "postcode": "11801",
        "country": "Costa Rica",
        "country_code": "cr"
      },
      "address": "Vía 2, Ciudad de San José, Curridabat, San Jose Province, 11801, Costa Rica"
    }
  ],
  "updated_at": "2025-10-19T04:00:03.834799+00:00",
  "_kind": "geo_samples"
}