{
  "country_code": "CR",
  "country": "Costa Rica",
  "city": "San Isidro",
  "geonameid": 3621889,
  "target_addresses": 3,
  "samples": [
    {
      "lat": 9.333951498525083,
      "lon": -83.66863042671191,
      "geoinfo": {
        "display_name": "Repuestos Juanca, Carretera Interamericana Sur, Fernando Volio, Palmares, Daniel Flores, Pérez Zeledón, San Jose Province, 11903, Costa Rica",
        "road": "Carretera Interamericana Sur",
        "house_number": null,
        "neighbourhood": "Fernando Volio",
        "suburb": null,
        "city_district": null,
        "city": "Daniel Flores",
        "state": null,
        "postcode": "11903",
        "country": "Costa Rica",
        "country_code": "cr"
      },
      "address": "Carretera Interamericana Sur, San Isidro, Costa Rica"
    },
    {
      "lat": 9.350395253363155,
      "lon": -83.71231351572612,
      "geoinfo": {
        "display_name": "Calle El Aeropuerto, Cocorí, Rosario de Pacuar, San Isidro de El General, Pérez Zeledón, San Jose Province, 11901, Costa Rica",
        "road": "Calle El Aeropuerto",
        "house_number": null,
        "neighbourhood": "Cocorí",
        "suburb": null,
        "city_district": null,
        "city": "San Isidro de El General",
        "state": null,
        "postcode": "11901",
        "country": "Costa Rica",
        "country_code": "cr"
      },
      "address": "Calle El Aeropuerto, San Isidro, Costa Rica"
    },
    {
      "lat": 9.38907039495269,
      "lon": -83.66721885421383,
      "geoinfo": {
        "display_name": "El General, Pérez Zeledón, San Jose Province, 11902, Costa Rica",
        "road": null,
        "house_number": null,
        "neighbourhood": null,
        "suburb": null,
        "city_district": null,
        "city": "El General",
        "state": null,
        "postcode": "11902",
        "country": "Costa Rica",
        "country_code": "cr"
      },
      "address": "San Isidro, Costa Rica"
    },
    {
      "lat": 9.347347922847273,
      "lon": -83.73626166239404,
      "geoinfo": {
        "display_name": "Vía 243, Barrio Nuevo, Alto San Juan, San Isidro de El General, Pérez Zeledón, San Jose Province, 11901, Costa Rica",
        "road": "Vía 243",
        "house_number": null,
        "neighbourhood": "Barrio Nuevo",
        "suburb": null,
        "city_district": null,
        "city": "San Isidro de El General",
        "state": null,
        "postcode": "11901",
        "country": "Costa Rica",
        "country_code": "cr"
      },
      "address": "Vía 243, Barrio Nuevo, Alto San Juan, San Isidro de El General, Pérez Zeledón, San Jose Province, 11901, Costa Rica"
    },
    {
      "lat": 9.375817617605609,
      "lon": -83.70337937130304,
      "geoinfo": {
        "display_name": "Supermercado Luferz, Calle Central, España, San Isidro de El General, Pérez Zeledón, San Jose Province, 11901, Costa Rica",
        "road": "Calle Central",
        "house_number": null,
        "neighbourhood": "España",
        "suburb": null,
        "city_district": null,
        "city": "San Isidro de El General",
        "state": null,
        "postcode": "11901",
        "country": "Costa Rica",
        "country_code": "cr"
      },
      "address": "028, Calle Central, 11901 San Isidro, Costa Rica"
    },
    {
      "lat": 9.362917621540852,
      "lon": -83.72852694191637,
      "geoinfo": {
        "display_name": "Calle Villa Nueva, Barrio Nuevo, La Palma, San Isidro de El General, Pérez Zeledón, San Jose Province, 11901, Costa Rica",
        "road": "Calle Villa Nueva",
        "house_number": null,
        "neighbourhood": "Barrio Nuevo",
        "suburb": null,
        "city_district": null,
        "city": "San Isidro de El General",
        "state": null,
        "postcode": "11901",
        "country": "Costa Rica",
        "country_code": "cr"
      },
      "address": "275, Calle Villa Nueva, Barrio Nuevo, La Palma, San Isidro de El General, Pérez Zeledón, San Jose Province, 11901, Costa Rica"
    }
  ],
  "updated_at": "2025-10-19T03:44:29.488772+00:00",
  "_kind": "geo_samples"
}