{
  "country_code": "CR",
  "country": "Costa Rica",
  "city": "San Vicente",
  "geonameid": 3621505,
  "target_addresses": 3,
  "samples": [
    {
      "lat": 9.95352170488532,
      "lon": -84.0454604872343,
      "geoinfo": {
        "display_name": "Calle 73, Minerva, Ciudad de San José, Goicoechea, San Jose Province, 10801, Costa Rica",
        "road": "Calle 73",
        "house_number": null,
        "neighbourhood": "Minerva",
        "suburb": null,
        "city_district": null,
        "city": "Ciudad de San José",
        "state": null,
        "postcode": "10801",
        "country": "Costa Rica",
        "country_code": "cr"
      },
      "address": "Calle 73, San Vicente, Costa Rica"
    },
    {
      "lat": 9.96509016230263,
      "lon": -84.03856506625377,
      "geoinfo": {
        "display_name": "Palí, Diagonal 67 Santo Tomás, San Blas, San Vicente, Moravia, San Jose Province, 11401, Costa Rica",
        "road": "Diagonal 67 Santo Tomás",
        "house_number": null,
        "neighbourhood": "San Blas",
        "suburb": null,
        "city_district": null,
        "city": "San Vicente",
        "state": null,
        "postcode": "11401",
        "country": "Costa Rica",
        "country_code": "cr"
      },
      "address": "Diagonal 67 Santo Tomás, San Vicente, Costa Rica"
    },
    {
      "lat": 9.945088597445169,
      "lon": -84.07685058349537,
      "geoinfo": {
        "display_name": "Avenida 23, La Conejera, Ciudad de San José, Goicoechea, San Jose Province, 10803, Costa Rica",
        "road": "Avenida 23",
        "house_number": null,
        "neighbourhood": "La Conejera",
        "suburb": null,
        "city_district": null,
        "city": "Ciudad de San José",
        "state": null,
        "postcode": "10803",
        "country": "Costa Rica",
        "country_code": "cr"
      },
      "address": "Avenida 23, San Vicente, Costa Rica"
    },
    {
      "lat": 9.937340578020489,
      "lon": -84.01861457706336,
      "geoinfo": {
        "display_name": "Calle 131, Las Lomas, Ciudad de San José, Curridabat, San Jose Province, 11802, Costa Rica",
        "road": "Calle 131",
        "house_number": null,
        "neighbourhood": "Las Lomas",
        "suburb": null,
        "city_district": null,
        "city": "Ciudad de San José",
        "state": null,
        "postcode": "11802",
        "country": "Costa Rica",
        "country_code": "cr"
      },
      "address": "Calle 131, Las Lomas, Ciudad de San José, Curridabat, San Jose Province, 11802, Costa Rica"
    },
    {
      "lat": 9.928751670013853,
      "lon": -84.04344265208894,
      "geoinfo": {
        "display_name": "Centro Comercial Del Prado, Vía 2, Freses, Curridabat, San Jose Province, 11801, Costa Rica",
        "road": "Vía 2",
        "house_number": null,
        "neighbourhood": "Freses",
        "suburb": null,
        "city_district": null,
        "city": "Curridabat",
        "state": null,
        "postcode": "11801",
        "country": "Costa Rica",
        "country_code": "cr"
      },
      "address": "Centro Comercial Del Prado, Vía 2, Freses, Curridabat, San Jose Province, 11801, Costa Rica"
    },
    {
      "lat": 9.935299931282021,
      "lon": -84.03019264900098,
      "geoinfo": {
        "display_name": "Transversal 109A, Urb. El Cedral, Sabanilla, Montes de Oca, San Jose Province, 11501, Costa Rica",
        "road": "Transversal 109A",
        "house_number": null,
        "neighbourhood": null,
        "suburb": null,
        "city_district": null,
        "city": "Sabanilla",
        "state": null,
        "postcode": "11501",
        "country": "Costa Rica",
        "country_code": "cr"
      },
      "address": "Transversal 109A, Urb. El Cedral, Sabanilla, Montes de Oca, San Jose Province, 11501, Costa Rica"
    }
  ],
  "updated_at": "2025-10-19T03:36:43.305479+00:00",
  "_kind": "geo_samples"
}