{
  "country_code": "CR",
  "country": "Costa Rica",
  "city": "San Miguel",
  "geonameid": 3621753,
  "target_addresses": 3,
  "samples": [
    {
      "lat": 9.893807512263482,
      "lon": -84.0898452968568,
      "geoinfo": {
        "display_name": "Calle 1, Urb. Vista Sur, Ciudad de San José, Alajuelita, San Jose Province, 11004, Costa Rica",
        "road": "Calle 1",
        "house_number": null,
        "neighbourhood": null,
        "suburb": null,
        "city_district": null,
        "city": "Ciudad de San José",
        "state": null,
        "postcode": "11004",
        "country": "Costa Rica",
        "country_code": "cr"
      },
      "address": "Calle 1, San Miguel, Costa Rica"
    },
    {
      "lat": 9.877452090554284,
      "lon": -84.07857436920084,
      "geoinfo": {
        "display_name": "Calle Barrio Nuevo, Berlay, Ciudad de San José, Desamparados, San Jose Province, 10304, Costa Rica",
        "road": "Calle Barrio Nuevo",
        "house_number": null,
        "neighbourhood": "Berlay",
        "suburb": null,
        "city_district": null,
        "city": "Ciudad de San José",
        "state": null,
        "postcode": "10304",
        "country": "Costa Rica",
        "country_code": "cr"
      },
      "address": "Calle Barrio Nuevo, San Miguel, Costa Rica"
    },
    {
      "lat": 9.863057185083346,
      "lon": -84.09057570115627,
      "geoinfo": {
        "display_name": "Calle Socorro, El Socorro, Ciudad de San José, Aserrí, San Jose Province, 10601, Costa Rica",
        "road": "Calle Socorro",
        "house_number": null,
        "neighbourhood": "El Socorro",
        "suburb": null,
        "city_district": null,
        "city": "Ciudad de San José",
        "state": null,
        "postcode": "10601",
        "country": "Costa Rica",
        "country_code": "cr"
      },
      "address": "Calle Socorro, San Miguel, Costa Rica"
    },
    {
      "lat": 9.898023127589752,
      "lon": -84.04900943522858,
      "geoinfo": {
        "display_name": "Ciudad de San José, Desamparados, San Jose Province, 10305, Costa Rica",
        "road": null,
        "house_number": null,
        "neighbourhood": null,
        "suburb": null,
        "city_district": null,
        "city": "Ciudad de San José",
        "state": null,
        "postcode": "10305",
        "country": "Costa Rica",
        "country_code": "cr"
      },
      "address": "391, Ciudad de San José, Desamparados, San Jose Province, 10305, Costa Rica"
    },
    {
      "lat": 9.86568703738916,
      "lon": -84.04471488588123,
      "geoinfo": {
        "display_name": "Calle Cuba, Ciudad de San José, Desamparados, San Jose Province, 10313, Costa Rica",
        "road": "Calle Cuba",
        "house_number": null,
        "neighbourhood": null,
        "suburb": null,
        "city_district": null,
        "city": "Ciudad de San José",
        "state": null,
        "postcode": "10313",
        "country": "Costa Rica",
        "country_code": "cr"
      },
      "address": "935, Calle Cuba, Ciudad de San José, Desamparados, San Jose Province, 10313, Costa Rica"
    },
    {
      "lat": 9.842907298241514,
      "lon": -84.05292594399553,
      "geoinfo": {
        "display_name": "Calle Rodillal, Ciudad de San José, Desamparados, San Jose Province, 10302, Costa Rica",
        "road": "Calle Rodillal",
        "house_number": null,
        "neighbourhood": null,
        "suburb": null,
        "city_district": null,
        "city": "Ciudad de San José",
        "state": null,
        "postcode": "10302",
        "country": "Costa Rica",
        "country_code": "cr"
      },
      "address": "786, Calle Rodillal, Ciudad de San José, Desamparados, San Jose Province, 10302, Costa Rica"
    }
  ],
  "updated_at": "2025-10-19T01:46:28.144630+00:00",
  "_kind": "geo_samples"
}