{
  "country_code": "CR",
  "country": "Costa Rica",
  "city": "San Vicente de Moravia",
  "geonameid": 6612154,
  "target_addresses": 3,
  "samples": [
    {
      "lat": 9.964703902360574,
      "lon": -84.08583357136366,
      "geoinfo": {
        "display_name": "Avenida 71, San Jerónimo, Ciudad de San José, Tibás, San Jose Province, 11301, Costa Rica",
        "road": "Avenida 71",
        "house_number": null,
        "neighbourhood": "San Jerónimo",
        "suburb": null,
        "city_district": null,
        "city": "Ciudad de San José",
        "state": null,
        "postcode": "11301",
        "country": "Costa Rica",
        "country_code": "cr"
      },
      "address": "Avenida 71, San Vicente de Moravia, Costa Rica"
    },
    {
      "lat": 9.968550019503455,
      "lon": -84.05576572012596,
      "geoinfo": {
        "display_name": "Colegio IPI/Isaac Newton., Avenida 73, Corazón de Jesús, Ciudad de San José, Moravia, San Jose Province, 11401, Costa Rica",
        "road": "Avenida 73",
        "house_number": null,
        "neighbourhood": "Corazón de Jesús",
        "suburb": null,
        "city_district": null,
        "city": "Ciudad de San José",
        "state": null,
        "postcode": "11401",
        "country": "Costa Rica",
        "country_code": "cr"
      },
      "address": "Avenida 73, San Vicente de Moravia, Costa Rica"
    },
    {
      "lat": 9.956435694834024,
      "lon": -84.0095951876302,
      "geoinfo": {
        "display_name": "Avenida 3, Cond. Vistas del Valle, Ciudad de San José, Goicoechea, San Jose Province, 10804, Costa Rica",
        "road": "Avenida 3",
        "house_number": null,
        "neighbourhood": null,
        "suburb": null,
        "city_district": null,
        "city": "Ciudad de San José",
        "state": null,
        "postcode": "10804",
        "country": "Costa Rica",
        "country_code": "cr"
      },
      "address": "Avenida 3, San Vicente de Moravia, Costa Rica"
    },
    {
      "lat": 9.930415598393028,
      "lon": -84.05704525535825,
      "geoinfo": {
        "display_name": "Inter-American Court of Human Rights, Calle 49, Los Yoses, Ciudad de San José, Montes de Oca, San Jose Province, 11501, Costa Rica",
        "road": "Calle 49",
        "house_number": null,
        "neighbourhood": "Los Yoses",
        "suburb": null,
        "city_district": null,
        "city": "Ciudad de San José",
        "state": null,
        "postcode": "11501",
        "country": "Costa Rica",
        "country_code": "cr"
      },
      "address": "Inter-American Court of Human Rights, Calle 49, Los Yoses, Ciudad de San José, Montes de Oca, San Jose Province, 11501, Costa Rica"
    },
    {
      "lat": 9.950036005924003,
      "lon": -84.04868365330893,
      "geoinfo": {
        "display_name": "CCSS - Área de Salud Goicoechea 2, Calle 67, Santa Eduviges, Guadalupe, Goicoechea, San Jose Province, 10801, Costa Rica",
        "road": "Calle 67",
        "house_number": null,
        "neighbourhood": "Santa Eduviges",
        "suburb": null,
        "city_district": null,
        "city": "Guadalupe",
        "state": null,
        "postcode": "10801",
        "country": "Costa Rica",
        "country_code": "cr"
      },
      "address": "CCSS - Área de Salud Goicoechea 2, Calle 67, Santa Eduviges, Guadalupe, Goicoechea, San Jose Province, 10801, Costa Rica"
    },
    {
      "lat": 9.955685544354424,
      "lon": -84.02191486378678,
      "geoinfo": {
        "display_name": "Avenida D, Urb. Heliconias, Ciudad de San José, Goicoechea, San Jose Province, 10807, Costa Rica",
        "road": "Avenida D",
        "house_number": null,
        "neighbourhood": null,
        "suburb": null,
        "city_district": null,
        "city": "Ciudad de San José",
        "state": null,
        "postcode": "10807",
        "country": "Costa Rica",
        "country_code": "cr"
      },
      "address": "322, Avenida D, Urb. Heliconias, Ciudad de San José, Goicoechea, San Jose Province, 10807, Costa Rica"
    }
  ],
  "updated_at": "2025-10-19T02:04:18.195618+00:00",
  "_kind": "geo_samples"
}