{
  "country_code": "CR",
  "country": "Costa Rica",
  "city": "Tejar",
  "geonameid": 3621335,
  "target_addresses": 3,
  "samples": [
    {
      "lat": 9.724641895715864,
      "lon": -84.27192960158713,
      "geoinfo": {
        "display_name": "Vía 301, Sabanas, Sabanillas, Acosta, San Jose Province, 11205, Costa Rica",
        "road": "Vía 301",
        "house_number": null,
        "neighbourhood": "Sabanas",
        "suburb": null,
        "city_district": null,
        "city": "Sabanillas",
        "state": null,
        "postcode": "11205",
        "country": "Costa Rica",
        "country_code": "cr"
      },
      "address": "Vía 301, Tejar, Costa Rica"
    },
    {
      "lat": 9.782640595911051,
      "lon": -84.21836493336517,
      "geoinfo": {
        "display_name": "Hondonada, Guaitil, Acosta, San Jose Province, 11202, Costa Rica",
        "road": null,
        "house_number": null,
        "neighbourhood": null,
        "suburb": null,
        "city_district": null,
        "city": "Guaitil",
        "state": null,
        "postcode": "11202",
        "country": "Costa Rica",
        "country_code": "cr"
      },
      "address": "Tejar, Costa Rica"
    },
    {
      "lat": 9.748394874102527,
      "lon": -84.23872259154345,
      "geoinfo": {
        "display_name": "Calle La Palma, Bajo Palma, Sabanillas, Acosta, San Jose Province, 11205, Costa Rica",
        "road": "Calle La Palma",
        "house_number": null,
        "neighbourhood": null,
        "suburb": null,
        "city_district": null,
        "city": "Sabanillas",
        "state": null,
        "postcode": "11205",
        "country": "Costa Rica",
        "country_code": "cr"
      },
      "address": "Calle La Palma, Tejar, Costa Rica"
    },
    {
      "lat": 9.757612050055316,
      "lon": -84.23485706120816,
      "geoinfo": {
        "display_name": "Calle Finca Juanito, Cangrejal, Acosta, San Jose Province, 11204, Costa Rica",
        "road": "Calle Finca Juanito",
        "house_number": null,
        "neighbourhood": null,
        "suburb": null,
        "city_district": null,
        "city": "Cangrejal",
        "state": null,
        "postcode": "11204",
        "country": "Costa Rica",
        "country_code": "cr"
      },
      "address": "631, Calle Finca Juanito, Cangrejal, Acosta, San Jose Province, 11204, Costa Rica"
    },
    {
      "lat": 9.730831899790488,
      "lon": -84.2178807962126,
      "geoinfo": {
        "display_name": "Escuadra, Cangrejal, Acosta, San Jose Province, 11204, Costa Rica",
        "road": null,
        "house_number": null,
        "neighbourhood": null,
        "suburb": null,
        "city_district": null,
        "city": "Cangrejal",
        "state": null,
        "postcode": "11204",
        "country": "Costa Rica",
        "country_code": "cr"
      },
      "address": "793, Escuadra, Cangrejal, Acosta, San Jose Province, 11204, Costa Rica"
    },
    {
      "lat": 9.764223187044005,
      "lon": -84.20024678185007,
      "geoinfo": {
        "display_name": "Calle Ceiba Baja, Perpetuo Socorro, Ceiba Baja, Cangrejal, Acosta, San Jose Province, 11204, Costa Rica",
        "road": "Calle Ceiba Baja",
        "house_number": null,
        "neighbourhood": "Perpetuo Socorro",
        "suburb": null,
        "city_district": null,
        "city": "Cangrejal",
        "state": null,
        "postcode": "11204",
        "country": "Costa Rica",
        "country_code": "cr"
      },
      "address": "744, Calle Ceiba Baja, Perpetuo Socorro, Ceiba Baja, Cangrejal, Acosta, San Jose Province, 11204, Costa Rica"
    }
  ],
  "updated_at": "2025-10-19T03:36:33.272103+00:00",
  "_kind": "geo_samples"
}