{
  "country_code": "SV",
  "country": "El Salvador",
  "city": "Apopa",
  "geonameid": 3587345,
  "target_addresses": 3,
  "samples": [
    {
      "lat": 13.818134761730972,
      "lon": -89.18696247075167,
      "geoinfo": {
        "display_name": "Pasaje 19, Urbanización El Tikal Norte, Apopa, San Salvador Oeste, San Salvador, 1123, El Salvador",
        "road": "Pasaje 19",
        "house_number": null,
        "neighbourhood": "Urbanización El Tikal Norte",
        "suburb": null,
        "city_district": null,
        "city": "Apopa",
        "state": "San Salvador",
        "postcode": "1123",
        "country": "El Salvador",
        "country_code": "sv"
      },
      "address": "Pasaje 19, Apopa, San Salvador, El Salvador"
    },
    {
      "lat": 13.804240357220108,
      "lon": -89.1789267456685,
      "geoinfo": {
        "display_name": "Calle los Almendros, Colonia San Emigdio, Apopa, San Salvador Oeste, San Salvador, 1123, El Salvador",
        "road": "Calle los Almendros",
        "house_number": null,
        "neighbourhood": "Colonia San Emigdio",
        "suburb": null,
        "city_district": null,
        "city": "Apopa",
        "state": "San Salvador",
        "postcode": "1123",
        "country": "El Salvador",
        "country_code": "sv"
      },
      "address": "Calle los Almendros, Apopa, San Salvador, El Salvador"
    },
    {
      "lat": 13.80333703317522,
      "lon": -89.1997350980867,
      "geoinfo": {
        "display_name": "Lotificación Joyas del Norte, Apopa, San Salvador Oeste, San Salvador, 1123, El Salvador",
        "road": null,
        "house_number": null,
        "neighbourhood": "Lotificación Joyas del Norte",
        "suburb": null,
        "city_district": null,
        "city": "Apopa",
        "state": "San Salvador",
        "postcode": "1123",
        "country": "El Salvador",
        "country_code": "sv"
      },
      "address": "Lotificación Joyas del Norte, Apopa, San Salvador, El Salvador"
    },
    {
      "lat": 13.793433892723884,
      "lon": -89.1505083517065,
      "geoinfo": {
        "display_name": "Calle Antigua a Tonacatepeque, Parcelación Praderas 1, Ciudad Delgado, San Salvador Centro, San Salvador, 1123, El Salvador",
        "road": "Calle Antigua a Tonacatepeque",
        "house_number": null,
        "neighbourhood": "Parcelación Praderas 1",
        "suburb": null,
        "city_district": null,
        "city": "Ciudad Delgado",
        "state": "San Salvador",
        "postcode": "1123",
        "country": "El Salvador",
        "country_code": "sv"
      },
      "address": "Calle Antigua a Tonacatepeque, Parcelación Praderas 1, Ciudad Delgado, San Salvador Centro, San Salvador, 1123, El Salvador"
    },
    {
      "lat": 13.77725433505139,
      "lon": -89.2134435988786,
      "geoinfo": {
        "display_name": "Los Martínez, Apopa, San Salvador Oeste, San Salvador, 1120, El Salvador",
        "road": null,
        "house_number": null,
        "neighbourhood": null,
        "suburb": null,
        "city_district": null,
        "city": "Apopa",
        "state": "San Salvador",
        "postcode": "1120",
        "country": "El Salvador",
        "country_code": "sv"
      },
      "address": "135, Los Martínez, Apopa, San Salvador Oeste, San Salvador, 1120, El Salvador"
    },
    {
      "lat": 13.845618509400513,
      "lon": -89.16694113181397,
      "geoinfo": {
        "display_name": "Guazapa, San Salvador Norte, San Salvador, 1123, El Salvador",
        "road": null,
        "house_number": null,
        "neighbourhood": null,
        "suburb": null,
        "city_district": null,
        "city": "Guazapa",
        "state": "San Salvador",
        "postcode": "1123",
        "country": "El Salvador",
        "country_code": "sv"
      },
      "address": "430, Guazapa, San Salvador Norte, San Salvador, 1123, El Salvador"
    }
  ],
  "updated_at": "2025-10-19T07:05:03.487100+00:00",
  "_kind": "geo_samples"
}