{
  "country_code": "SV",
  "country": "El Salvador",
  "city": "Ayutuxtepeque",
  "geonameid": 3587308,
  "target_addresses": 3,
  "samples": [
    {
      "lat": 13.774799758760938,
      "lon": -89.2004748751412,
      "geoinfo": {
        "display_name": "Calle Antigua a Apopa, Apopa, San Salvador Oeste, San Salvador, 1123, El Salvador",
        "road": "Calle Antigua a Apopa",
        "house_number": null,
        "neighbourhood": null,
        "suburb": null,
        "city_district": null,
        "city": "Apopa",
        "state": "San Salvador",
        "postcode": "1123",
        "country": "El Salvador",
        "country_code": "sv"
      },
      "address": "Calle Antigua a Apopa, Ayutuxtepeque, San Salvador, El Salvador"
    },
    {
      "lat": 13.748719043894285,
      "lon": -89.18572328956871,
      "geoinfo": {
        "display_name": "Los Llanitos, Ciudad Delgado, San Salvador Centro, San Salvador, 1121, El Salvador",
        "road": null,
        "house_number": null,
        "neighbourhood": null,
        "suburb": null,
        "city_district": null,
        "city": "Ciudad Delgado",
        "state": "San Salvador",
        "postcode": "1121",
        "country": "El Salvador",
        "country_code": "sv"
      },
      "address": "Ayutuxtepeque, San Salvador, El Salvador"
    },
    {
      "lat": 13.7755345967134,
      "lon": -89.20676307546772,
      "geoinfo": {
        "display_name": "Boulevard Constitución, Apopa, San Salvador Oeste, San Salvador, 1123, El Salvador",
        "road": "Boulevard Constitución",
        "house_number": null,
        "neighbourhood": null,
        "suburb": null,
        "city_district": null,
        "city": "Apopa",
        "state": "San Salvador",
        "postcode": "1123",
        "country": "El Salvador",
        "country_code": "sv"
      },
      "address": "Boulevard Constitución, Ayutuxtepeque, San Salvador, El Salvador"
    },
    {
      "lat": 13.748453799061146,
      "lon": -89.16787423735708,
      "geoinfo": {
        "display_name": "Arenales, Ciudad Delgado, San Salvador Centro, San Salvador, 1118, El Salvador",
        "road": null,
        "house_number": null,
        "neighbourhood": null,
        "suburb": null,
        "city_district": null,
        "city": "Ciudad Delgado",
        "state": "San Salvador",
        "postcode": "1118",
        "country": "El Salvador",
        "country_code": "sv"
      },
      "address": "096, Arenales, Ciudad Delgado, San Salvador Centro, San Salvador, 1118, El Salvador"
    },
    {
      "lat": 13.761269155772332,
      "lon": -89.16827929341393,
      "geoinfo": {
        "display_name": "Ciudad Delgado, San Salvador Centro, San Salvador, 1118, El Salvador",
        "road": null,
        "house_number": null,
        "neighbourhood": null,
        "suburb": null,
        "city_district": null,
        "city": "Ciudad Delgado",
        "state": "San Salvador",
        "postcode": "1118",
        "country": "El Salvador",
        "country_code": "sv"
      },
      "address": "404, Ciudad Delgado, San Salvador Centro, San Salvador, 1118, El Salvador"
    },
    {
      "lat": 13.750388904067739,
      "lon": -89.22800445546656,
      "geoinfo": {
        "display_name": "Zapote Arriba, Mejicanos, San Salvador Centro, San Salvador, 1120, El Salvador",
        "road": null,
        "house_number": null,
        "neighbourhood": null,
        "suburb": null,
        "city_district": null,
        "city": null,
        "state": "San Salvador",
        "postcode": "1120",
        "country": "El Salvador",
        "country_code": "sv"
      },
      "address": "986, Zapote Arriba, Mejicanos, San Salvador Centro, San Salvador, 1120, El Salvador"
    }
  ],
  "updated_at": "2025-10-19T06:39:05.858380+00:00",
  "_kind": "geo_samples"
}