{
  "country_code": "SV",
  "country": "El Salvador",
  "city": "Cuscatancingo",
  "geonameid": 3586833,
  "target_addresses": 3,
  "samples": [
    {
      "lat": 13.743188208739834,
      "lon": -89.17124539901661,
      "geoinfo": {
        "display_name": "Arenales, Ciudad Delgado, San Salvador Centro, San Salvador, 1118, El Salvador",
        "road": null,
        "house_number": null,
        "neighbourhood": null,
        "suburb": null,
        "city_district": null,
        "city": "Ciudad Delgado",
        "state": "San Salvador",
        "postcode": "1118",
        "country": "El Salvador",
        "country_code": "sv"
      },
      "address": "Cuscatancingo, San Salvador, El Salvador"
    },
    {
      "lat": 13.706508763471206,
      "lon": -89.15564676590176,
      "geoinfo": {
        "display_name": "Avenida Principal, Barrio San Antonio, Colonia Santa Maria, Soyapango, San Salvador Este, San Salvador, 1116, El Salvador",
        "road": "Avenida Principal",
        "house_number": null,
        "neighbourhood": "Barrio San Antonio",
        "suburb": "Colonia Santa Maria",
        "city_district": null,
        "city": "Soyapango",
        "state": "San Salvador",
        "postcode": "1116",
        "country": "El Salvador",
        "country_code": "sv"
      },
      "address": "Avenida Principal, Cuscatancingo, San Salvador, El Salvador"
    },
    {
      "lat": 13.766387045566564,
      "lon": -89.1880573655054,
      "geoinfo": {
        "display_name": "Cantón San Luís Mariona, Ayutuxtepeque, San Salvador Centro, San Salvador, 1118, El Salvador",
        "road": null,
        "house_number": null,
        "neighbourhood": null,
        "suburb": null,
        "city_district": "Cantón San Luís Mariona",
        "city": "Ayutuxtepeque",
        "state": "San Salvador",
        "postcode": "1118",
        "country": "El Salvador",
        "country_code": "sv"
      },
      "address": "Cantón San Luís Mariona, Cuscatancingo, San Salvador, El Salvador"
    },
    {
      "lat": 13.703631971726237,
      "lon": -89.18706813464338,
      "geoinfo": {
        "display_name": "Barrio San José, Centro Histórico, San Salvador, San Salvador Centro, San Salvador, 1011, El Salvador",
        "road": null,
        "house_number": null,
        "neighbourhood": null,
        "suburb": "Barrio San José",
        "city_district": "Centro Histórico",
        "city": "San Salvador",
        "state": "San Salvador",
        "postcode": "1011",
        "country": "El Salvador",
        "country_code": "sv"
      },
      "address": "766, Barrio San José, Centro Histórico, San Salvador, San Salvador Centro, San Salvador, 1011, El Salvador"
    },
    {
      "lat": 13.729853410264115,
      "lon": -89.18053399921479,
      "geoinfo": {
        "display_name": "Pasaje Sarmientos, Cuscatancingo, San Salvador Centro, San Salvador, 1121, El Salvador",
        "road": "Pasaje Sarmientos",
        "house_number": null,
        "neighbourhood": null,
        "suburb": null,
        "city_district": null,
        "city": "Cuscatancingo",
        "state": "San Salvador",
        "postcode": "1121",
        "country": "El Salvador",
        "country_code": "sv"
      },
      "address": "310, Pasaje Sarmientos, Cuscatancingo, San Salvador Centro, San Salvador, 1121, El Salvador"
    },
    {
      "lat": 13.714088747109217,
      "lon": -89.14258678536176,
      "geoinfo": {
        "display_name": "Pasaje 47, Urb. Las Margaritas, Soyapango, San Salvador Este, San Salvador, 1116, El Salvador",
        "road": "Pasaje 47",
        "house_number": null,
        "neighbourhood": null,
        "suburb": "Urb. Las Margaritas",
        "city_district": null,
        "city": "Soyapango",
        "state": "San Salvador",
        "postcode": "1116",
        "country": "El Salvador",
        "country_code": "sv"
      },
      "address": "Pasaje 47, Urb. Las Margaritas, Soyapango, San Salvador Este, San Salvador, 1116, El Salvador"
    }
  ],
  "updated_at": "2025-10-19T04:56:55.681694+00:00",
  "_kind": "geo_samples"
}