{
  "country_code": "SV",
  "country": "El Salvador",
  "city": "Delgado",
  "geonameid": 3586814,
  "target_addresses": 3,
  "samples": [
    {
      "lat": 13.729329614203872,
      "lon": -89.177857357843,
      "geoinfo": {
        "display_name": "Cuscatancingo, San Salvador Centro, San Salvador, 1118, El Salvador",
        "road": null,
        "house_number": null,
        "neighbourhood": null,
        "suburb": null,
        "city_district": null,
        "city": "Cuscatancingo",
        "state": "San Salvador",
        "postcode": "1118",
        "country": "El Salvador",
        "country_code": "sv"
      },
      "address": "Delgado, San Salvador, El Salvador"
    },
    {
      "lat": 13.71841533264165,
      "lon": -89.19440659653596,
      "geoinfo": {
        "display_name": "41 Calle Poniente, Colonia Shangri-la, Colonia San Carlos A, Residencial San Carlos, Distrito Municipal 1, San Salvador, San Salvador Centro, San Salvador, 1010, El Salvador",
        "road": "41 Calle Poniente",
        "house_number": null,
        "neighbourhood": "Colonia Shangri-la",
        "suburb": "Colonia San Carlos A",
        "city_district": "Distrito Municipal 1",
        "city": "San Salvador",
        "state": "San Salvador",
        "postcode": "1010",
        "country": "El Salvador",
        "country_code": "sv"
      },
      "address": "41 Calle Poniente, Delgado, San Salvador, El Salvador"
    },
    {
      "lat": 13.731235591207062,
      "lon": -89.16458543361,
      "geoinfo": {
        "display_name": "Colonia Bolivar, Ciudad Delgado, San Salvador Centro, San Salvador, 1118, El Salvador",
        "road": null,
        "house_number": null,
        "neighbourhood": null,
        "suburb": "Colonia Bolivar",
        "city_district": null,
        "city": "Ciudad Delgado",
        "state": "San Salvador",
        "postcode": "1118",
        "country": "El Salvador",
        "country_code": "sv"
      },
      "address": "Colonia Bolivar, Delgado, San Salvador, El Salvador"
    },
    {
      "lat": 13.71046181107696,
      "lon": -89.20387001071317,
      "geoinfo": {
        "display_name": "Distrito Municipal 2, San Salvador, San Salvador Centro, San Salvador, 1102, El Salvador",
        "road": null,
        "house_number": null,
        "neighbourhood": null,
        "suburb": null,
        "city_district": "Distrito Municipal 2",
        "city": "San Salvador",
        "state": "San Salvador",
        "postcode": "1102",
        "country": "El Salvador",
        "country_code": "sv"
      },
      "address": "Distrito Municipal 2, San Salvador, San Salvador Centro, San Salvador, 1102, El Salvador"
    },
    {
      "lat": 13.731672738426882,
      "lon": -89.15619246445668,
      "geoinfo": {
        "display_name": "Colonia Las Catalinas, Reparto Lomas del Río, Ciudad Delgado, San Salvador Centro, San Salvador, 1118, El Salvador",
        "road": null,
        "house_number": null,
        "neighbourhood": "Colonia Las Catalinas",
        "suburb": null,
        "city_district": null,
        "city": "Ciudad Delgado",
        "state": "San Salvador",
        "postcode": "1118",
        "country": "El Salvador",
        "country_code": "sv"
      },
      "address": "403, Colonia Las Catalinas, Reparto Lomas del Río, Ciudad Delgado, San Salvador Centro, San Salvador, 1118, El Salvador"
    },
    {
      "lat": 13.749020015895912,
      "lon": -89.15848200541846,
      "geoinfo": {
        "display_name": "Residencial Bosque de San José, Cantón San José Cortez, Ciudad Delgado, San Salvador Centro, San Salvador, 1118, El Salvador",
        "road": null,
        "house_number": null,
        "neighbourhood": null,
        "suburb": null,
        "city_district": null,
        "city": "Ciudad Delgado",
        "state": "San Salvador",
        "postcode": "1118",
        "country": "El Salvador",
        "country_code": "sv"
      },
      "address": "555, Residencial Bosque de San José, Cantón San José Cortez, Ciudad Delgado, San Salvador Centro, San Salvador, 1118, El Salvador"
    }
  ],
  "updated_at": "2025-10-19T05:37:59.876076+00:00",
  "_kind": "geo_samples"
}