{
  "country_code": "SV",
  "country": "El Salvador",
  "city": "Mejicanos",
  "geonameid": 3584399,
  "target_addresses": 3,
  "samples": [
    {
      "lat": 13.703610729143945,
      "lon": -89.1889237052014,
      "geoinfo": {
        "display_name": "2a Avenida Norte, Barrio San José, Centro Histórico, San Salvador, San Salvador Centro, San Salvador, 1011, El Salvador",
        "road": "2a Avenida Norte",
        "house_number": null,
        "neighbourhood": null,
        "suburb": "Barrio San José",
        "city_district": "Centro Histórico",
        "city": "San Salvador",
        "state": "San Salvador",
        "postcode": "1011",
        "country": "El Salvador",
        "country_code": "sv"
      },
      "address": "2a Avenida Norte, Mejicanos, San Salvador, El Salvador"
    },
    {
      "lat": 13.755632867051169,
      "lon": -89.21783777020104,
      "geoinfo": {
        "display_name": "Ayutuxtepeque, San Salvador Centro, San Salvador, 1120, El Salvador",
        "road": null,
        "house_number": null,
        "neighbourhood": null,
        "suburb": null,
        "city_district": null,
        "city": "Ayutuxtepeque",
        "state": "San Salvador",
        "postcode": "1120",
        "country": "El Salvador",
        "country_code": "sv"
      },
      "address": "Mejicanos, San Salvador, El Salvador"
    },
    {
      "lat": 13.705437711736106,
      "lon": -89.19109024091215,
      "geoinfo": {
        "display_name": "Edificio San Karlos, 143, 13 Calle Poniente, Barrio San José, Centro Histórico, San Salvador, San Salvador Centro, San Salvador, 1102, El Salvador",
        "road": "13 Calle Poniente",
        "house_number": "143",
        "neighbourhood": null,
        "suburb": "Barrio San José",
        "city_district": "Centro Histórico",
        "city": "San Salvador",
        "state": "San Salvador",
        "postcode": "1102",
        "country": "El Salvador",
        "country_code": "sv"
      },
      "address": "143 13 Calle Poniente, Mejicanos, San Salvador, El Salvador"
    },
    {
      "lat": 13.69608844195676,
      "lon": -89.16726022651697,
      "geoinfo": {
        "display_name": "Urbanización Jardines del Boulevard, Soyapango, San Salvador Este, San Salvador, 1011, El Salvador",
        "road": null,
        "house_number": null,
        "neighbourhood": null,
        "suburb": "Urbanización Jardines del Boulevard",
        "city_district": null,
        "city": "Soyapango",
        "state": "San Salvador",
        "postcode": "1011",
        "country": "El Salvador",
        "country_code": "sv"
      },
      "address": "879, Urbanización Jardines del Boulevard, Soyapango, San Salvador Este, San Salvador, 1011, El Salvador"
    },
    {
      "lat": 13.73057024310942,
      "lon": -89.17646949602576,
      "geoinfo": {
        "display_name": "Cuscatancingo, San Salvador Centro, San Salvador, 1118, El Salvador",
        "road": null,
        "house_number": null,
        "neighbourhood": null,
        "suburb": null,
        "city_district": null,
        "city": "Cuscatancingo",
        "state": "San Salvador",
        "postcode": "1118",
        "country": "El Salvador",
        "country_code": "sv"
      },
      "address": "990, Cuscatancingo, San Salvador Centro, San Salvador, 1118, El Salvador"
    },
    {
      "lat": 13.709328795020012,
      "lon": -89.20189616719155,
      "geoinfo": {
        "display_name": "Colonia Medica, Colonia San Carlos A, Residencial San Carlos, Distrito Municipal 1, San Salvador, San Salvador Centro, San Salvador, 1102, El Salvador",
        "road": null,
        "house_number": null,
        "neighbourhood": "Colonia Medica",
        "suburb": "Colonia San Carlos A",
        "city_district": "Distrito Municipal 1",
        "city": "San Salvador",
        "state": "San Salvador",
        "postcode": "1102",
        "country": "El Salvador",
        "country_code": "sv"
      },
      "address": "Colonia Medica, Colonia San Carlos A, Residencial San Carlos, Distrito Municipal 1, San Salvador, San Salvador Centro, San Salvador, 1102, El Salvador"
    }
  ],
  "updated_at": "2025-10-19T07:06:00.175611+00:00",
  "_kind": "geo_samples"
}