{
  "country_code": "SV",
  "country": "El Salvador",
  "city": "Puerto El Triunfo",
  "geonameid": 3584003,
  "target_addresses": 3,
  "samples": [
    {
      "lat": 13.266112766216073,
      "lon": -88.53829649147461,
      "geoinfo": {
        "display_name": "Barrio San Rafael, Puerto El Triunfo, Usulután, El Salvador",
        "road": null,
        "house_number": null,
        "neighbourhood": "Barrio San Rafael",
        "suburb": null,
        "city_district": null,
        "city": "Puerto El Triunfo",
        "state": "Usulután",
        "postcode": null,
        "country": "El Salvador",
        "country_code": "sv"
      },
      "address": "Barrio San Rafael, Puerto El Triunfo, Usulután, El Salvador"
    },
    {
      "lat": 13.240574820851254,
      "lon": -88.54138347781763,
      "geoinfo": {
        "display_name": "Puerto El Triunfo, Usulután, El Salvador",
        "road": null,
        "house_number": null,
        "neighbourhood": null,
        "suburb": null,
        "city_district": null,
        "city": null,
        "state": "Usulután",
        "postcode": null,
        "country": "El Salvador",
        "country_code": "sv"
      },
      "address": "Puerto El Triunfo, Usulután, El Salvador"
    },
    {
      "lat": 13.271138598413861,
      "lon": -88.5570996647996,
      "geoinfo": {
        "display_name": "Puerto El Triunfo, 5 Calle Poniente, Barrio La Playa, Puerto El Triunfo, Usulután, El Salvador",
        "road": "5 Calle Poniente",
        "house_number": null,
        "neighbourhood": "Barrio La Playa",
        "suburb": null,
        "city_district": null,
        "city": "Puerto El Triunfo",
        "state": "Usulután",
        "postcode": null,
        "country": "El Salvador",
        "country_code": "sv"
      },
      "address": "5 Calle Poniente, Puerto El Triunfo, Usulután, El Salvador"
    },
    {
      "lat": 13.271560218949707,
      "lon": -88.56398323134809,
      "geoinfo": {
        "display_name": "Barrio La Playa, Puerto El Triunfo, Usulután, El Salvador",
        "road": null,
        "house_number": null,
        "neighbourhood": null,
        "suburb": null,
        "city_district": null,
        "city": "Puerto El Triunfo",
        "state": "Usulután",
        "postcode": null,
        "country": "El Salvador",
        "country_code": "sv"
      },
      "address": "495, Barrio La Playa, Puerto El Triunfo, 07715 Usulután, El Salvador"
    },
    {
      "lat": 13.261192646338783,
      "lon": -88.54053855170524,
      "geoinfo": {
        "display_name": "Barrio San Rafael, Barrio La Playa, Puerto El Triunfo, Usulután, El Salvador",
        "road": null,
        "house_number": null,
        "neighbourhood": "Barrio San Rafael",
        "suburb": null,
        "city_district": null,
        "city": "Puerto El Triunfo",
        "state": "Usulután",
        "postcode": null,
        "country": "El Salvador",
        "country_code": "sv"
      },
      "address": "232, Barrio San Rafael, Barrio La Playa, Puerto El Triunfo, 65431 Usulután, El Salvador"
    },
    {
      "lat": 13.28487792248641,
      "lon": -88.54784350850103,
      "geoinfo": {
        "display_name": "Carretera Principal A Puerto El Triunfo, Colonia Romero, Puerto El Triunfo, Jiquilisco, Usulután, El Salvador",
        "road": "Carretera Principal A Puerto El Triunfo",
        "house_number": null,
        "neighbourhood": "Colonia Romero",
        "suburb": null,
        "city_district": null,
        "city": "Puerto El Triunfo",
        "state": "Usulután",
        "postcode": null,
        "country": "El Salvador",
        "country_code": "sv"
      },
      "address": "252, Carretera Principal A Puerto El Triunfo, Colonia Romero, Puerto El Triunfo, Jiquilisco, 24544 Usulután, El Salvador"
    }
  ],
  "updated_at": "2025-10-19T04:56:27.055448+00:00",
  "_kind": "geo_samples"
}