{
  "country_code": "SV",
  "country": "El Salvador",
  "city": "San Salvador",
  "geonameid": 3583361,
  "target_addresses": 3,
  "samples": [
    {
      "lat": 13.679873329816925,
      "lon": -89.20782561380948,
      "geoinfo": {
        "display_name": "Urbanización Santa Rosa, Colonia Dolores, Distrito Municipal 5, San Salvador, San Salvador Centro, San Salvador, 1011, El Salvador",
        "road": null,
        "house_number": null,
        "neighbourhood": "Urbanización Santa Rosa",
        "suburb": null,
        "city_district": "Distrito Municipal 5",
        "city": "San Salvador",
        "state": "San Salvador",
        "postcode": "1011",
        "country": "El Salvador",
        "country_code": "sv"
      },
      "address": "Urbanización Santa Rosa, San Salvador, San Salvador, El Salvador"
    },
    {
      "lat": 13.674262717405211,
      "lon": -89.221831528504,
      "geoinfo": {
        "display_name": "Residencial Lomas de Altamira, Residencial Lomas de Altamira II Etapa, Distrito Municipal 4, San Salvador, San Salvador Centro, San Salvador, 1502, El Salvador",
        "road": null,
        "house_number": null,
        "neighbourhood": "Residencial Lomas de Altamira",
        "suburb": null,
        "city_district": "Distrito Municipal 4",
        "city": "San Salvador",
        "state": "San Salvador",
        "postcode": "1502",
        "country": "El Salvador",
        "country_code": "sv"
      },
      "address": "Residencial Lomas de Altamira, San Salvador, San Salvador, El Salvador"
    },
    {
      "lat": 13.685871596120109,
      "lon": -89.22746734343681,
      "geoinfo": {
        "display_name": "70, Calle Los Duraznos, Colonia Las Mercedes, Colonia San Francisco, Distrito Municipal 4, San Salvador, San Salvador Centro, San Salvador, 1101, El Salvador",
        "road": "Calle Los Duraznos",
        "house_number": "70",
        "neighbourhood": "Colonia Las Mercedes",
        "suburb": "Colonia San Francisco",
        "city_district": "Distrito Municipal 4",
        "city": "San Salvador",
        "state": "San Salvador",
        "postcode": "1101",
        "country": "El Salvador",
        "country_code": "sv"
      },
      "address": "70 Calle Los Duraznos, San Salvador, San Salvador, El Salvador"
    }
  ],
  "updated_at": "2025-10-16T23:05:15.765222+00:00",
  "_kind": "geo_samples"
}