{
  "country_code": "SV",
  "country": "El Salvador",
  "city": "Usulután",
  "geonameid": 3582883,
  "target_addresses": 3,
  "samples": [
    {
      "lat": 13.37593031576998,
      "lon": -88.43958106746672,
      "geoinfo": {
        "display_name": "recidencial las parras, Las Lomas, Colonia Usuluteca, Usulután, 3401, El Salvador",
        "road": null,
        "house_number": null,
        "neighbourhood": "recidencial las parras",
        "suburb": null,
        "city_district": null,
        "city": "Usulután",
        "state": "Usulután",
        "postcode": "3401",
        "country": "El Salvador",
        "country_code": "sv"
      },
      "address": "recidencial las parras, Usulután, Usulután, El Salvador"
    },
    {
      "lat": 13.32652058995763,
      "lon": -88.42585653649066,
      "geoinfo": {
        "display_name": "Usulután, 3401, El Salvador",
        "road": null,
        "house_number": null,
        "neighbourhood": null,
        "suburb": null,
        "city_district": null,
        "city": "Usulután",
        "state": "Usulután",
        "postcode": "3401",
        "country": "El Salvador",
        "country_code": "sv"
      },
      "address": "Usulután, Usulután, El Salvador"
    },
    {
      "lat": 13.360838939342873,
      "lon": -88.4332647511273,
      "geoinfo": {
        "display_name": "Centro Escolar Canton El Ojuste, Calle a Canton El Ojuste, El Qjushte, Usulután, 3401, El Salvador",
        "road": "Calle a Canton El Ojuste",
        "house_number": null,
        "neighbourhood": null,
        "suburb": null,
        "city_district": null,
        "city": "Usulután",
        "state": "Usulután",
        "postcode": "3401",
        "country": "El Salvador",
        "country_code": "sv"
      },
      "address": "Calle a Canton El Ojuste, Usulután, Usulután, El Salvador"
    },
    {
      "lat": 13.32545322574408,
      "lon": -88.40394868849782,
      "geoinfo": {
        "display_name": "Usulután, 3401, El Salvador",
        "road": null,
        "house_number": null,
        "neighbourhood": null,
        "suburb": null,
        "city_district": null,
        "city": "Usulután",
        "state": "Usulután",
        "postcode": "3401",
        "country": "El Salvador",
        "country_code": "sv"
      },
      "address": "896, Usulután, 3401 Usulután, El Salvador"
    },
    {
      "lat": 13.331216835086558,
      "lon": -88.41123011638688,
      "geoinfo": {
        "display_name": "Calle a Granja de el INU, Pueblo Nuevo, Santa María, Usulután, 3401, El Salvador",
        "road": "Calle a Granja de el INU",
        "house_number": null,
        "neighbourhood": "Pueblo Nuevo",
        "suburb": null,
        "city_district": null,
        "city": "Santa María",
        "state": "Usulután",
        "postcode": "3401",
        "country": "El Salvador",
        "country_code": "sv"
      },
      "address": "365, Calle a Granja de el INU, Pueblo Nuevo, Santa María, Usulután, 3401, El Salvador"
    },
    {
      "lat": 13.36892711758478,
      "lon": -88.41422343430008,
      "geoinfo": {
        "display_name": "Santa Elena, Usulután, 3401, El Salvador",
        "road": null,
        "house_number": null,
        "neighbourhood": null,
        "suburb": null,
        "city_district": null,
        "city": "Santa Elena",
        "state": "Usulután",
        "postcode": "3401",
        "country": "El Salvador",
        "country_code": "sv"
      },
      "address": "261, Santa Elena, Usulután, 3401, El Salvador"
    }
  ],
  "updated_at": "2025-10-19T04:56:14.031581+00:00",
  "_kind": "geo_samples"
}