{
  "country_code": "SV",
  "country": "El Salvador",
  "city": "Zacatecoluca",
  "geonameid": 3582805,
  "target_addresses": 3,
  "samples": [
    {
      "lat": 13.514290254334,
      "lon": -88.8424592400012,
      "geoinfo": {
        "display_name": "Zacatecoluca, La Paz, 0821, El Salvador",
        "road": null,
        "house_number": null,
        "neighbourhood": null,
        "suburb": null,
        "city_district": null,
        "city": "Zacatecoluca",
        "state": "La Paz",
        "postcode": "0821",
        "country": "El Salvador",
        "country_code": "sv"
      },
      "address": "Zacatecoluca, La Paz, El Salvador"
    },
    {
      "lat": 13.506903850883731,
      "lon": -88.84301432399624,
      "geoinfo": {
        "display_name": "Carretera de Zacatecoluca a Tecoluca, Lotificación Somoza No. 2, El Espino Abajo, Zacatecoluca, La Paz, 0821, El Salvador",
        "road": "Carretera de Zacatecoluca a Tecoluca",
        "house_number": null,
        "neighbourhood": "Lotificación Somoza No. 2",
        "suburb": null,
        "city_district": null,
        "city": "Zacatecoluca",
        "state": "La Paz",
        "postcode": "0821",
        "country": "El Salvador",
        "country_code": "sv"
      },
      "address": "Carretera de Zacatecoluca a Tecoluca, Zacatecoluca, La Paz, El Salvador"
    },
    {
      "lat": 13.472794837793828,
      "lon": -88.86802004961028,
      "geoinfo": {
        "display_name": "PAZ 1, Colonia Las Arboledas, Tierra Blanca, Zacatecoluca, La Paz, 0821, El Salvador",
        "road": "PAZ 1",
        "house_number": null,
        "neighbourhood": "Colonia Las Arboledas",
        "suburb": null,
        "city_district": null,
        "city": "Zacatecoluca",
        "state": "La Paz",
        "postcode": "0821",
        "country": "El Salvador",
        "country_code": "sv"
      },
      "address": "PAZ 1, Zacatecoluca, La Paz, El Salvador"
    },
    {
      "lat": 13.52725323607256,
      "lon": -88.87393767580234,
      "geoinfo": {
        "display_name": "Santa Lucía, Zacatecoluca, La Paz, 0821, El Salvador",
        "road": null,
        "house_number": null,
        "neighbourhood": null,
        "suburb": null,
        "city_district": null,
        "city": "Zacatecoluca",
        "state": "La Paz",
        "postcode": "0821",
        "country": "El Salvador",
        "country_code": "sv"
      },
      "address": "686, Santa Lucía, Zacatecoluca, La Paz, 0821, El Salvador"
    },
    {
      "lat": 13.548519642976846,
      "lon": -88.88504500922252,
      "geoinfo": {
        "display_name": "PAZ09N, San Juan Nonualco, La Paz, 0821, El Salvador",
        "road": "PAZ09N",
        "house_number": null,
        "neighbourhood": null,
        "suburb": null,
        "city_district": null,
        "city": null,
        "state": "La Paz",
        "postcode": "0821",
        "country": "El Salvador",
        "country_code": "sv"
      },
      "address": "PAZ09N, San Juan Nonualco, La Paz, 0821, El Salvador"
    },
    {
      "lat": 13.477990294134777,
      "lon": -88.86373820758325,
      "geoinfo": {
        "display_name": "El Socorro, Zacatecoluca, La Paz, 0821, El Salvador",
        "road": null,
        "house_number": null,
        "neighbourhood": null,
        "suburb": null,
        "city_district": null,
        "city": "Zacatecoluca",
        "state": "La Paz",
        "postcode": "0821",
        "country": "El Salvador",
        "country_code": "sv"
      },
      "address": "646, El Socorro, Zacatecoluca, La Paz, 0821, El Salvador"
    }
  ],
  "updated_at": "2025-10-19T07:04:52.957120+00:00",
  "_kind": "geo_samples"
}