{
  "country_code": "MO",
  "country": "Macao",
  "city": "Macau",
  "geonameid": 1821274,
  "target_addresses": 20,
  "samples": [
    {
      "lat": 22.163541378067418,
      "lon": 113.5633265354936,
      "geoinfo": {
        "display_name": "Taipa Municipal Cemetery, 信安馬路 Avenida Son On, 北安 Pac On, Macau, 嘉模堂區 Nossa Senhora do Carmo, Taipa, Macau, 999078, China",
        "road": "信安馬路 Avenida Son On",
        "house_number": null,
        "neighbourhood": null,
        "suburb": null,
        "city_district": null,
        "city": "Macau",
        "state": "Macau",
        "postcode": "999078",
        "country": "China",
        "country_code": "cn"
      },
      "address": "信安馬路 Avenida Son On, Macau, Macau, Macao"
    },
    {
      "lat": 22.198204861329874,
      "lon": 113.57947893673521,
      "geoinfo": {
        "display_name": "港珠澳口岸環形馬路 Estrada Circular Fronteiriça de Hong Kong-Zhuhai-Macau, HZMB Macao Port Administration Area, Macau, 059000, China",
        "road": "港珠澳口岸環形馬路 Estrada Circular Fronteiriça de Hong Kong-Zhuhai-Macau",
        "house_number": null,
        "neighbourhood": null,
        "suburb": null,
        "city_district": null,
        "city": "Macau",
        "state": "Macau",
        "postcode": "059000",
        "country": "China",
        "country_code": "cn"
      },
      "address": "港珠澳口岸環形馬路 Estrada Circular Fronteiriça de Hong Kong-Zhuhai-Macau, Macau, Macau, Macao"
    },
    {
      "lat": 22.181051802647385,
      "lon": 113.56567880392048,
      "geoinfo": {
        "display_name": "Friendship Bridge, Sé, Macau, 519000, China",
        "road": "Friendship Bridge",
        "house_number": null,
        "neighbourhood": null,
        "suburb": "Sé",
        "city_district": null,
        "city": "Macau",
        "state": "Macau",
        "postcode": "519000",
        "country": "China",
        "country_code": "cn"
      },
      "address": "Friendship Bridge, Macau, Macau, Macao"
    },
    {
      "lat": 22.181227795382497,
      "lon": 113.55434764264929,
      "geoinfo": {
        "display_name": "巴士停泊區 (新福利) Zona de Estacionamento para Ônibus (Transmac), 孫逸仙大馬路 Avenida Dr. Sun Yat-Sen, New Urban Zone Area B, Sé, Macau, 519000, China",
        "road": "孫逸仙大馬路 Avenida Dr. Sun Yat-Sen",
        "house_number": null,
        "neighbourhood": null,
        "suburb": "Sé",
        "city_district": null,
        "city": "Macau",
        "state": "Macau",
        "postcode": "519000",
        "country": "China",
        "country_code": "cn"
      },
      "address": "孫逸仙大馬路 Avenida Dr. Sun Yat-Sen, Macau, Macau, Macao"
    },
    {
      "lat": 22.20149291532019,
      "lon": 113.53740198336148,
      "geoinfo": {
        "display_name": "永興雪櫃冷氣工程, 53, 沙梨頭海邊街 Rua da Ribeira do Patane, 沙梨頭 Patane, Santo António, Macau, 519000, China",
        "road": "沙梨頭海邊街 Rua da Ribeira do Patane",
        "house_number": "53",
        "neighbourhood": null,
        "suburb": "Santo António",
        "city_district": null,
        "city": "Macau",
        "state": "Macau",
        "postcode": "519000",
        "country": "China",
        "country_code": "cn"
      },
      "address": "53 沙梨頭海邊街 Rua da Ribeira do Patane, Macau, Macau, Macao"
    },
    {
      "lat": 22.208130408058256,
      "lon": 113.54366034465015,
      "geoinfo": {
        "display_name": "沙梨頭新街 Rua Nova do Patane, 筷子基 Fai Chi Kei, Fatima Parish, Macau, 519000, China",
        "road": "沙梨頭新街 Rua Nova do Patane",
        "house_number": null,
        "neighbourhood": null,
        "suburb": "Fatima Parish",
        "city_district": null,
        "city": "Macau",
        "state": "Macau",
        "postcode": "519000",
        "country": "China",
        "country_code": "cn"
      },
      "address": "沙梨頭新街 Rua Nova do Patane, Macau, Macau, Macao"
    },
    {
      "lat": 22.235131370116257,
      "lon": 113.56882603449398,
      "geoinfo": {
        "display_name": "海景花园, Jida Subdistrict, Xiangzhou, Zhuhai, Guangdong Province, 519000, China",
        "road": null,
        "house_number": null,
        "neighbourhood": null,
        "suburb": "Jida Subdistrict",
        "city_district": null,
        "city": "Xiangzhou",
        "state": "Guangdong Province",
        "postcode": "519000",
        "country": "China",
        "country_code": "cn"
      },
      "address": "Jida Subdistrict, Macau, Guangdong Province, Macao"
    },
    {
      "lat": 22.200468286217294,
      "lon": 113.57387428612222,
      "geoinfo": {
        "display_name": "HZMB Macao Port Administration Area, Macau, 059000, China",
        "road": null,
        "house_number": null,
        "neighbourhood": null,
        "suburb": null,
        "city_district": null,
        "city": "Macau",
        "state": "Macau",
        "postcode": "059000",
        "country": "China",
        "country_code": "cn"
      },
      "address": "Macau, Macau, Macao"
    },
    {
      "lat": 22.20620942389982,
      "lon": 113.56308882598546,
      "geoinfo": {
        "display_name": "東城第二街 Rua Dois da Zona Este, 黑沙環 Areia Preta, Macau, 059000, China",
        "road": "東城第二街 Rua Dois da Zona Este",
        "house_number": null,
        "neighbourhood": null,
        "suburb": null,
        "city_district": null,
        "city": "Macau",
        "state": "Macau",
        "postcode": "059000",
        "country": "China",
        "country_code": "cn"
      },
      "address": "東城第二街 Rua Dois da Zona Este, Macau, Macau, Macao"
    },
    {
      "lat": 22.20408625903026,
      "lon": 113.56507197938083,
      "geoinfo": {
        "display_name": "馬萬祺博士大馬路 Avenida Doutor Ma Man Kei, 新城A區 Zona A dos Novos Aterros Urbanos, Macau, 059000, China",
        "road": "馬萬祺博士大馬路 Avenida Doutor Ma Man Kei",
        "house_number": null,
        "neighbourhood": null,
        "suburb": null,
        "city_district": null,
        "city": "Macau",
        "state": "Macau",
        "postcode": "059000",
        "country": "China",
        "country_code": "cn"
      },
      "address": "馬萬祺博士大馬路 Avenida Doutor Ma Man Kei, Macau, Macau, Macao"
    },
    {
      "lat": 22.17169583542989,
      "lon": 113.5730636341173,
      "geoinfo": {
        "display_name": "Macau Bridge, New Urban Zone Area E1, Macau, 嘉模堂區 Nossa Senhora do Carmo, Taipa, Macau, 999078, China",
        "road": "Macau Bridge",
        "house_number": null,
        "neighbourhood": null,
        "suburb": null,
        "city_district": null,
        "city": "Macau",
        "state": "Macau",
        "postcode": "999078",
        "country": "China",
        "country_code": "cn"
      },
      "address": "Macau Bridge, Macau, Macau, Macao"
    },
    {
      "lat": 22.22163080999351,
      "lon": 113.50834458830137,
      "geoinfo": {
        "display_name": "Nanping, Xiangzhou, Zhuhai, Guangdong Province, 519000, China",
        "road": null,
        "house_number": null,
        "neighbourhood": null,
        "suburb": null,
        "city_district": null,
        "city": "Xiangzhou",
        "state": "Guangdong Province",
        "postcode": "519000",
        "country": "China",
        "country_code": "cn"
      },
      "address": "Macau, Guangdong Province, Macao"
    },
    {
      "lat": 22.19518111718081,
      "lon": 113.53475532496799,
      "geoinfo": {
        "display_name": "火船頭街 Rua das Lorchas, 司打口 Praca Ponte Horta, São Lourenço, Macau, 519000, China",
        "road": "火船頭街 Rua das Lorchas",
        "house_number": null,
        "neighbourhood": null,
        "suburb": "São Lourenço",
        "city_district": null,
        "city": "Macau",
        "state": "Macau",
        "postcode": "519000",
        "country": "China",
        "country_code": "cn"
      },
      "address": "火船頭街 Rua das Lorchas, Macau, Macau, Macao"
    },
    {
      "lat": 22.220603097814287,
      "lon": 113.57011120716778,
      "geoinfo": {
        "display_name": "送客平台, Hong Kong-Zhuhai-Macau Bridge Zhuhai Highway Checkpoint, Gongbei Subdistrict, Xiangzhou, Zhuhai, Guangdong Province, 519000, China",
        "road": null,
        "house_number": null,
        "neighbourhood": null,
        "suburb": "Gongbei Subdistrict",
        "city_district": null,
        "city": "Xiangzhou",
        "state": "Guangdong Province",
        "postcode": "519000",
        "country": "China",
        "country_code": "cn"
      },
      "address": "Gongbei Subdistrict, Macau, Guangdong Province, Macao"
    },
    {
      "lat": 22.163452088450008,
      "lon": 113.5222896841561,
      "geoinfo": {
        "display_name": "富琴道, Hengqin, Guangdong-Macao In-Depth Cooperation Zone in Hengqin, Guangdong Province, 519030, China",
        "road": "富琴道",
        "house_number": null,
        "neighbourhood": null,
        "suburb": "Guangdong-Macao In-Depth Cooperation Zone in Hengqin",
        "city_district": null,
        "city": "Hengqin",
        "state": "Guangdong Province",
        "postcode": "519030",
        "country": "China",
        "country_code": "cn"
      },
      "address": "富琴道, Macau, Guangdong Province, Macao"
    },
    {
      "lat": 22.192633829242894,
      "lon": 113.57608740313593,
      "geoinfo": {
        "display_name": "澳門大橋 Ponte Macau, 新城A區 Zona A dos Novos Aterros Urbanos, Macau, 059000, China",
        "road": "澳門大橋 Ponte Macau",
        "house_number": null,
        "neighbourhood": null,
        "suburb": null,
        "city_district": null,
        "city": "Macau",
        "state": "Macau",
        "postcode": "059000",
        "country": "China",
        "country_code": "cn"
      },
      "address": "澳門大橋 Ponte Macau, Macau, Macau, Macao"
    },
    {
      "lat": 22.20137785262773,
      "lon": 113.54479829145704,
      "geoinfo": {
        "display_name": "連華樓, 18-26, 渡船巷 Travessa da Barca, 新橋 Barca, Santo António, Macau, 519000, China",
        "road": "渡船巷 Travessa da Barca",
        "house_number": "18-26",
        "neighbourhood": null,
        "suburb": "Santo António",
        "city_district": null,
        "city": "Macau",
        "state": "Macau",
        "postcode": "519000",
        "country": "China",
        "country_code": "cn"
      },
      "address": "18-26 渡船巷 Travessa da Barca, Macau, Macau, Macao"
    },
    {
      "lat": 22.185911121319222,
      "lon": 113.56130180797754,
      "geoinfo": {
        "display_name": "Amizade Bridge, 友誼橋大馬路 Avenida da Ponte da Amizade, 黑沙環 Areia Preta, Fatima Parish, Macau, 519020, China",
        "road": "友誼橋大馬路 Avenida da Ponte da Amizade",
        "house_number": null,
        "neighbourhood": null,
        "suburb": "Fatima Parish",
        "city_district": null,
        "city": "Macau",
        "state": "Macau",
        "postcode": "519020",
        "country": "China",
        "country_code": "cn"
      },
      "address": "友誼橋大馬路 Avenida da Ponte da Amizade, Macau, Macau, Macao"
    },
    {
      "lat": 22.1808431293731,
      "lon": 113.57739251044707,
      "geoinfo": {
        "display_name": "Macau Bridge, 澳門橋大馬路 Avenida da Ponte Macau, 新城A區 Zona A dos Novos Aterros Urbanos, Macau, 059000, China",
        "road": "澳門橋大馬路 Avenida da Ponte Macau",
        "house_number": null,
        "neighbourhood": null,
        "suburb": null,
        "city_district": null,
        "city": "Macau",
        "state": "Macau",
        "postcode": "059000",
        "country": "China",
        "country_code": "cn"
      },
      "address": "澳門橋大馬路 Avenida da Ponte Macau, Macau, Macau, Macao"
    },
    {
      "lat": 22.167332494972882,
      "lon": 113.5603616702821,
      "geoinfo": {
        "display_name": "氹仔東北馬路 Estrada Nordeste da Taipa, 北安灣 Baía do Pac On, 花城 Cidade das Flores, Macau, 嘉模堂區 Nossa Senhora do Carmo, Taipa, Macau, 999078, China",
        "road": "氹仔東北馬路 Estrada Nordeste da Taipa",
        "house_number": null,
        "neighbourhood": null,
        "suburb": null,
        "city_district": null,
        "city": "Macau",
        "state": "Macau",
        "postcode": "999078",
        "country": "China",
        "country_code": "cn"
      },
      "address": "氹仔東北馬路 Estrada Nordeste da Taipa, Macau, Macau, Macao"
    },
    {
      "lat": 22.159490487538918,
      "lon": 113.52947628304187,
      "geoinfo": {
        "display_name": "P1栋, 十字门大道, 莲花社区, Hengqin, Guangdong-Macao In-Depth Cooperation Zone in Hengqin, Guangdong Province, 519000, China",
        "road": "十字门大道",
        "house_number": null,
        "neighbourhood": "莲花社区",
        "suburb": "Guangdong-Macao In-Depth Cooperation Zone in Hengqin",
        "city_district": null,
        "city": "Hengqin",
        "state": "Guangdong Province",
        "postcode": "519000",
        "country": "China",
        "country_code": "cn"
      },
      "address": "964, 十字门大道, Macau, 519000 Guangdong Province, Macao"
    },
    {
      "lat": 22.19362499161924,
      "lon": 113.53524644149823,
      "geoinfo": {
        "display_name": "廣發大廈 Edifício Kuong Fat, 7A-9A, 河邊新街 Rua do Almirante Sérgio, 司打口 Praca Ponte Horta, São Lourenço, Macau, 519000, China",
        "road": "河邊新街 Rua do Almirante Sérgio",
        "house_number": "7A-9A",
        "neighbourhood": null,
        "suburb": "São Lourenço",
        "city_district": null,
        "city": "Macau",
        "state": "Macau",
        "postcode": "519000",
        "country": "China",
        "country_code": "cn"
      },
      "address": "7A-9A, 河邊新街 Rua do Almirante Sérgio, Macau, 519000 Macau, Macao"
    },
    {
      "lat": 22.157843621690205,
      "lon": 113.53613594529985,
      "geoinfo": {
        "display_name": "琴海东路, 莲花社区, Hengqin, Guangdong-Macao In-Depth Cooperation Zone in Hengqin, Guangdong Province, 999078, China",
        "road": "琴海东路",
        "house_number": null,
        "neighbourhood": "莲花社区",
        "suburb": "Guangdong-Macao In-Depth Cooperation Zone in Hengqin",
        "city_district": null,
        "city": "Hengqin",
        "state": "Guangdong Province",
        "postcode": "999078",
        "country": "China",
        "country_code": "cn"
      },
      "address": "970, 琴海东路, Macau, 999078 Guangdong Province, Macao"
    },
    {
      "lat": 22.164457377965707,
      "lon": 113.52778665450639,
      "geoinfo": {
        "display_name": "横琴金融传媒中心, 荣珠道, Hengqin, Guangdong-Macao In-Depth Cooperation Zone in Hengqin, Xiangzhou, Zhuhai, Guangdong Province, 519000, China",
        "road": "荣珠道",
        "house_number": null,
        "neighbourhood": null,
        "suburb": "Guangdong-Macao In-Depth Cooperation Zone in Hengqin",
        "city_district": null,
        "city": "Xiangzhou",
        "state": "Guangdong Province",
        "postcode": "519000",
        "country": "China",
        "country_code": "cn"
      },
      "address": "319, 荣珠道, Macau, 519000 Guangdong Province, Macao"
    },
    {
      "lat": 22.21536258677887,
      "lon": 113.55124702514985,
      "geoinfo": {
        "display_name": "馬場北大馬路 Avenida Norte do Hipódromo, 馬場 Hipódromo, Fatima Parish, Macau, 519020, China",
        "road": "馬場北大馬路 Avenida Norte do Hipódromo",
        "house_number": null,
        "neighbourhood": null,
        "suburb": "Fatima Parish",
        "city_district": null,
        "city": "Macau",
        "state": "Macau",
        "postcode": "519020",
        "country": "China",
        "country_code": "cn"
      },
      "address": "008, 馬場北大馬路 Avenida Norte do Hipódromo, Macau, 519020 Macau, Macao"
    },
    {
      "lat": 22.180478736490823,
      "lon": 113.54731321995776,
      "geoinfo": {
        "display_name": "巴士停泊區 (澳巴) Zona de Estacionamento para Ônibus (TCM), 孫逸仙大馬路 Avenida Dr. Sun Yat-Sen, New Urban Zone Area B, Sé, Macau, 519000, China",
        "road": "孫逸仙大馬路 Avenida Dr. Sun Yat-Sen",
        "house_number": null,
        "neighbourhood": null,
        "suburb": "Sé",
        "city_district": null,
        "city": "Macau",
        "state": "Macau",
        "postcode": "519000",
        "country": "China",
        "country_code": "cn"
      },
      "address": "659, 孫逸仙大馬路 Avenida Dr. Sun Yat-Sen, Macau, 519000 Macau, Macao"
    },
    {
      "lat": 22.183103273724225,
      "lon": 113.54183798198001,
      "geoinfo": {
        "display_name": "孫逸仙大馬路 Avenida Dr. Sun Yat-Sen, New Urban Zone Area B, Sé, Macau, 519000, China",
        "road": "孫逸仙大馬路 Avenida Dr. Sun Yat-Sen",
        "house_number": null,
        "neighbourhood": null,
        "suburb": "Sé",
        "city_district": null,
        "city": "Macau",
        "state": "Macau",
        "postcode": "519000",
        "country": "China",
        "country_code": "cn"
      },
      "address": "084, 孫逸仙大馬路 Avenida Dr. Sun Yat-Sen, Macau, 519000 Macau, Macao"
    },
    {
      "lat": 22.21297642934785,
      "lon": 113.50767303606423,
      "geoinfo": {
        "display_name": "Nanping, Xiangzhou, Zhuhai, Guangdong Province, 519000, China",
        "road": null,
        "house_number": null,
        "neighbourhood": null,
        "suburb": null,
        "city_district": null,
        "city": "Xiangzhou",
        "state": "Guangdong Province",
        "postcode": "519000",
        "country": "China",
        "country_code": "cn"
      },
      "address": "998, Macau, 519000 Guangdong Province, Macao"
    },
    {
      "lat": 22.18787201689376,
      "lon": 113.5541909492548,
      "geoinfo": {
        "display_name": "孫逸仙大馬路 Avenida Dr. Sun Yat-Sen, 新口岸新填海區(皇朝區) Zona Nova de Aterros do Porto Exterior, Sé, Macau, 519000, China",
        "road": "孫逸仙大馬路 Avenida Dr. Sun Yat-Sen",
        "house_number": null,
        "neighbourhood": null,
        "suburb": "Sé",
        "city_district": null,
        "city": "Macau",
        "state": "Macau",
        "postcode": "519000",
        "country": "China",
        "country_code": "cn"
      },
      "address": "615, 孫逸仙大馬路 Avenida Dr. Sun Yat-Sen, Macau, 519000 Macau, Macao"
    }
  ],
  "updated_at": "2025-10-19T04:22:38.945916+00:00",
  "_kind": "geo_samples"
}