{
  "country_code": "MO",
  "country": "Macao",
  "city": "Taipa",
  "geonameid": 1821263,
  "target_addresses": 20,
  "samples": [
    {
      "lat": 22.165280450475517,
      "lon": 113.56303487317238,
      "geoinfo": {
        "display_name": "友誼大橋 Ponte da Amizade, 北安灣 Baía do Pac On, Macau, 嘉模堂區 Nossa Senhora do Carmo, Taipa, Macau, 999078, China",
        "road": "友誼大橋 Ponte da Amizade",
        "house_number": null,
        "neighbourhood": null,
        "suburb": null,
        "city_district": null,
        "city": "Macau",
        "state": "Macau",
        "postcode": "999078",
        "country": "China",
        "country_code": "cn"
      },
      "address": "友誼大橋 Ponte da Amizade, Taipa, Macau, Macao"
    },
    {
      "lat": 22.159578844350243,
      "lon": 113.58597507309806,
      "geoinfo": {
        "display_name": "北安港大馬路 Avenida do Porto de Pac On, New Urban Zone Area E2, Macau, 嘉模堂區 Nossa Senhora do Carmo, Taipa, Macau, 999078, China",
        "road": "北安港大馬路 Avenida do Porto de Pac On",
        "house_number": null,
        "neighbourhood": null,
        "suburb": null,
        "city_district": null,
        "city": "Macau",
        "state": "Macau",
        "postcode": "999078",
        "country": "China",
        "country_code": "cn"
      },
      "address": "北安港大馬路 Avenida do Porto de Pac On, Taipa, Macau, Macao"
    },
    {
      "lat": 22.169880658274693,
      "lon": 113.55306329445798,
      "geoinfo": {
        "display_name": "氹仔東北馬路 Estrada Nordeste da Taipa, 北安灣 Baía do Pac On, 花城 Cidade das Flores, Macau, 嘉模堂區 Nossa Senhora do Carmo, Taipa, Macau, 999078, China",
        "road": "氹仔東北馬路 Estrada Nordeste da Taipa",
        "house_number": null,
        "neighbourhood": null,
        "suburb": null,
        "city_district": null,
        "city": "Macau",
        "state": "Macau",
        "postcode": "999078",
        "country": "China",
        "country_code": "cn"
      },
      "address": "氹仔東北馬路 Estrada Nordeste da Taipa, Taipa, Macau, Macao"
    },
    {
      "lat": 22.157296936253022,
      "lon": 113.57308852626907,
      "geoinfo": {
        "display_name": "偉龍馬路 Avenida Wai Long, 北安 Pac On, Macau, 嘉模堂區 Nossa Senhora do Carmo, Taipa, Macau, 999078, China",
        "road": "偉龍馬路 Avenida Wai Long",
        "house_number": null,
        "neighbourhood": null,
        "suburb": null,
        "city_district": null,
        "city": "Macau",
        "state": "Macau",
        "postcode": "999078",
        "country": "China",
        "country_code": "cn"
      },
      "address": "偉龍馬路 Avenida Wai Long, Taipa, Macau, Macao"
    },
    {
      "lat": 22.16827382173743,
      "lon": 113.57464377735795,
      "geoinfo": {
        "display_name": "北安碼頭街 Rua do Cais de Pac On, New Urban Zone Area E1, Macau, 嘉模堂區 Nossa Senhora do Carmo, Taipa, Macau, 999078, China",
        "road": "北安碼頭街 Rua do Cais de Pac On",
        "house_number": null,
        "neighbourhood": null,
        "suburb": null,
        "city_district": null,
        "city": "Macau",
        "state": "Macau",
        "postcode": "999078",
        "country": "China",
        "country_code": "cn"
      },
      "address": "北安碼頭街 Rua do Cais de Pac On, Taipa, Macau, Macao"
    },
    {
      "lat": 22.179725491189288,
      "lon": 113.53245498981303,
      "geoinfo": {
        "display_name": "西灣大橋下層車道 Tabuleiro Inferior da Ponte de Sai Van, Sé, Macau, 嘉模堂區 Nossa Senhora do Carmo, Taipa, Macau, 519000, China",
        "road": "西灣大橋下層車道 Tabuleiro Inferior da Ponte de Sai Van",
        "house_number": null,
        "neighbourhood": null,
        "suburb": "Sé",
        "city_district": null,
        "city": "Macau",
        "state": "Macau",
        "postcode": "519000",
        "country": "China",
        "country_code": "cn"
      },
      "address": "西灣大橋下層車道 Tabuleiro Inferior da Ponte de Sai Van, Taipa, Macau, Macao"
    },
    {
      "lat": 22.18730316596888,
      "lon": 113.56546802885802,
      "geoinfo": {
        "display_name": "Amizade Bridge, 北安大馬路 Estrada de Pac On, 北安灣 Baía do Pac On, Macau, 嘉模堂區 Nossa Senhora do Carmo, Taipa, Macau, 999078, China",
        "road": "北安大馬路 Estrada de Pac On",
        "house_number": null,
        "neighbourhood": null,
        "suburb": null,
        "city_district": null,
        "city": "Macau",
        "state": "Macau",
        "postcode": "999078",
        "country": "China",
        "country_code": "cn"
      },
      "address": "北安大馬路 Estrada de Pac On, Taipa, Macau, Macao"
    },
    {
      "lat": 22.15837320197363,
      "lon": 113.57119718108842,
      "geoinfo": {
        "display_name": "雞頸馬路 Estrada da Ponta da Cabrita, 北安 Pac On, 松樹尾 Chun Su Mei, Macau, 嘉模堂區 Nossa Senhora do Carmo, Taipa, Macau, 999078, China",
        "road": "雞頸馬路 Estrada da Ponta da Cabrita",
        "house_number": null,
        "neighbourhood": null,
        "suburb": null,
        "city_district": null,
        "city": "Macau",
        "state": "Macau",
        "postcode": "999078",
        "country": "China",
        "country_code": "cn"
      },
      "address": "雞頸馬路 Estrada da Ponta da Cabrita, Taipa, Macau, Macao"
    },
    {
      "lat": 22.17657860912739,
      "lon": 113.58966381678832,
      "geoinfo": {
        "display_name": "New Urban Zone Area E2, 嘉模堂區 Nossa Senhora do Carmo, Taipa, Macau, 999078, China",
        "road": null,
        "house_number": null,
        "neighbourhood": null,
        "suburb": null,
        "city_district": null,
        "city": null,
        "state": "Macau",
        "postcode": "999078",
        "country": "China",
        "country_code": "cn"
      },
      "address": "Taipa, Macau, Macao"
    },
    {
      "lat": 22.143673530878957,
      "lon": 113.56181477612509,
      "geoinfo": {
        "display_name": "The Parisian Macau, 路氹城大馬路 Avenida de Cotai, Macau, Cotai Landfill Zone, Macau, 999078, China",
        "road": "路氹城大馬路 Avenida de Cotai",
        "house_number": null,
        "neighbourhood": null,
        "suburb": null,
        "city_district": null,
        "city": "Macau",
        "state": "Macau",
        "postcode": "999078",
        "country": "China",
        "country_code": "cn"
      },
      "address": "路氹城大馬路 Avenida de Cotai, Taipa, Macau, Macao"
    },
    {
      "lat": 22.153287249185528,
      "lon": 113.54870096333462,
      "geoinfo": {
        "display_name": "東亞運大馬路 Avenida dos Jogos da Ásia Oriental, Taipa Old Village, 花城 Cidade das Flores, Macau, 嘉模堂區 Nossa Senhora do Carmo, Taipa, Macau, 999078, China",
        "road": "東亞運大馬路 Avenida dos Jogos da Ásia Oriental",
        "house_number": null,
        "neighbourhood": null,
        "suburb": null,
        "city_district": null,
        "city": "Macau",
        "state": "Macau",
        "postcode": "999078",
        "country": "China",
        "country_code": "cn"
      },
      "address": "東亞運大馬路 Avenida dos Jogos da Ásia Oriental, Taipa, Macau, Macao"
    },
    {
      "lat": 22.178766749604634,
      "lon": 113.54869475608224,
      "geoinfo": {
        "display_name": "巴士停泊區 (澳巴) Zona de Estacionamento para Ônibus (TCM), 孫逸仙大馬路 Avenida Dr. Sun Yat-Sen, New Urban Zone Area B, Sé, Macau, 519000, China",
        "road": "孫逸仙大馬路 Avenida Dr. Sun Yat-Sen",
        "house_number": null,
        "neighbourhood": null,
        "suburb": "Sé",
        "city_district": null,
        "city": "Macau",
        "state": "Macau",
        "postcode": "519000",
        "country": "China",
        "country_code": "cn"
      },
      "address": "孫逸仙大馬路 Avenida Dr. Sun Yat-Sen, Taipa, Macau, Macao"
    },
    {
      "lat": 22.17909387432653,
      "lon": 113.53268374066376,
      "geoinfo": {
        "display_name": "西灣大橋 Ponte de Sai Van, Sé, Macau, 519000, China",
        "road": "西灣大橋 Ponte de Sai Van",
        "house_number": null,
        "neighbourhood": null,
        "suburb": "Sé",
        "city_district": null,
        "city": "Macau",
        "state": "Macau",
        "postcode": "519000",
        "country": "China",
        "country_code": "cn"
      },
      "address": "西灣大橋 Ponte de Sai Van, Taipa, Macau, Macao"
    },
    {
      "lat": 22.154443584910116,
      "lon": 113.55684249624935,
      "geoinfo": {
        "display_name": "39AA, 消防局前地 Largo dos Bombeiros, Taipa Old Village, 花城 Cidade das Flores, Macau, 嘉模堂區 Nossa Senhora do Carmo, Taipa, Macau, 999078, China",
        "road": "消防局前地 Largo dos Bombeiros",
        "house_number": "39AA",
        "neighbourhood": null,
        "suburb": null,
        "city_district": null,
        "city": "Macau",
        "state": "Macau",
        "postcode": "999078",
        "country": "China",
        "country_code": "cn"
      },
      "address": "39AA 消防局前地 Largo dos Bombeiros, Taipa, Macau, Macao"
    },
    {
      "lat": 22.1306985772304,
      "lon": 113.54581892333681,
      "geoinfo": {
        "display_name": "University of Macau, Free Apricot Street, Macau, 嘉模堂區 Nossa Senhora do Carmo, Taipa, Macau, 999078, China",
        "road": "Free Apricot Street",
        "house_number": null,
        "neighbourhood": null,
        "suburb": null,
        "city_district": null,
        "city": "Macau",
        "state": "Macau",
        "postcode": "999078",
        "country": "China",
        "country_code": "cn"
      },
      "address": "Free Apricot Street, Taipa, Macau, Macao"
    },
    {
      "lat": 22.128434505709915,
      "lon": 113.54924060885128,
      "geoinfo": {
        "display_name": "Yacht Berthing Area in Coloane, 蓮花單車徑 Pista de Bicicletas \"Flor de Lótus\", Coloane Village, Cotai Landfill Zone, Coloane, Macau, 999078, China",
        "road": "蓮花單車徑 Pista de Bicicletas \"Flor de Lótus\"",
        "house_number": null,
        "neighbourhood": null,
        "suburb": null,
        "city_district": null,
        "city": "Coloane Village",
        "state": "Macau",
        "postcode": "999078",
        "country": "China",
        "country_code": "cn"
      },
      "address": "蓮花單車徑 Pista de Bicicletas \"Flor de Lótus\", Taipa, Macau, Macao"
    },
    {
      "lat": 22.195924967737284,
      "lon": 113.57118249645211,
      "geoinfo": {
        "display_name": "澳門大橋 Ponte Macau, 新城A區 Zona A dos Novos Aterros Urbanos, Macau, 059000, China",
        "road": "澳門大橋 Ponte Macau",
        "house_number": null,
        "neighbourhood": null,
        "suburb": null,
        "city_district": null,
        "city": "Macau",
        "state": "Macau",
        "postcode": "059000",
        "country": "China",
        "country_code": "cn"
      },
      "address": "澳門大橋 Ponte Macau, Taipa, Macau, Macao"
    },
    {
      "lat": 22.14950275613421,
      "lon": 113.5465978362813,
      "geoinfo": {
        "display_name": "東亞運海濱街 Rua Marginal dos Jogos da Ásia Oriental, Taipa Old Village, 花城 Cidade das Flores, Macau, 嘉模堂區 Nossa Senhora do Carmo, Taipa, Macau, 999078, China",
        "road": "東亞運海濱街 Rua Marginal dos Jogos da Ásia Oriental",
        "house_number": null,
        "neighbourhood": null,
        "suburb": null,
        "city_district": null,
        "city": "Macau",
        "state": "Macau",
        "postcode": "999078",
        "country": "China",
        "country_code": "cn"
      },
      "address": "東亞運海濱街 Rua Marginal dos Jogos da Ásia Oriental, Taipa, Macau, Macao"
    },
    {
      "lat": 22.166045534686628,
      "lon": 113.55685903463535,
      "geoinfo": {
        "display_name": "龍威臺 Long Wai Toi, 767, 氹仔東北馬路 Estrada Nordeste da Taipa, 北安灣 Baía do Pac On, 花城 Cidade das Flores, Macau, 嘉模堂區 Nossa Senhora do Carmo, Taipa, Macau, 999078, China",
        "road": "氹仔東北馬路 Estrada Nordeste da Taipa",
        "house_number": "767",
        "neighbourhood": null,
        "suburb": null,
        "city_district": null,
        "city": "Macau",
        "state": "Macau",
        "postcode": "999078",
        "country": "China",
        "country_code": "cn"
      },
      "address": "767 氹仔東北馬路 Estrada Nordeste da Taipa, Taipa, Macau, Macao"
    },
    {
      "lat": 22.15722198131474,
      "lon": 113.56124441589397,
      "geoinfo": {
        "display_name": "97, 珍珠圍 Beco da Pérola, Taipa Old Village, 花城 Cidade das Flores, Macau, 嘉模堂區 Nossa Senhora do Carmo, Taipa, Macau, 999078, China",
        "road": "珍珠圍 Beco da Pérola",
        "house_number": "97",
        "neighbourhood": null,
        "suburb": null,
        "city_district": null,
        "city": "Macau",
        "state": "Macau",
        "postcode": "999078",
        "country": "China",
        "country_code": "cn"
      },
      "address": "97 珍珠圍 Beco da Pérola, Taipa, Macau, Macao"
    },
    {
      "lat": 22.17285894886451,
      "lon": 113.57774912436926,
      "geoinfo": {
        "display_name": "北安碼頭街 Rua do Cais de Pac On, New Urban Zone Area E1, Macau, 嘉模堂區 Nossa Senhora do Carmo, Taipa, Macau, 999078, China",
        "road": "北安碼頭街 Rua do Cais de Pac On",
        "house_number": null,
        "neighbourhood": null,
        "suburb": null,
        "city_district": null,
        "city": "Macau",
        "state": "Macau",
        "postcode": "999078",
        "country": "China",
        "country_code": "cn"
      },
      "address": "048, 北安碼頭街 Rua do Cais de Pac On, Taipa, 999078 Macau, Macao"
    },
    {
      "lat": 22.164132813857712,
      "lon": 113.53954946546976,
      "geoinfo": {
        "display_name": "Leisure Area of Taipa Waterfront (Cycle Track), 氹仔市中心 Centro de Taipa, Macau, 嘉模堂區 Nossa Senhora do Carmo, Taipa, Macau, 999078, China",
        "road": "Leisure Area of Taipa Waterfront (Cycle Track)",
        "house_number": null,
        "neighbourhood": null,
        "suburb": null,
        "city_district": null,
        "city": "Macau",
        "state": "Macau",
        "postcode": "999078",
        "country": "China",
        "country_code": "cn"
      },
      "address": "199, Leisure Area of Taipa Waterfront (Cycle Track), Taipa, 999078 Macau, Macao"
    },
    {
      "lat": 22.16245149671962,
      "lon": 113.56155333205103,
      "geoinfo": {
        "display_name": "高勵雅馬路行人天橋 Passagem Superior na Estrada Almirante Magalhães Correia, 北安灣 Baía do Pac On, 花城 Cidade das Flores, Macau, 嘉模堂區 Nossa Senhora do Carmo, Taipa, Macau, 999078, China",
        "road": "高勵雅馬路行人天橋 Passagem Superior na Estrada Almirante Magalhães Correia",
        "house_number": null,
        "neighbourhood": null,
        "suburb": null,
        "city_district": null,
        "city": "Macau",
        "state": "Macau",
        "postcode": "999078",
        "country": "China",
        "country_code": "cn"
      },
      "address": "039, 高勵雅馬路行人天橋 Passagem Superior na Estrada Almirante Magalhães Correia, Taipa, 999078 Macau, Macao"
    },
    {
      "lat": 22.15664849637275,
      "lon": 113.54287879414528,
      "geoinfo": {
        "display_name": "盧伯德圓形地 Rotunda Tenente P.J. da Silva Loureiro, Macau, 嘉模堂區 Nossa Senhora do Carmo, Taipa, Macau, 999078, China",
        "road": "盧伯德圓形地 Rotunda Tenente P.J. da Silva Loureiro",
        "house_number": null,
        "neighbourhood": null,
        "suburb": null,
        "city_district": null,
        "city": "Macau",
        "state": "Macau",
        "postcode": "999078",
        "country": "China",
        "country_code": "cn"
      },
      "address": "608, 盧伯德圓形地 Rotunda Tenente P.J. da Silva Loureiro, Taipa, 999078 Macau, Macao"
    }
  ],
  "updated_at": "2025-10-19T03:55:10.049567+00:00",
  "_kind": "geo_samples"
}