{
  "country_code": "SE",
  "country": "Sweden",
  "city": "Kristianstad",
  "geonameid": 2699310,
  "target_addresses": 3,
  "samples": [
    {
      "lat": 56.054538556905484,
      "lon": 14.180215692776637,
      "geoinfo": {
        "display_name": "Diakonvägen, Kulltorp, Kristianstad, Kristianstads kommun, Skåne County, 291 44, Sweden",
        "road": "Diakonvägen",
        "house_number": null,
        "neighbourhood": "Kulltorp",
        "suburb": null,
        "city_district": null,
        "city": "Kristianstad",
        "state": null,
        "postcode": "291 44",
        "country": "Sweden",
        "country_code": "se"
      },
      "address": "Diakonvägen, Kristianstad, Sweden"
    },
    {
      "lat": 56.062691477231816,
      "lon": 14.202983556391715,
      "geoinfo": {
        "display_name": "Balsbyvägen, Nosaby, Balstorp, Balsby, Kristianstads kommun, Skåne County, 291 94, Sweden",
        "road": "Balsbyvägen",
        "house_number": null,
        "neighbourhood": "Nosaby",
        "suburb": null,
        "city_district": null,
        "city": "Balsby",
        "state": null,
        "postcode": "291 94",
        "country": "Sweden",
        "country_code": "se"
      },
      "address": "531, Balsbyvägen, 291 94 Kristianstad, Sweden"
    },
    {
      "lat": 56.051896850558634,
      "lon": 14.13943031390259,
      "geoinfo": {
        "display_name": "Lingenäsvägen, Näsby, Kristianstad, Kristianstads kommun, Skåne County, 291 39, Sweden",
        "road": "Lingenäsvägen",
        "house_number": null,
        "neighbourhood": "Näsby",
        "suburb": null,
        "city_district": null,
        "city": "Kristianstad",
        "state": null,
        "postcode": "291 39",
        "country": "Sweden",
        "country_code": "se"
      },
      "address": "Lingenäsvägen, Näsby, Kristianstad, Kristianstads kommun, Skåne County, 291 39, Sweden"
    }
  ],
  "updated_at": "2025-10-19T06:15:16.495627+00:00",
  "_kind": "geo_samples"
}