{
  "country_code": "SE",
  "country": "Sweden",
  "city": "Motala",
  "geonameid": 2690960,
  "target_addresses": 3,
  "samples": [
    {
      "lat": 58.51115264249318,
      "lon": 15.042336648281758,
      "geoinfo": {
        "display_name": "Götgatan, Brinken, Centrum, Motala, Motala kommun, Östergötland County, 591 36, Sweden",
        "road": "Götgatan",
        "house_number": null,
        "neighbourhood": null,
        "suburb": "Centrum",
        "city_district": null,
        "city": "Motala",
        "state": null,
        "postcode": "591 36",
        "country": "Sweden",
        "country_code": "se"
      },
      "address": "Götgatan, Motala, Sweden"
    },
    {
      "lat": 58.51945875530538,
      "lon": 15.000299986174774,
      "geoinfo": {
        "display_name": "Dynudden, Motala, Motala kommun, Östergötland County, 591 32, Sweden",
        "road": "Dynudden",
        "house_number": null,
        "neighbourhood": null,
        "suburb": null,
        "city_district": null,
        "city": "Motala",
        "state": null,
        "postcode": "591 32",
        "country": "Sweden",
        "country_code": "se"
      },
      "address": "Dynudden, Motala, Motala kommun, Östergötland County, 591 32, Sweden"
    },
    {
      "lat": 58.52915725427483,
      "lon": 15.026467638284139,
      "geoinfo": {
        "display_name": "Taltrastvägen, Fors, Motala, Motala kommun, Östergötland County, 591 32, Sweden",
        "road": "Taltrastvägen",
        "house_number": null,
        "neighbourhood": null,
        "suburb": null,
        "city_district": null,
        "city": "Motala",
        "state": null,
        "postcode": "591 32",
        "country": "Sweden",
        "country_code": "se"
      },
      "address": "Taltrastvägen, Fors, Motala, Motala kommun, Östergötland County, 591 32, Sweden"
    }
  ],
  "updated_at": "2025-10-19T06:15:03.864611+00:00",
  "_kind": "geo_samples"
}