{
  "country_code": "MM",
  "country": "Myanmar",
  "city": "Aungban",
  "geonameid": 1328865,
  "target_addresses": 2,
  "samples": [
    {
      "lat": 20.673336868529475,
      "lon": 96.63624481947193,
      "geoinfo": {
        "display_name": "Aungpan, Kalaw Township, Kalaw District, Shan State, 06022, Myanmar",
        "road": null,
        "house_number": null,
        "neighbourhood": null,
        "suburb": null,
        "city_district": null,
        "city": "Aungpan",
        "state": "Shan State",
        "postcode": "06022",
        "country": "Myanmar",
        "country_code": "mm"
      },
      "address": "Aungban, Shan State, Myanmar"
    },
    {
      "lat": 20.66750368440416,
      "lon": 96.61118249789905,
      "geoinfo": {
        "display_name": "Aungpan, Kalaw Township, Kalaw District, Shan State, 06022, Myanmar",
        "road": null,
        "house_number": null,
        "neighbourhood": null,
        "suburb": null,
        "city_district": null,
        "city": "Aungpan",
        "state": "Shan State",
        "postcode": "06022",
        "country": "Myanmar",
        "country_code": "mm"
      },
      "address": "683, Aungpan, Kalaw Township, Kalaw District, Shan State, 06022, Myanmar"
    },
    {
      "lat": 20.61782600402068,
      "lon": 96.63524648592814,
      "geoinfo": {
        "display_name": "Kyauk Su, Kalaw Township, Kalaw District, Shan State, Myanmar",
        "road": null,
        "house_number": null,
        "neighbourhood": null,
        "suburb": null,
        "city_district": null,
        "city": "Kyauk Su",
        "state": "Shan State",
        "postcode": null,
        "country": "Myanmar",
        "country_code": "mm"
      },
      "address": "750, Kyauk Su, Kalaw Township, Kalaw District, 98004 Shan State, Myanmar"
    }
  ],
  "updated_at": "2025-10-19T06:00:23.303220+00:00",
  "_kind": "geo_samples"
}