{
  "country_code": "MM",
  "country": "Myanmar",
  "city": "Dawei",
  "geonameid": 1293625,
  "target_addresses": 2,
  "samples": [
    {
      "lat": 14.08388866919053,
      "lon": 98.17268358180863,
      "geoinfo": {
        "display_name": "Ka Myaw Gyi, Launglon Township, Dawei District, Tanintharyi Region, 14011, Myanmar",
        "road": null,
        "house_number": null,
        "neighbourhood": null,
        "suburb": null,
        "city_district": null,
        "city": "Ka Myaw Gyi",
        "state": "Tanintharyi Region",
        "postcode": "14011",
        "country": "Myanmar",
        "country_code": "mm"
      },
      "address": "Dawei, Tanintharyi Region, Myanmar"
    },
    {
      "lat": 14.101058691762352,
      "lon": 98.19230780767957,
      "geoinfo": {
        "display_name": "Zay Kalay Street, Sin Seik Ward, Dawei, Dawei Township, Dawei District, Tanintharyi Region, 14011, Myanmar",
        "road": "Zay Kalay Street",
        "house_number": null,
        "neighbourhood": null,
        "suburb": null,
        "city_district": null,
        "city": "Dawei",
        "state": "Tanintharyi Region",
        "postcode": "14011",
        "country": "Myanmar",
        "country_code": "mm"
      },
      "address": "Zay Kalay Street, Dawei, Tanintharyi Region, Myanmar"
    },
    {
      "lat": 14.117569255801351,
      "lon": 98.16432031961375,
      "geoinfo": {
        "display_name": "Thauk Kyar Pyin, Launglon Township, Dawei District, Tanintharyi Region, 14011, Myanmar",
        "road": null,
        "house_number": null,
        "neighbourhood": null,
        "suburb": null,
        "city_district": null,
        "city": "Thauk Kyar Pyin",
        "state": "Tanintharyi Region",
        "postcode": "14011",
        "country": "Myanmar",
        "country_code": "mm"
      },
      "address": "429, Thauk Kyar Pyin, Launglon Township, Dawei District, Tanintharyi Region, 14011, Myanmar"
    },
    {
      "lat": 14.064960202244752,
      "lon": 98.16065541794477,
      "geoinfo": {
        "display_name": "Minyat, Aung Thitsar Street, Oe Loke Ward, Dawei, Dawei Township, Dawei District, Tanintharyi Region, 14011, Myanmar",
        "road": "Aung Thitsar Street",
        "house_number": null,
        "neighbourhood": null,
        "suburb": null,
        "city_district": null,
        "city": "Dawei",
        "state": "Tanintharyi Region",
        "postcode": "14011",
        "country": "Myanmar",
        "country_code": "mm"
      },
      "address": "241, Aung Thitsar Street, Dawei, 14011 Tanintharyi Region, Myanmar"
    }
  ],
  "updated_at": "2025-10-19T05:59:27.731731+00:00",
  "_kind": "geo_samples"
}