{
  "country_code": "MM",
  "country": "Myanmar",
  "city": "Magway",
  "geonameid": 1312609,
  "target_addresses": 2,
  "samples": [
    {
      "lat": 20.162885192258308,
      "lon": 94.92165823289281,
      "geoinfo": {
        "display_name": "Myo Shaung Road, Thein Gar Gi Ri Ward, Tha Yet Pin Kwet, Magway Township, Magway District, Magway, 04011, Myanmar",
        "road": "Myo Shaung Road",
        "house_number": null,
        "neighbourhood": null,
        "suburb": null,
        "city_district": null,
        "city": "Tha Yet Pin Kwet",
        "state": "Magway",
        "postcode": "04011",
        "country": "Myanmar",
        "country_code": "mm"
      },
      "address": "Myo Shaung Road, Magway, Magway, Myanmar"
    },
    {
      "lat": 20.15784229316907,
      "lon": 94.88602188736935,
      "geoinfo": {
        "display_name": "စေတီ, Minbu-ChaungPhyu-TheeGone Street, Minbuu, Htan Pin, Minbu Township, Minbu District, Magway, Myanmar",
        "road": "Minbu-ChaungPhyu-TheeGone Street",
        "house_number": null,
        "neighbourhood": null,
        "suburb": null,
        "city_district": null,
        "city": "Htan Pin",
        "state": "Magway",
        "postcode": null,
        "country": "Myanmar",
        "country_code": "mm"
      },
      "address": "Minbu-ChaungPhyu-TheeGone Street, Magway, Magway, Myanmar"
    },
    {
      "lat": 20.12599686651423,
      "lon": 94.9465575627405,
      "geoinfo": {
        "display_name": "13 Street, Aung Myit Tar Ward, Magway, Magway Township, Magway District, Magway, 04011, Myanmar",
        "road": "13 Street",
        "house_number": null,
        "neighbourhood": null,
        "suburb": null,
        "city_district": null,
        "city": "Magway",
        "state": "Magway",
        "postcode": "04011",
        "country": "Myanmar",
        "country_code": "mm"
      },
      "address": "13 Street, Aung Myit Tar Ward, Magway, Magway Township, Magway District, Magway, 04011, Myanmar"
    },
    {
      "lat": 20.1669949181086,
      "lon": 94.92586152064914,
      "geoinfo": {
        "display_name": "Thein Gar Gi Ri Ward, Nan Kat Kyun, Magway Township, Magway District, Magway, 04011, Myanmar",
        "road": null,
        "house_number": null,
        "neighbourhood": null,
        "suburb": null,
        "city_district": null,
        "city": "Nan Kat Kyun",
        "state": "Magway",
        "postcode": "04011",
        "country": "Myanmar",
        "country_code": "mm"
      },
      "address": "330, Thein Gar Gi Ri Ward, Nan Kat Kyun, Magway Township, Magway District, Magway, 04011, Myanmar"
    }
  ],
  "updated_at": "2025-10-19T06:03:54.181613+00:00",
  "_kind": "geo_samples"
}