{
  "country_code": "MM",
  "country": "Myanmar",
  "city": "Minbu",
  "geonameid": 1309289,
  "target_addresses": 2,
  "samples": [
    {
      "lat": 20.173566783985777,
      "lon": 94.847178101553,
      "geoinfo": {
        "display_name": "လျှပ်စစ်ဝန်ထမ်းအိမ်ရာ, Minbu Township, Minbu District, Magway, Myanmar",
        "road": null,
        "house_number": null,
        "neighbourhood": null,
        "suburb": null,
        "city_district": null,
        "city": "လျှပ်စစ်ဝန်ထမ်းအိမ်ရာ",
        "state": "Magway",
        "postcode": null,
        "country": "Myanmar",
        "country_code": "mm"
      },
      "address": "Minbu, Magway, Myanmar"
    },
    {
      "lat": 20.148969488374917,
      "lon": 94.851194730315,
      "geoinfo": {
        "display_name": "Minbu-ChaungPhyu-TheeGone-Street, Chaung Hpyu, Maung Ma Kan, Minbu Township, Minbu District, Magway, Myanmar",
        "road": "Minbu-ChaungPhyu-TheeGone-Street",
        "house_number": null,
        "neighbourhood": null,
        "suburb": null,
        "city_district": null,
        "city": "Chaung Hpyu",
        "state": "Magway",
        "postcode": null,
        "country": "Myanmar",
        "country_code": "mm"
      },
      "address": "Minbu-ChaungPhyu-TheeGone-Street, Minbu, Magway, Myanmar"
    },
    {
      "lat": 20.198389208497286,
      "lon": 94.84778562650773,
      "geoinfo": {
        "display_name": "မန်းအိမ်ရာ (၃), Minbu Township, Minbu District, Magway, Myanmar",
        "road": null,
        "house_number": null,
        "neighbourhood": null,
        "suburb": null,
        "city_district": null,
        "city": "မန်းအိမ်ရာ (၃)",
        "state": "Magway",
        "postcode": null,
        "country": "Myanmar",
        "country_code": "mm"
      },
      "address": "မန်းအိမ်ရာ (၃), Minbu Township, Minbu District, 48286 Magway, Myanmar"
    },
    {
      "lat": 20.224202753868976,
      "lon": 94.86927946217438,
      "geoinfo": {
        "display_name": "NH18, Minbuu, Auk Kyaung, Minbu Township, Minbu District, Magway, Myanmar",
        "road": "NH18",
        "house_number": null,
        "neighbourhood": null,
        "suburb": null,
        "city_district": null,
        "city": "Auk Kyaung",
        "state": "Magway",
        "postcode": null,
        "country": "Myanmar",
        "country_code": "mm"
      },
      "address": "NH18, Minbu, 40997 Magway, Myanmar"
    }
  ],
  "updated_at": "2025-10-19T06:03:39.713657+00:00",
  "_kind": "geo_samples"
}