{
  "country_code": "MM",
  "country": "Myanmar",
  "city": "Mu-se",
  "geonameid": 1308318,
  "target_addresses": 2,
  "samples": [
    {
      "lat": 24.0149949771624,
      "lon": 97.90260126873791,
      "geoinfo": {
        "display_name": "No 45 Bend New Quarter, Muse, Shan State, Myanmar",
        "road": null,
        "house_number": null,
        "neighbourhood": "No 45 Bend New Quarter",
        "suburb": null,
        "city_district": null,
        "city": "Muse",
        "state": "Shan State",
        "postcode": null,
        "country": "Myanmar",
        "country_code": "mm"
      },
      "address": "No 45 Bend New Quarter, Mu-se, Shan State, Myanmar"
    },
    {
      "lat": 24.008700597846516,
      "lon": 97.92934974504716,
      "geoinfo": {
        "display_name": "Muse, Shan State, Myanmar",
        "road": null,
        "house_number": null,
        "neighbourhood": null,
        "suburb": null,
        "city_district": null,
        "city": "Muse",
        "state": "Shan State",
        "postcode": null,
        "country": "Myanmar",
        "country_code": "mm"
      },
      "address": "Mu-se, Shan State, Myanmar"
    },
    {
      "lat": 24.01567772497112,
      "lon": 97.94005043551435,
      "geoinfo": {
        "display_name": "Wein Mai, Shan State, Myanmar",
        "road": null,
        "house_number": null,
        "neighbourhood": null,
        "suburb": null,
        "city_district": null,
        "city": "Wein Mai",
        "state": "Shan State",
        "postcode": null,
        "country": "Myanmar",
        "country_code": "mm"
      },
      "address": "698, Mu-se, 04249 Shan State, Myanmar"
    },
    {
      "lat": 23.98424573134638,
      "lon": 97.94350560615132,
      "geoinfo": {
        "display_name": "Muse, Shan State, Myanmar",
        "road": null,
        "house_number": null,
        "neighbourhood": null,
        "suburb": null,
        "city_district": null,
        "city": "Muse",
        "state": "Shan State",
        "postcode": null,
        "country": "Myanmar",
        "country_code": "mm"
      },
      "address": "268, Mu-se, 40832 Shan State, Myanmar"
    }
  ],
  "updated_at": "2025-10-19T05:38:45.097434+00:00",
  "_kind": "geo_samples"
}