{
  "country_code": "MM",
  "country": "Myanmar",
  "city": "Nay Pyi Taw",
  "geonameid": 6611854,
  "target_addresses": 2,
  "samples": [
    {
      "lat": 19.74314760818532,
      "lon": 96.16708881774251,
      "geoinfo": {
        "display_name": "Aung Zabu Ward, Gon Min Inn, Zabuthiri Township, Pyinmana District, Naypyitaw Union Territory, 15012, Myanmar",
        "road": null,
        "house_number": null,
        "neighbourhood": null,
        "suburb": null,
        "city_district": null,
        "city": "Gon Min Inn",
        "state": "Naypyitaw Union Territory",
        "postcode": "15012",
        "country": "Myanmar",
        "country_code": "mm"
      },
      "address": "Nay Pyi Taw, Naypyitaw Union Territory, Myanmar"
    },
    {
      "lat": 19.74914101670016,
      "lon": 96.15141765158435,
      "geoinfo": {
        "display_name": "Taw Win Yadanar Rd, Zay Ya Theik Di Ward, Pobbathiri Township, Zeyathiri District, Naypyitaw Union Territory, 15011, Myanmar",
        "road": "Taw Win Yadanar Rd",
        "house_number": null,
        "neighbourhood": null,
        "suburb": null,
        "city_district": "Pobbathiri Township",
        "city": "Zeyathiri District",
        "state": "Naypyitaw Union Territory",
        "postcode": "15011",
        "country": "Myanmar",
        "country_code": "mm"
      },
      "address": "Taw Win Yadanar Rd, Nay Pyi Taw, Naypyitaw Union Territory, Myanmar"
    },
    {
      "lat": 19.745856995237222,
      "lon": 96.15254084735558,
      "geoinfo": {
        "display_name": "Pobbathiri Township, Zeyathiri District, Naypyitaw Union Territory, 15011, Myanmar",
        "road": null,
        "house_number": null,
        "neighbourhood": null,
        "suburb": null,
        "city_district": "Pobbathiri Township",
        "city": "Zeyathiri District",
        "state": "Naypyitaw Union Territory",
        "postcode": "15011",
        "country": "Myanmar",
        "country_code": "mm"
      },
      "address": "402, Pobbathiri Township, Zeyathiri District, Naypyitaw Union Territory, 15011, Myanmar"
    },
    {
      "lat": 19.77561750869922,
      "lon": 96.14572170309857,
      "geoinfo": {
        "display_name": "Pobbathiri Township, Zeyathiri District, Naypyitaw Union Territory, 15011, Myanmar",
        "road": null,
        "house_number": null,
        "neighbourhood": null,
        "suburb": null,
        "city_district": "Pobbathiri Township",
        "city": "Zeyathiri District",
        "state": "Naypyitaw Union Territory",
        "postcode": "15011",
        "country": "Myanmar",
        "country_code": "mm"
      },
      "address": "220, Pobbathiri Township, Zeyathiri District, Naypyitaw Union Territory, 15011, Myanmar"
    }
  ],
  "updated_at": "2025-10-19T04:19:38.487650+00:00",
  "_kind": "geo_samples"
}