{
  "country_code": "MM",
  "country": "Myanmar",
  "city": "Taunggyi",
  "geonameid": 1293960,
  "target_addresses": 7,
  "samples": [
    {
      "lat": 20.75547069123685,
      "lon": 97.03718680074911,
      "geoinfo": {
        "display_name": "Hpa Ye (South), Taunggyi Township, Taunggyi District, Shan State, 06011, Myanmar",
        "road": null,
        "house_number": null,
        "neighbourhood": null,
        "suburb": null,
        "city_district": null,
        "city": "Hpa Ye (South)",
        "state": "Shan State",
        "postcode": "06011",
        "country": "Myanmar",
        "country_code": "mm"
      },
      "address": "Taunggyi, Shan State, Myanmar"
    },
    {
      "lat": 20.764925402463913,
      "lon": 97.04981709743332,
      "geoinfo": {
        "display_name": "East Circular Road, Taunggyi, Taunggyi Township, Taunggyi District, Shan State, 06011, Myanmar",
        "road": "East Circular Road",
        "house_number": null,
        "neighbourhood": null,
        "suburb": null,
        "city_district": null,
        "city": "Taunggyi",
        "state": "Shan State",
        "postcode": "06011",
        "country": "Myanmar",
        "country_code": "mm"
      },
      "address": "East Circular Road, Taunggyi, Shan State, Myanmar"
    },
    {
      "lat": 20.82702086756134,
      "lon": 97.04459080693887,
      "geoinfo": {
        "display_name": "Myay Pyo, Taunggyi Township, Taunggyi District, Shan State, 06011, Myanmar",
        "road": null,
        "house_number": null,
        "neighbourhood": null,
        "suburb": null,
        "city_district": null,
        "city": "Myay Pyo",
        "state": "Shan State",
        "postcode": "06011",
        "country": "Myanmar",
        "country_code": "mm"
      },
      "address": "781, Myay Pyo, Taunggyi Township, Taunggyi District, Shan State, 06011, Myanmar"
    },
    {
      "lat": 20.790037030583,
      "lon": 97.01918081499738,
      "geoinfo": {
        "display_name": "NH27, Taunggyi, Taunggyi Township, Taunggyi District, Shan State, 06011, Myanmar",
        "road": "NH27",
        "house_number": null,
        "neighbourhood": null,
        "suburb": null,
        "city_district": null,
        "city": "Taunggyi",
        "state": "Shan State",
        "postcode": "06011",
        "country": "Myanmar",
        "country_code": "mm"
      },
      "address": "NH27, Taunggyi, Taunggyi Township, Taunggyi District, Shan State, 06011, Myanmar"
    },
    {
      "lat": 20.76264862450167,
      "lon": 97.0318121488488,
      "geoinfo": {
        "display_name": "Taunggyi, Taunggyi Township, Taunggyi District, Shan State, 06011, Myanmar",
        "road": null,
        "house_number": null,
        "neighbourhood": null,
        "suburb": null,
        "city_district": null,
        "city": "Taunggyi",
        "state": "Shan State",
        "postcode": "06011",
        "country": "Myanmar",
        "country_code": "mm"
      },
      "address": "710, Taunggyi, Taunggyi Township, Taunggyi District, Shan State, 06011, Myanmar"
    },
    {
      "lat": 20.774175411560737,
      "lon": 97.0660927832264,
      "geoinfo": {
        "display_name": "Taunggyi, Taunggyi Township, Taunggyi District, Shan State, 06011, Myanmar",
        "road": null,
        "house_number": null,
        "neighbourhood": null,
        "suburb": null,
        "city_district": null,
        "city": "Taunggyi",
        "state": "Shan State",
        "postcode": "06011",
        "country": "Myanmar",
        "country_code": "mm"
      },
      "address": "343, Taunggyi, Taunggyi Township, Taunggyi District, Shan State, 06011, Myanmar"
    },
    {
      "lat": 20.78999460134123,
      "lon": 97.00070865155507,
      "geoinfo": {
        "display_name": "Ayetharyar, Taunggyi Township, Taunggyi District, Shan State, Myanmar",
        "road": null,
        "house_number": null,
        "neighbourhood": null,
        "suburb": null,
        "city_district": null,
        "city": "Ayetharyar",
        "state": "Shan State",
        "postcode": null,
        "country": "Myanmar",
        "country_code": "mm"
      },
      "address": "418, Ayetharyar, Taunggyi Township, Taunggyi District, 03008 Shan State, Myanmar"
    }
  ],
  "updated_at": "2025-10-19T05:45:16.389477+00:00",
  "_kind": "geo_samples"
}