{
  "country_code": "MM",
  "country": "Myanmar",
  "city": "Tedim",
  "geonameid": 11072083,
  "target_addresses": 2,
  "samples": [
    {
      "lat": 23.3808363254174,
      "lon": 93.67000165018679,
      "geoinfo": {
        "display_name": "Teeklui, Tedim Township, Tedim District, Chin, Myanmar",
        "road": null,
        "house_number": null,
        "neighbourhood": null,
        "suburb": null,
        "city_district": null,
        "city": "Teeklui",
        "state": "Chin",
        "postcode": null,
        "country": "Myanmar",
        "country_code": "mm"
      },
      "address": "Tedim, Chin, Myanmar"
    },
    {
      "lat": 23.349884658290616,
      "lon": 93.66894069457392,
      "geoinfo": {
        "display_name": "Sezang, Tedim Township, Tedim District, Chin, Myanmar",
        "road": null,
        "house_number": null,
        "neighbourhood": null,
        "suburb": null,
        "city_district": null,
        "city": "Sezang",
        "state": "Chin",
        "postcode": null,
        "country": "Myanmar",
        "country_code": "mm"
      },
      "address": "233, Sezang, Tedim Township, Tedim District, 62882 Chin, Myanmar"
    },
    {
      "lat": 23.39213466663982,
      "lon": 93.62131087152143,
      "geoinfo": {
        "display_name": "Lailo, Tedim Township, Tedim District, Chin, Myanmar",
        "road": null,
        "house_number": null,
        "neighbourhood": null,
        "suburb": null,
        "city_district": null,
        "city": "Lailo",
        "state": "Chin",
        "postcode": null,
        "country": "Myanmar",
        "country_code": "mm"
      },
      "address": "724, Lailo, Tedim Township, Tedim District, 80057 Chin, Myanmar"
    }
  ],
  "updated_at": "2025-10-19T03:52:40.594087+00:00",
  "_kind": "geo_samples"
}