{
  "country_code": "MM",
  "country": "Myanmar",
  "city": "Thanlyin",
  "geonameid": 1295395,
  "target_addresses": 2,
  "samples": [
    {
      "lat": 16.7968680677727,
      "lon": 96.24124603514954,
      "geoinfo": {
        "display_name": "Thaketa, Botahtaung District, Yangon City, Yangon, Myanmar",
        "road": null,
        "house_number": null,
        "neighbourhood": null,
        "suburb": "Thaketa",
        "city_district": null,
        "city": "Yangon City",
        "state": "Yangon",
        "postcode": null,
        "country": "Myanmar",
        "country_code": "mm"
      },
      "address": "Thaketa, Thanlyin, Yangon, Myanmar"
    },
    {
      "lat": 16.753254230230972,
      "lon": 96.20328169383886,
      "geoinfo": {
        "display_name": "Da Ni Taw, Yangon City, Twantay District, Yangon, 11161, Myanmar",
        "road": null,
        "house_number": null,
        "neighbourhood": null,
        "suburb": null,
        "city_district": null,
        "city": "Yangon City",
        "state": "Yangon",
        "postcode": "11161",
        "country": "Myanmar",
        "country_code": "mm"
      },
      "address": "Thanlyin, Yangon, Myanmar"
    },
    {
      "lat": 16.75008326165703,
      "lon": 96.24515127578009,
      "geoinfo": {
        "display_name": "သံလျင်, Thanlyin, Thanlyin District, Yangon, 11291, Myanmar",
        "road": null,
        "house_number": null,
        "neighbourhood": null,
        "suburb": null,
        "city_district": null,
        "city": "သံလျင်",
        "state": "Yangon",
        "postcode": "11291",
        "country": "Myanmar",
        "country_code": "mm"
      },
      "address": "696, သံလျင်, Thanlyin, Thanlyin District, Yangon, 11291, Myanmar"
    },
    {
      "lat": 16.74347198791709,
      "lon": 96.27600769278338,
      "geoinfo": {
        "display_name": "သံလျင်, Thanlyin, Thanlyin District, Yangon, 11291, Myanmar",
        "road": null,
        "house_number": null,
        "neighbourhood": null,
        "suburb": null,
        "city_district": null,
        "city": "သံလျင်",
        "state": "Yangon",
        "postcode": "11291",
        "country": "Myanmar",
        "country_code": "mm"
      },
      "address": "386, သံလျင်, Thanlyin, Thanlyin District, Yangon, 11291, Myanmar"
    }
  ],
  "updated_at": "2025-10-19T05:59:34.599659+00:00",
  "_kind": "geo_samples"
}