{
  "country_code": "MM",
  "country": "Myanmar",
  "city": "Thongwa",
  "geonameid": 1291193,
  "target_addresses": 2,
  "samples": [
    {
      "lat": 16.72342190210088,
      "lon": 96.5511355900762,
      "geoinfo": {
        "display_name": "Nan Kha Le, Thongwa Township, Thanlyin District, Yangon, 11311, Myanmar",
        "road": null,
        "house_number": null,
        "neighbourhood": null,
        "suburb": null,
        "city_district": null,
        "city": "Nan Kha Le",
        "state": "Yangon",
        "postcode": "11311",
        "country": "Myanmar",
        "country_code": "mm"
      },
      "address": "Thongwa, Yangon, Myanmar"
    },
    {
      "lat": 16.754726440593537,
      "lon": 96.54407483804805,
      "geoinfo": {
        "display_name": "သုံးခွ -  လက်ပန် လမ်းမကြီး, Latpan, Let Pan, Thongwa Township, Thanlyin District, Yangon, 11311, Myanmar",
        "road": "သုံးခွ -  လက်ပန် လမ်းမကြီး",
        "house_number": null,
        "neighbourhood": null,
        "suburb": null,
        "city_district": null,
        "city": "Let Pan",
        "state": "Yangon",
        "postcode": "11311",
        "country": "Myanmar",
        "country_code": "mm"
      },
      "address": "829, သုံးခွ -  လက်ပန် လမ်းမကြီး, Latpan, Let Pan, Thongwa Township, Thanlyin District, Yangon, 11311, Myanmar"
    },
    {
      "lat": 16.747888159905852,
      "lon": 96.4993380491861,
      "geoinfo": {
        "display_name": "West Thongwa Village, Thongwa Township, Thanlyin District, Yangon, Myanmar",
        "road": null,
        "house_number": null,
        "neighbourhood": null,
        "suburb": null,
        "city_district": null,
        "city": "West Thongwa Village",
        "state": "Yangon",
        "postcode": null,
        "country": "Myanmar",
        "country_code": "mm"
      },
      "address": "559, West Thongwa Village, Thongwa Township, Thanlyin District, 94280 Yangon, Myanmar"
    }
  ],
  "updated_at": "2025-10-19T03:51:42.665078+00:00",
  "_kind": "geo_samples"
}