{
  "country_code": "MM",
  "country": "Myanmar",
  "city": "Ye",
  "geonameid": 1285606,
  "target_addresses": 2,
  "samples": [
    {
      "lat": 15.218235928627632,
      "lon": 97.86887661583762,
      "geoinfo": {
        "display_name": "Chaung Taung, Ye, Ye District, Mon State, 12101, Myanmar",
        "road": null,
        "house_number": null,
        "neighbourhood": null,
        "suburb": null,
        "city_district": null,
        "city": "Chaung Taung",
        "state": "Mon State",
        "postcode": "12101",
        "country": "Myanmar",
        "country_code": "mm"
      },
      "address": "Ye, Mon State, Myanmar"
    },
    {
      "lat": 15.27190812372912,
      "lon": 97.86303274618142,
      "geoinfo": {
        "display_name": "NH1, Thi Ri Zay Yar Ward, Kyone Laung Ywar Thit, Ye, Ye District, Mon State, 12101, Myanmar",
        "road": "NH1",
        "house_number": null,
        "neighbourhood": null,
        "suburb": null,
        "city_district": null,
        "city": "Kyone Laung Ywar Thit",
        "state": "Mon State",
        "postcode": "12101",
        "country": "Myanmar",
        "country_code": "mm"
      },
      "address": "NH1, Ye, Mon State, Myanmar"
    },
    {
      "lat": 15.23898754224549,
      "lon": 97.81842928546807,
      "geoinfo": {
        "display_name": "Abaw, Ah Baw, Ye, Ye District, Mon State, 12101, Myanmar",
        "road": null,
        "house_number": null,
        "neighbourhood": null,
        "suburb": null,
        "city_district": null,
        "city": "Ah Baw",
        "state": "Mon State",
        "postcode": "12101",
        "country": "Myanmar",
        "country_code": "mm"
      },
      "address": "077, Abaw, Ah Baw, Ye, Ye District, Mon State, 12101, Myanmar"
    },
    {
      "lat": 15.25401353257356,
      "lon": 97.82316981680921,
      "geoinfo": {
        "display_name": "Ah Baw, Ye, Ye District, Mon State, 12101, Myanmar",
        "road": null,
        "house_number": null,
        "neighbourhood": null,
        "suburb": null,
        "city_district": null,
        "city": "Ah Baw",
        "state": "Mon State",
        "postcode": "12101",
        "country": "Myanmar",
        "country_code": "mm"
      },
      "address": "987, Ah Baw, Ye, Ye District, Mon State, 12101, Myanmar"
    }
  ],
  "updated_at": "2025-10-19T05:57:04.962821+00:00",
  "_kind": "geo_samples"
}