{
  "country_code": "SK",
  "country": "Slovakia",
  "city": "Banská Bystrica",
  "geonameid": 3061186,
  "target_addresses": 2,
  "samples": [
    {
      "lat": 48.76576458197233,
      "lon": 19.186819905384368,
      "geoinfo": {
        "display_name": "314/161, Nemčianska cesta, Nemce, District of Banská Bystrica, Region of Banská Bystrica, Central Slovakia, 974 01, Slovakia",
        "road": "Nemčianska cesta",
        "house_number": "314/161",
        "neighbourhood": null,
        "suburb": null,
        "city_district": null,
        "city": "Nemce",
        "state": "Region of Banská Bystrica",
        "postcode": "974 01",
        "country": "Slovakia",
        "country_code": "sk"
      },
      "address": "314/161 Nemčianska cesta, Banská Bystrica, Region of Banská Bystrica, Slovakia"
    },
    {
      "lat": 48.75997345078877,
      "lon": 19.12993413340954,
      "geoinfo": {
        "display_name": "Jakub, Kostiviarska, Banská Bystrica, District of Banská Bystrica, Region of Banská Bystrica, Central Slovakia, 974 01, Slovakia",
        "road": null,
        "house_number": null,
        "neighbourhood": null,
        "suburb": "Jakub",
        "city_district": null,
        "city": "Banská Bystrica",
        "state": "Region of Banská Bystrica",
        "postcode": "974 01",
        "country": "Slovakia",
        "country_code": "sk"
      },
      "address": "Jakub, Banská Bystrica, Region of Banská Bystrica, Slovakia"
    },
    {
      "lat": 48.71963101580718,
      "lon": 19.173130107010888,
      "geoinfo": {
        "display_name": "591, Horná Mičiná, District of Banská Bystrica, Region of Banská Bystrica, Central Slovakia, 974 01, Slovakia",
        "road": "591",
        "house_number": null,
        "neighbourhood": null,
        "suburb": null,
        "city_district": null,
        "city": "Horná Mičiná",
        "state": "Region of Banská Bystrica",
        "postcode": "974 01",
        "country": "Slovakia",
        "country_code": "sk"
      },
      "address": "591, Horná Mičiná, District of Banská Bystrica, Region of Banská Bystrica, Central Slovakia, 974 01, Slovakia"
    },
    {
      "lat": 48.730222284033886,
      "lon": 19.15515690916295,
      "geoinfo": {
        "display_name": "1630/28, Jesenského, Uhlisko, Banská Bystrica, District of Banská Bystrica, Region of Banská Bystrica, Central Slovakia, 974 01, Slovakia",
        "road": "Jesenského",
        "house_number": "1630/28",
        "neighbourhood": null,
        "suburb": "Uhlisko",
        "city_district": null,
        "city": "Banská Bystrica",
        "state": "Region of Banská Bystrica",
        "postcode": "974 01",
        "country": "Slovakia",
        "country_code": "sk"
      },
      "address": "1630/28, Jesenského, Uhlisko, Banská Bystrica, District of Banská Bystrica, Region of Banská Bystrica, Central Slovakia, 974 01, Slovakia"
    }
  ],
  "updated_at": "2025-10-19T06:59:32.819621+00:00",
  "_kind": "geo_samples"
}