{
  "country_code": "SK",
  "country": "Slovakia",
  "city": "Bardejov",
  "geonameid": 725168,
  "target_addresses": 2,
  "samples": [
    {
      "lat": 49.29105988614707,
      "lon": 21.263558410316154,
      "geoinfo": {
        "display_name": "583/5, Gorlická, Vinbarg, Bardejov, District of Bardejov, Region of Prešov, Eastern Slovakia, 085 01, Slovakia",
        "road": "Gorlická",
        "house_number": "583/5",
        "neighbourhood": null,
        "suburb": "Vinbarg",
        "city_district": null,
        "city": "Bardejov",
        "state": "Region of Prešov",
        "postcode": "085 01",
        "country": "Slovakia",
        "country_code": "sk"
      },
      "address": "583/5 Gorlická, Bardejov, Region of Prešov, Slovakia"
    },
    {
      "lat": 49.31375450434081,
      "lon": 21.30699956057365,
      "geoinfo": {
        "display_name": "Kačia debra, Bardejov, District of Bardejov, Region of Prešov, Eastern Slovakia, 085 01, Slovakia",
        "road": null,
        "house_number": null,
        "neighbourhood": null,
        "suburb": null,
        "city_district": null,
        "city": "Bardejov",
        "state": "Region of Prešov",
        "postcode": "085 01",
        "country": "Slovakia",
        "country_code": "sk"
      },
      "address": "Bardejov, Region of Prešov, Slovakia"
    },
    {
      "lat": 49.268196226238025,
      "lon": 21.277234125935635,
      "geoinfo": {
        "display_name": "Poštárka, Bardejovská Zábava, Bardejov, District of Bardejov, Region of Prešov, 085 01, Slovakia",
        "road": "Poštárka",
        "house_number": null,
        "neighbourhood": null,
        "suburb": "Bardejovská Zábava",
        "city_district": null,
        "city": "Bardejov",
        "state": "Region of Prešov",
        "postcode": "085 01",
        "country": "Slovakia",
        "country_code": "sk"
      },
      "address": "Poštárka, Bardejovská Zábava, Bardejov, District of Bardejov, Region of Prešov, 085 01, Slovakia"
    },
    {
      "lat": 49.269940515257446,
      "lon": 21.323988113879654,
      "geoinfo": {
        "display_name": "Palková brezina, Lukavica, District of Bardejov, Region of Prešov, Eastern Slovakia, 086 21, Slovakia",
        "road": null,
        "house_number": null,
        "neighbourhood": null,
        "suburb": null,
        "city_district": null,
        "city": "Lukavica",
        "state": "Region of Prešov",
        "postcode": "086 21",
        "country": "Slovakia",
        "country_code": "sk"
      },
      "address": "Palková brezina, Lukavica, District of Bardejov, Region of Prešov, Eastern Slovakia, 086 21, Slovakia"
    }
  ],
  "updated_at": "2025-10-19T06:35:51.434451+00:00",
  "_kind": "geo_samples"
}