{
  "country_code": "SK",
  "country": "Slovakia",
  "city": "Devínska Nová Ves",
  "geonameid": 3077170,
  "target_addresses": 6,
  "samples": [
    {
      "lat": 48.21712630689892,
      "lon": 16.988733920155592,
      "geoinfo": {
        "display_name": "6412/36I, Vápencová, Grba, Devínska Nová Ves, District of Bratislava IV, Bratislava, Region of Bratislava, 841 07, Slovakia",
        "road": "Vápencová",
        "house_number": "6412/36I",
        "neighbourhood": null,
        "suburb": "Devínska Nová Ves",
        "city_district": "District of Bratislava IV",
        "city": "Bratislava",
        "state": "Region of Bratislava",
        "postcode": "841 07",
        "country": "Slovakia",
        "country_code": "sk"
      },
      "address": "6412/36I Vápencová, Devínska Nová Ves, Region of Bratislava, Slovakia"
    },
    {
      "lat": 48.232693874158855,
      "lon": 16.97310695897601,
      "geoinfo": {
        "display_name": "7499, Devínska Nová Ves, District of Bratislava IV, Bratislava, Region of Bratislava, 841 07, Slovakia",
        "road": null,
        "house_number": "7499",
        "neighbourhood": null,
        "suburb": "Devínska Nová Ves",
        "city_district": "District of Bratislava IV",
        "city": "Bratislava",
        "state": "Region of Bratislava",
        "postcode": "841 07",
        "country": "Slovakia",
        "country_code": "sk"
      },
      "address": "Devínska Nová Ves, Devínska Nová Ves, Region of Bratislava, Slovakia"
    },
    {
      "lat": 48.20796188913608,
      "lon": 16.961665435264617,
      "geoinfo": {
        "display_name": "Cycling Bridge of Freedom, Stará Devínska, Devínska Nová Ves, District of Bratislava IV, Bratislava, Region of Bratislava, 841 07, Slovakia",
        "road": "Cycling Bridge of Freedom",
        "house_number": null,
        "neighbourhood": null,
        "suburb": "Devínska Nová Ves",
        "city_district": "District of Bratislava IV",
        "city": "Bratislava",
        "state": "Region of Bratislava",
        "postcode": "841 07",
        "country": "Slovakia",
        "country_code": "sk"
      },
      "address": "Cycling Bridge of Freedom, Stará Devínska, Devínska Nová Ves, District of Bratislava IV, Bratislava, Region of Bratislava, 841 07, Slovakia"
    },
    {
      "lat": 48.22682447448179,
      "lon": 16.98404926809568,
      "geoinfo": {
        "display_name": "Bystrická, Paulinské, Devínska Nová Ves, District of Bratislava IV, Bratislava, Region of Bratislava, 841 07, Slovakia",
        "road": "Bystrická",
        "house_number": null,
        "neighbourhood": null,
        "suburb": "Devínska Nová Ves",
        "city_district": "District of Bratislava IV",
        "city": "Bratislava",
        "state": "Region of Bratislava",
        "postcode": "841 07",
        "country": "Slovakia",
        "country_code": "sk"
      },
      "address": "Bystrická, Paulinské, Devínska Nová Ves, District of Bratislava IV, Bratislava, Region of Bratislava, 841 07, Slovakia"
    },
    {
      "lat": 48.22946124417574,
      "lon": 16.983702530705582,
      "geoinfo": {
        "display_name": "Opletalova, Devínsky Dvor, Paulinské, Devínska Nová Ves, District of Bratislava IV, Bratislava, Region of Bratislava, 841 07, Slovakia",
        "road": "Opletalova",
        "house_number": null,
        "neighbourhood": null,
        "suburb": "Devínska Nová Ves",
        "city_district": "District of Bratislava IV",
        "city": "Bratislava",
        "state": "Region of Bratislava",
        "postcode": "841 07",
        "country": "Slovakia",
        "country_code": "sk"
      },
      "address": "Opletalova, Devínsky Dvor, Paulinské, Devínska Nová Ves, District of Bratislava IV, Bratislava, Region of Bratislava, 841 07, Slovakia"
    },
    {
      "lat": 48.167190458056815,
      "lon": 17.00860313017884,
      "geoinfo": {
        "display_name": "1106, Devín, District of Bratislava IV, Bratislava, Region of Bratislava, 841 04, Slovakia",
        "road": null,
        "house_number": "1106",
        "neighbourhood": null,
        "suburb": "Devín",
        "city_district": "District of Bratislava IV",
        "city": "Bratislava",
        "state": "Region of Bratislava",
        "postcode": "841 04",
        "country": "Slovakia",
        "country_code": "sk"
      },
      "address": "1106, Devín, District of Bratislava IV, Bratislava, Region of Bratislava, 841 04, Slovakia"
    }
  ],
  "updated_at": "2025-10-19T06:15:46.454528+00:00",
  "_kind": "geo_samples"
}