{
  "country_code": "SK",
  "country": "Slovakia",
  "city": "Dolný Kubín",
  "geonameid": 3060405,
  "target_addresses": 2,
  "samples": [
    {
      "lat": 49.22907333445477,
      "lon": 19.328589918334373,
      "geoinfo": {
        "display_name": "2250, Bziny, District of Dolný Kubín, Region of Žilina, Central Slovakia, 027 41, Slovakia",
        "road": "2250",
        "house_number": null,
        "neighbourhood": null,
        "suburb": null,
        "city_district": null,
        "city": "Bziny",
        "state": "Region of Žilina",
        "postcode": "027 41",
        "country": "Slovakia",
        "country_code": "sk"
      },
      "address": "2250, Dolný Kubín, Region of Žilina, Slovakia"
    },
    {
      "lat": 49.2396502557263,
      "lon": 19.272627509288473,
      "geoinfo": {
        "display_name": "161, Beňova Lehota, Dolný Kubín, District of Dolný Kubín, Region of Žilina, Central Slovakia, 026 01, Slovakia",
        "road": null,
        "house_number": "161",
        "neighbourhood": null,
        "suburb": "Beňova Lehota",
        "city_district": null,
        "city": "Dolný Kubín",
        "state": "Region of Žilina",
        "postcode": "026 01",
        "country": "Slovakia",
        "country_code": "sk"
      },
      "address": "Beňova Lehota, Dolný Kubín, Region of Žilina, Slovakia"
    },
    {
      "lat": 49.20571904017596,
      "lon": 19.368624442112196,
      "geoinfo": {
        "display_name": "Partizánska cesta, Srňacie, Dolný Kubín, District of Dolný Kubín, Region of Žilina, Central Slovakia, 027 41, Slovakia",
        "road": "Partizánska cesta",
        "house_number": null,
        "neighbourhood": null,
        "suburb": null,
        "city_district": null,
        "city": "Dolný Kubín",
        "state": "Region of Žilina",
        "postcode": "027 41",
        "country": "Slovakia",
        "country_code": "sk"
      },
      "address": "Partizánska cesta, Srňacie, Dolný Kubín, District of Dolný Kubín, Region of Žilina, Central Slovakia, 027 41, Slovakia"
    },
    {
      "lat": 49.20660055787059,
      "lon": 19.296326135270096,
      "geoinfo": {
        "display_name": "Oravská galéria, 1690/11, Hviezdoslavovo námestie, Brezovec, Dolný Kubín, District of Dolný Kubín, Region of Žilina, Central Slovakia, 026 01, Slovakia",
        "road": "Hviezdoslavovo námestie",
        "house_number": "1690/11",
        "neighbourhood": null,
        "suburb": "Brezovec",
        "city_district": null,
        "city": "Dolný Kubín",
        "state": "Region of Žilina",
        "postcode": "026 01",
        "country": "Slovakia",
        "country_code": "sk"
      },
      "address": "Oravská galéria, 1690/11, Hviezdoslavovo námestie, Brezovec, Dolný Kubín, District of Dolný Kubín, Region of Žilina, Central Slovakia, 026 01, Slovakia"
    }
  ],
  "updated_at": "2025-10-19T07:02:33.922935+00:00",
  "_kind": "geo_samples"
}