{
  "country_code": "SK",
  "country": "Slovakia",
  "city": "Handlová",
  "geonameid": 3060139,
  "target_addresses": 2,
  "samples": [
    {
      "lat": 48.690761627892904,
      "lon": 18.73678075613253,
      "geoinfo": {
        "display_name": "1918/44, Žiarska, Handlová, District of Prievidza, Region of Trenčín, Western Slovakia, 972 51, Slovakia",
        "road": "Žiarska",
        "house_number": "1918/44",
        "neighbourhood": null,
        "suburb": null,
        "city_district": null,
        "city": "Handlová",
        "state": "Region of Trenčín",
        "postcode": "972 51",
        "country": "Slovakia",
        "country_code": "sk"
      },
      "address": "1918/44 Žiarska, Handlová, Region of Trenčín, Slovakia"
    },
    {
      "lat": 48.70226373655415,
      "lon": 18.801425042400687,
      "geoinfo": {
        "display_name": "Hora, Kosorín, District of Žiar nad Hronom, Region of Banská Bystrica, Central Slovakia, 966 24, Slovakia",
        "road": null,
        "house_number": null,
        "neighbourhood": null,
        "suburb": null,
        "city_district": null,
        "city": "Kosorín",
        "state": "Region of Banská Bystrica",
        "postcode": "966 24",
        "country": "Slovakia",
        "country_code": "sk"
      },
      "address": "Handlová, Region of Banská Bystrica, Slovakia"
    },
    {
      "lat": 48.75566652765865,
      "lon": 18.712240901239007,
      "geoinfo": {
        "display_name": "Lesná, Hradec, Prievidza, District of Prievidza, Region of Trenčín, Western Slovakia, 972 32, Slovakia",
        "road": "Lesná",
        "house_number": null,
        "neighbourhood": null,
        "suburb": "Hradec",
        "city_district": null,
        "city": "Prievidza",
        "state": "Region of Trenčín",
        "postcode": "972 32",
        "country": "Slovakia",
        "country_code": "sk"
      },
      "address": "Lesná, Hradec, Prievidza, District of Prievidza, Region of Trenčín, Western Slovakia, 972 32, Slovakia"
    },
    {
      "lat": 48.708159925735956,
      "lon": 18.70081149991162,
      "geoinfo": {
        "display_name": "Pod šachtou, Handlová, District of Prievidza, Region of Trenčín, Western Slovakia, 972 51, Slovakia",
        "road": "Pod šachtou",
        "house_number": null,
        "neighbourhood": null,
        "suburb": null,
        "city_district": null,
        "city": "Handlová",
        "state": "Region of Trenčín",
        "postcode": "972 51",
        "country": "Slovakia",
        "country_code": "sk"
      },
      "address": "Pod šachtou, Handlová, District of Prievidza, Region of Trenčín, Western Slovakia, 972 51, Slovakia"
    }
  ],
  "updated_at": "2025-10-19T07:02:56.495356+00:00",
  "_kind": "geo_samples"
}