{
  "country_code": "SK",
  "country": "Slovakia",
  "city": "Humenné",
  "geonameid": 724627,
  "target_addresses": 2,
  "samples": [
    {
      "lat": 48.923951714204584,
      "lon": 21.954528235500227,
      "geoinfo": {
        "display_name": "216, Hažín nad Cirochou, District of Humenné, Region of Prešov, Eastern Slovakia, 067 83, Slovakia",
        "road": null,
        "house_number": "216",
        "neighbourhood": null,
        "suburb": null,
        "city_district": null,
        "city": "Hažín nad Cirochou",
        "state": "Region of Prešov",
        "postcode": "067 83",
        "country": "Slovakia",
        "country_code": "sk"
      },
      "address": "Humenné, Region of Prešov, Slovakia"
    },
    {
      "lat": 48.955206749916265,
      "lon": 21.947660562775383,
      "geoinfo": {
        "display_name": "559, Kochanovce nad Laborcom, District of Humenné, Region of Prešov, 067 31, Slovakia",
        "road": "559",
        "house_number": null,
        "neighbourhood": null,
        "suburb": null,
        "city_district": null,
        "city": "Kochanovce nad Laborcom",
        "state": "Region of Prešov",
        "postcode": "067 31",
        "country": "Slovakia",
        "country_code": "sk"
      },
      "address": "559, Humenné, Region of Prešov, Slovakia"
    },
    {
      "lat": 48.97848799388085,
      "lon": 21.903360306316024,
      "geoinfo": {
        "display_name": "Ondáková, Brestov, District of Humenné, Region of Prešov, Eastern Slovakia, 066 01, Slovakia",
        "road": null,
        "house_number": null,
        "neighbourhood": null,
        "suburb": null,
        "city_district": null,
        "city": "Brestov",
        "state": "Region of Prešov",
        "postcode": "066 01",
        "country": "Slovakia",
        "country_code": "sk"
      },
      "address": "Ondáková, Brestov, District of Humenné, Region of Prešov, Eastern Slovakia, 066 01, Slovakia"
    },
    {
      "lat": 48.90319186723395,
      "lon": 21.88075274932588,
      "geoinfo": {
        "display_name": "Družstevná, Jasenov, District of Humenné, Region of Prešov, 066 01, Slovakia",
        "road": "Družstevná",
        "house_number": null,
        "neighbourhood": null,
        "suburb": null,
        "city_district": null,
        "city": "Jasenov",
        "state": "Region of Prešov",
        "postcode": "066 01",
        "country": "Slovakia",
        "country_code": "sk"
      },
      "address": "Družstevná, Jasenov, District of Humenné, Region of Prešov, 066 01, Slovakia"
    }
  ],
  "updated_at": "2025-10-19T09:57:58.392392+00:00",
  "_kind": "geo_samples"
}