{
  "country_code": "SK",
  "country": "Slovakia",
  "city": "Karlova Ves",
  "geonameid": 3059564,
  "target_addresses": 2,
  "samples": [
    {
      "lat": 48.17539580114728,
      "lon": 17.053049757333625,
      "geoinfo": {
        "display_name": "Štadión Športového centra polície, 2A, M. Schneidra Trnavského, Krčace, Bratislava, District of Bratislava IV, Bratislava, Region of Bratislava, 844 29, Slovakia",
        "road": "M. Schneidra Trnavského",
        "house_number": "2A",
        "neighbourhood": null,
        "suburb": "Bratislava",
        "city_district": "District of Bratislava IV",
        "city": "Bratislava",
        "state": "Region of Bratislava",
        "postcode": "844 29",
        "country": "Slovakia",
        "country_code": "sk"
      },
      "address": "2A M. Schneidra Trnavského, Karlova Ves, Region of Bratislava, Slovakia"
    },
    {
      "lat": 48.152748646896946,
      "lon": 17.08109403532502,
      "geoinfo": {
        "display_name": "7072/94, Slávičie údolie, Mačacie údolie, Oblasť Bôrik, Bratislava, District of Bratislava I, Bratislava, Region of Bratislava, 811 02, Slovakia",
        "road": "Slávičie údolie",
        "house_number": "7072/94",
        "neighbourhood": "Mačacie údolie",
        "suburb": "Bratislava",
        "city_district": "District of Bratislava I",
        "city": "Bratislava",
        "state": "Region of Bratislava",
        "postcode": "811 02",
        "country": "Slovakia",
        "country_code": "sk"
      },
      "address": "7072/94 Slávičie údolie, Karlova Ves, Region of Bratislava, Slovakia"
    },
    {
      "lat": 48.13419751803836,
      "lon": 17.058884210782274,
      "geoinfo": {
        "display_name": "Pohraničiarska signálka, Petržalka, District of Bratislava V, Bratislava, Region of Bratislava, 851 01, Slovakia",
        "road": "Pohraničiarska signálka",
        "house_number": null,
        "neighbourhood": null,
        "suburb": "Petržalka",
        "city_district": "District of Bratislava V",
        "city": "Bratislava",
        "state": "Region of Bratislava",
        "postcode": "851 01",
        "country": "Slovakia",
        "country_code": "sk"
      },
      "address": "Pohraničiarska signálka, Petržalka, District of Bratislava V, Bratislava, Region of Bratislava, 851 01, Slovakia"
    },
    {
      "lat": 48.170684518513234,
      "lon": 17.005615450934886,
      "geoinfo": {
        "display_name": "Gronárska, Gronáre, Devín, District of Bratislava IV, Bratislava, Region of Bratislava, 841 10, Slovakia",
        "road": "Gronárska",
        "house_number": null,
        "neighbourhood": null,
        "suburb": "Devín",
        "city_district": "District of Bratislava IV",
        "city": "Bratislava",
        "state": "Region of Bratislava",
        "postcode": "841 10",
        "country": "Slovakia",
        "country_code": "sk"
      },
      "address": "Gronárska, Gronáre, Devín, District of Bratislava IV, Bratislava, Region of Bratislava, 841 10, Slovakia"
    }
  ],
  "updated_at": "2025-10-19T05:32:25.839147+00:00",
  "_kind": "geo_samples"
}