{
  "country_code": "SK",
  "country": "Slovakia",
  "city": "Petržalka",
  "geonameid": 3058213,
  "target_addresses": 2,
  "samples": [
    {
      "lat": 48.08854389079204,
      "lon": 17.10317159848577,
      "geoinfo": {
        "display_name": "Jarovce, D2, Jarovce, District of Bratislava V, Bratislava, Region of Bratislava, 851 06, Slovakia",
        "road": "D2",
        "house_number": null,
        "neighbourhood": null,
        "suburb": "Jarovce",
        "city_district": "District of Bratislava V",
        "city": "Bratislava",
        "state": "Region of Bratislava",
        "postcode": "851 06",
        "country": "Slovakia",
        "country_code": "sk"
      },
      "address": "D2, Petržalka, Region of Bratislava, Slovakia"
    },
    {
      "lat": 48.12013321703006,
      "lon": 17.070244490427523,
      "geoinfo": {
        "display_name": "železniční milník Viedenská električka 613, Viedenská cesta, Kapitulský dvor, Petržalka, District of Bratislava V, Bratislava, Region of Bratislava, 851 01, Slovakia",
        "road": "Viedenská cesta",
        "house_number": null,
        "neighbourhood": "Kapitulský dvor",
        "suburb": "Petržalka",
        "city_district": "District of Bratislava V",
        "city": "Bratislava",
        "state": "Region of Bratislava",
        "postcode": "851 01",
        "country": "Slovakia",
        "country_code": "sk"
      },
      "address": "Viedenská cesta, Petržalka, Region of Bratislava, Slovakia"
    },
    {
      "lat": 48.146830981920104,
      "lon": 17.117042639918004,
      "geoinfo": {
        "display_name": "Cintorínska, Dunajská štvrť, Oblasť Dunajská, Bratislava, District of Bratislava I, Bratislava, Region of Bratislava, 811 08, Slovakia",
        "road": "Cintorínska",
        "house_number": null,
        "neighbourhood": "Dunajská štvrť",
        "suburb": "Bratislava",
        "city_district": "District of Bratislava I",
        "city": "Bratislava",
        "state": "Region of Bratislava",
        "postcode": "811 08",
        "country": "Slovakia",
        "country_code": "sk"
      },
      "address": "Cintorínska, Dunajská štvrť, Oblasť Dunajská, Bratislava, District of Bratislava I, Bratislava, Region of Bratislava, 811 08, Slovakia"
    },
    {
      "lat": 48.113830483364694,
      "lon": 17.13634182087157,
      "geoinfo": {
        "display_name": "Dolnozemská cesta, Nové Ovsište, Háje, Petržalka, District of Bratislava V, Bratislava, Region of Bratislava, 851 04, Slovakia",
        "road": "Dolnozemská cesta",
        "house_number": null,
        "neighbourhood": "Nové Ovsište",
        "suburb": "Petržalka",
        "city_district": "District of Bratislava V",
        "city": "Bratislava",
        "state": "Region of Bratislava",
        "postcode": "851 04",
        "country": "Slovakia",
        "country_code": "sk"
      },
      "address": "Dolnozemská cesta, Nové Ovsište, Háje, Petržalka, District of Bratislava V, Bratislava, Region of Bratislava, 851 04, Slovakia"
    }
  ],
  "updated_at": "2025-10-19T04:48:59.432854+00:00",
  "_kind": "geo_samples"
}