{
  "country_code": "SK",
  "country": "Slovakia",
  "city": "Považská Bystrica",
  "geonameid": 3058060,
  "target_addresses": 6,
  "samples": [
    {
      "lat": 49.156166542376866,
      "lon": 18.428131337707516,
      "geoinfo": {
        "display_name": "747, Udiča, District of Považská Bystrica, Region of Trenčín, Western Slovakia, 018 01, Slovakia",
        "road": null,
        "house_number": "747",
        "neighbourhood": null,
        "suburb": null,
        "city_district": null,
        "city": "Udiča",
        "state": "Region of Trenčín",
        "postcode": "018 01",
        "country": "Slovakia",
        "country_code": "sk"
      },
      "address": "Považská Bystrica, Region of Trenčín, Slovakia"
    },
    {
      "lat": 49.120326558537364,
      "lon": 18.452123827907272,
      "geoinfo": {
        "display_name": "775/2, Žilinská, Kalvaria, Sever, Považská Bystrica, District of Považská Bystrica, Region of Trenčín, Western Slovakia, 017 01, Slovakia",
        "road": "Žilinská",
        "house_number": "775/2",
        "neighbourhood": null,
        "suburb": "Kalvaria",
        "city_district": "Sever",
        "city": "Považská Bystrica",
        "state": "Region of Trenčín",
        "postcode": "017 01",
        "country": "Slovakia",
        "country_code": "sk"
      },
      "address": "775/2 Žilinská, Považská Bystrica, Region of Trenčín, Slovakia"
    },
    {
      "lat": 49.13832644059462,
      "lon": 18.458816861581884,
      "geoinfo": {
        "display_name": "375, Považské Podhradie, Považská Bystrica, District of Považská Bystrica, Region of Trenčín, Western Slovakia, 017 04, Slovakia",
        "road": null,
        "house_number": "375",
        "neighbourhood": null,
        "suburb": "Považské Podhradie",
        "city_district": null,
        "city": "Považská Bystrica",
        "state": "Region of Trenčín",
        "postcode": "017 04",
        "country": "Slovakia",
        "country_code": "sk"
      },
      "address": "375, Považské Podhradie, Považská Bystrica, District of Považská Bystrica, Region of Trenčín, Western Slovakia, 017 04, Slovakia"
    },
    {
      "lat": 49.154769492009464,
      "lon": 18.453699267102056,
      "geoinfo": {
        "display_name": "152, Šebešťanová, Považská Bystrica, District of Považská Bystrica, Region of Trenčín, Western Slovakia, 017 01, Slovakia",
        "road": null,
        "house_number": "152",
        "neighbourhood": null,
        "suburb": "Šebešťanová",
        "city_district": null,
        "city": "Považská Bystrica",
        "state": "Region of Trenčín",
        "postcode": "017 01",
        "country": "Slovakia",
        "country_code": "sk"
      },
      "address": "152, Šebešťanová, Považská Bystrica, District of Považská Bystrica, Region of Trenčín, Western Slovakia, 017 01, Slovakia"
    },
    {
      "lat": 49.1004272388067,
      "lon": 18.361774732120423,
      "geoinfo": {
        "display_name": "61, Visolaje, District of Púchov, Region of Trenčín, Western Slovakia, 018 61, Slovakia",
        "road": "61",
        "house_number": null,
        "neighbourhood": null,
        "suburb": null,
        "city_district": null,
        "city": "Visolaje",
        "state": "Region of Trenčín",
        "postcode": "018 61",
        "country": "Slovakia",
        "country_code": "sk"
      },
      "address": "61, Visolaje, District of Púchov, Region of Trenčín, Western Slovakia, 018 61, Slovakia"
    },
    {
      "lat": 49.14094421010691,
      "lon": 18.43516302854875,
      "geoinfo": {
        "display_name": "Salaš Orlové, 507, Orlové, Považská Bystrica, District of Považská Bystrica, Region of Trenčín, Western Slovakia, 017 01, Slovakia",
        "road": "507",
        "house_number": null,
        "neighbourhood": null,
        "suburb": "Orlové",
        "city_district": null,
        "city": "Považská Bystrica",
        "state": "Region of Trenčín",
        "postcode": "017 01",
        "country": "Slovakia",
        "country_code": "sk"
      },
      "address": "Salaš Orlové, 507, Orlové, Považská Bystrica, District of Považská Bystrica, Region of Trenčín, Western Slovakia, 017 01, Slovakia"
    }
  ],
  "updated_at": "2025-10-19T06:15:34.165736+00:00",
  "_kind": "geo_samples"
}