{
  "country_code": "SK",
  "country": "Slovakia",
  "city": "Rožňava",
  "geonameid": 723713,
  "target_addresses": 2,
  "samples": [
    {
      "lat": 48.671688094027665,
      "lon": 20.599922385950745,
      "geoinfo": {
        "display_name": "3014, Pača, District of Rožňava, Region of Košice, Eastern Slovakia, 049 41, Slovakia",
        "road": "3014",
        "house_number": null,
        "neighbourhood": null,
        "suburb": null,
        "city_district": null,
        "city": "Pača",
        "state": "Region of Košice",
        "postcode": "049 41",
        "country": "Slovakia",
        "country_code": "sk"
      },
      "address": "3014, Rožňava, Region of Košice, Slovakia"
    },
    {
      "lat": 48.69454927878169,
      "lon": 20.55185542777183,
      "geoinfo": {
        "display_name": "149, Čučma, District of Rožňava, Region of Košice, Eastern Slovakia, 048 01, Slovakia",
        "road": null,
        "house_number": "149",
        "neighbourhood": null,
        "suburb": null,
        "city_district": null,
        "city": "Čučma",
        "state": "Region of Košice",
        "postcode": "048 01",
        "country": "Slovakia",
        "country_code": "sk"
      },
      "address": "Rožňava, Region of Košice, Slovakia"
    },
    {
      "lat": 48.667162655525495,
      "lon": 20.553617040737812,
      "geoinfo": {
        "display_name": "Neznáma kutacia štôlňa, Útulná, Rožňava, District of Rožňava, Region of Košice, Eastern Slovakia, 048 01, Slovakia",
        "road": "Útulná",
        "house_number": null,
        "neighbourhood": null,
        "suburb": null,
        "city_district": null,
        "city": "Rožňava",
        "state": "Region of Košice",
        "postcode": "048 01",
        "country": "Slovakia",
        "country_code": "sk"
      },
      "address": "Neznáma kutacia štôlňa, Útulná, Rožňava, District of Rožňava, Region of Košice, Eastern Slovakia, 048 01, Slovakia"
    },
    {
      "lat": 48.652623614208345,
      "lon": 20.515639067706893,
      "geoinfo": {
        "display_name": "Alej Branka Kuriana, Rožňava, District of Rožňava, Region of Košice, Eastern Slovakia, 048 01, Slovakia",
        "road": "Alej Branka Kuriana",
        "house_number": null,
        "neighbourhood": null,
        "suburb": null,
        "city_district": null,
        "city": "Rožňava",
        "state": "Region of Košice",
        "postcode": "048 01",
        "country": "Slovakia",
        "country_code": "sk"
      },
      "address": "Alej Branka Kuriana, Rožňava, District of Rožňava, Region of Košice, Eastern Slovakia, 048 01, Slovakia"
    }
  ],
  "updated_at": "2025-10-19T04:48:21.438724+00:00",
  "_kind": "geo_samples"
}