{
  "country_code": "SK",
  "country": "Slovakia",
  "city": "Skalica",
  "geonameid": 3057630,
  "target_addresses": 6,
  "samples": [
    {
      "lat": 48.85026222996252,
      "lon": 17.293735859626022,
      "geoinfo": {
        "display_name": "Vrátne, Skalica, District of Skalica, Region of Trnava, Western Slovakia, Slovakia",
        "road": null,
        "house_number": null,
        "neighbourhood": null,
        "suburb": null,
        "city_district": null,
        "city": "Skalica",
        "state": "Region of Trnava",
        "postcode": null,
        "country": "Slovakia",
        "country_code": "sk"
      },
      "address": "Skalica, Region of Trnava, Slovakia"
    },
    {
      "lat": 48.837338728827085,
      "lon": 17.232899271278594,
      "geoinfo": {
        "display_name": "740/49, Koreszkova, Skalica, District of Skalica, Region of Trnava, Western Slovakia, 909 01, Slovakia",
        "road": "Koreszkova",
        "house_number": "740/49",
        "neighbourhood": null,
        "suburb": null,
        "city_district": null,
        "city": "Skalica",
        "state": "Region of Trnava",
        "postcode": "909 01",
        "country": "Slovakia",
        "country_code": "sk"
      },
      "address": "740/49 Koreszkova, Skalica, Region of Trnava, Slovakia"
    },
    {
      "lat": 48.816472515875596,
      "lon": 17.237815329362423,
      "geoinfo": {
        "display_name": "Očanská studnička, Kravie hory, Skalica, District of Skalica, Region of Trnava, Western Slovakia, 908 65, Slovakia",
        "road": "Kravie hory",
        "house_number": null,
        "neighbourhood": null,
        "suburb": null,
        "city_district": null,
        "city": "Skalica",
        "state": "Region of Trnava",
        "postcode": "908 65",
        "country": "Slovakia",
        "country_code": "sk"
      },
      "address": "Očanská studnička, Kravie hory, Skalica, District of Skalica, Region of Trnava, Western Slovakia, 908 65, Slovakia"
    },
    {
      "lat": 48.81207671162111,
      "lon": 17.263240929490202,
      "geoinfo": {
        "display_name": "Koštolské, Mokrý Háj, District of Skalica, Region of Trnava, Western Slovakia, 908 65, Slovakia",
        "road": null,
        "house_number": null,
        "neighbourhood": null,
        "suburb": null,
        "city_district": null,
        "city": "Mokrý Háj",
        "state": "Region of Trnava",
        "postcode": "908 65",
        "country": "Slovakia",
        "country_code": "sk"
      },
      "address": "Koštolské, Mokrý Háj, District of Skalica, Region of Trnava, Western Slovakia, 908 65, Slovakia"
    },
    {
      "lat": 48.86307936487238,
      "lon": 17.22037768138826,
      "geoinfo": {
        "display_name": "Kyselica, Skalica, District of Skalica, Region of Trnava, Western Slovakia, 909 01, Slovakia",
        "road": "Kyselica",
        "house_number": null,
        "neighbourhood": null,
        "suburb": null,
        "city_district": null,
        "city": "Skalica",
        "state": "Region of Trnava",
        "postcode": "909 01",
        "country": "Slovakia",
        "country_code": "sk"
      },
      "address": "Kyselica, Skalica, District of Skalica, Region of Trnava, Western Slovakia, 909 01, Slovakia"
    },
    {
      "lat": 48.804460956558245,
      "lon": 17.25475741859677,
      "geoinfo": {
        "display_name": "1146, Radošovce, Mokrý Háj, District of Skalica, Region of Trnava, Western Slovakia, 908 65, Slovakia",
        "road": "1146",
        "house_number": null,
        "neighbourhood": null,
        "suburb": null,
        "city_district": null,
        "city": "Radošovce",
        "state": "Region of Trnava",
        "postcode": "908 65",
        "country": "Slovakia",
        "country_code": "sk"
      },
      "address": "1146, Radošovce, Mokrý Háj, District of Skalica, Region of Trnava, Western Slovakia, 908 65, Slovakia"
    }
  ],
  "updated_at": "2025-10-19T06:15:29.547787+00:00",
  "_kind": "geo_samples"
}