{
  "country_code": "SK",
  "country": "Slovakia",
  "city": "Zvolen",
  "geonameid": 3056459,
  "target_addresses": 2,
  "samples": [
    {
      "lat": 48.5799506403286,
      "lon": 19.174420755781334,
      "geoinfo": {
        "display_name": "475, Lieskovec, District of Zvolen, Region of Banská Bystrica, Central Slovakia, 962 21, Slovakia",
        "road": null,
        "house_number": "475",
        "neighbourhood": null,
        "suburb": null,
        "city_district": null,
        "city": "Lieskovec",
        "state": "Region of Banská Bystrica",
        "postcode": "962 21",
        "country": "Slovakia",
        "country_code": "sk"
      },
      "address": "Zvolen, Region of Banská Bystrica, Slovakia"
    },
    {
      "lat": 48.561647199867124,
      "lon": 19.089886258224148,
      "geoinfo": {
        "display_name": "R2, Zvolen, District of Zvolen, Region of Banská Bystrica, Central Slovakia, 960 01, Slovakia",
        "road": "R2",
        "house_number": null,
        "neighbourhood": null,
        "suburb": null,
        "city_district": null,
        "city": "Zvolen",
        "state": "Region of Banská Bystrica",
        "postcode": "960 01",
        "country": "Slovakia",
        "country_code": "sk"
      },
      "address": "R2, Zvolen, Region of Banská Bystrica, Slovakia"
    },
    {
      "lat": 48.568937500457906,
      "lon": 19.193686815429015,
      "geoinfo": {
        "display_name": "Môťová, Zvolen, District of Zvolen, Region of Banská Bystrica, Central Slovakia, 962 21, Slovakia",
        "road": null,
        "house_number": null,
        "neighbourhood": null,
        "suburb": "Môťová",
        "city_district": null,
        "city": "Zvolen",
        "state": "Region of Banská Bystrica",
        "postcode": "962 21",
        "country": "Slovakia",
        "country_code": "sk"
      },
      "address": "Môťová, Zvolen, District of Zvolen, Region of Banská Bystrica, Central Slovakia, 962 21, Slovakia"
    },
    {
      "lat": 48.60830033193582,
      "lon": 19.180712740497285,
      "geoinfo": {
        "display_name": "Pod záhradou, Lukovská cesta, Lukové, Zvolen, District of Zvolen, Region of Banská Bystrica, Central Slovakia, 962 21, Slovakia",
        "road": "Lukovská cesta",
        "house_number": null,
        "neighbourhood": null,
        "suburb": null,
        "city_district": null,
        "city": "Zvolen",
        "state": "Region of Banská Bystrica",
        "postcode": "962 21",
        "country": "Slovakia",
        "country_code": "sk"
      },
      "address": "Pod záhradou, Lukovská cesta, Lukové, Zvolen, District of Zvolen, Region of Banská Bystrica, Central Slovakia, 962 21, Slovakia"
    }
  ],
  "updated_at": "2025-10-19T07:02:27.282916+00:00",
  "_kind": "geo_samples"
}