{
  "country_code": "SK",
  "country": "Slovakia",
  "city": "Žiar nad Hronom",
  "geonameid": 3056523,
  "target_addresses": 2,
  "samples": [
    {
      "lat": 48.60563255381002,
      "lon": 18.8861751283385,
      "geoinfo": {
        "display_name": "94, Stará Kremnička, District of Žiar nad Hronom, Region of Banská Bystrica, Central Slovakia, 965 01, Slovakia",
        "road": null,
        "house_number": "94",
        "neighbourhood": null,
        "suburb": null,
        "city_district": null,
        "city": "Stará Kremnička",
        "state": "Region of Banská Bystrica",
        "postcode": "965 01",
        "country": "Slovakia",
        "country_code": "sk"
      },
      "address": "Žiar nad Hronom, Region of Banská Bystrica, Slovakia"
    },
    {
      "lat": 48.605744489122806,
      "lon": 18.81309188875613,
      "geoinfo": {
        "display_name": "R2, Lovčica, Žiar nad Hronom, Lovčica-Trubín, District of Žiar nad Hronom, Region of Banská Bystrica, Central Slovakia, 966 22, Slovakia",
        "road": "R2",
        "house_number": null,
        "neighbourhood": null,
        "suburb": null,
        "city_district": null,
        "city": "Žiar nad Hronom",
        "state": "Region of Banská Bystrica",
        "postcode": "966 22",
        "country": "Slovakia",
        "country_code": "sk"
      },
      "address": "R2, Žiar nad Hronom, Region of Banská Bystrica, Slovakia"
    },
    {
      "lat": 48.58219154710101,
      "lon": 18.798368811795868,
      "geoinfo": {
        "display_name": "2483, Lovča, District of Žiar nad Hronom, Region of Banská Bystrica, Central Slovakia, 966 21, Slovakia",
        "road": "2483",
        "house_number": null,
        "neighbourhood": null,
        "suburb": null,
        "city_district": null,
        "city": "Lovča",
        "state": "Region of Banská Bystrica",
        "postcode": "966 21",
        "country": "Slovakia",
        "country_code": "sk"
      },
      "address": "2483, Lovča, District of Žiar nad Hronom, Region of Banská Bystrica, Central Slovakia, 966 21, Slovakia"
    },
    {
      "lat": 48.55564248962974,
      "lon": 18.840124499356424,
      "geoinfo": {
        "display_name": "65, Horné Opatovce, Žiar nad Hronom, District of Žiar nad Hronom, Region of Banská Bystrica, Central Slovakia, 966 21, Slovakia",
        "road": "65",
        "house_number": null,
        "neighbourhood": null,
        "suburb": null,
        "city_district": "Horné Opatovce",
        "city": "Žiar nad Hronom",
        "state": "Region of Banská Bystrica",
        "postcode": "966 21",
        "country": "Slovakia",
        "country_code": "sk"
      },
      "address": "65, Horné Opatovce, Žiar nad Hronom, District of Žiar nad Hronom, Region of Banská Bystrica, Central Slovakia, 966 21, Slovakia"
    }
  ],
  "updated_at": "2025-10-19T04:48:44.112105+00:00",
  "_kind": "geo_samples"
}