{
  "country_code": "SK",
  "country": "Slovakia",
  "city": "Žilina",
  "geonameid": 3056508,
  "target_addresses": 2,
  "samples": [
    {
      "lat": 49.23039573004139,
      "lon": 18.685678564600813,
      "geoinfo": {
        "display_name": "Žilina Oko Trails, Variant v paragáne, Závodie, Západ, Žilina, District of Žilina, Region of Žilina, Central Slovakia, 010 15, Slovakia",
        "road": "Variant v paragáne",
        "house_number": null,
        "neighbourhood": null,
        "suburb": "Závodie",
        "city_district": "Západ",
        "city": "Žilina",
        "state": "Region of Žilina",
        "postcode": "010 15",
        "country": "Slovakia",
        "country_code": "sk"
      },
      "address": "Variant v paragáne, Žilina, Region of Žilina, Slovakia"
    },
    {
      "lat": 49.228044760600206,
      "lon": 18.73575721283214,
      "geoinfo": {
        "display_name": "631/32, Hollého, Staré mesto, Žilina, District of Žilina, Region of Žilina, Central Slovakia, 010 01, Slovakia",
        "road": "Hollého",
        "house_number": "631/32",
        "neighbourhood": null,
        "suburb": "Staré mesto",
        "city_district": null,
        "city": "Žilina",
        "state": "Region of Žilina",
        "postcode": "010 01",
        "country": "Slovakia",
        "country_code": "sk"
      },
      "address": "631/32 Hollého, Žilina, Region of Žilina, Slovakia"
    },
    {
      "lat": 49.21492472341632,
      "lon": 18.74464981915406,
      "geoinfo": {
        "display_name": "1768/5, Bôrická cesta, Hliny IV, Žilina, District of Žilina, Region of Žilina, Central Slovakia, 010 01, Slovakia",
        "road": "Bôrická cesta",
        "house_number": "1768/5",
        "neighbourhood": null,
        "suburb": "Hliny IV",
        "city_district": null,
        "city": "Žilina",
        "state": "Region of Žilina",
        "postcode": "010 01",
        "country": "Slovakia",
        "country_code": "sk"
      },
      "address": "1768/5, Bôrická cesta, Hliny IV, Žilina, District of Žilina, Region of Žilina, Central Slovakia, 010 01, Slovakia"
    },
    {
      "lat": 49.20681322360412,
      "lon": 18.79702032509574,
      "geoinfo": {
        "display_name": "Teplička nad Váhom, District of Žilina, Region of Žilina, Central Slovakia, 013 01, Slovakia",
        "road": null,
        "house_number": null,
        "neighbourhood": null,
        "suburb": null,
        "city_district": null,
        "city": "Teplička nad Váhom",
        "state": "Region of Žilina",
        "postcode": "013 01",
        "country": "Slovakia",
        "country_code": "sk"
      },
      "address": "Teplička nad Váhom, District of Žilina, Region of Žilina, Central Slovakia, 013 01, Slovakia"
    }
  ],
  "updated_at": "2025-10-19T06:35:59.198293+00:00",
  "_kind": "geo_samples"
}