{
  "country_code": "BM",
  "country": "Bermuda",
  "city": "Hamilton",
  "geonameid": 3573197,
  "target_addresses": 100,
  "samples": [
    {
      "lat": 32.31587029876733,
      "lon": -64.82353344002715,
      "geoinfo": {
        "display_name": "Kings Wharf Cruise Ship Terminal, Royal Naval Dockyard, Sandys, MA 01, Bermuda",
        "road": null,
        "house_number": null,
        "neighbourhood": null,
        "suburb": null,
        "city_district": null,
        "city": "Royal Naval Dockyard",
        "state": "Sandys",
        "postcode": "MA 01",
        "country": "Bermuda",
        "country_code": "bm"
      },
      "address": "Hamilton, Sandys, Bermuda"
    },
    {
      "lat": 32.31655136863911,
      "lon": -64.73876549376234,
      "geoinfo": {
        "display_name": "45, Middle Road, North Shore Village, Smith's, DV 06, Bermuda",
        "road": "Middle Road",
        "house_number": "45",
        "neighbourhood": null,
        "suburb": null,
        "city_district": null,
        "city": "North Shore Village",
        "state": "Smith's",
        "postcode": "DV 06",
        "country": "Bermuda",
        "country_code": "bm"
      },
      "address": "45 Middle Road, Hamilton, Smith's, Bermuda"
    },
    {
      "lat": 32.32338881722433,
      "lon": -64.79569145432235,
      "geoinfo": {
        "display_name": "Spanish Point, Pembroke, HM 01, Bermuda",
        "road": null,
        "house_number": null,
        "neighbourhood": null,
        "suburb": null,
        "city_district": null,
        "city": "Spanish Point",
        "state": "Pembroke",
        "postcode": "HM 01",
        "country": "Bermuda",
        "country_code": "bm"
      },
      "address": "Hamilton, Pembroke, Bermuda"
    },
    {
      "lat": 32.31967561306808,
      "lon": -64.78601907961944,
      "geoinfo": {
        "display_name": "North Shore Village, Devonshire, DV 01, Bermuda",
        "road": null,
        "house_number": null,
        "neighbourhood": null,
        "suburb": null,
        "city_district": null,
        "city": "North Shore Village",
        "state": "Devonshire",
        "postcode": "DV 01",
        "country": "Bermuda",
        "country_code": "bm"
      },
      "address": "Hamilton, Devonshire, Bermuda"
    },
    {
      "lat": 32.31820792523949,
      "lon": -64.74992047038324,
      "geoinfo": {
        "display_name": "North Shore Road, Smith's, FL 03, Bermuda",
        "road": "North Shore Road",
        "house_number": null,
        "neighbourhood": null,
        "suburb": null,
        "city_district": null,
        "city": null,
        "state": "Smith's",
        "postcode": "FL 03",
        "country": "Bermuda",
        "country_code": "bm"
      },
      "address": "North Shore Road, Hamilton, Smith's, Bermuda"
    },
    {
      "lat": 32.28765462726789,
      "lon": -64.82926466256386,
      "geoinfo": {
        "display_name": "Warwick, Bermuda",
        "road": null,
        "house_number": null,
        "neighbourhood": null,
        "suburb": null,
        "city_district": null,
        "city": null,
        "state": "Warwick",
        "postcode": null,
        "country": "Bermuda",
        "country_code": "bm"
      },
      "address": "Hamilton, Warwick, Bermuda"
    },
    {
      "lat": 32.325683212524844,
      "lon": -64.74802597805707,
      "geoinfo": {
        "display_name": "Railway Trail, Flatts, Hamilton, FL 04, Bermuda",
        "road": "Railway Trail",
        "house_number": null,
        "neighbourhood": null,
        "suburb": null,
        "city_district": null,
        "city": "Flatts",
        "state": "Hamilton",
        "postcode": "FL 04",
        "country": "Bermuda",
        "country_code": "bm"
      },
      "address": "Railway Trail, Hamilton, Hamilton, Bermuda"
    },
    {
      "lat": 32.32786427542418,
      "lon": -64.75601394066639,
      "geoinfo": {
        "display_name": "Flatts, Hamilton, FL 04, Bermuda",
        "road": null,
        "house_number": null,
        "neighbourhood": null,
        "suburb": null,
        "city_district": null,
        "city": "Flatts",
        "state": "Hamilton",
        "postcode": "FL 04",
        "country": "Bermuda",
        "country_code": "bm"
      },
      "address": "Hamilton, Hamilton, Bermuda"
    },
    {
      "lat": 32.31360710687315,
      "lon": -64.76159370051114,
      "geoinfo": {
        "display_name": "North Shore Road, Devonshire, FL 03, Bermuda",
        "road": "North Shore Road",
        "house_number": null,
        "neighbourhood": null,
        "suburb": null,
        "city_district": null,
        "city": null,
        "state": "Devonshire",
        "postcode": "FL 03",
        "country": "Bermuda",
        "country_code": "bm"
      },
      "address": "North Shore Road, Hamilton, Devonshire, Bermuda"
    },
    {
      "lat": 32.307852499620736,
      "lon": -64.75606155544796,
      "geoinfo": {
        "display_name": "Vesey Street, North Shore Village, Devonshire, DV 06, Bermuda",
        "road": "Vesey Street",
        "house_number": null,
        "neighbourhood": null,
        "suburb": null,
        "city_district": null,
        "city": "North Shore Village",
        "state": "Devonshire",
        "postcode": "DV 06",
        "country": "Bermuda",
        "country_code": "bm"
      },
      "address": "Vesey Street, Hamilton, Devonshire, Bermuda"
    },
    {
      "lat": 32.29152779631339,
      "lon": -64.79012232409187,
      "geoinfo": {
        "display_name": "The Belvedere Building, 69, Pitts Bay Road, Fairylands, Pembroke, HM 08, Bermuda",
        "road": "Pitts Bay Road",
        "house_number": "69",
        "neighbourhood": null,
        "suburb": null,
        "city_district": null,
        "city": "Fairylands",
        "state": "Pembroke",
        "postcode": "HM 08",
        "country": "Bermuda",
        "country_code": "bm"
      },
      "address": "69 Pitts Bay Road, Hamilton, Pembroke, Bermuda"
    },
    {
      "lat": 32.29554049783597,
      "lon": -64.79054518630305,
      "geoinfo": {
        "display_name": "Bermuda High School for Girls, 19, Richmond Road, Fairylands, Pembroke, HM 08, Bermuda",
        "road": "Richmond Road",
        "house_number": "19",
        "neighbourhood": null,
        "suburb": null,
        "city_district": null,
        "city": "Fairylands",
        "state": "Pembroke",
        "postcode": "HM 08",
        "country": "Bermuda",
        "country_code": "bm"
      },
      "address": "19 Richmond Road, Hamilton, Pembroke, Bermuda"
    },
    {
      "lat": 32.315942704214905,
      "lon": -64.7436730597314,
      "geoinfo": {
        "display_name": "Middle Road, North Shore Village, Smith's, DV 08, Bermuda",
        "road": "Middle Road",
        "house_number": null,
        "neighbourhood": null,
        "suburb": null,
        "city_district": null,
        "city": "North Shore Village",
        "state": "Smith's",
        "postcode": "DV 08",
        "country": "Bermuda",
        "country_code": "bm"
      },
      "address": "Middle Road, Hamilton, Smith's, Bermuda"
    },
    {
      "lat": 32.290368101200315,
      "lon": -64.7928744236695,
      "geoinfo": {
        "display_name": "Fairmont Hamilton Princess, 76, Pitts Bay Road, Fairylands, Pembroke, HM 08, Bermuda",
        "road": "Pitts Bay Road",
        "house_number": "76",
        "neighbourhood": null,
        "suburb": null,
        "city_district": null,
        "city": "Fairylands",
        "state": "Pembroke",
        "postcode": "HM 08",
        "country": "Bermuda",
        "country_code": "bm"
      },
      "address": "76 Pitts Bay Road, Hamilton, Pembroke, Bermuda"
    },
    {
      "lat": 32.285949737970704,
      "lon": -64.75119135032507,
      "geoinfo": {
        "display_name": "Camden, Paget, PG 05, Bermuda",
        "road": null,
        "house_number": null,
        "neighbourhood": null,
        "suburb": null,
        "city_district": null,
        "city": null,
        "state": "Paget",
        "postcode": "PG 05",
        "country": "Bermuda",
        "country_code": "bm"
      },
      "address": "Hamilton, Paget, Bermuda"
    },
    {
      "lat": 32.31115999444691,
      "lon": -64.77554653842144,
      "geoinfo": {
        "display_name": "Northshore Medical & Aesthetics Center, 7, North Shore Road, North Shore Village, Devonshire, DV 01, Bermuda",
        "road": "North Shore Road",
        "house_number": "7",
        "neighbourhood": null,
        "suburb": null,
        "city_district": null,
        "city": "North Shore Village",
        "state": "Devonshire",
        "postcode": "DV 01",
        "country": "Bermuda",
        "country_code": "bm"
      },
      "address": "7 North Shore Road, Hamilton, Devonshire, Bermuda"
    },
    {
      "lat": 32.3043210605098,
      "lon": -64.7537546868911,
      "geoinfo": {
        "display_name": "Watlington Road West, Devonshire, DV 06, Bermuda",
        "road": "Watlington Road West",
        "house_number": null,
        "neighbourhood": null,
        "suburb": null,
        "city_district": null,
        "city": null,
        "state": "Devonshire",
        "postcode": "DV 06",
        "country": "Bermuda",
        "country_code": "bm"
      },
      "address": "Watlington Road West, Hamilton, Devonshire, Bermuda"
    },
    {
      "lat": 32.31273133880168,
      "lon": -64.77395100408793,
      "geoinfo": {
        "display_name": "Ocean View, 17, North Shore Road, North Shore Village, Devonshire, DV 01, Bermuda",
        "road": "North Shore Road",
        "house_number": "17",
        "neighbourhood": null,
        "suburb": null,
        "city_district": null,
        "city": "North Shore Village",
        "state": "Devonshire",
        "postcode": "DV 01",
        "country": "Bermuda",
        "country_code": "bm"
      },
      "address": "17 North Shore Road, Hamilton, Devonshire, Bermuda"
    },
    {
      "lat": 32.30763170459252,
      "lon": -64.7536535209418,
      "geoinfo": {
        "display_name": "Middle Road, North Shore Village, Devonshire, DV 08, Bermuda",
        "road": "Middle Road",
        "house_number": null,
        "neighbourhood": null,
        "suburb": null,
        "city_district": null,
        "city": "North Shore Village",
        "state": "Devonshire",
        "postcode": "DV 08",
        "country": "Bermuda",
        "country_code": "bm"
      },
      "address": "Middle Road, Hamilton, Devonshire, Bermuda"
    },
    {
      "lat": 32.29237010037329,
      "lon": -64.79541583703346,
      "geoinfo": {
        "display_name": "54, Pitts Bay Road, Mill Shares, Fairylands, Pembroke, HM 06, Bermuda",
        "road": "Pitts Bay Road",
        "house_number": "54",
        "neighbourhood": "Mill Shares",
        "suburb": null,
        "city_district": null,
        "city": "Fairylands",
        "state": "Pembroke",
        "postcode": "HM 06",
        "country": "Bermuda",
        "country_code": "bm"
      },
      "address": "54 Pitts Bay Road, Hamilton, Pembroke, Bermuda"
    },
    {
      "lat": 32.29072897239428,
      "lon": -64.78803092852979,
      "geoinfo": {
        "display_name": "Barr's Bay, Pitts Bay Road, Fairylands, Pembroke, HM 08, Bermuda",
        "road": "Pitts Bay Road",
        "house_number": null,
        "neighbourhood": null,
        "suburb": null,
        "city_district": null,
        "city": "Fairylands",
        "state": "Pembroke",
        "postcode": "HM 08",
        "country": "Bermuda",
        "country_code": "bm"
      },
      "address": "Pitts Bay Road, Hamilton, Pembroke, Bermuda"
    },
    {
      "lat": 32.296611898419634,
      "lon": -64.77829771854462,
      "geoinfo": {
        "display_name": "10, Kings Court, City of Hamilton, Pembroke, HM 19, Bermuda",
        "road": "Kings Court",
        "house_number": "10",
        "neighbourhood": null,
        "suburb": null,
        "city_district": null,
        "city": "City of Hamilton",
        "state": "Pembroke",
        "postcode": "HM 19",
        "country": "Bermuda",
        "country_code": "bm"
      },
      "address": "10 Kings Court, Hamilton, Pembroke, Bermuda"
    },
    {
      "lat": 32.313872811626034,
      "lon": -64.74627672560088,
      "geoinfo": {
        "display_name": "Kilderry Lane, Smith's, FL 01, Bermuda",
        "road": "Kilderry Lane",
        "house_number": null,
        "neighbourhood": null,
        "suburb": null,
        "city_district": null,
        "city": null,
        "state": "Smith's",
        "postcode": "FL 01",
        "country": "Bermuda",
        "country_code": "bm"
      },
      "address": "Kilderry Lane, Hamilton, Smith's, Bermuda"
    },
    {
      "lat": 32.31321257730607,
      "lon": -64.73984916292308,
      "geoinfo": {
        "display_name": "Verdmont Road, Smith's, FL 06, Bermuda",
        "road": "Verdmont Road",
        "house_number": null,
        "neighbourhood": null,
        "suburb": null,
        "city_district": null,
        "city": null,
        "state": "Smith's",
        "postcode": "FL 06",
        "country": "Bermuda",
        "country_code": "bm"
      },
      "address": "Verdmont Road, Hamilton, Smith's, Bermuda"
    },
    {
      "lat": 32.30977015018829,
      "lon": -64.76659742618477,
      "geoinfo": {
        "display_name": "North Shore Road, North Shore Village, Devonshire, DV 01, Bermuda",
        "road": "North Shore Road",
        "house_number": null,
        "neighbourhood": null,
        "suburb": null,
        "city_district": null,
        "city": "North Shore Village",
        "state": "Devonshire",
        "postcode": "DV 01",
        "country": "Bermuda",
        "country_code": "bm"
      },
      "address": "394, North Shore Road, Hamilton, DV 01 Devonshire, Bermuda"
    },
    {
      "lat": 32.33257408521426,
      "lon": -64.75739253494558,
      "geoinfo": {
        "display_name": "Flatts, Hamilton, FL 04, Bermuda",
        "road": null,
        "house_number": null,
        "neighbourhood": null,
        "suburb": null,
        "city_district": null,
        "city": "Flatts",
        "state": "Hamilton",
        "postcode": "FL 04",
        "country": "Bermuda",
        "country_code": "bm"
      },
      "address": "348, Flatts, Hamilton, FL 04, Bermuda"
    },
    {
      "lat": 32.316629506684876,
      "lon": -64.75239681845346,
      "geoinfo": {
        "display_name": "North Shore Road, Devonshire, FL 03, Bermuda",
        "road": "North Shore Road",
        "house_number": null,
        "neighbourhood": null,
        "suburb": null,
        "city_district": null,
        "city": null,
        "state": "Devonshire",
        "postcode": "FL 03",
        "country": "Bermuda",
        "country_code": "bm"
      },
      "address": "212, North Shore Road, Hamilton, FL 03 Devonshire, Bermuda"
    },
    {
      "lat": 32.28495813636003,
      "lon": -64.83481887653979,
      "geoinfo": {
        "display_name": "Spanish Point, Pembroke, HM 01, Bermuda",
        "road": null,
        "house_number": null,
        "neighbourhood": null,
        "suburb": null,
        "city_district": null,
        "city": "Spanish Point",
        "state": "Pembroke",
        "postcode": "HM 01",
        "country": "Bermuda",
        "country_code": "bm"
      },
      "address": "054, Hamilton, HM 01 Pembroke, Bermuda"
    },
    {
      "lat": 32.294368008736015,
      "lon": -64.83296305098371,
      "geoinfo": {
        "display_name": "Spanish Point, Pembroke, HM 01, Bermuda",
        "road": null,
        "house_number": null,
        "neighbourhood": null,
        "suburb": null,
        "city_district": null,
        "city": "Spanish Point",
        "state": "Pembroke",
        "postcode": "HM 01",
        "country": "Bermuda",
        "country_code": "bm"
      },
      "address": "543, Hamilton, HM 01 Pembroke, Bermuda"
    },
    {
      "lat": 32.32210594172809,
      "lon": -64.7576693025198,
      "geoinfo": {
        "display_name": "Flatts, Hamilton, FL 04, Bermuda",
        "road": null,
        "house_number": null,
        "neighbourhood": null,
        "suburb": null,
        "city_district": null,
        "city": "Flatts",
        "state": "Hamilton",
        "postcode": "FL 04",
        "country": "Bermuda",
        "country_code": "bm"
      },
      "address": "208, Flatts, Hamilton, FL 04, Bermuda"
    },
    {
      "lat": 32.30867031992728,
      "lon": -64.76836338701351,
      "geoinfo": {
        "display_name": "North Shore Road, North Shore Village, Devonshire, DV 01, Bermuda",
        "road": "North Shore Road",
        "house_number": null,
        "neighbourhood": null,
        "suburb": null,
        "city_district": null,
        "city": "North Shore Village",
        "state": "Devonshire",
        "postcode": "DV 01",
        "country": "Bermuda",
        "country_code": "bm"
      },
      "address": "310, North Shore Road, Hamilton, DV 01 Devonshire, Bermuda"
    },
    {
      "lat": 32.29349819903129,
      "lon": -64.78023576471017,
      "geoinfo": {
        "display_name": "In Motion School of Dance, 71, Reid Street, City of Hamilton, HM 12, Bermuda",
        "road": "Reid Street",
        "house_number": "71",
        "neighbourhood": null,
        "suburb": null,
        "city_district": null,
        "city": "City of Hamilton",
        "state": null,
        "postcode": "HM 12",
        "country": "Bermuda",
        "country_code": "bm"
      },
      "address": "In Motion School of Dance, 71, Reid Street, City of Hamilton, HM 12, Bermuda"
    },
    {
      "lat": 32.33472483881382,
      "lon": -64.79774338403097,
      "geoinfo": {
        "display_name": "Spanish Point, Pembroke, HM 01, Bermuda",
        "road": null,
        "house_number": null,
        "neighbourhood": null,
        "suburb": null,
        "city_district": null,
        "city": "Spanish Point",
        "state": "Pembroke",
        "postcode": "HM 01",
        "country": "Bermuda",
        "country_code": "bm"
      },
      "address": "209, Hamilton, HM 01 Pembroke, Bermuda"
    },
    {
      "lat": 32.27739298749609,
      "lon": -64.82498939033643,
      "geoinfo": {
        "display_name": "Fairylands, Pembroke, HM 05, Bermuda",
        "road": null,
        "house_number": null,
        "neighbourhood": null,
        "suburb": null,
        "city_district": null,
        "city": "Fairylands",
        "state": "Pembroke",
        "postcode": "HM 05",
        "country": "Bermuda",
        "country_code": "bm"
      },
      "address": "415, Hamilton, HM 05 Pembroke, Bermuda"
    },
    {
      "lat": 32.286079372114045,
      "lon": -64.7379314347125,
      "geoinfo": {
        "display_name": "Flatts, Hamilton, FL 04, Bermuda",
        "road": null,
        "house_number": null,
        "neighbourhood": null,
        "suburb": null,
        "city_district": null,
        "city": "Flatts",
        "state": "Hamilton",
        "postcode": "FL 04",
        "country": "Bermuda",
        "country_code": "bm"
      },
      "address": "500, Flatts, Hamilton, FL 04, Bermuda"
    },
    {
      "lat": 32.30257447386932,
      "lon": -64.83027878598214,
      "geoinfo": {
        "display_name": "Spanish Point, Pembroke, HM 01, Bermuda",
        "road": null,
        "house_number": null,
        "neighbourhood": null,
        "suburb": null,
        "city_district": null,
        "city": "Spanish Point",
        "state": "Pembroke",
        "postcode": "HM 01",
        "country": "Bermuda",
        "country_code": "bm"
      },
      "address": "412, Hamilton, HM 01 Pembroke, Bermuda"
    },
    {
      "lat": 32.268868643767895,
      "lon": -64.80890513862765,
      "geoinfo": {
        "display_name": "Warwick, WK 05, Bermuda",
        "road": null,
        "house_number": null,
        "neighbourhood": null,
        "suburb": null,
        "city_district": null,
        "city": null,
        "state": "Warwick",
        "postcode": "WK 05",
        "country": "Bermuda",
        "country_code": "bm"
      },
      "address": "118, Hamilton, WK 05 Warwick, Bermuda"
    },
    {
      "lat": 32.316442379771956,
      "lon": -64.75101700363854,
      "geoinfo": {
        "display_name": "Terceira's North Shore, 2, North Shore Road, Smith's, FL 03, Bermuda",
        "road": "North Shore Road",
        "house_number": "2",
        "neighbourhood": null,
        "suburb": null,
        "city_district": null,
        "city": null,
        "state": "Smith's",
        "postcode": "FL 03",
        "country": "Bermuda",
        "country_code": "bm"
      },
      "address": "2, North Shore Road, Hamilton, FL 03 Smith's, Bermuda"
    },
    {
      "lat": 32.32635017226658,
      "lon": -64.7925335752588,
      "geoinfo": {
        "display_name": "Spanish Point, Pembroke, HM 01, Bermuda",
        "road": null,
        "house_number": null,
        "neighbourhood": null,
        "suburb": null,
        "city_district": null,
        "city": "Spanish Point",
        "state": "Pembroke",
        "postcode": "HM 01",
        "country": "Bermuda",
        "country_code": "bm"
      },
      "address": "862, Hamilton, HM 01 Pembroke, Bermuda"
    },
    {
      "lat": 32.29502413977145,
      "lon": -64.78440480438279,
      "geoinfo": {
        "display_name": "Victoria Street, City of Hamilton, HM 11, Bermuda",
        "road": "Victoria Street",
        "house_number": null,
        "neighbourhood": null,
        "suburb": null,
        "city_district": null,
        "city": "City of Hamilton",
        "state": null,
        "postcode": "HM 11",
        "country": "Bermuda",
        "country_code": "bm"
      },
      "address": "673, Victoria Street, City of Hamilton, HM 11, Bermuda"
    },
    {
      "lat": 32.29720636756301,
      "lon": -64.82788671991824,
      "geoinfo": {
        "display_name": "Spanish Point, Pembroke, HM 01, Bermuda",
        "road": null,
        "house_number": null,
        "neighbourhood": null,
        "suburb": null,
        "city_district": null,
        "city": "Spanish Point",
        "state": "Pembroke",
        "postcode": "HM 01",
        "country": "Bermuda",
        "country_code": "bm"
      },
      "address": "304, Hamilton, HM 01 Pembroke, Bermuda"
    },
    {
      "lat": 32.29902356310045,
      "lon": -64.78182518247458,
      "geoinfo": {
        "display_name": "44, North Street, City of Hamilton, HM 17, Bermuda",
        "road": "North Street",
        "house_number": "44",
        "neighbourhood": null,
        "suburb": null,
        "city_district": null,
        "city": "City of Hamilton",
        "state": null,
        "postcode": "HM 17",
        "country": "Bermuda",
        "country_code": "bm"
      },
      "address": "44, North Street, City of Hamilton, HM 17, Bermuda"
    },
    {
      "lat": 32.29480944778178,
      "lon": -64.76807817813564,
      "geoinfo": {
        "display_name": "U.S. Consulate General in Bermuda, 16, Middle Road, North Shore Village, Devonshire, DV 03, Bermuda",
        "road": "Middle Road",
        "house_number": "16",
        "neighbourhood": null,
        "suburb": null,
        "city_district": null,
        "city": "North Shore Village",
        "state": "Devonshire",
        "postcode": "DV 03",
        "country": "Bermuda",
        "country_code": "bm"
      },
      "address": "16, Middle Road, Hamilton, DV 03 Devonshire, Bermuda"
    },
    {
      "lat": 32.288545524477975,
      "lon": -64.73440074709656,
      "geoinfo": {
        "display_name": "Flatts, Hamilton, FL 04, Bermuda",
        "road": null,
        "house_number": null,
        "neighbourhood": null,
        "suburb": null,
        "city_district": null,
        "city": "Flatts",
        "state": "Hamilton",
        "postcode": "FL 04",
        "country": "Bermuda",
        "country_code": "bm"
      },
      "address": "395, Flatts, Hamilton, FL 04, Bermuda"
    }
  ],
  "updated_at": "2025-10-19T02:47:58.296427+00:00",
  "_kind": "geo_samples"
}