{
  "country_code": "LR",
  "country": "Liberia",
  "city": "Buchanan",
  "geonameid": 2278158,
  "target_addresses": 7,
  "samples": [
    {
      "lat": 5.845605678701069,
      "lon": -10.04628798855415,
      "geoinfo": {
        "display_name": "Buchanan Port, Buchanan, 4000, Liberia",
        "road": null,
        "house_number": null,
        "neighbourhood": null,
        "suburb": null,
        "city_district": null,
        "city": "Buchanan",
        "state": null,
        "postcode": "4000",
        "country": "Liberia",
        "country_code": "lr"
      },
      "address": "Buchanan, Liberia"
    },
    {
      "lat": 5.841711503202005,
      "lon": -10.033461330678229,
      "geoinfo": {
        "display_name": "Neekreen, Grand Bassa County, 4000, Liberia",
        "road": null,
        "house_number": null,
        "neighbourhood": null,
        "suburb": null,
        "city_district": null,
        "city": null,
        "state": "Grand Bassa County",
        "postcode": "4000",
        "country": "Liberia",
        "country_code": "lr"
      },
      "address": "Buchanan, Grand Bassa County, Liberia"
    },
    {
      "lat": 5.863926597163146,
      "lon": -10.061968656773637,
      "geoinfo": {
        "display_name": "Port of Buchanan Road, Port of Buchanan, Buchanan, Commonwealth-B, Grand Bassa County, 4000, Liberia",
        "road": "Port of Buchanan Road",
        "house_number": null,
        "neighbourhood": null,
        "suburb": null,
        "city_district": null,
        "city": "Buchanan",
        "state": "Grand Bassa County",
        "postcode": "4000",
        "country": "Liberia",
        "country_code": "lr"
      },
      "address": "Port of Buchanan Road, Buchanan, Grand Bassa County, Liberia"
    },
    {
      "lat": 5.853408640159628,
      "lon": -10.019474531327953,
      "geoinfo": {
        "display_name": "Lamco Airport, Loop 4 Ring Road, Loop 4 Village, Buchanan, Commonwealth-B, Grand Bassa County, 4000, Liberia",
        "road": "Loop 4 Ring Road",
        "house_number": null,
        "neighbourhood": null,
        "suburb": null,
        "city_district": null,
        "city": "Buchanan",
        "state": "Grand Bassa County",
        "postcode": "4000",
        "country": "Liberia",
        "country_code": "lr"
      },
      "address": "Loop 4 Ring Road, Buchanan, Grand Bassa County, Liberia"
    },
    {
      "lat": 5.871933091749874,
      "lon": -10.038722558301561,
      "geoinfo": {
        "display_name": "Stadium Road, Port of Buchanan, Buchanan, Commonwealth-B, Grand Bassa County, 4000, Liberia",
        "road": "Stadium Road",
        "house_number": null,
        "neighbourhood": null,
        "suburb": null,
        "city_district": null,
        "city": "Buchanan",
        "state": "Grand Bassa County",
        "postcode": "4000",
        "country": "Liberia",
        "country_code": "lr"
      },
      "address": "Stadium Road, Buchanan, Grand Bassa County, Liberia"
    },
    {
      "lat": 5.857238713297924,
      "lon": -10.024047719229591,
      "geoinfo": {
        "display_name": "Lemuel Village Road, Loop 4 Village, Buchanan, Commonwealth-B, Grand Bassa County, 4000, Liberia",
        "road": "Lemuel Village Road",
        "house_number": null,
        "neighbourhood": null,
        "suburb": null,
        "city_district": null,
        "city": "Buchanan",
        "state": "Grand Bassa County",
        "postcode": "4000",
        "country": "Liberia",
        "country_code": "lr"
      },
      "address": "Lemuel Village Road, Buchanan, Grand Bassa County, Liberia"
    },
    {
      "lat": 5.871374230279284,
      "lon": -10.031938079045887,
      "geoinfo": {
        "display_name": "Concession Road, Wait for God's Time, Hanandsville, Buchanan, Commonwealth-B, Grand Bassa County, 4000, Liberia",
        "road": "Concession Road",
        "house_number": null,
        "neighbourhood": "Wait for God's Time",
        "suburb": null,
        "city_district": null,
        "city": "Buchanan",
        "state": "Grand Bassa County",
        "postcode": "4000",
        "country": "Liberia",
        "country_code": "lr"
      },
      "address": "Concession Road, Buchanan, Grand Bassa County, Liberia"
    },
    {
      "lat": 5.894055679309657,
      "lon": -10.087014474240846,
      "geoinfo": {
        "display_name": "Buchanan, Commonwealth-B, Grand Bassa County, 4000, Liberia",
        "road": null,
        "house_number": null,
        "neighbourhood": null,
        "suburb": null,
        "city_district": null,
        "city": "Buchanan",
        "state": "Grand Bassa County",
        "postcode": "4000",
        "country": "Liberia",
        "country_code": "lr"
      },
      "address": "335, Buchanan, Commonwealth-B, Grand Bassa County, 4000, Liberia"
    },
    {
      "lat": 5.851288881886949,
      "lon": -10.077255781393017,
      "geoinfo": {
        "display_name": "Buchanan, Commonwealth-B, Grand Bassa County, 4000, Liberia",
        "road": null,
        "house_number": null,
        "neighbourhood": null,
        "suburb": null,
        "city_district": null,
        "city": "Buchanan",
        "state": "Grand Bassa County",
        "postcode": "4000",
        "country": "Liberia",
        "country_code": "lr"
      },
      "address": "489, Buchanan, Commonwealth-B, Grand Bassa County, 4000, Liberia"
    },
    {
      "lat": 5.862139914452201,
      "lon": -10.070224382594239,
      "geoinfo": {
        "display_name": "Buchanan Port, Buchanan, 4000, Liberia",
        "road": null,
        "house_number": null,
        "neighbourhood": null,
        "suburb": null,
        "city_district": null,
        "city": "Buchanan",
        "state": null,
        "postcode": "4000",
        "country": "Liberia",
        "country_code": "lr"
      },
      "address": "986, Buchanan Port, Buchanan, 4000, Liberia"
    },
    {
      "lat": 5.868953929054543,
      "lon": -10.056783749385051,
      "geoinfo": {
        "display_name": "Atlantic Street, Buchanan, Commonwealth-B, Grand Bassa County, 4000, Liberia",
        "road": "Atlantic Street",
        "house_number": null,
        "neighbourhood": null,
        "suburb": null,
        "city_district": null,
        "city": "Buchanan",
        "state": "Grand Bassa County",
        "postcode": "4000",
        "country": "Liberia",
        "country_code": "lr"
      },
      "address": "452, Atlantic Street, Buchanan, Commonwealth-B, Grand Bassa County, 4000, Liberia"
    },
    {
      "lat": 5.908726183946727,
      "lon": -10.049385503926851,
      "geoinfo": {
        "display_name": "Neekreen, Grand Bassa County, 4000, Liberia",
        "road": null,
        "house_number": null,
        "neighbourhood": null,
        "suburb": null,
        "city_district": null,
        "city": null,
        "state": "Grand Bassa County",
        "postcode": "4000",
        "country": "Liberia",
        "country_code": "lr"
      },
      "address": "506, Buchanan, 4000 Grand Bassa County, Liberia"
    },
    {
      "lat": 5.913925647467001,
      "lon": -10.044935833578453,
      "geoinfo": {
        "display_name": "Jacob Town, Neekreen, Grand Bassa County, 4000, Liberia",
        "road": null,
        "house_number": null,
        "neighbourhood": null,
        "suburb": null,
        "city_district": null,
        "city": null,
        "state": "Grand Bassa County",
        "postcode": "4000",
        "country": "Liberia",
        "country_code": "lr"
      },
      "address": "328, Buchanan, 4000 Grand Bassa County, Liberia"
    },
    {
      "lat": 5.895204940301097,
      "lon": -10.01878314999999,
      "geoinfo": {
        "display_name": "Nelson Avenue, Market Street, Tumiparesum, Buchanan, Commonwealth-B, Grand Bassa County, 4000, Liberia",
        "road": "Market Street",
        "house_number": null,
        "neighbourhood": null,
        "suburb": null,
        "city_district": null,
        "city": "Buchanan",
        "state": "Grand Bassa County",
        "postcode": "4000",
        "country": "Liberia",
        "country_code": "lr"
      },
      "address": "419, Market Street, Buchanan, 4000 Grand Bassa County, Liberia"
    }
  ],
  "updated_at": "2025-10-19T05:23:50.334908+00:00",
  "_kind": "geo_samples"
}