{
  "country_code": "LR",
  "country": "Liberia",
  "city": "Pleebo City",
  "geonameid": 2274372,
  "target_addresses": 7,
  "samples": [
    {
      "lat": 4.5812674848866015,
      "lon": -7.686768774506345,
      "geoinfo": {
        "display_name": "Tummeken, Pleebo, Pleebo/Sodoken, Maryland County, Liberia",
        "road": null,
        "house_number": null,
        "neighbourhood": null,
        "suburb": null,
        "city_district": null,
        "city": "Pleebo",
        "state": "Maryland County",
        "postcode": null,
        "country": "Liberia",
        "country_code": "lr"
      },
      "address": "793, Pleebo City, 47773 Maryland County, Liberia"
    },
    {
      "lat": 4.597394858613732,
      "lon": -7.710383271079266,
      "geoinfo": {
        "display_name": "Jiwroke, Pleebo/Sodoken, Maryland County, Liberia",
        "road": null,
        "house_number": null,
        "neighbourhood": null,
        "suburb": null,
        "city_district": null,
        "city": null,
        "state": "Maryland County",
        "postcode": null,
        "country": "Liberia",
        "country_code": "lr"
      },
      "address": "740, Pleebo City, 99772 Maryland County, Liberia"
    },
    {
      "lat": 4.611090827492603,
      "lon": -7.63308788590721,
      "geoinfo": {
        "display_name": "Yleaken, Pleebo/Sodoken, Maryland County, Liberia",
        "road": null,
        "house_number": null,
        "neighbourhood": null,
        "suburb": null,
        "city_district": null,
        "city": "Yleaken",
        "state": "Maryland County",
        "postcode": null,
        "country": "Liberia",
        "country_code": "lr"
      },
      "address": "943, Pleebo City, 79874 Maryland County, Liberia"
    },
    {
      "lat": 4.555034594762867,
      "lon": -7.650221354007265,
      "geoinfo": {
        "display_name": "Factory Camp, Pleebo, Pleebo/Sodoken, Maryland County, Liberia",
        "road": null,
        "house_number": null,
        "neighbourhood": null,
        "suburb": null,
        "city_district": null,
        "city": "Pleebo",
        "state": "Maryland County",
        "postcode": null,
        "country": "Liberia",
        "country_code": "lr"
      },
      "address": "905, Pleebo City, 64753 Maryland County, Liberia"
    },
    {
      "lat": 4.554144201160416,
      "lon": -7.653162255810387,
      "geoinfo": {
        "display_name": "Factory Camp, Pleebo, Pleebo/Sodoken, Maryland County, Liberia",
        "road": null,
        "house_number": null,
        "neighbourhood": null,
        "suburb": null,
        "city_district": null,
        "city": "Pleebo",
        "state": "Maryland County",
        "postcode": null,
        "country": "Liberia",
        "country_code": "lr"
      },
      "address": "700, Pleebo City, 69406 Maryland County, Liberia"
    },
    {
      "lat": 4.599398988509285,
      "lon": -7.653577245199574,
      "geoinfo": {
        "display_name": "Gebio Big, Pleebo, Pleebo/Sodoken, Maryland County, Liberia",
        "road": null,
        "house_number": null,
        "neighbourhood": null,
        "suburb": null,
        "city_district": null,
        "city": "Pleebo",
        "state": "Maryland County",
        "postcode": null,
        "country": "Liberia",
        "country_code": "lr"
      },
      "address": "681, Pleebo City, 98230 Maryland County, Liberia"
    },
    {
      "lat": 4.587279515011187,
      "lon": -7.69570155142827,
      "geoinfo": {
        "display_name": "Tummeken, Pleebo, Pleebo/Sodoken, Maryland County, Liberia",
        "road": null,
        "house_number": null,
        "neighbourhood": null,
        "suburb": null,
        "city_district": null,
        "city": "Pleebo",
        "state": "Maryland County",
        "postcode": null,
        "country": "Liberia",
        "country_code": "lr"
      },
      "address": "052, Pleebo City, 49679 Maryland County, Liberia"
    }
  ],
  "updated_at": "2025-10-19T05:10:51.500997+00:00",
  "_kind": "geo_samples"
}