{
  "country_code": "LR",
  "country": "Liberia",
  "city": "Tubmanburg",
  "geonameid": 2273435,
  "target_addresses": 7,
  "samples": [
    {
      "lat": 6.842917455684878,
      "lon": -10.854110412464433,
      "geoinfo": {
        "display_name": "Fonor, Tubmanburg, Senjeh, Bomi County, Liberia",
        "road": null,
        "house_number": null,
        "neighbourhood": null,
        "suburb": null,
        "city_district": null,
        "city": "Tubmanburg",
        "state": "Bomi County",
        "postcode": null,
        "country": "Liberia",
        "country_code": "lr"
      },
      "address": "Tubmanburg, Bomi County, Liberia"
    },
    {
      "lat": 6.859260239872965,
      "lon": -10.854722689265861,
      "geoinfo": {
        "display_name": "Dean, Senjeh, Bomi County, Liberia",
        "road": null,
        "house_number": null,
        "neighbourhood": null,
        "suburb": null,
        "city_district": null,
        "city": null,
        "state": "Bomi County",
        "postcode": null,
        "country": "Liberia",
        "country_code": "lr"
      },
      "address": "214, Tubmanburg, 77612 Bomi County, Liberia"
    },
    {
      "lat": 6.834541614190126,
      "lon": -10.80891455675066,
      "geoinfo": {
        "display_name": "Alfred, Senjeh, Bomi County, Liberia",
        "road": null,
        "house_number": null,
        "neighbourhood": null,
        "suburb": null,
        "city_district": null,
        "city": null,
        "state": "Bomi County",
        "postcode": null,
        "country": "Liberia",
        "country_code": "lr"
      },
      "address": "764, Tubmanburg, 13425 Bomi County, Liberia"
    },
    {
      "lat": 6.847212892107083,
      "lon": -10.788437311468673,
      "geoinfo": {
        "display_name": "Varney Kanneh, Klay, Bomi County, Liberia",
        "road": null,
        "house_number": null,
        "neighbourhood": null,
        "suburb": null,
        "city_district": null,
        "city": null,
        "state": "Bomi County",
        "postcode": null,
        "country": "Liberia",
        "country_code": "lr"
      },
      "address": "645, Tubmanburg, 57574 Bomi County, Liberia"
    },
    {
      "lat": 6.892818718794694,
      "lon": -10.816168174197182,
      "geoinfo": {
        "display_name": "Ngolahun, Tubmanburg, Senjeh, Bomi County, Liberia",
        "road": null,
        "house_number": null,
        "neighbourhood": null,
        "suburb": null,
        "city_district": null,
        "city": "Tubmanburg",
        "state": "Bomi County",
        "postcode": null,
        "country": "Liberia",
        "country_code": "lr"
      },
      "address": "490, Ngolahun, Tubmanburg, Senjeh, 92046 Bomi County, Liberia"
    },
    {
      "lat": 6.860890724435615,
      "lon": -10.825299536824502,
      "geoinfo": {
        "display_name": "Tubmanburg, Senjeh, Bomi County, Liberia",
        "road": null,
        "house_number": null,
        "neighbourhood": null,
        "suburb": null,
        "city_district": null,
        "city": "Tubmanburg",
        "state": "Bomi County",
        "postcode": null,
        "country": "Liberia",
        "country_code": "lr"
      },
      "address": "316, Tubmanburg, Senjeh, 40954 Bomi County, Liberia"
    },
    {
      "lat": 6.8517322387990225,
      "lon": -10.810639064608274,
      "geoinfo": {
        "display_name": "Hoff Farm, Senjeh, Bomi County, Liberia",
        "road": null,
        "house_number": null,
        "neighbourhood": null,
        "suburb": null,
        "city_district": null,
        "city": null,
        "state": "Bomi County",
        "postcode": null,
        "country": "Liberia",
        "country_code": "lr"
      },
      "address": "198, Tubmanburg, 58139 Bomi County, Liberia"
    },
    {
      "lat": 6.84058498325947,
      "lon": -10.843412786302634,
      "geoinfo": {
        "display_name": "Fonor, Tubmanburg, Senjeh, Bomi County, Liberia",
        "road": null,
        "house_number": null,
        "neighbourhood": null,
        "suburb": null,
        "city_district": null,
        "city": "Tubmanburg",
        "state": "Bomi County",
        "postcode": null,
        "country": "Liberia",
        "country_code": "lr"
      },
      "address": "732, Fonor, Tubmanburg, Senjeh, 44901 Bomi County, Liberia"
    }
  ],
  "updated_at": "2025-10-19T05:47:28.543079+00:00",
  "_kind": "geo_samples"
}