{
  "country_code": "LR",
  "country": "Liberia",
  "city": "Voinjama",
  "geonameid": 2273312,
  "target_addresses": 7,
  "samples": [
    {
      "lat": 8.43767265142905,
      "lon": -9.712899115599894,
      "geoinfo": {
        "display_name": "Barkadou, Quardu-Gboni, Lofa County, Liberia",
        "road": null,
        "house_number": null,
        "neighbourhood": null,
        "suburb": null,
        "city_district": null,
        "city": null,
        "state": "Lofa County",
        "postcode": null,
        "country": "Liberia",
        "country_code": "lr"
      },
      "address": "893, Voinjama, 22040 Lofa County, Liberia"
    },
    {
      "lat": 8.418778827061981,
      "lon": -9.724110878344021,
      "geoinfo": {
        "display_name": "Selega, Voinjama, Lofa County, Liberia",
        "road": null,
        "house_number": null,
        "neighbourhood": null,
        "suburb": null,
        "city_district": null,
        "city": "Selega",
        "state": "Lofa County",
        "postcode": null,
        "country": "Liberia",
        "country_code": "lr"
      },
      "address": "421, Selega, Voinjama, 76419 Lofa County, Liberia"
    },
    {
      "lat": 8.410190823052478,
      "lon": -9.72511267539106,
      "geoinfo": {
        "display_name": "Marvekonnedu, Voinjama, Lofa County, Liberia",
        "road": null,
        "house_number": null,
        "neighbourhood": null,
        "suburb": null,
        "city_district": null,
        "city": "Marvekonnedu",
        "state": "Lofa County",
        "postcode": null,
        "country": "Liberia",
        "country_code": "lr"
      },
      "address": "463, Voinjama, 94870 Lofa County, Liberia"
    },
    {
      "lat": 8.415225977848667,
      "lon": -9.776167797612336,
      "geoinfo": {
        "display_name": "Zozomai, Yorgborsu Community, Voinjama, Lofa County, Liberia",
        "road": null,
        "house_number": null,
        "neighbourhood": null,
        "suburb": null,
        "city_district": null,
        "city": "Yorgborsu Community",
        "state": "Lofa County",
        "postcode": null,
        "country": "Liberia",
        "country_code": "lr"
      },
      "address": "685, Zozomai, Yorgborsu Community, Voinjama, 61322 Lofa County, Liberia"
    },
    {
      "lat": 8.43902894051157,
      "lon": -9.72274851851032,
      "geoinfo": {
        "display_name": "Kpadeh's Village, Voinjama, Quardu-Gboni, Lofa County, Liberia",
        "road": null,
        "house_number": null,
        "neighbourhood": null,
        "suburb": null,
        "city_district": null,
        "city": "Voinjama",
        "state": "Lofa County",
        "postcode": null,
        "country": "Liberia",
        "country_code": "lr"
      },
      "address": "162, Voinjama, 16186 Lofa County, Liberia"
    },
    {
      "lat": 8.433444516808008,
      "lon": -9.768528385280254,
      "geoinfo": {
        "display_name": "Zeayorworzu Village, Voinjama, Lofa County, Liberia",
        "road": null,
        "house_number": null,
        "neighbourhood": null,
        "suburb": null,
        "city_district": null,
        "city": "Voinjama",
        "state": "Lofa County",
        "postcode": null,
        "country": "Liberia",
        "country_code": "lr"
      },
      "address": "214, Zeayorworzu Village, Voinjama, 04812 Lofa County, Liberia"
    },
    {
      "lat": 8.459013039226122,
      "lon": -9.76173622202165,
      "geoinfo": {
        "display_name": "Dorbor / Mulbah / Duamai, Kugbemai, Voinjama, Lofa County, Liberia",
        "road": null,
        "house_number": null,
        "neighbourhood": null,
        "suburb": null,
        "city_district": null,
        "city": "Kugbemai",
        "state": "Lofa County",
        "postcode": null,
        "country": "Liberia",
        "country_code": "lr"
      },
      "address": "437, Voinjama, 17379 Lofa County, Liberia"
    }
  ],
  "updated_at": "2025-10-19T05:10:17.837465+00:00",
  "_kind": "geo_samples"
}