{
  "country_code": "LU",
  "country": "Luxembourg",
  "city": "Luxembourg",
  "geonameid": 2960316,
  "target_addresses": 34,
  "samples": [
    {
      "lat": 49.64518538057622,
      "lon": 6.127081533060678,
      "geoinfo": {
        "display_name": "15, Rue de Halanzy, Beggen, Luxembourg, Canton Luxembourg, 1712, Luxembourg",
        "road": "Rue de Halanzy",
        "house_number": "15",
        "neighbourhood": null,
        "suburb": "Beggen",
        "city_district": null,
        "city": "Luxembourg",
        "state": null,
        "postcode": "1712",
        "country": "Luxembourg",
        "country_code": "lu"
      },
      "address": "15 Rue de Halanzy, Luxembourg, Luxembourg"
    },
    {
      "lat": 49.58413439628162,
      "lon": 6.119131504198682,
      "geoinfo": {
        "display_name": "5, Rue Robert Stumper, Cloche d'Or, Gasperich, Luxembourg, Canton Luxembourg, 2557, Luxembourg",
        "road": "Rue Robert Stumper",
        "house_number": "5",
        "neighbourhood": null,
        "suburb": "Gasperich",
        "city_district": null,
        "city": "Luxembourg",
        "state": null,
        "postcode": "2557",
        "country": "Luxembourg",
        "country_code": "lu"
      },
      "address": "5 Rue Robert Stumper, Luxembourg, Luxembourg"
    },
    {
      "lat": 49.59590925063042,
      "lon": 6.074596507060089,
      "geoinfo": {
        "display_name": "Ënneschte Bësch, Rue des Celtes, Merl, Luxembourg, Canton Luxembourg, 8076, Luxembourg",
        "road": "Rue des Celtes",
        "house_number": null,
        "neighbourhood": null,
        "suburb": "Merl",
        "city_district": null,
        "city": "Luxembourg",
        "state": null,
        "postcode": "8076",
        "country": "Luxembourg",
        "country_code": "lu"
      },
      "address": "Rue des Celtes, Luxembourg, Luxembourg"
    },
    {
      "lat": 49.644778767249036,
      "lon": 6.145758742173846,
      "geoinfo": {
        "display_name": "83, Montée de Dommeldange, Dommeldange, Luxembourg, Canton Luxembourg, 1419, Luxembourg",
        "road": "Montée de Dommeldange",
        "house_number": "83",
        "neighbourhood": null,
        "suburb": "Dommeldange",
        "city_district": null,
        "city": "Luxembourg",
        "state": null,
        "postcode": "1419",
        "country": "Luxembourg",
        "country_code": "lu"
      },
      "address": "83 Montée de Dommeldange, Luxembourg, Luxembourg"
    },
    {
      "lat": 49.57764752935671,
      "lon": 6.173883788874131,
      "geoinfo": {
        "display_name": "Allée de la Jeunesse Sacrifiée 1940-1945, Itzig, Hesperange, Canton Luxembourg, 5972, Luxembourg",
        "road": "Allée de la Jeunesse Sacrifiée 1940-1945",
        "house_number": null,
        "neighbourhood": null,
        "suburb": null,
        "city_district": null,
        "city": "Itzig",
        "state": null,
        "postcode": "5972",
        "country": "Luxembourg",
        "country_code": "lu"
      },
      "address": "Allée de la Jeunesse Sacrifiée 1940-1945, Luxembourg, Luxembourg"
    },
    {
      "lat": 49.62233060398577,
      "lon": 6.072073164134322,
      "geoinfo": {
        "display_name": "Rue Mathias Saur, Strassen, Canton Luxembourg, 8112, Luxembourg",
        "road": "Rue Mathias Saur",
        "house_number": null,
        "neighbourhood": null,
        "suburb": null,
        "city_district": null,
        "city": "Strassen",
        "state": null,
        "postcode": "8112",
        "country": "Luxembourg",
        "country_code": "lu"
      },
      "address": "Rue Mathias Saur, Luxembourg, Luxembourg"
    },
    {
      "lat": 49.59657953124044,
      "lon": 6.087101253164764,
      "geoinfo": {
        "display_name": "87, Rue des Celtes, Cessange, Luxembourg, Canton Luxembourg, 1318, Luxembourg",
        "road": "Rue des Celtes",
        "house_number": "87",
        "neighbourhood": null,
        "suburb": "Cessange",
        "city_district": null,
        "city": "Luxembourg",
        "state": null,
        "postcode": "1318",
        "country": "Luxembourg",
        "country_code": "lu"
      },
      "address": "87 Rue des Celtes, Luxembourg, Luxembourg"
    },
    {
      "lat": 49.585798846428595,
      "lon": 6.164770032480449,
      "geoinfo": {
        "display_name": "81, Rue de l'Horizon, Itzig, Hesperange, Canton Luxembourg, 5960, Luxembourg",
        "road": "Rue de l'Horizon",
        "house_number": "81",
        "neighbourhood": null,
        "suburb": null,
        "city_district": null,
        "city": "Itzig",
        "state": null,
        "postcode": "5960",
        "country": "Luxembourg",
        "country_code": "lu"
      },
      "address": "81 Rue de l'Horizon, Luxembourg, Luxembourg"
    },
    {
      "lat": 49.617691058425045,
      "lon": 6.06784133072353,
      "geoinfo": {
        "display_name": "32, Rue des Prés, Strassen, Canton Luxembourg, 8039, Luxembourg",
        "road": "Rue des Prés",
        "house_number": "32",
        "neighbourhood": null,
        "suburb": null,
        "city_district": null,
        "city": "Strassen",
        "state": null,
        "postcode": "8039",
        "country": "Luxembourg",
        "country_code": "lu"
      },
      "address": "32 Rue des Prés, Luxembourg, Luxembourg"
    },
    {
      "lat": 49.598332205103176,
      "lon": 6.176651013006569,
      "geoinfo": {
        "display_name": "Autoroute de Trèves, Itzig, Hesperange, Canton Luxembourg, 1348, Luxembourg",
        "road": "Autoroute de Trèves",
        "house_number": null,
        "neighbourhood": null,
        "suburb": null,
        "city_district": null,
        "city": "Itzig",
        "state": null,
        "postcode": "1348",
        "country": "Luxembourg",
        "country_code": "lu"
      },
      "address": "Autoroute de Trèves, Luxembourg, Luxembourg"
    },
    {
      "lat": 49.56780860923597,
      "lon": 6.127911519644327,
      "geoinfo": {
        "display_name": "Autoroute de Dudelange, Hesperange, Canton Luxembourg, 1818, Luxembourg",
        "road": "Autoroute de Dudelange",
        "house_number": null,
        "neighbourhood": null,
        "suburb": null,
        "city_district": null,
        "city": "Hesperange",
        "state": null,
        "postcode": "1818",
        "country": "Luxembourg",
        "country_code": "lu"
      },
      "address": "Autoroute de Dudelange, Luxembourg, Luxembourg"
    },
    {
      "lat": 49.56768085814816,
      "lon": 6.114961003352292,
      "geoinfo": {
        "display_name": "Route de Bettembourg, Gasperich, Luxembourg, Canton Luxembourg, 1882, Luxembourg",
        "road": "Route de Bettembourg",
        "house_number": null,
        "neighbourhood": null,
        "suburb": "Gasperich",
        "city_district": null,
        "city": "Luxembourg",
        "state": null,
        "postcode": "1882",
        "country": "Luxembourg",
        "country_code": "lu"
      },
      "address": "Route de Bettembourg, Luxembourg, Luxembourg"
    },
    {
      "lat": 49.62197144338187,
      "lon": 6.076445371922074,
      "geoinfo": {
        "display_name": "19, Rue des Lilas, Strassen, Canton Luxembourg, 8035, Luxembourg",
        "road": "Rue des Lilas",
        "house_number": "19",
        "neighbourhood": null,
        "suburb": null,
        "city_district": null,
        "city": "Strassen",
        "state": null,
        "postcode": "8035",
        "country": "Luxembourg",
        "country_code": "lu"
      },
      "address": "19 Rue des Lilas, Luxembourg, Luxembourg"
    },
    {
      "lat": 49.62544397536113,
      "lon": 6.175044117419251,
      "geoinfo": {
        "display_name": "Stade Henri Funck, G'Röhans, Grünewald, Neudorf-Weimershof, Luxembourg, Canton Luxembourg, 1947, Luxembourg",
        "road": "G'Röhans",
        "house_number": null,
        "neighbourhood": "Grünewald",
        "suburb": "Neudorf-Weimershof",
        "city_district": null,
        "city": "Luxembourg",
        "state": null,
        "postcode": "1947",
        "country": "Luxembourg",
        "country_code": "lu"
      },
      "address": "G'Röhans, Luxembourg, Luxembourg"
    },
    {
      "lat": 49.60614052672729,
      "lon": 6.154361376728347,
      "geoinfo": {
        "display_name": "Rue Englebert Neveu, Hamm, Luxembourg, Canton Luxembourg, 1713, Luxembourg",
        "road": "Rue Englebert Neveu",
        "house_number": null,
        "neighbourhood": null,
        "suburb": "Hamm",
        "city_district": null,
        "city": "Luxembourg",
        "state": null,
        "postcode": "1713",
        "country": "Luxembourg",
        "country_code": "lu"
      },
      "address": "Rue Englebert Neveu, Luxembourg, Luxembourg"
    },
    {
      "lat": 49.63770484692948,
      "lon": 6.121641924065173,
      "geoinfo": {
        "display_name": "Eicherfeld, TERRA, Muhlenbach, Luxembourg, Canton Luxembourg, 1462, Luxembourg",
        "road": "Eicherfeld",
        "house_number": null,
        "neighbourhood": null,
        "suburb": "Muhlenbach",
        "city_district": null,
        "city": "Luxembourg",
        "state": null,
        "postcode": "1462",
        "country": "Luxembourg",
        "country_code": "lu"
      },
      "address": "Eicherfeld, Luxembourg, Luxembourg"
    },
    {
      "lat": 49.61292695873992,
      "lon": 6.099781624085156,
      "geoinfo": {
        "display_name": "Rue Aloyse Kayser, Belair, Luxembourg, Canton Luxembourg, 1654, Luxembourg",
        "road": "Rue Aloyse Kayser",
        "house_number": null,
        "neighbourhood": null,
        "suburb": "Belair",
        "city_district": null,
        "city": "Luxembourg",
        "state": null,
        "postcode": "1654",
        "country": "Luxembourg",
        "country_code": "lu"
      },
      "address": "Rue Aloyse Kayser, Luxembourg, Luxembourg"
    },
    {
      "lat": 49.6057285488664,
      "lon": 6.084538401606917,
      "geoinfo": {
        "display_name": "Rue Nicolas Bové, Zones d'Activités Nic Bové, Merl, Luxembourg, Canton Luxembourg, 1253, Luxembourg",
        "road": "Rue Nicolas Bové",
        "house_number": null,
        "neighbourhood": null,
        "suburb": "Merl",
        "city_district": null,
        "city": "Luxembourg",
        "state": null,
        "postcode": "1253",
        "country": "Luxembourg",
        "country_code": "lu"
      },
      "address": "Rue Nicolas Bové, Luxembourg, Luxembourg"
    },
    {
      "lat": 49.620488453454655,
      "lon": 6.158628551082475,
      "geoinfo": {
        "display_name": "197, Rue de Neudorf, Weimershof, Neudorf-Weimershof, Luxembourg, Canton Luxembourg, 2221, Luxembourg",
        "road": "Rue de Neudorf",
        "house_number": "197",
        "neighbourhood": null,
        "suburb": "Weimershof",
        "city_district": null,
        "city": "Luxembourg",
        "state": null,
        "postcode": "2221",
        "country": "Luxembourg",
        "country_code": "lu"
      },
      "address": "197 Rue de Neudorf, Luxembourg, Luxembourg"
    },
    {
      "lat": 49.57451019351861,
      "lon": 6.157976881533388,
      "geoinfo": {
        "display_name": "Centre de Sports et Loisirs Holleschbierg, Rue du Stade 2000, Fentange, Hesperange, Canton Luxembourg, 5812, Luxembourg",
        "road": "Rue du Stade 2000",
        "house_number": null,
        "neighbourhood": null,
        "suburb": null,
        "city_district": null,
        "city": "Fentange",
        "state": null,
        "postcode": "5812",
        "country": "Luxembourg",
        "country_code": "lu"
      },
      "address": "Rue du Stade 2000, Luxembourg, Luxembourg"
    },
    {
      "lat": 49.629573931630794,
      "lon": 6.121164832128321,
      "geoinfo": {
        "display_name": "128, Rue Émile Metz, TERRA, Muhlenbach, Luxembourg, Canton Luxembourg, 2149, Luxembourg",
        "road": "Rue Émile Metz",
        "house_number": "128",
        "neighbourhood": null,
        "suburb": "Muhlenbach",
        "city_district": null,
        "city": "Luxembourg",
        "state": null,
        "postcode": "2149",
        "country": "Luxembourg",
        "country_code": "lu"
      },
      "address": "128 Rue Émile Metz, Luxembourg, Luxembourg"
    },
    {
      "lat": 49.62433566619576,
      "lon": 6.1373767892308315,
      "geoinfo": {
        "display_name": "Emeraude, 6, Rue François Baclesse, European District North, Kirchberg, Luxembourg, Canton Luxembourg, 1208, Luxembourg",
        "road": "Rue François Baclesse",
        "house_number": "6",
        "neighbourhood": "European District North",
        "suburb": "Kirchberg",
        "city_district": null,
        "city": "Luxembourg",
        "state": null,
        "postcode": "1208",
        "country": "Luxembourg",
        "country_code": "lu"
      },
      "address": "6 Rue François Baclesse, Luxembourg, Luxembourg"
    },
    {
      "lat": 49.613744230955604,
      "lon": 6.168319279342587,
      "geoinfo": {
        "display_name": "Brucher, Val de Hamm, Hamm, Luxembourg, Canton Luxembourg, 1529, Luxembourg",
        "road": "Val de Hamm",
        "house_number": null,
        "neighbourhood": null,
        "suburb": "Hamm",
        "city_district": null,
        "city": "Luxembourg",
        "state": null,
        "postcode": "1529",
        "country": "Luxembourg",
        "country_code": "lu"
      },
      "address": "Val de Hamm, Luxembourg, Luxembourg"
    },
    {
      "lat": 49.587839715287615,
      "lon": 6.1251395325890945,
      "geoinfo": {
        "display_name": "50, Rue Richard Wagner, Gasperich, Luxembourg, Canton Luxembourg, 2711, Luxembourg",
        "road": "Rue Richard Wagner",
        "house_number": "50",
        "neighbourhood": null,
        "suburb": "Gasperich",
        "city_district": null,
        "city": "Luxembourg",
        "state": null,
        "postcode": "2711",
        "country": "Luxembourg",
        "country_code": "lu"
      },
      "address": "50 Rue Richard Wagner, Luxembourg, Luxembourg"
    },
    {
      "lat": 49.63351752710048,
      "lon": 6.142020960268564,
      "geoinfo": {
        "display_name": "158, Rue des Sources, Weimerskirch, Luxembourg, Canton Luxembourg, 2542, Luxembourg",
        "road": "Rue des Sources",
        "house_number": "158",
        "neighbourhood": null,
        "suburb": "Weimerskirch",
        "city_district": null,
        "city": "Luxembourg",
        "state": null,
        "postcode": "2542",
        "country": "Luxembourg",
        "country_code": "lu"
      },
      "address": "158 Rue des Sources, Luxembourg, Luxembourg"
    },
    {
      "lat": 49.57045085909617,
      "lon": 6.109577712441561,
      "geoinfo": {
        "display_name": "Gasperich, Luxembourg, Canton Luxembourg, 1882, Luxembourg",
        "road": null,
        "house_number": null,
        "neighbourhood": null,
        "suburb": "Gasperich",
        "city_district": null,
        "city": "Luxembourg",
        "state": null,
        "postcode": "1882",
        "country": "Luxembourg",
        "country_code": "lu"
      },
      "address": "Gasperich, Luxembourg, Luxembourg"
    },
    {
      "lat": 49.5703912527996,
      "lon": 6.145233199919933,
      "geoinfo": {
        "display_name": "Ceinture Beau-Site, Fentange, Hesperange, Canton Luxembourg, 5817, Luxembourg",
        "road": "Ceinture Beau-Site",
        "house_number": null,
        "neighbourhood": null,
        "suburb": null,
        "city_district": null,
        "city": "Fentange",
        "state": null,
        "postcode": "5817",
        "country": "Luxembourg",
        "country_code": "lu"
      },
      "address": "Ceinture Beau-Site, Luxembourg, Luxembourg"
    },
    {
      "lat": 49.60780816143406,
      "lon": 6.068251727149213,
      "geoinfo": {
        "display_name": "164, Rue de Luxembourg, Bertrange, Canton Luxembourg, 8077, Luxembourg",
        "road": "Rue de Luxembourg",
        "house_number": "164",
        "neighbourhood": null,
        "suburb": null,
        "city_district": "Bertrange",
        "city": "Bertrange",
        "state": null,
        "postcode": "8077",
        "country": "Luxembourg",
        "country_code": "lu"
      },
      "address": "164 Rue de Luxembourg, Luxembourg, Luxembourg"
    },
    {
      "lat": 49.61315652808941,
      "lon": 6.196122620888626,
      "geoinfo": {
        "display_name": "Route de Remich, Hamm, Luxembourg, Canton Luxembourg, 2517, Luxembourg",
        "road": "Route de Remich",
        "house_number": null,
        "neighbourhood": null,
        "suburb": "Hamm",
        "city_district": null,
        "city": "Luxembourg",
        "state": null,
        "postcode": "2517",
        "country": "Luxembourg",
        "country_code": "lu"
      },
      "address": "Route de Remich, Luxembourg, Luxembourg"
    },
    {
      "lat": 49.60705150203115,
      "lon": 6.067858395975691,
      "geoinfo": {
        "display_name": "160, Rue de Luxembourg, Bertrange, Canton Luxembourg, 8077, Luxembourg",
        "road": "Rue de Luxembourg",
        "house_number": "160",
        "neighbourhood": null,
        "suburb": null,
        "city_district": "Bertrange",
        "city": "Bertrange",
        "state": null,
        "postcode": "8077",
        "country": "Luxembourg",
        "country_code": "lu"
      },
      "address": "160 Rue de Luxembourg, Luxembourg, Luxembourg"
    },
    {
      "lat": 49.60296593516127,
      "lon": 6.0937947479204855,
      "geoinfo": {
        "display_name": "162, Rue de Merl, Merl, Luxembourg, Canton Luxembourg, 2146, Luxembourg",
        "road": "Rue de Merl",
        "house_number": "162",
        "neighbourhood": null,
        "suburb": "Merl",
        "city_district": null,
        "city": "Luxembourg",
        "state": null,
        "postcode": "2146",
        "country": "Luxembourg",
        "country_code": "lu"
      },
      "address": "162 Rue de Merl, Luxembourg, Luxembourg"
    },
    {
      "lat": 49.589455452809084,
      "lon": 6.192301599008295,
      "geoinfo": {
        "display_name": "CR 226, Itzig, Hesperange, Canton Luxembourg, 5975, Luxembourg",
        "road": "CR 226",
        "house_number": null,
        "neighbourhood": null,
        "suburb": null,
        "city_district": null,
        "city": "Itzig",
        "state": null,
        "postcode": "5975",
        "country": "Luxembourg",
        "country_code": "lu"
      },
      "address": "CR 226, Luxembourg, Luxembourg"
    },
    {
      "lat": 49.579702736203636,
      "lon": 6.140962377334216,
      "geoinfo": {
        "display_name": "Rue Père Conrad, Howald, Hesperange, Canton Luxembourg, 1353, Luxembourg",
        "road": "Rue Père Conrad",
        "house_number": null,
        "neighbourhood": null,
        "suburb": null,
        "city_district": null,
        "city": "Howald",
        "state": null,
        "postcode": "1353",
        "country": "Luxembourg",
        "country_code": "lu"
      },
      "address": "Rue Père Conrad, Luxembourg, Luxembourg"
    },
    {
      "lat": 49.58733025907079,
      "lon": 6.094517770640935,
      "geoinfo": {
        "display_name": "Rue de Bouillon, Cessange, Luxembourg, Canton Luxembourg, 1934, Luxembourg",
        "road": "Rue de Bouillon",
        "house_number": null,
        "neighbourhood": null,
        "suburb": "Cessange",
        "city_district": null,
        "city": "Luxembourg",
        "state": null,
        "postcode": "1934",
        "country": "Luxembourg",
        "country_code": "lu"
      },
      "address": "Rue de Bouillon, Luxembourg, Luxembourg"
    },
    {
      "lat": 49.601240507514454,
      "lon": 6.148843545817601,
      "geoinfo": {
        "display_name": "Rue Godchaux, Hamm, Luxembourg, Canton Luxembourg, 2333, Luxembourg",
        "road": "Rue Godchaux",
        "house_number": null,
        "neighbourhood": null,
        "suburb": "Hamm",
        "city_district": null,
        "city": "Luxembourg",
        "state": null,
        "postcode": "2333",
        "country": "Luxembourg",
        "country_code": "lu"
      },
      "address": "625, Rue Godchaux, Hamm, Luxembourg, Canton Luxembourg, 2333, Luxembourg"
    },
    {
      "lat": 49.631026802937264,
      "lon": 6.090945569093098,
      "geoinfo": {
        "display_name": "Rue de Kopstal, Rollingergrund, Luxembourg, Canton Luxembourg, 2410, Luxembourg",
        "road": "Rue de Kopstal",
        "house_number": null,
        "neighbourhood": null,
        "suburb": "Rollingergrund",
        "city_district": null,
        "city": "Luxembourg",
        "state": null,
        "postcode": "2410",
        "country": "Luxembourg",
        "country_code": "lu"
      },
      "address": "467, Rue de Kopstal, Rollingergrund, Luxembourg, Canton Luxembourg, 2410, Luxembourg"
    },
    {
      "lat": 49.588656810402014,
      "lon": 6.108338774871474,
      "geoinfo": {
        "display_name": "6, Rue Verte, Cessange, Luxembourg, Canton Luxembourg, 2667, Luxembourg",
        "road": "Rue Verte",
        "house_number": "6",
        "neighbourhood": null,
        "suburb": "Cessange",
        "city_district": null,
        "city": "Luxembourg",
        "state": null,
        "postcode": "2667",
        "country": "Luxembourg",
        "country_code": "lu"
      },
      "address": "6, Rue Verte, Cessange, Luxembourg, Canton Luxembourg, 2667, Luxembourg"
    },
    {
      "lat": 49.624675453240556,
      "lon": 6.097365287696439,
      "geoinfo": {
        "display_name": "Reckenthal, Rollingergrund, Luxembourg, Canton Luxembourg, 2410, Luxembourg",
        "road": "Reckenthal",
        "house_number": null,
        "neighbourhood": null,
        "suburb": "Rollingergrund",
        "city_district": null,
        "city": "Luxembourg",
        "state": null,
        "postcode": "2410",
        "country": "Luxembourg",
        "country_code": "lu"
      },
      "address": "666, Reckenthal, Rollingergrund, Luxembourg, Canton Luxembourg, 2410, Luxembourg"
    },
    {
      "lat": 49.62487250109215,
      "lon": 6.128952750502166,
      "geoinfo": {
        "display_name": "33, Montée Saint-Crépin, Eich, Luxembourg, Canton Luxembourg, 1365, Luxembourg",
        "road": "Montée Saint-Crépin",
        "house_number": "33",
        "neighbourhood": null,
        "suburb": "Eich",
        "city_district": null,
        "city": "Luxembourg",
        "state": null,
        "postcode": "1365",
        "country": "Luxembourg",
        "country_code": "lu"
      },
      "address": "33, Montée Saint-Crépin, Eich, Luxembourg, Canton Luxembourg, 1365, Luxembourg"
    },
    {
      "lat": 49.63304559944392,
      "lon": 6.155043539740633,
      "geoinfo": {
        "display_name": "Fond Saint-Martin, Weimerskirch, Luxembourg, Canton Luxembourg, 1519, Luxembourg",
        "road": "Fond Saint-Martin",
        "house_number": null,
        "neighbourhood": null,
        "suburb": "Weimerskirch",
        "city_district": null,
        "city": "Luxembourg",
        "state": null,
        "postcode": "1519",
        "country": "Luxembourg",
        "country_code": "lu"
      },
      "address": "163, Fond Saint-Martin, Weimerskirch, Luxembourg, Canton Luxembourg, 1519, Luxembourg"
    },
    {
      "lat": 49.625956557920006,
      "lon": 6.098050668226171,
      "geoinfo": {
        "display_name": "Rue de Kopstal, Rollingergrund, Luxembourg, Canton Luxembourg, 2410, Luxembourg",
        "road": "Rue de Kopstal",
        "house_number": null,
        "neighbourhood": null,
        "suburb": "Rollingergrund",
        "city_district": null,
        "city": "Luxembourg",
        "state": null,
        "postcode": "2410",
        "country": "Luxembourg",
        "country_code": "lu"
      },
      "address": "110, Rue de Kopstal, Rollingergrund, Luxembourg, Canton Luxembourg, 2410, Luxembourg"
    },
    {
      "lat": 49.58880731993077,
      "lon": 6.146822229515104,
      "geoinfo": {
        "display_name": "33, Rue du Couvent, Howald, Hesperange, Canton Luxembourg, 1363, Luxembourg",
        "road": "Rue du Couvent",
        "house_number": "33",
        "neighbourhood": null,
        "suburb": null,
        "city_district": null,
        "city": "Howald",
        "state": null,
        "postcode": "1363",
        "country": "Luxembourg",
        "country_code": "lu"
      },
      "address": "33, Rue du Couvent, Howald, Hesperange, Canton Luxembourg, 1363, Luxembourg"
    },
    {
      "lat": 49.592719535089046,
      "lon": 6.109389503940816,
      "geoinfo": {
        "display_name": "39, Am Grëndchen, Cessange, Luxembourg, Canton Luxembourg, 1655, Luxembourg",
        "road": "Am Grëndchen",
        "house_number": "39",
        "neighbourhood": null,
        "suburb": "Cessange",
        "city_district": null,
        "city": "Luxembourg",
        "state": null,
        "postcode": "1655",
        "country": "Luxembourg",
        "country_code": "lu"
      },
      "address": "39, Am Grëndchen, Cessange, Luxembourg, Canton Luxembourg, 1655, Luxembourg"
    },
    {
      "lat": 49.63902872679549,
      "lon": 6.16569971247903,
      "geoinfo": {
        "display_name": "Boulevard Pierre Frieden, Kiem, Kirchberg, Luxembourg, Canton Luxembourg, 1860, Luxembourg",
        "road": "Boulevard Pierre Frieden",
        "house_number": null,
        "neighbourhood": "Kiem",
        "suburb": "Kirchberg",
        "city_district": null,
        "city": "Luxembourg",
        "state": null,
        "postcode": "1860",
        "country": "Luxembourg",
        "country_code": "lu"
      },
      "address": "224, Boulevard Pierre Frieden, Kiem, Kirchberg, Luxembourg, Canton Luxembourg, 1860, Luxembourg"
    },
    {
      "lat": 49.60302869741609,
      "lon": 6.148113196746565,
      "geoinfo": {
        "display_name": "9, Rue Sainte-Catherine, Bonnevoie, Luxembourg, Canton Luxembourg, 1317, Luxembourg",
        "road": "Rue Sainte-Catherine",
        "house_number": "9",
        "neighbourhood": null,
        "suburb": "Bonnevoie",
        "city_district": null,
        "city": "Luxembourg",
        "state": null,
        "postcode": "1317",
        "country": "Luxembourg",
        "country_code": "lu"
      },
      "address": "9, Rue Sainte-Catherine, Bonnevoie, Luxembourg, Canton Luxembourg, 1317, Luxembourg"
    },
    {
      "lat": 49.591718148027866,
      "lon": 6.1170250366269565,
      "geoinfo": {
        "display_name": "221, Route d'Esch, Gasperich, Luxembourg, Canton Luxembourg, 1471, Luxembourg",
        "road": "Route d'Esch",
        "house_number": "221",
        "neighbourhood": null,
        "suburb": "Gasperich",
        "city_district": null,
        "city": "Luxembourg",
        "state": null,
        "postcode": "1471",
        "country": "Luxembourg",
        "country_code": "lu"
      },
      "address": "221, Route d'Esch, Gasperich, Luxembourg, Canton Luxembourg, 1471, Luxembourg"
    },
    {
      "lat": 49.60245125492504,
      "lon": 6.1610829732480195,
      "geoinfo": {
        "display_name": "Rue Anatole France, Bonnevoie, Luxembourg, Canton Luxembourg, 1634, Luxembourg",
        "road": "Rue Anatole France",
        "house_number": null,
        "neighbourhood": null,
        "suburb": "Bonnevoie",
        "city_district": null,
        "city": "Luxembourg",
        "state": null,
        "postcode": "1634",
        "country": "Luxembourg",
        "country_code": "lu"
      },
      "address": "197, Rue Anatole France, Bonnevoie, Luxembourg, Canton Luxembourg, 1634, Luxembourg"
    },
    {
      "lat": 49.5953438708036,
      "lon": 6.131010302872563,
      "geoinfo": {
        "display_name": "Pont Jean-Pierre Buchler, Gasperich, Luxembourg, Canton Luxembourg, 1122, Luxembourg",
        "road": "Pont Jean-Pierre Buchler",
        "house_number": null,
        "neighbourhood": null,
        "suburb": "Gasperich",
        "city_district": null,
        "city": "Luxembourg",
        "state": null,
        "postcode": "1122",
        "country": "Luxembourg",
        "country_code": "lu"
      },
      "address": "317, Pont Jean-Pierre Buchler, Gasperich, Luxembourg, Canton Luxembourg, 1122, Luxembourg"
    },
    {
      "lat": 49.63270075656892,
      "lon": 6.126926126181333,
      "geoinfo": {
        "display_name": "14, Eicherfeld, TERRA, Muhlenbach, Luxembourg, Canton Luxembourg, 1462, Luxembourg",
        "road": "Eicherfeld",
        "house_number": "14",
        "neighbourhood": null,
        "suburb": "Muhlenbach",
        "city_district": null,
        "city": "Luxembourg",
        "state": null,
        "postcode": "1462",
        "country": "Luxembourg",
        "country_code": "lu"
      },
      "address": "14, Eicherfeld, TERRA, Muhlenbach, Luxembourg, Canton Luxembourg, 1462, Luxembourg"
    },
    {
      "lat": 49.621612860714215,
      "lon": 6.108930710877399,
      "geoinfo": {
        "display_name": "9, Rue Nina et Julien Lefèvre, Limpertsberg, Luxembourg, Canton Luxembourg, 1952, Luxembourg",
        "road": "Rue Nina et Julien Lefèvre",
        "house_number": "9",
        "neighbourhood": null,
        "suburb": "Limpertsberg",
        "city_district": null,
        "city": "Luxembourg",
        "state": null,
        "postcode": "1952",
        "country": "Luxembourg",
        "country_code": "lu"
      },
      "address": "9, Rue Nina et Julien Lefèvre, Limpertsberg, Luxembourg, Canton Luxembourg, 1952, Luxembourg"
    },
    {
      "lat": 49.610969788643395,
      "lon": 6.180574222302348,
      "geoinfo": {
        "display_name": "Val du Scheid, Hamm, Luxembourg, Canton Luxembourg, 1113, Luxembourg",
        "road": "Val du Scheid",
        "house_number": null,
        "neighbourhood": null,
        "suburb": "Hamm",
        "city_district": null,
        "city": "Luxembourg",
        "state": null,
        "postcode": "1113",
        "country": "Luxembourg",
        "country_code": "lu"
      },
      "address": "002, Val du Scheid, Hamm, Luxembourg, Canton Luxembourg, 1113, Luxembourg"
    },
    {
      "lat": 49.62676899163026,
      "lon": 6.071779121592716,
      "geoinfo": {
        "display_name": "Rue Mathias Goergen, Strassen, Canton Luxembourg, 8028, Luxembourg",
        "road": "Rue Mathias Goergen",
        "house_number": null,
        "neighbourhood": null,
        "suburb": null,
        "city_district": null,
        "city": "Strassen",
        "state": null,
        "postcode": "8028",
        "country": "Luxembourg",
        "country_code": "lu"
      },
      "address": "353, Rue Mathias Goergen, Strassen, Canton Luxembourg, 8028, Luxembourg"
    },
    {
      "lat": 49.609184327201326,
      "lon": 6.079733877398066,
      "geoinfo": {
        "display_name": "Rue du Puits Romain, Z.A. Bourmicht, Bertrange, Canton Luxembourg, 8070, Luxembourg",
        "road": "Rue du Puits Romain",
        "house_number": null,
        "neighbourhood": null,
        "suburb": null,
        "city_district": "Bertrange",
        "city": "Bertrange",
        "state": null,
        "postcode": "8070",
        "country": "Luxembourg",
        "country_code": "lu"
      },
      "address": "903, Rue du Puits Romain, Z.A. Bourmicht, Bertrange, Canton Luxembourg, 8070, Luxembourg"
    },
    {
      "lat": 49.60819522985707,
      "lon": 6.081829322449148,
      "geoinfo": {
        "display_name": "Autoroute d'Arlon, Bertrange, Strassen, Canton Luxembourg, 1253, Luxembourg",
        "road": "Autoroute d'Arlon",
        "house_number": null,
        "neighbourhood": null,
        "suburb": null,
        "city_district": "Bertrange",
        "city": "Strassen",
        "state": null,
        "postcode": "1253",
        "country": "Luxembourg",
        "country_code": "lu"
      },
      "address": "530, Autoroute d'Arlon, Bertrange, Strassen, Canton Luxembourg, 1253, Luxembourg"
    },
    {
      "lat": 49.57093040447128,
      "lon": 6.146393635039598,
      "geoinfo": {
        "display_name": "17, Rue de la Montagne, Fentange, Hesperange, Canton Luxembourg, 5862, Luxembourg",
        "road": "Rue de la Montagne",
        "house_number": "17",
        "neighbourhood": null,
        "suburb": null,
        "city_district": null,
        "city": "Fentange",
        "state": null,
        "postcode": "5862",
        "country": "Luxembourg",
        "country_code": "lu"
      },
      "address": "17, Rue de la Montagne, Fentange, Hesperange, Canton Luxembourg, 5862, Luxembourg"
    },
    {
      "lat": 49.621150653561614,
      "lon": 6.0681993205745774,
      "geoinfo": {
        "display_name": "178, Route d'Arlon, Strassen, Canton Luxembourg, 8010, Luxembourg",
        "road": "Route d'Arlon",
        "house_number": "178",
        "neighbourhood": null,
        "suburb": null,
        "city_district": null,
        "city": "Strassen",
        "state": null,
        "postcode": "8010",
        "country": "Luxembourg",
        "country_code": "lu"
      },
      "address": "178, Route d'Arlon, Strassen, Canton Luxembourg, 8010, Luxembourg"
    },
    {
      "lat": 49.62379840446873,
      "lon": 6.134095696206902,
      "geoinfo": {
        "display_name": "Michael Wagner, Boulevard Prince Félix, Weimerskirch, Luxembourg, Canton Luxembourg, 1208, Luxembourg",
        "road": "Boulevard Prince Félix",
        "house_number": null,
        "neighbourhood": null,
        "suburb": "Weimerskirch",
        "city_district": null,
        "city": "Luxembourg",
        "state": null,
        "postcode": "1208",
        "country": "Luxembourg",
        "country_code": "lu"
      },
      "address": "185, Boulevard Prince Félix, 1208 Luxembourg, Luxembourg"
    },
    {
      "lat": 49.592210194847695,
      "lon": 6.1337916128111,
      "geoinfo": {
        "display_name": "Tunnel Albert Bousser, Rocade de Bonnevoie, Bonnevoie, Luxembourg, Canton Luxembourg, 2543, Luxembourg",
        "road": "Rocade de Bonnevoie",
        "house_number": null,
        "neighbourhood": null,
        "suburb": "Bonnevoie",
        "city_district": null,
        "city": "Luxembourg",
        "state": null,
        "postcode": "2543",
        "country": "Luxembourg",
        "country_code": "lu"
      },
      "address": "450, Rocade de Bonnevoie, 2543 Luxembourg, Luxembourg"
    },
    {
      "lat": 49.65264850568917,
      "lon": 6.117269436340954,
      "geoinfo": {
        "display_name": "2, Rue de la Paix, Bereldange, Walferdange, Canton Luxembourg, 7244, Luxembourg",
        "road": "Rue de la Paix",
        "house_number": "2",
        "neighbourhood": null,
        "suburb": null,
        "city_district": "Bereldange",
        "city": "Walferdange",
        "state": null,
        "postcode": "7244",
        "country": "Luxembourg",
        "country_code": "lu"
      },
      "address": "2, Rue de la Paix, Bereldange, Walferdange, Canton Luxembourg, 7244, Luxembourg"
    },
    {
      "lat": 49.56972416129872,
      "lon": 6.159021596896293,
      "geoinfo": {
        "display_name": "Camping Bon Accueil Alzingen, Rue du Camping, Alzingen, Hesperange, Canton Luxembourg, 5815, Luxembourg",
        "road": "Rue du Camping",
        "house_number": null,
        "neighbourhood": null,
        "suburb": null,
        "city_district": null,
        "city": "Alzingen",
        "state": null,
        "postcode": "5815",
        "country": "Luxembourg",
        "country_code": "lu"
      },
      "address": "317, Rue du Camping, 5815 Luxembourg, Luxembourg"
    },
    {
      "lat": 49.625513222715036,
      "lon": 6.127154369309062,
      "geoinfo": {
        "display_name": "Château de Limpertsberg, 40, Rue des Cerisiers, Limpertsberg, Luxembourg, Canton Luxembourg, 1322, Luxembourg",
        "road": "Rue des Cerisiers",
        "house_number": "40",
        "neighbourhood": null,
        "suburb": "Limpertsberg",
        "city_district": null,
        "city": "Luxembourg",
        "state": null,
        "postcode": "1322",
        "country": "Luxembourg",
        "country_code": "lu"
      },
      "address": "Château de Limpertsberg, 40, Rue des Cerisiers, Limpertsberg, Luxembourg, Canton Luxembourg, 1322, Luxembourg"
    },
    {
      "lat": 49.588050446953744,
      "lon": 6.133142743238968,
      "geoinfo": {
        "display_name": "Rue Christoph Willibald Gluck, Gasperich, Luxembourg, Canton Luxembourg, 1632, Luxembourg",
        "road": "Rue Christoph Willibald Gluck",
        "house_number": null,
        "neighbourhood": null,
        "suburb": "Gasperich",
        "city_district": null,
        "city": "Luxembourg",
        "state": null,
        "postcode": "1632",
        "country": "Luxembourg",
        "country_code": "lu"
      },
      "address": "832, Rue Christoph Willibald Gluck, Gasperich, Luxembourg, Canton Luxembourg, 1632, Luxembourg"
    },
    {
      "lat": 49.58240762747047,
      "lon": 6.125274342033883,
      "geoinfo": {
        "display_name": "Cloche d’Or Shopping Center, Boulevard Friedrich Wilhelm Raiffeisen, Gasperich, Luxembourg, Canton Luxembourg, 1821, Luxembourg",
        "road": "Boulevard Friedrich Wilhelm Raiffeisen",
        "house_number": null,
        "neighbourhood": null,
        "suburb": "Gasperich",
        "city_district": null,
        "city": "Luxembourg",
        "state": null,
        "postcode": "1821",
        "country": "Luxembourg",
        "country_code": "lu"
      },
      "address": "899, Boulevard Friedrich Wilhelm Raiffeisen, 1821 Luxembourg, Luxembourg"
    },
    {
      "lat": 49.6492646676329,
      "lon": 6.163152335286387,
      "geoinfo": {
        "display_name": "CR 119, Heisdorf, Steinsel, Canton Luxembourg, 2607, Luxembourg",
        "road": "CR 119",
        "house_number": null,
        "neighbourhood": null,
        "suburb": null,
        "city_district": "Heisdorf",
        "city": "Steinsel",
        "state": null,
        "postcode": "2607",
        "country": "Luxembourg",
        "country_code": "lu"
      },
      "address": "CR 119, Heisdorf, Steinsel, Canton Luxembourg, 2607, Luxembourg"
    },
    {
      "lat": 49.60541330938134,
      "lon": 6.174334754906244,
      "geoinfo": {
        "display_name": "Autoroute de Trèves, Itzig, Hesperange, Canton Luxembourg, 1348, Luxembourg",
        "road": "Autoroute de Trèves",
        "house_number": null,
        "neighbourhood": null,
        "suburb": null,
        "city_district": null,
        "city": "Itzig",
        "state": null,
        "postcode": "1348",
        "country": "Luxembourg",
        "country_code": "lu"
      },
      "address": "082, Autoroute de Trèves, Itzig, Hesperange, Canton Luxembourg, 1348, Luxembourg"
    },
    {
      "lat": 49.60488463296567,
      "lon": 6.068605953235743,
      "geoinfo": {
        "display_name": "Rue de Luxembourg, Bertrange, Canton Luxembourg, 8077, Luxembourg",
        "road": "Rue de Luxembourg",
        "house_number": null,
        "neighbourhood": null,
        "suburb": null,
        "city_district": "Bertrange",
        "city": "Bertrange",
        "state": null,
        "postcode": "8077",
        "country": "Luxembourg",
        "country_code": "lu"
      },
      "address": "389, Rue de Luxembourg, Bertrange, Canton Luxembourg, 8077, Luxembourg"
    },
    {
      "lat": 49.60975781519478,
      "lon": 6.197238531689747,
      "geoinfo": {
        "display_name": "72A, Val du Scheid, Scheedhaff, Hamm, Luxembourg, Canton Luxembourg, 2517, Luxembourg",
        "road": "Val du Scheid",
        "house_number": "72A",
        "neighbourhood": null,
        "suburb": "Hamm",
        "city_district": null,
        "city": "Luxembourg",
        "state": null,
        "postcode": "2517",
        "country": "Luxembourg",
        "country_code": "lu"
      },
      "address": "72A, Val du Scheid, Scheedhaff, Hamm, Luxembourg, Canton Luxembourg, 2517, Luxembourg"
    },
    {
      "lat": 49.61250565512216,
      "lon": 6.089852564848148,
      "geoinfo": {
        "display_name": "Val Sainte-Croix, Merl, Strassen, Canton Luxembourg, 8030, Luxembourg",
        "road": "Val Sainte-Croix",
        "house_number": null,
        "neighbourhood": null,
        "suburb": "Merl",
        "city_district": null,
        "city": "Strassen",
        "state": null,
        "postcode": "8030",
        "country": "Luxembourg",
        "country_code": "lu"
      },
      "address": "501, Val Sainte-Croix, Merl, Strassen, Canton Luxembourg, 8030, Luxembourg"
    }
  ],
  "updated_at": "2025-10-19T05:48:52.517421+00:00",
  "_kind": "geo_samples"
}