{
  "country_code": "CG",
  "country": "Republic of the Congo",
  "city": "Brazzaville",
  "geonameid": 2260535,
  "target_addresses": 5,
  "samples": [
    {
      "lat": -4.221554157919036,
      "lon": 15.286476426742782,
      "geoinfo": {
        "display_name": "Rue Assoko, Talangaï, Talangaï (arrondissement 6), Brazzaville (municipality), Brazzaville (department), Congo-Brazzaville",
        "road": "Rue Assoko",
        "house_number": null,
        "neighbourhood": null,
        "suburb": "Talangaï",
        "city_district": "Talangaï (arrondissement 6)",
        "city": "Brazzaville (municipality)",
        "state": "Brazzaville (department)",
        "postcode": null,
        "country": "Congo-Brazzaville",
        "country_code": "cg"
      },
      "address": "Rue Assoko, Brazzaville, Brazzaville (department), Republic of the Congo"
    },
    {
      "lat": -4.259269720768531,
      "lon": 15.313338704917454,
      "geoinfo": {
        "display_name": "Avenue du Port, Mpila, Quartier Dimaud, Ouenze (arrondissement 5), Brazzaville (municipality), Brazzaville (department), Congo-Brazzaville",
        "road": "Avenue du Port",
        "house_number": null,
        "neighbourhood": "Mpila",
        "suburb": "Quartier Dimaud",
        "city_district": "Ouenze (arrondissement 5)",
        "city": "Brazzaville (municipality)",
        "state": "Brazzaville (department)",
        "postcode": null,
        "country": "Congo-Brazzaville",
        "country_code": "cg"
      },
      "address": "Avenue du Port, Brazzaville, Brazzaville (department), Republic of the Congo"
    },
    {
      "lat": -4.228887742761188,
      "lon": 15.273471128961253,
      "geoinfo": {
        "display_name": "Rue Kitsiali, Ouenze (arrondissement 5), Brazzaville (municipality), Brazzaville (department), Congo-Brazzaville",
        "road": "Rue Kitsiali",
        "house_number": null,
        "neighbourhood": null,
        "suburb": null,
        "city_district": "Ouenze (arrondissement 5)",
        "city": "Brazzaville (municipality)",
        "state": "Brazzaville (department)",
        "postcode": null,
        "country": "Congo-Brazzaville",
        "country_code": "cg"
      },
      "address": "Rue Kitsiali, Brazzaville, Brazzaville (department), Republic of the Congo"
    },
    {
      "lat": -4.229565125639772,
      "lon": 15.29494240655744,
      "geoinfo": {
        "display_name": "Avenue des Trois Martyrs, Talangaï, Talangaï (arrondissement 6), Brazzaville (municipality), Brazzaville (department), Congo-Brazzaville",
        "road": "Avenue des Trois Martyrs",
        "house_number": null,
        "neighbourhood": null,
        "suburb": "Talangaï",
        "city_district": "Talangaï (arrondissement 6)",
        "city": "Brazzaville (municipality)",
        "state": "Brazzaville (department)",
        "postcode": null,
        "country": "Congo-Brazzaville",
        "country_code": "cg"
      },
      "address": "Avenue des Trois Martyrs, Brazzaville, Brazzaville (department), Republic of the Congo"
    },
    {
      "lat": -4.232590730731726,
      "lon": 15.271090509274108,
      "geoinfo": {
        "display_name": "Rue Matombé, Moukondo, Ouenze (arrondissement 5), Brazzaville (municipality), Brazzaville (department), Congo-Brazzaville",
        "road": "Rue Matombé",
        "house_number": null,
        "neighbourhood": "Moukondo",
        "suburb": null,
        "city_district": "Ouenze (arrondissement 5)",
        "city": "Brazzaville (municipality)",
        "state": "Brazzaville (department)",
        "postcode": null,
        "country": "Congo-Brazzaville",
        "country_code": "cg"
      },
      "address": "Rue Matombé, Brazzaville, Brazzaville (department), Republic of the Congo"
    },
    {
      "lat": -4.279082968843401,
      "lon": 15.257880353850663,
      "geoinfo": {
        "display_name": "Ambassade du Tchad, Avenue Blanche Mountou Gomès, Bacongo, Bacongo (arrondissement 2), Brazzaville (municipality), Brazzaville (department), Congo-Brazzaville",
        "road": "Avenue Blanche Mountou Gomès",
        "house_number": null,
        "neighbourhood": null,
        "suburb": "Bacongo",
        "city_district": "Bacongo (arrondissement 2)",
        "city": "Brazzaville (municipality)",
        "state": "Brazzaville (department)",
        "postcode": null,
        "country": "Congo-Brazzaville",
        "country_code": "cg"
      },
      "address": "842, Avenue Blanche Mountou Gomès, Brazzaville, 00157 Brazzaville (department), Republic of the Congo"
    },
    {
      "lat": -4.234285184503935,
      "lon": 15.281204151377722,
      "geoinfo": {
        "display_name": "Avenue de la Tsiémé, Ouenzé, Ouenze (arrondissement 5), Brazzaville (municipality), Brazzaville (department), Congo-Brazzaville",
        "road": "Avenue de la Tsiémé",
        "house_number": null,
        "neighbourhood": null,
        "suburb": "Ouenzé",
        "city_district": "Ouenze (arrondissement 5)",
        "city": "Brazzaville (municipality)",
        "state": "Brazzaville (department)",
        "postcode": null,
        "country": "Congo-Brazzaville",
        "country_code": "cg"
      },
      "address": "368, Avenue de la Tsiémé, Brazzaville, 19616 Brazzaville (department), Republic of the Congo"
    },
    {
      "lat": -4.2714876097186725,
      "lon": 15.268793182608682,
      "geoinfo": {
        "display_name": "Poto-Poto, Poto-Poto (arrondissement 3), Brazzaville (municipality), Brazzaville (department), Congo-Brazzaville",
        "road": null,
        "house_number": null,
        "neighbourhood": null,
        "suburb": "Poto-Poto",
        "city_district": "Poto-Poto (arrondissement 3)",
        "city": "Brazzaville (municipality)",
        "state": "Brazzaville (department)",
        "postcode": null,
        "country": "Congo-Brazzaville",
        "country_code": "cg"
      },
      "address": "995, Poto-Poto, Brazzaville, 44790 Brazzaville (department), Republic of the Congo"
    },
    {
      "lat": -4.271400678783785,
      "lon": 15.244430082061184,
      "geoinfo": {
        "display_name": "Transt route, Rue Dihesse, Moukoundzi-Ngouaka, Makélékélé (arrondissement 1), Brazzaville (municipality), Brazzaville (department), Congo-Brazzaville",
        "road": "Rue Dihesse",
        "house_number": null,
        "neighbourhood": null,
        "suburb": "Moukoundzi-Ngouaka",
        "city_district": "Makélékélé (arrondissement 1)",
        "city": "Brazzaville (municipality)",
        "state": "Brazzaville (department)",
        "postcode": null,
        "country": "Congo-Brazzaville",
        "country_code": "cg"
      },
      "address": "748, Rue Dihesse, Brazzaville, 53570 Brazzaville (department), Republic of the Congo"
    },
    {
      "lat": -4.261918694247352,
      "lon": 15.321656278569215,
      "geoinfo": {
        "display_name": "District de l'Île Mbamou, Brazzaville (department), Congo-Brazzaville",
        "road": null,
        "house_number": null,
        "neighbourhood": null,
        "suburb": null,
        "city_district": null,
        "city": null,
        "state": "Brazzaville (department)",
        "postcode": null,
        "country": "Congo-Brazzaville",
        "country_code": "cg"
      },
      "address": "569, Brazzaville, 77911 Brazzaville (department), Republic of the Congo"
    }
  ],
  "updated_at": "2025-10-19T03:07:41.510387+00:00",
  "_kind": "geo_samples"
}