{
  "country_code": "CG",
  "country": "Republic of the Congo",
  "city": "Dolisie",
  "geonameid": 2258261,
  "target_addresses": 5,
  "samples": [
    {
      "lat": -4.233332613740955,
      "lon": 12.647772967996191,
      "geoinfo": {
        "display_name": "Moussiemi, Dolisie, Niari Department, Congo-Brazzaville",
        "road": null,
        "house_number": null,
        "neighbourhood": null,
        "suburb": null,
        "city_district": null,
        "city": "Dolisie",
        "state": "Niari Department",
        "postcode": null,
        "country": "Congo-Brazzaville",
        "country_code": "cg"
      },
      "address": "Dolisie, Niari Department, Republic of the Congo"
    },
    {
      "lat": -4.172011709078157,
      "lon": 12.672122295553097,
      "geoinfo": {
        "display_name": "Tsila, Dolisie, Niari Department, Congo-Brazzaville",
        "road": null,
        "house_number": null,
        "neighbourhood": null,
        "suburb": "Tsila",
        "city_district": null,
        "city": "Dolisie",
        "state": "Niari Department",
        "postcode": null,
        "country": "Congo-Brazzaville",
        "country_code": "cg"
      },
      "address": "Tsila, Dolisie, Niari Department, Republic of the Congo"
    },
    {
      "lat": -4.213018641476339,
      "lon": 12.66570500437143,
      "geoinfo": {
        "display_name": "Baloumbou, Dolisie, Niari Department, Congo-Brazzaville",
        "road": null,
        "house_number": null,
        "neighbourhood": null,
        "suburb": "Baloumbou",
        "city_district": null,
        "city": "Dolisie",
        "state": "Niari Department",
        "postcode": null,
        "country": "Congo-Brazzaville",
        "country_code": "cg"
      },
      "address": "Baloumbou, Dolisie, Niari Department, Republic of the Congo"
    },
    {
      "lat": -4.226703515799852,
      "lon": 12.66036620220838,
      "geoinfo": {
        "display_name": "Tahiti, Dolisie, Niari Department, Congo-Brazzaville",
        "road": null,
        "house_number": null,
        "neighbourhood": null,
        "suburb": "Tahiti",
        "city_district": null,
        "city": "Dolisie",
        "state": "Niari Department",
        "postcode": null,
        "country": "Congo-Brazzaville",
        "country_code": "cg"
      },
      "address": "Tahiti, Dolisie, Niari Department, Republic of the Congo"
    },
    {
      "lat": -4.180597616918975,
      "lon": 12.678640091489003,
      "geoinfo": {
        "display_name": "Mont Fleuri, Dolisie, Niari Department, Congo-Brazzaville",
        "road": null,
        "house_number": null,
        "neighbourhood": null,
        "suburb": "Mont Fleuri",
        "city_district": null,
        "city": "Dolisie",
        "state": "Niari Department",
        "postcode": null,
        "country": "Congo-Brazzaville",
        "country_code": "cg"
      },
      "address": "Mont Fleuri, Dolisie, Niari Department, Republic of the Congo"
    }
  ],
  "updated_at": "2025-10-16T12:03:30.231977+00:00",
  "_kind": "geo_samples"
}