{
  "country_code": "LU",
  "country": "Luxembourg",
  "city": "Dudelange",
  "geonameid": 2960634,
  "target_addresses": 34,
  "samples": [
    {
      "lat": 49.47084721616315,
      "lon": 6.066840359133662,
      "geoinfo": {
        "display_name": "Rue Reiteschkopp, Italien, Dudelange, Canton Esch-sur-Alzette, 3481, Luxembourg",
        "road": "Rue Reiteschkopp",
        "house_number": null,
        "neighbourhood": null,
        "suburb": null,
        "city_district": null,
        "city": "Dudelange",
        "state": null,
        "postcode": "3481",
        "country": "Luxembourg",
        "country_code": "lu"
      },
      "address": "Rue Reiteschkopp, Dudelange, Luxembourg"
    },
    {
      "lat": 49.49740055391119,
      "lon": 6.064777970253265,
      "geoinfo": {
        "display_name": "Aéroclub de Dudelange, Collectrice du Sud, Noertzange, Dudelange, Canton Esch-sur-Alzette, 3530, Luxembourg",
        "road": "Collectrice du Sud",
        "house_number": null,
        "neighbourhood": null,
        "suburb": null,
        "city_district": null,
        "city": "Dudelange",
        "state": null,
        "postcode": "3530",
        "country": "Luxembourg",
        "country_code": "lu"
      },
      "address": "Collectrice du Sud, Dudelange, Luxembourg"
    },
    {
      "lat": 49.47645946636849,
      "lon": 6.066178445118509,
      "geoinfo": {
        "display_name": "Drop, Budersberg, Dudelange, Canton Esch-sur-Alzette, 3432, Luxembourg",
        "road": "Drop",
        "house_number": null,
        "neighbourhood": null,
        "suburb": "Budersberg",
        "city_district": null,
        "city": "Dudelange",
        "state": null,
        "postcode": "3432",
        "country": "Luxembourg",
        "country_code": "lu"
      },
      "address": "Drop, Dudelange, Luxembourg"
    },
    {
      "lat": 49.48882142169792,
      "lon": 6.029752562067852,
      "geoinfo": {
        "display_name": "Route d'Esch, Kayl, Canton Esch-sur-Alzette, 3637, Luxembourg",
        "road": "Route d'Esch",
        "house_number": null,
        "neighbourhood": null,
        "suburb": null,
        "city_district": null,
        "city": "Kayl",
        "state": null,
        "postcode": "3637",
        "country": "Luxembourg",
        "country_code": "lu"
      },
      "address": "301, Route d'Esch, Kayl, Canton Esch-sur-Alzette, 3637, Luxembourg"
    },
    {
      "lat": 49.48345960892011,
      "lon": 6.115507721070266,
      "geoinfo": {
        "display_name": "A 3, Dudelange, Canton Esch-sur-Alzette, 3451, Luxembourg",
        "road": "A 3",
        "house_number": null,
        "neighbourhood": null,
        "suburb": null,
        "city_district": null,
        "city": "Dudelange",
        "state": null,
        "postcode": "3451",
        "country": "Luxembourg",
        "country_code": "lu"
      },
      "address": "A 3, Dudelange, Canton Esch-sur-Alzette, 3451, Luxembourg"
    },
    {
      "lat": 49.51805300972473,
      "lon": 6.0848070127648874,
      "geoinfo": {
        "display_name": "9, Route d'Esch, Fennange, Bettembourg, Canton Esch-sur-Alzette, 3332, Luxembourg",
        "road": "Route d'Esch",
        "house_number": "9",
        "neighbourhood": null,
        "suburb": null,
        "city_district": null,
        "city": "Bettembourg",
        "state": null,
        "postcode": "3332",
        "country": "Luxembourg",
        "country_code": "lu"
      },
      "address": "9, Route d'Esch, Fennange, Bettembourg, Canton Esch-sur-Alzette, 3332, Luxembourg"
    },
    {
      "lat": 49.51730880394248,
      "lon": 6.070108409610376,
      "geoinfo": {
        "display_name": "1A, Route d'Esch, Huncherange, Bettembourg, Canton Esch-sur-Alzette, 3340, Luxembourg",
        "road": "Route d'Esch",
        "house_number": "1A",
        "neighbourhood": null,
        "suburb": null,
        "city_district": null,
        "city": "Bettembourg",
        "state": null,
        "postcode": "3340",
        "country": "Luxembourg",
        "country_code": "lu"
      },
      "address": "1A, Route d'Esch, Huncherange, Bettembourg, Canton Esch-sur-Alzette, 3340, Luxembourg"
    },
    {
      "lat": 49.49042949750111,
      "lon": 6.104061959427965,
      "geoinfo": {
        "display_name": "Rue de la Forêt, Burange, Dudelange, Canton Esch-sur-Alzette, 3417, Luxembourg",
        "road": "Rue de la Forêt",
        "house_number": null,
        "neighbourhood": null,
        "suburb": "Burange",
        "city_district": null,
        "city": "Dudelange",
        "state": null,
        "postcode": "3417",
        "country": "Luxembourg",
        "country_code": "lu"
      },
      "address": "873, Rue de la Forêt, Burange, Dudelange, Canton Esch-sur-Alzette, 3417, Luxembourg"
    },
    {
      "lat": 49.46021854594939,
      "lon": 6.088659760027946,
      "geoinfo": {
        "display_name": "Ginzebierg, Dudelange, Canton Esch-sur-Alzette, 3460, Luxembourg",
        "road": "Ginzebierg",
        "house_number": null,
        "neighbourhood": null,
        "suburb": null,
        "city_district": null,
        "city": "Dudelange",
        "state": null,
        "postcode": "3460",
        "country": "Luxembourg",
        "country_code": "lu"
      },
      "address": "049, Ginzebierg, Dudelange, Canton Esch-sur-Alzette, 3460, Luxembourg"
    },
    {
      "lat": 49.4695664558678,
      "lon": 6.033614747153995,
      "geoinfo": {
        "display_name": "Rue de la Fontaine, Tétange, Kayl, Canton Esch-sur-Alzette, 3768, Luxembourg",
        "road": "Rue de la Fontaine",
        "house_number": null,
        "neighbourhood": null,
        "suburb": null,
        "city_district": null,
        "city": "Tétange",
        "state": null,
        "postcode": "3768",
        "country": "Luxembourg",
        "country_code": "lu"
      },
      "address": "514, Rue de la Fontaine, Tétange, Kayl, Canton Esch-sur-Alzette, 3768, Luxembourg"
    },
    {
      "lat": 49.495871595042,
      "lon": 6.150137916534384,
      "geoinfo": {
        "display_name": "Hoënerwee, Hellange, Frisange, Canton Esch-sur-Alzette, 3337, Luxembourg",
        "road": "Hoënerwee",
        "house_number": null,
        "neighbourhood": null,
        "suburb": null,
        "city_district": null,
        "city": "Hellange",
        "state": null,
        "postcode": "3337",
        "country": "Luxembourg",
        "country_code": "lu"
      },
      "address": "443, Hoënerwee, Hellange, Frisange, Canton Esch-sur-Alzette, 3337, Luxembourg"
    },
    {
      "lat": 49.45240899234023,
      "lon": 6.034495936718762,
      "geoinfo": {
        "display_name": "CFL5, Kayl, Canton Esch-sur-Alzette, 3753, Luxembourg",
        "road": "CFL5",
        "house_number": null,
        "neighbourhood": null,
        "suburb": null,
        "city_district": null,
        "city": "Kayl",
        "state": null,
        "postcode": "3753",
        "country": "Luxembourg",
        "country_code": "lu"
      },
      "address": "CFL5, Kayl, Canton Esch-sur-Alzette, 3753, Luxembourg"
    },
    {
      "lat": 49.46718984849518,
      "lon": 6.063773544010679,
      "geoinfo": {
        "display_name": "Réserve naturelle Haard, Rue Reiteschkopp, Italien, Dudelange, Canton Esch-sur-Alzette, 3481, Luxembourg",
        "road": "Rue Reiteschkopp",
        "house_number": null,
        "neighbourhood": null,
        "suburb": null,
        "city_district": null,
        "city": "Dudelange",
        "state": null,
        "postcode": "3481",
        "country": "Luxembourg",
        "country_code": "lu"
      },
      "address": "357, Rue Reiteschkopp, 3481 Dudelange, Luxembourg"
    },
    {
      "lat": 49.474181827325786,
      "lon": 6.1238329846015,
      "geoinfo": {
        "display_name": "FL 148, Autoroute de Dudelange, Dudelange, Canton Esch-sur-Alzette, 3451, Luxembourg",
        "road": "Autoroute de Dudelange",
        "house_number": null,
        "neighbourhood": null,
        "suburb": null,
        "city_district": null,
        "city": "Dudelange",
        "state": null,
        "postcode": "3451",
        "country": "Luxembourg",
        "country_code": "lu"
      },
      "address": "FL 148, Autoroute de Dudelange, Dudelange, Canton Esch-sur-Alzette, 3451, Luxembourg"
    },
    {
      "lat": 49.51255224126083,
      "lon": 6.071495306976506,
      "geoinfo": {
        "display_name": "Piste cyclable des Trois Cantons, Fennange, Bettembourg, Canton Esch-sur-Alzette, 3452, Luxembourg",
        "road": "Piste cyclable des Trois Cantons",
        "house_number": null,
        "neighbourhood": null,
        "suburb": null,
        "city_district": null,
        "city": "Bettembourg",
        "state": null,
        "postcode": "3452",
        "country": "Luxembourg",
        "country_code": "lu"
      },
      "address": "172, Piste cyclable des Trois Cantons, Fennange, Bettembourg, Canton Esch-sur-Alzette, 3452, Luxembourg"
    },
    {
      "lat": 49.48352451133804,
      "lon": 6.0380599472258485,
      "geoinfo": {
        "display_name": "42, Rue du Faubourg, Tétange, Kayl, Canton Esch-sur-Alzette, 3640, Luxembourg",
        "road": "Rue du Faubourg",
        "house_number": "42",
        "neighbourhood": null,
        "suburb": null,
        "city_district": null,
        "city": "Tétange",
        "state": null,
        "postcode": "3640",
        "country": "Luxembourg",
        "country_code": "lu"
      },
      "address": "42, Rue du Faubourg, Tétange, Kayl, Canton Esch-sur-Alzette, 3640, Luxembourg"
    },
    {
      "lat": 49.47514395372997,
      "lon": 6.119621090511425,
      "geoinfo": {
        "display_name": "Poste frontière de Zoufftgen, Autoroute de Dudelange, Dudelange, Canton Esch-sur-Alzette, 3451, Luxembourg",
        "road": "Autoroute de Dudelange",
        "house_number": null,
        "neighbourhood": null,
        "suburb": null,
        "city_district": null,
        "city": "Dudelange",
        "state": null,
        "postcode": "3451",
        "country": "Luxembourg",
        "country_code": "lu"
      },
      "address": "639, Autoroute de Dudelange, 3451 Dudelange, Luxembourg"
    },
    {
      "lat": 49.461095733206534,
      "lon": 6.055911006252108,
      "geoinfo": {
        "display_name": "FL 100, Rue de Volmerange, Tétange, Kayl, Canton Esch-sur-Alzette, 3790, Luxembourg",
        "road": "Rue de Volmerange",
        "house_number": null,
        "neighbourhood": null,
        "suburb": null,
        "city_district": null,
        "city": "Tétange",
        "state": null,
        "postcode": "3790",
        "country": "Luxembourg",
        "country_code": "lu"
      },
      "address": "FL 100, Rue de Volmerange, Tétange, Kayl, Canton Esch-sur-Alzette, 3790, Luxembourg"
    },
    {
      "lat": 49.505021255443225,
      "lon": 6.113352204069793,
      "geoinfo": {
        "display_name": "ICT Campus Bettembourg DC 1.2, 202, Zone d'Activité Économique Wolser F, Bettembourg, Canton Esch-sur-Alzette, 3290, Luxembourg",
        "road": "Zone d'Activité Économique Wolser F",
        "house_number": "202",
        "neighbourhood": null,
        "suburb": null,
        "city_district": null,
        "city": "Bettembourg",
        "state": null,
        "postcode": "3290",
        "country": "Luxembourg",
        "country_code": "lu"
      },
      "address": "ICT Campus Bettembourg DC 1.2, 202, Zone d'Activité Économique Wolser F, Bettembourg, Canton Esch-sur-Alzette, 3290, Luxembourg"
    },
    {
      "lat": 49.509211418004746,
      "lon": 6.083504022272657,
      "geoinfo": {
        "display_name": "Gehaanshaff, Fennange, Bettembourg, Canton Esch-sur-Alzette, 3452, Luxembourg",
        "road": "Gehaanshaff",
        "house_number": null,
        "neighbourhood": null,
        "suburb": null,
        "city_district": null,
        "city": "Bettembourg",
        "state": null,
        "postcode": "3452",
        "country": "Luxembourg",
        "country_code": "lu"
      },
      "address": "375, Gehaanshaff, Fennange, Bettembourg, Canton Esch-sur-Alzette, 3452, Luxembourg"
    },
    {
      "lat": 49.511356517548066,
      "lon": 6.115990520423866,
      "geoinfo": {
        "display_name": "Route de Mondorf, Bettembourg, Canton Esch-sur-Alzette, 3209, Luxembourg",
        "road": "Route de Mondorf",
        "house_number": null,
        "neighbourhood": null,
        "suburb": null,
        "city_district": null,
        "city": "Bettembourg",
        "state": null,
        "postcode": "3209",
        "country": "Luxembourg",
        "country_code": "lu"
      },
      "address": "944, Route de Mondorf, Bettembourg, Canton Esch-sur-Alzette, 3209, Luxembourg"
    },
    {
      "lat": 49.47245843488597,
      "lon": 6.073618320067627,
      "geoinfo": {
        "display_name": "Dudelange, L.N.B. Annexe Alliance, Rue Reiteschkopp, Italien, Dudelange, Canton Esch-sur-Alzette, 3476, Luxembourg",
        "road": "Rue Reiteschkopp",
        "house_number": null,
        "neighbourhood": null,
        "suburb": null,
        "city_district": null,
        "city": "Dudelange",
        "state": null,
        "postcode": "3476",
        "country": "Luxembourg",
        "country_code": "lu"
      },
      "address": "381, Rue Reiteschkopp, 3476 Dudelange, Luxembourg"
    },
    {
      "lat": 49.507416714223595,
      "lon": 6.137875341288864,
      "geoinfo": {
        "display_name": "Roman Road, Hellange, Frisange, Canton Esch-sur-Alzette, 3333, Luxembourg",
        "road": "Roman Road",
        "house_number": null,
        "neighbourhood": null,
        "suburb": null,
        "city_district": null,
        "city": "Hellange",
        "state": null,
        "postcode": "3333",
        "country": "Luxembourg",
        "country_code": "lu"
      },
      "address": "764, Roman Road, Hellange, Frisange, Canton Esch-sur-Alzette, 3333, Luxembourg"
    },
    {
      "lat": 49.481131443609726,
      "lon": 6.030874162254633,
      "geoinfo": {
        "display_name": "Dännebësch, Tétange, Kayl, Canton Esch-sur-Alzette, 3643, Luxembourg",
        "road": "Dännebësch",
        "house_number": null,
        "neighbourhood": null,
        "suburb": null,
        "city_district": null,
        "city": "Tétange",
        "state": null,
        "postcode": "3643",
        "country": "Luxembourg",
        "country_code": "lu"
      },
      "address": "675, Dännebësch, Tétange, Kayl, Canton Esch-sur-Alzette, 3643, Luxembourg"
    }
  ],
  "updated_at": "2025-10-19T04:09:11.533844+00:00",
  "_kind": "geo_samples"
}