{
  "country_code": "LU",
  "country": "Luxembourg",
  "city": "Esch-sur-Alzette",
  "geonameid": 2960596,
  "target_addresses": 34,
  "samples": [
    {
      "lat": 49.52533863962036,
      "lon": 5.957274842810571,
      "geoinfo": {
        "display_name": "Keupewee, Soleuvre, Sanem, Canton Esch-sur-Alzette, 4411, Luxembourg",
        "road": "Keupewee",
        "house_number": null,
        "neighbourhood": null,
        "suburb": null,
        "city_district": "Soleuvre",
        "city": "Sanem",
        "state": null,
        "postcode": "4411",
        "country": "Luxembourg",
        "country_code": "lu"
      },
      "address": "286, Keupewee, Soleuvre, Sanem, Canton Esch-sur-Alzette, 4411, Luxembourg"
    },
    {
      "lat": 49.494813646565085,
      "lon": 6.035132815174223,
      "geoinfo": {
        "display_name": "Losch, 113, Rue de Schifflange, Kayl, Canton Esch-sur-Alzette, 3676, Luxembourg",
        "road": "Rue de Schifflange",
        "house_number": "113",
        "neighbourhood": null,
        "suburb": null,
        "city_district": null,
        "city": "Kayl",
        "state": null,
        "postcode": "3676",
        "country": "Luxembourg",
        "country_code": "lu"
      },
      "address": "Losch, 113, Rue de Schifflange, Kayl, Canton Esch-sur-Alzette, 3676, Luxembourg"
    },
    {
      "lat": 49.5157046978744,
      "lon": 5.971772373281615,
      "geoinfo": {
        "display_name": "De Schweesspunkt, Zone d'Activité Régionale Économique Ouest, Ehlerange, Mondercange, Canton Esch-sur-Alzette, 4384, Luxembourg",
        "road": "Zone d'Activité Régionale Économique Ouest",
        "house_number": null,
        "neighbourhood": null,
        "suburb": null,
        "city_district": "Ehlerange",
        "city": "Mondercange",
        "state": null,
        "postcode": "4384",
        "country": "Luxembourg",
        "country_code": "lu"
      },
      "address": "218, Zone d'Activité Régionale Économique Ouest, 4384 Esch-sur-Alzette, Luxembourg"
    },
    {
      "lat": 49.49980822222759,
      "lon": 5.983714139126531,
      "geoinfo": {
        "display_name": "Lycée des Garçons, Rue de l'Hôpital, Dellhéicht, Esch-sur-Alzette, Canton Esch-sur-Alzette, 4059, Luxembourg",
        "road": "Rue de l'Hôpital",
        "house_number": null,
        "neighbourhood": null,
        "suburb": "Dellhéicht",
        "city_district": null,
        "city": "Esch-sur-Alzette",
        "state": null,
        "postcode": "4059",
        "country": "Luxembourg",
        "country_code": "lu"
      },
      "address": "258, Rue de l'Hôpital, 4059 Esch-sur-Alzette, Luxembourg"
    },
    {
      "lat": 49.50751426836246,
      "lon": 6.016585913618374,
      "geoinfo": {
        "display_name": "Am Paerchen, Schifflange, Canton Esch-sur-Alzette, 3870, Luxembourg",
        "road": "Am Paerchen",
        "house_number": null,
        "neighbourhood": null,
        "suburb": null,
        "city_district": null,
        "city": "Schifflange",
        "state": null,
        "postcode": "3870",
        "country": "Luxembourg",
        "country_code": "lu"
      },
      "address": "793, Am Paerchen, Schifflange, Canton Esch-sur-Alzette, 3870, Luxembourg"
    },
    {
      "lat": 49.512312367471736,
      "lon": 5.96567864086212,
      "geoinfo": {
        "display_name": "Rue du Crassier, Ehlerange, Sanem, Canton Esch-sur-Alzette, 4354, Luxembourg",
        "road": "Rue du Crassier",
        "house_number": null,
        "neighbourhood": null,
        "suburb": null,
        "city_district": "Ehlerange",
        "city": "Sanem",
        "state": null,
        "postcode": "4354",
        "country": "Luxembourg",
        "country_code": "lu"
      },
      "address": "286, Rue du Crassier, Ehlerange, Sanem, Canton Esch-sur-Alzette, 4354, Luxembourg"
    },
    {
      "lat": 49.482886795257976,
      "lon": 6.038101342277709,
      "geoinfo": {
        "display_name": "51, Rue du Faubourg, Tétange, Kayl, Canton Esch-sur-Alzette, 3641, Luxembourg",
        "road": "Rue du Faubourg",
        "house_number": "51",
        "neighbourhood": null,
        "suburb": null,
        "city_district": null,
        "city": "Tétange",
        "state": null,
        "postcode": "3641",
        "country": "Luxembourg",
        "country_code": "lu"
      },
      "address": "51, Rue du Faubourg, Tétange, Kayl, Canton Esch-sur-Alzette, 3641, Luxembourg"
    },
    {
      "lat": 49.51884324859176,
      "lon": 5.921919627721415,
      "geoinfo": {
        "display_name": "1, Scheierhaff, Soleuvre, Sanem, Canton Esch-sur-Alzette, 4460, Luxembourg",
        "road": null,
        "house_number": "1",
        "neighbourhood": null,
        "suburb": null,
        "city_district": "Soleuvre",
        "city": "Sanem",
        "state": null,
        "postcode": "4460",
        "country": "Luxembourg",
        "country_code": "lu"
      },
      "address": "1, Scheierhaff, Soleuvre, Sanem, Canton Esch-sur-Alzette, 4460, Luxembourg"
    },
    {
      "lat": 49.51648487752433,
      "lon": 6.035169534680261,
      "geoinfo": {
        "display_name": "Sentier Dumontshaff, Bergem, Mondercange, Canton Esch-sur-Alzette, 3864, Luxembourg",
        "road": "Sentier Dumontshaff",
        "house_number": null,
        "neighbourhood": null,
        "suburb": null,
        "city_district": null,
        "city": "Bergem",
        "state": null,
        "postcode": "3864",
        "country": "Luxembourg",
        "country_code": "lu"
      },
      "address": "311, Sentier Dumontshaff, Bergem, Mondercange, Canton Esch-sur-Alzette, 3864, Luxembourg"
    },
    {
      "lat": 49.5010556122914,
      "lon": 6.03582136887539,
      "geoinfo": {
        "display_name": "183, Rue de Schifflange, Kayl, Canton Esch-sur-Alzette, 3676, Luxembourg",
        "road": "Rue de Schifflange",
        "house_number": "183",
        "neighbourhood": null,
        "suburb": null,
        "city_district": null,
        "city": "Kayl",
        "state": null,
        "postcode": "3676",
        "country": "Luxembourg",
        "country_code": "lu"
      },
      "address": "183, Rue de Schifflange, Kayl, Canton Esch-sur-Alzette, 3676, Luxembourg"
    },
    {
      "lat": 49.5026882847551,
      "lon": 6.0150931927850575,
      "geoinfo": {
        "display_name": "34, Rue Pierre Krier, Schifflange, Canton Esch-sur-Alzette, 3854, Luxembourg",
        "road": "Rue Pierre Krier",
        "house_number": "34",
        "neighbourhood": null,
        "suburb": null,
        "city_district": null,
        "city": "Schifflange",
        "state": null,
        "postcode": "3854",
        "country": "Luxembourg",
        "country_code": "lu"
      },
      "address": "34, Rue Pierre Krier, Schifflange, Canton Esch-sur-Alzette, 3854, Luxembourg"
    },
    {
      "lat": 49.51260312215401,
      "lon": 5.993352337184789,
      "geoinfo": {
        "display_name": "Rue de Bergem, Lalleng, Esch-sur-Alzette, Canton Esch-sur-Alzette, 4301, Luxembourg",
        "road": "Rue de Bergem",
        "house_number": null,
        "neighbourhood": null,
        "suburb": "Lalleng",
        "city_district": null,
        "city": "Esch-sur-Alzette",
        "state": null,
        "postcode": "4301",
        "country": "Luxembourg",
        "country_code": "lu"
      },
      "address": "137, Rue de Bergem, Lalleng, Esch-sur-Alzette, Canton Esch-sur-Alzette, 4301, Luxembourg"
    },
    {
      "lat": 49.52119104278312,
      "lon": 5.948457141524292,
      "geoinfo": {
        "display_name": "Huuschtwee, Soleuvre, Sanem, Canton Esch-sur-Alzette, 4439, Luxembourg",
        "road": "Huuschtwee",
        "house_number": null,
        "neighbourhood": null,
        "suburb": null,
        "city_district": "Soleuvre",
        "city": "Sanem",
        "state": null,
        "postcode": "4439",
        "country": "Luxembourg",
        "country_code": "lu"
      },
      "address": "397, Huuschtwee, Soleuvre, Sanem, Canton Esch-sur-Alzette, 4439, Luxembourg"
    },
    {
      "lat": 49.51143618955356,
      "lon": 5.935652883543719,
      "geoinfo": {
        "display_name": "10, Rue Henri Tudor, Belvaux, Sanem, Canton Esch-sur-Alzette, 4489, Luxembourg",
        "road": "Rue Henri Tudor",
        "house_number": "10",
        "neighbourhood": null,
        "suburb": null,
        "city_district": "Belvaux",
        "city": "Sanem",
        "state": null,
        "postcode": "4489",
        "country": "Luxembourg",
        "country_code": "lu"
      },
      "address": "10, Rue Henri Tudor, Belvaux, Sanem, Canton Esch-sur-Alzette, 4489, Luxembourg"
    },
    {
      "lat": 49.50901845689477,
      "lon": 6.037034191665836,
      "geoinfo": {
        "display_name": "Collectrice du Sud, Noertzange, Schifflange, Canton Esch-sur-Alzette, 3383, Luxembourg",
        "road": "Collectrice du Sud",
        "house_number": null,
        "neighbourhood": null,
        "suburb": null,
        "city_district": null,
        "city": "Schifflange",
        "state": null,
        "postcode": "3383",
        "country": "Luxembourg",
        "country_code": "lu"
      },
      "address": "208, Collectrice du Sud, Noertzange, Schifflange, Canton Esch-sur-Alzette, 3383, Luxembourg"
    },
    {
      "lat": 49.48618115518796,
      "lon": 5.987700645010917,
      "geoinfo": {
        "display_name": "Gaalgebierg, Park, Esch-sur-Alzette, Canton Esch-sur-Alzette, 4142, Luxembourg",
        "road": "Gaalgebierg",
        "house_number": null,
        "neighbourhood": null,
        "suburb": "Park",
        "city_district": null,
        "city": "Esch-sur-Alzette",
        "state": null,
        "postcode": "4142",
        "country": "Luxembourg",
        "country_code": "lu"
      },
      "address": "809, Gaalgebierg, Park, Esch-sur-Alzette, Canton Esch-sur-Alzette, 4142, Luxembourg"
    },
    {
      "lat": 49.52493454815107,
      "lon": 6.01252985053786,
      "geoinfo": {
        "display_name": "13, Rue de l'Industrie, Foetz, Mondercange, Canton Esch-sur-Alzette, 3895, Luxembourg",
        "road": "Rue de l'Industrie",
        "house_number": "13",
        "neighbourhood": null,
        "suburb": null,
        "city_district": null,
        "city": "Foetz",
        "state": null,
        "postcode": "3895",
        "country": "Luxembourg",
        "country_code": "lu"
      },
      "address": "13, Rue de l'Industrie, Foetz, Mondercange, Canton Esch-sur-Alzette, 3895, Luxembourg"
    },
    {
      "lat": 49.52827959435285,
      "lon": 5.994519277311796,
      "geoinfo": {
        "display_name": "Grand-Rue, Foetz, Mondercange, Canton Esch-sur-Alzette, 3927, Luxembourg",
        "road": "Grand-Rue",
        "house_number": null,
        "neighbourhood": null,
        "suburb": null,
        "city_district": null,
        "city": "Foetz",
        "state": null,
        "postcode": "3927",
        "country": "Luxembourg",
        "country_code": "lu"
      },
      "address": "420, Grand-Rue, Foetz, Mondercange, Canton Esch-sur-Alzette, 3927, Luxembourg"
    },
    {
      "lat": 49.52236970982196,
      "lon": 5.958068676470243,
      "geoinfo": {
        "display_name": "Ehlerange, Sanem, Canton Esch-sur-Alzette, 4383, Luxembourg",
        "road": null,
        "house_number": null,
        "neighbourhood": null,
        "suburb": null,
        "city_district": "Ehlerange",
        "city": "Sanem",
        "state": null,
        "postcode": "4383",
        "country": "Luxembourg",
        "country_code": "lu"
      },
      "address": "711, Ehlerange, Sanem, Canton Esch-sur-Alzette, 4383, Luxembourg"
    },
    {
      "lat": 49.504160823734985,
      "lon": 5.934003194903875,
      "geoinfo": {
        "display_name": "Lycée Belval, Rue Salvador Dali, Belval, Belvaux, Sanem, Canton Esch-sur-Alzette, 4490, Luxembourg",
        "road": "Rue Salvador Dali",
        "house_number": null,
        "neighbourhood": null,
        "suburb": "Belval",
        "city_district": "Belvaux",
        "city": "Sanem",
        "state": null,
        "postcode": "4490",
        "country": "Luxembourg",
        "country_code": "lu"
      },
      "address": "421, Rue Salvador Dali, 4490 Esch-sur-Alzette, Luxembourg"
    },
    {
      "lat": 49.52552058487361,
      "lon": 5.976980706431387,
      "geoinfo": {
        "display_name": "98, Rue de Mondercange, Ehlerange, Sanem, Canton Esch-sur-Alzette, 4381, Luxembourg",
        "road": "Rue de Mondercange",
        "house_number": "98",
        "neighbourhood": null,
        "suburb": null,
        "city_district": "Ehlerange",
        "city": "Sanem",
        "state": null,
        "postcode": "4381",
        "country": "Luxembourg",
        "country_code": "lu"
      },
      "address": "98, Rue de Mondercange, Ehlerange, Sanem, Canton Esch-sur-Alzette, 4381, Luxembourg"
    },
    {
      "lat": 49.476654363343805,
      "lon": 5.997812446470749,
      "geoinfo": {
        "display_name": "Crête du Chenil, Neiduerf, Esch-sur-Alzette, Canton Esch-sur-Alzette, 4164, Luxembourg",
        "road": "Crête du Chenil",
        "house_number": null,
        "neighbourhood": null,
        "suburb": "Neiduerf",
        "city_district": null,
        "city": "Esch-sur-Alzette",
        "state": null,
        "postcode": "4164",
        "country": "Luxembourg",
        "country_code": "lu"
      },
      "address": "755, Crête du Chenil, Neiduerf, Esch-sur-Alzette, Canton Esch-sur-Alzette, 4164, Luxembourg"
    },
    {
      "lat": 49.47057214214603,
      "lon": 6.026005385840936,
      "geoinfo": {
        "display_name": "Rue Hutbierg, Kayl, Canton Esch-sur-Alzette, 3732, Luxembourg",
        "road": "Rue Hutbierg",
        "house_number": null,
        "neighbourhood": null,
        "suburb": null,
        "city_district": null,
        "city": "Kayl",
        "state": null,
        "postcode": "3732",
        "country": "Luxembourg",
        "country_code": "lu"
      },
      "address": "781, Rue Hutbierg, Kayl, Canton Esch-sur-Alzette, 3732, Luxembourg"
    },
    {
      "lat": 49.4869708303743,
      "lon": 6.027956509159555,
      "geoinfo": {
        "display_name": "Route d'Esch, Kayl, Canton Esch-sur-Alzette, 3637, Luxembourg",
        "road": "Route d'Esch",
        "house_number": null,
        "neighbourhood": null,
        "suburb": null,
        "city_district": null,
        "city": "Kayl",
        "state": null,
        "postcode": "3637",
        "country": "Luxembourg",
        "country_code": "lu"
      },
      "address": "592, Route d'Esch, Kayl, Canton Esch-sur-Alzette, 3637, Luxembourg"
    }
  ],
  "updated_at": "2025-10-19T05:50:16.831644+00:00",
  "_kind": "geo_samples"
}