{
  "country_code": "FJ",
  "country": "Fiji",
  "city": "Lautoka",
  "geonameid": 2204506,
  "target_addresses": 17,
  "samples": [
    {
      "lat": -17.592040246844082,
      "lon": 177.4748815954135,
      "geoinfo": {
        "display_name": "Vitogo Village, Ba, Western, Fiji",
        "road": null,
        "house_number": null,
        "neighbourhood": null,
        "suburb": null,
        "city_district": null,
        "city": "Vitogo Village",
        "state": "Western",
        "postcode": null,
        "country": "Fiji",
        "country_code": "fj"
      },
      "address": "Lautoka, Western, Fiji"
    },
    {
      "lat": -17.625145639795125,
      "lon": 177.45499530166455,
      "geoinfo": {
        "display_name": "Tavakubu Road, Lautoka, Ba, Western, Fiji",
        "road": "Tavakubu Road",
        "house_number": null,
        "neighbourhood": null,
        "suburb": null,
        "city_district": null,
        "city": "Lautoka",
        "state": "Western",
        "postcode": null,
        "country": "Fiji",
        "country_code": "fj"
      },
      "address": "Tavakubu Road, Lautoka, Western, Fiji"
    },
    {
      "lat": -17.62123732779073,
      "lon": 177.46509434540084,
      "geoinfo": {
        "display_name": "Guruwaya Street, Lautoka, Ba, Western, Fiji",
        "road": "Guruwaya Street",
        "house_number": null,
        "neighbourhood": null,
        "suburb": null,
        "city_district": null,
        "city": "Lautoka",
        "state": "Western",
        "postcode": null,
        "country": "Fiji",
        "country_code": "fj"
      },
      "address": "Guruwaya Street, Lautoka, Western, Fiji"
    },
    {
      "lat": -17.62085680416218,
      "lon": 177.4549627054994,
      "geoinfo": {
        "display_name": "17, Ragg Street, Lautoka, Ba, Western, Fiji",
        "road": "Ragg Street",
        "house_number": "17",
        "neighbourhood": null,
        "suburb": null,
        "city_district": null,
        "city": "Lautoka",
        "state": "Western",
        "postcode": null,
        "country": "Fiji",
        "country_code": "fj"
      },
      "address": "17 Ragg Street, Lautoka, Western, Fiji"
    },
    {
      "lat": -17.614430596215257,
      "lon": 177.45719693209543,
      "geoinfo": {
        "display_name": "Pflugers Avenue, Lautoka, Ba, Western, Fiji",
        "road": "Pflugers Avenue",
        "house_number": null,
        "neighbourhood": null,
        "suburb": null,
        "city_district": null,
        "city": "Lautoka",
        "state": "Western",
        "postcode": null,
        "country": "Fiji",
        "country_code": "fj"
      },
      "address": "Pflugers Avenue, Lautoka, Western, Fiji"
    },
    {
      "lat": -17.625859295353703,
      "lon": 177.44232230978474,
      "geoinfo": {
        "display_name": "Bandila Crescent, Lautoka, Ba, Western, Fiji",
        "road": "Bandila Crescent",
        "house_number": null,
        "neighbourhood": null,
        "suburb": null,
        "city_district": null,
        "city": "Lautoka",
        "state": "Western",
        "postcode": null,
        "country": "Fiji",
        "country_code": "fj"
      },
      "address": "Bandila Crescent, Lautoka, Western, Fiji"
    },
    {
      "lat": -17.613393136309913,
      "lon": 177.43754577780643,
      "geoinfo": {
        "display_name": "Fiji Gas Lautoka, Waterfront Road, Lautoka, Ba, Western, Fiji",
        "road": "Waterfront Road",
        "house_number": null,
        "neighbourhood": null,
        "suburb": null,
        "city_district": null,
        "city": "Lautoka",
        "state": "Western",
        "postcode": null,
        "country": "Fiji",
        "country_code": "fj"
      },
      "address": "Waterfront Road, Lautoka, Western, Fiji"
    },
    {
      "lat": -17.603326292357554,
      "lon": 177.4525128279004,
      "geoinfo": {
        "display_name": "Tukani Street, Lautoka, Ba, Western, Fiji",
        "road": "Tukani Street",
        "house_number": null,
        "neighbourhood": null,
        "suburb": null,
        "city_district": null,
        "city": "Lautoka",
        "state": "Western",
        "postcode": null,
        "country": "Fiji",
        "country_code": "fj"
      },
      "address": "Tukani Street, Lautoka, Western, Fiji"
    },
    {
      "lat": -17.64209013614869,
      "lon": 177.43128766689307,
      "geoinfo": {
        "display_name": "Tabua Place, Natabua, Lautoka, Ba, Western, Fiji",
        "road": "Tabua Place",
        "house_number": null,
        "neighbourhood": null,
        "suburb": null,
        "city_district": null,
        "city": "Lautoka",
        "state": "Western",
        "postcode": null,
        "country": "Fiji",
        "country_code": "fj"
      },
      "address": "Tabua Place, Lautoka, Western, Fiji"
    },
    {
      "lat": -17.619564673893592,
      "lon": 177.44352883224315,
      "geoinfo": {
        "display_name": "Shiu Raj Street, Lautoka, Ba, Western, Fiji",
        "road": "Shiu Raj Street",
        "house_number": null,
        "neighbourhood": null,
        "suburb": null,
        "city_district": null,
        "city": "Lautoka",
        "state": "Western",
        "postcode": null,
        "country": "Fiji",
        "country_code": "fj"
      },
      "address": "Shiu Raj Street, Lautoka, Western, Fiji"
    },
    {
      "lat": -17.63286798309699,
      "lon": 177.45051124635705,
      "geoinfo": {
        "display_name": "S. M. Koya Road, Lautoka, Ba, Western, Fiji",
        "road": "S. M. Koya Road",
        "house_number": null,
        "neighbourhood": null,
        "suburb": null,
        "city_district": null,
        "city": "Lautoka",
        "state": "Western",
        "postcode": null,
        "country": "Fiji",
        "country_code": "fj"
      },
      "address": "S. M. Koya Road, Lautoka, Western, Fiji"
    },
    {
      "lat": -17.605743280948516,
      "lon": 177.44402419001528,
      "geoinfo": {
        "display_name": "Vitogo Parade, Lautoka, Ba, Western, Fiji",
        "road": "Vitogo Parade",
        "house_number": null,
        "neighbourhood": null,
        "suburb": null,
        "city_district": null,
        "city": "Lautoka",
        "state": "Western",
        "postcode": null,
        "country": "Fiji",
        "country_code": "fj"
      },
      "address": "Vitogo Parade, Lautoka, Western, Fiji"
    },
    {
      "lat": -17.645113813998048,
      "lon": 177.4296497221983,
      "geoinfo": {
        "display_name": "Gibson Place, Natabua, Lautoka, Ba, Western, Fiji",
        "road": "Gibson Place",
        "house_number": null,
        "neighbourhood": null,
        "suburb": null,
        "city_district": null,
        "city": "Lautoka",
        "state": "Western",
        "postcode": null,
        "country": "Fiji",
        "country_code": "fj"
      },
      "address": "Gibson Place, Lautoka, Western, Fiji"
    },
    {
      "lat": -17.65787286660555,
      "lon": 177.43679988007113,
      "geoinfo": {
        "display_name": "Vuda Back Road, Lautoka, Ba, Western, Fiji",
        "road": "Vuda Back Road",
        "house_number": null,
        "neighbourhood": null,
        "suburb": null,
        "city_district": null,
        "city": "Lautoka",
        "state": "Western",
        "postcode": null,
        "country": "Fiji",
        "country_code": "fj"
      },
      "address": "Vuda Back Road, Lautoka, Western, Fiji"
    },
    {
      "lat": -17.608648238502397,
      "lon": 177.45365646763125,
      "geoinfo": {
        "display_name": "Nanuya Street, Lautoka, Ba, Western, Fiji",
        "road": "Nanuya Street",
        "house_number": null,
        "neighbourhood": null,
        "suburb": null,
        "city_district": null,
        "city": "Lautoka",
        "state": "Western",
        "postcode": null,
        "country": "Fiji",
        "country_code": "fj"
      },
      "address": "Nanuya Street, Lautoka, Western, Fiji"
    },
    {
      "lat": -17.61467905575327,
      "lon": 177.45480296421184,
      "geoinfo": {
        "display_name": "Lautoka Hospital, Thomson Crescent, Lautoka, Ba, Western, Fiji",
        "road": "Thomson Crescent",
        "house_number": null,
        "neighbourhood": null,
        "suburb": null,
        "city_district": null,
        "city": "Lautoka",
        "state": "Western",
        "postcode": null,
        "country": "Fiji",
        "country_code": "fj"
      },
      "address": "Thomson Crescent, Lautoka, Western, Fiji"
    },
    {
      "lat": -17.636354433933164,
      "lon": 177.47372915191553,
      "geoinfo": {
        "display_name": "Tavakubu Back Road, Vunamaoli Tavakubu, Lautoka, Ba, Western, Fiji",
        "road": "Tavakubu Back Road",
        "house_number": null,
        "neighbourhood": null,
        "suburb": null,
        "city_district": null,
        "city": "Lautoka",
        "state": "Western",
        "postcode": null,
        "country": "Fiji",
        "country_code": "fj"
      },
      "address": "Tavakubu Back Road, Lautoka, Western, Fiji"
    },
    {
      "lat": -17.579252348254133,
      "lon": 177.44608035938418,
      "geoinfo": {
        "display_name": "Lautoka, Ba, Western, Fiji",
        "road": null,
        "house_number": null,
        "neighbourhood": null,
        "suburb": null,
        "city_district": null,
        "city": "Lautoka",
        "state": "Western",
        "postcode": null,
        "country": "Fiji",
        "country_code": "fj"
      },
      "address": "732, Lautoka, Ba, 08513 Western, Fiji"
    },
    {
      "lat": -17.60460645571254,
      "lon": 177.45118843666089,
      "geoinfo": {
        "display_name": "Nede Street, Lautoka, Ba, Western, Fiji",
        "road": "Nede Street",
        "house_number": null,
        "neighbourhood": null,
        "suburb": null,
        "city_district": null,
        "city": "Lautoka",
        "state": "Western",
        "postcode": null,
        "country": "Fiji",
        "country_code": "fj"
      },
      "address": "535, Nede Street, Lautoka, Ba, 26673 Western, Fiji"
    },
    {
      "lat": -17.615419975200325,
      "lon": 177.4684265980287,
      "geoinfo": {
        "display_name": "Lautoka, Ba, Western, Fiji",
        "road": null,
        "house_number": null,
        "neighbourhood": null,
        "suburb": null,
        "city_district": null,
        "city": "Lautoka",
        "state": "Western",
        "postcode": null,
        "country": "Fiji",
        "country_code": "fj"
      },
      "address": "169, Lautoka, Ba, 96833 Western, Fiji"
    },
    {
      "lat": -17.594262122708408,
      "lon": 177.4869029063493,
      "geoinfo": {
        "display_name": "Lautoka, Ba, Western, Fiji",
        "road": null,
        "house_number": null,
        "neighbourhood": null,
        "suburb": null,
        "city_district": null,
        "city": "Lautoka",
        "state": "Western",
        "postcode": null,
        "country": "Fiji",
        "country_code": "fj"
      },
      "address": "406, Lautoka, Ba, 32558 Western, Fiji"
    },
    {
      "lat": -17.5866255420792,
      "lon": 177.4425801262541,
      "geoinfo": {
        "display_name": "Marine Drive, Lautoka, Ba, Western, Fiji",
        "road": "Marine Drive",
        "house_number": null,
        "neighbourhood": null,
        "suburb": null,
        "city_district": null,
        "city": "Lautoka",
        "state": "Western",
        "postcode": null,
        "country": "Fiji",
        "country_code": "fj"
      },
      "address": "347, Marine Drive, Lautoka, Ba, 71956 Western, Fiji"
    },
    {
      "lat": -17.6234332300564,
      "lon": 177.43407642606473,
      "geoinfo": {
        "display_name": "Queens Road, Lautoka, Ba, Western, Fiji",
        "road": "Queens Road",
        "house_number": null,
        "neighbourhood": null,
        "suburb": null,
        "city_district": null,
        "city": "Lautoka",
        "state": "Western",
        "postcode": null,
        "country": "Fiji",
        "country_code": "fj"
      },
      "address": "518, Queens Road, Lautoka, Ba, 22766 Western, Fiji"
    },
    {
      "lat": -17.579273246410768,
      "lon": 177.45706122310233,
      "geoinfo": {
        "display_name": "Lautoka, Ba, Western, Fiji",
        "road": null,
        "house_number": null,
        "neighbourhood": null,
        "suburb": null,
        "city_district": null,
        "city": "Lautoka",
        "state": "Western",
        "postcode": null,
        "country": "Fiji",
        "country_code": "fj"
      },
      "address": "704, Lautoka, Ba, 99452 Western, Fiji"
    },
    {
      "lat": -17.641471709644208,
      "lon": 177.43831773596168,
      "geoinfo": {
        "display_name": "Lautoka, Ba, Western, Fiji",
        "road": null,
        "house_number": null,
        "neighbourhood": null,
        "suburb": null,
        "city_district": null,
        "city": "Lautoka",
        "state": "Western",
        "postcode": null,
        "country": "Fiji",
        "country_code": "fj"
      },
      "address": "088, Lautoka, Ba, 27186 Western, Fiji"
    },
    {
      "lat": -17.60322128396879,
      "lon": 177.44060865644465,
      "geoinfo": {
        "display_name": "Waterfront Road, Lautoka, Ba, Western, Fiji",
        "road": "Waterfront Road",
        "house_number": null,
        "neighbourhood": null,
        "suburb": null,
        "city_district": null,
        "city": "Lautoka",
        "state": "Western",
        "postcode": null,
        "country": "Fiji",
        "country_code": "fj"
      },
      "address": "660, Waterfront Road, Lautoka, Ba, 88090 Western, Fiji"
    },
    {
      "lat": -17.59877526268122,
      "lon": 177.42836194914688,
      "geoinfo": {
        "display_name": "Lautoka, Ba, Western, Fiji",
        "road": null,
        "house_number": null,
        "neighbourhood": null,
        "suburb": null,
        "city_district": null,
        "city": "Lautoka",
        "state": "Western",
        "postcode": null,
        "country": "Fiji",
        "country_code": "fj"
      },
      "address": "653, Lautoka, Ba, 58444 Western, Fiji"
    },
    {
      "lat": -17.62267081712918,
      "lon": 177.46927872904593,
      "geoinfo": {
        "display_name": "Lum Street, Lautoka, Ba, Western, Fiji",
        "road": "Lum Street",
        "house_number": null,
        "neighbourhood": null,
        "suburb": null,
        "city_district": null,
        "city": "Lautoka",
        "state": "Western",
        "postcode": null,
        "country": "Fiji",
        "country_code": "fj"
      },
      "address": "313, Lum Street, Lautoka, Ba, 35043 Western, Fiji"
    },
    {
      "lat": -17.65425405615589,
      "lon": 177.42986576627163,
      "geoinfo": {
        "display_name": "Wairebetia Road, Lautoka, Ba, Western, Fiji",
        "road": "Wairebetia Road",
        "house_number": null,
        "neighbourhood": null,
        "suburb": null,
        "city_district": null,
        "city": "Lautoka",
        "state": "Western",
        "postcode": null,
        "country": "Fiji",
        "country_code": "fj"
      },
      "address": "975, Wairebetia Road, Lautoka, Ba, 97629 Western, Fiji"
    },
    {
      "lat": -17.61919474985325,
      "lon": 177.4118236228234,
      "geoinfo": {
        "display_name": "Lautoka, Ba, Western, Fiji",
        "road": null,
        "house_number": null,
        "neighbourhood": null,
        "suburb": null,
        "city_district": null,
        "city": "Lautoka",
        "state": "Western",
        "postcode": null,
        "country": "Fiji",
        "country_code": "fj"
      },
      "address": "653, Lautoka, Ba, 54330 Western, Fiji"
    },
    {
      "lat": -17.626729895338542,
      "lon": 177.48510971644612,
      "geoinfo": {
        "display_name": "Lautoka, Ba, Western, Fiji",
        "road": null,
        "house_number": null,
        "neighbourhood": null,
        "suburb": null,
        "city_district": null,
        "city": "Lautoka",
        "state": "Western",
        "postcode": null,
        "country": "Fiji",
        "country_code": "fj"
      },
      "address": "587, Lautoka, Ba, 91743 Western, Fiji"
    },
    {
      "lat": -17.60599413480328,
      "lon": 177.45337818420018,
      "geoinfo": {
        "display_name": "Narara Parade, Lautoka, Ba, Western, Fiji",
        "road": "Narara Parade",
        "house_number": null,
        "neighbourhood": null,
        "suburb": null,
        "city_district": null,
        "city": "Lautoka",
        "state": "Western",
        "postcode": null,
        "country": "Fiji",
        "country_code": "fj"
      },
      "address": "528, Narara Parade, Lautoka, Ba, 84977 Western, Fiji"
    },
    {
      "lat": -17.661220750418906,
      "lon": 177.45673026613017,
      "geoinfo": {
        "display_name": "Vaivai Road, Lautoka, Ba, Western, Fiji",
        "road": "Vaivai Road",
        "house_number": null,
        "neighbourhood": null,
        "suburb": null,
        "city_district": null,
        "city": "Lautoka",
        "state": "Western",
        "postcode": null,
        "country": "Fiji",
        "country_code": "fj"
      },
      "address": "246, Vaivai Road, Lautoka, Ba, 20999 Western, Fiji"
    },
    {
      "lat": -17.598697723974073,
      "lon": 177.415212850804,
      "geoinfo": {
        "display_name": "Lautoka, Ba, Western, Fiji",
        "road": null,
        "house_number": null,
        "neighbourhood": null,
        "suburb": null,
        "city_district": null,
        "city": "Lautoka",
        "state": "Western",
        "postcode": null,
        "country": "Fiji",
        "country_code": "fj"
      },
      "address": "807, Lautoka, Ba, 31628 Western, Fiji"
    }
  ],
  "updated_at": "2025-10-19T04:03:31.837354+00:00",
  "_kind": "geo_samples"
}