{
  "country_code": "FJ",
  "country": "Fiji",
  "city": "Nadi",
  "geonameid": 2202064,
  "target_addresses": 17,
  "samples": [
    {
      "lat": -17.8158808804661,
      "lon": 177.45413612975182,
      "geoinfo": {
        "display_name": "Korociri Nawaka settlement, Nadi, Ba, Western, Fiji",
        "road": null,
        "house_number": null,
        "neighbourhood": null,
        "suburb": null,
        "city_district": null,
        "city": "Nadi",
        "state": "Western",
        "postcode": null,
        "country": "Fiji",
        "country_code": "fj"
      },
      "address": "Nadi, Western, Fiji"
    },
    {
      "lat": -17.766049047884096,
      "lon": 177.40155202160355,
      "geoinfo": {
        "display_name": "Fantasy Road, Nadi, Ba, Western, Fiji",
        "road": "Fantasy Road",
        "house_number": null,
        "neighbourhood": null,
        "suburb": null,
        "city_district": null,
        "city": "Nadi",
        "state": "Western",
        "postcode": null,
        "country": "Fiji",
        "country_code": "fj"
      },
      "address": "Fantasy Road, Nadi, Western, Fiji"
    },
    {
      "lat": -17.763425426119902,
      "lon": 177.42185004546806,
      "geoinfo": {
        "display_name": "Sailors Beach, Lot 11, Wasawasa Road, New Hotel Construction Site, Nadi, Ba, Western, Fiji",
        "road": "Wasawasa Road",
        "house_number": "Lot 11",
        "neighbourhood": null,
        "suburb": null,
        "city_district": null,
        "city": "Nadi",
        "state": "Western",
        "postcode": null,
        "country": "Fiji",
        "country_code": "fj"
      },
      "address": "Lot 11 Wasawasa Road, Nadi, Western, Fiji"
    },
    {
      "lat": -17.78745895928438,
      "lon": 177.43368923759454,
      "geoinfo": {
        "display_name": "Bila Road, Nadi, Ba, Western, Fiji",
        "road": "Bila Road",
        "house_number": null,
        "neighbourhood": null,
        "suburb": null,
        "city_district": null,
        "city": "Nadi",
        "state": "Western",
        "postcode": null,
        "country": "Fiji",
        "country_code": "fj"
      },
      "address": "Bila Road, Nadi, Western, Fiji"
    },
    {
      "lat": -17.780042809855317,
      "lon": 177.41954386867343,
      "geoinfo": {
        "display_name": "Enamanu Road, Nadi, Ba, Western, Fiji",
        "road": "Enamanu Road",
        "house_number": null,
        "neighbourhood": null,
        "suburb": null,
        "city_district": null,
        "city": "Nadi",
        "state": "Western",
        "postcode": null,
        "country": "Fiji",
        "country_code": "fj"
      },
      "address": "Enamanu Road, Nadi, Western, Fiji"
    },
    {
      "lat": -17.78073453355989,
      "lon": 177.38718406395327,
      "geoinfo": {
        "display_name": "Narewa Road, Nadi, Ba, Western, Fiji",
        "road": "Narewa Road",
        "house_number": null,
        "neighbourhood": null,
        "suburb": null,
        "city_district": null,
        "city": "Nadi",
        "state": "Western",
        "postcode": null,
        "country": "Fiji",
        "country_code": "fj"
      },
      "address": "Narewa Road, Nadi, Western, Fiji"
    },
    {
      "lat": -17.78261469937515,
      "lon": 177.44860532081955,
      "geoinfo": {
        "display_name": "Nadi Back Road, Nadi, Ba, Western, Fiji",
        "road": "Nadi Back Road",
        "house_number": null,
        "neighbourhood": null,
        "suburb": null,
        "city_district": null,
        "city": "Nadi",
        "state": "Western",
        "postcode": null,
        "country": "Fiji",
        "country_code": "fj"
      },
      "address": "Nadi Back Road, Nadi, Western, Fiji"
    },
    {
      "lat": -17.80668575436846,
      "lon": 177.4052586300905,
      "geoinfo": {
        "display_name": "Queens Road, Nadi, Ba, Western, Fiji",
        "road": "Queens Road",
        "house_number": null,
        "neighbourhood": null,
        "suburb": null,
        "city_district": null,
        "city": "Nadi",
        "state": "Western",
        "postcode": null,
        "country": "Fiji",
        "country_code": "fj"
      },
      "address": "Queens Road, Nadi, Western, Fiji"
    },
    {
      "lat": -17.805965651971952,
      "lon": 177.43032484127272,
      "geoinfo": {
        "display_name": "Nawaka Village, Nadi, Ba, Western, Fiji",
        "road": "Nawaka Village",
        "house_number": null,
        "neighbourhood": null,
        "suburb": null,
        "city_district": null,
        "city": "Nadi",
        "state": "Western",
        "postcode": null,
        "country": "Fiji",
        "country_code": "fj"
      },
      "address": "Nawaka Village, Nadi, Western, Fiji"
    },
    {
      "lat": -17.810881848000772,
      "lon": 177.390048778273,
      "geoinfo": {
        "display_name": "yv37, Queens Road, Nadi, Ba, Western, Fiji",
        "road": "Queens Road",
        "house_number": "yv37",
        "neighbourhood": null,
        "suburb": null,
        "city_district": null,
        "city": "Nadi",
        "state": "Western",
        "postcode": null,
        "country": "Fiji",
        "country_code": "fj"
      },
      "address": "yv37 Queens Road, Nadi, Western, Fiji"
    },
    {
      "lat": -17.780248383994717,
      "lon": 177.42550865405642,
      "geoinfo": {
        "display_name": "Wailoaloa Road, Nadi, Ba, Western, Fiji",
        "road": "Wailoaloa Road",
        "house_number": null,
        "neighbourhood": null,
        "suburb": null,
        "city_district": null,
        "city": "Nadi",
        "state": "Western",
        "postcode": null,
        "country": "Fiji",
        "country_code": "fj"
      },
      "address": "Wailoaloa Road, Nadi, Western, Fiji"
    },
    {
      "lat": -17.798338450971364,
      "lon": 177.40432849536714,
      "geoinfo": {
        "display_name": "Nukunuku 2, Narewa Road, Nadi, Ba, Western, Fiji",
        "road": "Narewa Road",
        "house_number": "Nukunuku 2",
        "neighbourhood": null,
        "suburb": null,
        "city_district": null,
        "city": "Nadi",
        "state": "Western",
        "postcode": null,
        "country": "Fiji",
        "country_code": "fj"
      },
      "address": "Nukunuku 2 Narewa Road, Nadi, Western, Fiji"
    },
    {
      "lat": -17.79263830492247,
      "lon": 177.40743536203897,
      "geoinfo": {
        "display_name": "Waqana Road, Nadi, Ba, Western, Fiji",
        "road": "Waqana Road",
        "house_number": null,
        "neighbourhood": null,
        "suburb": null,
        "city_district": null,
        "city": "Nadi",
        "state": "Western",
        "postcode": null,
        "country": "Fiji",
        "country_code": "fj"
      },
      "address": "Waqana Road, Nadi, Western, Fiji"
    },
    {
      "lat": -17.76890201186486,
      "lon": 177.43395289011963,
      "geoinfo": {
        "display_name": "Waoavuka Street, Nadi, Ba, Western, Fiji",
        "road": "Waoavuka Street",
        "house_number": null,
        "neighbourhood": null,
        "suburb": null,
        "city_district": null,
        "city": "Nadi",
        "state": "Western",
        "postcode": null,
        "country": "Fiji",
        "country_code": "fj"
      },
      "address": "Waoavuka Street, Nadi, Western, Fiji"
    },
    {
      "lat": -17.81495062204165,
      "lon": 177.44033890808282,
      "geoinfo": {
        "display_name": "Nawaka Road, Korociri Nawaka settlement, Nadi, Ba, Western, Fiji",
        "road": "Nawaka Road",
        "house_number": null,
        "neighbourhood": null,
        "suburb": null,
        "city_district": null,
        "city": "Nadi",
        "state": "Western",
        "postcode": null,
        "country": "Fiji",
        "country_code": "fj"
      },
      "address": "Nawaka Road, Nadi, Western, Fiji"
    },
    {
      "lat": -17.80177545653406,
      "lon": 177.4057486297009,
      "geoinfo": {
        "display_name": "1, Narewa Road, Nadi, Ba, Western, Fiji",
        "road": "Narewa Road",
        "house_number": "1",
        "neighbourhood": null,
        "suburb": null,
        "city_district": null,
        "city": "Nadi",
        "state": "Western",
        "postcode": null,
        "country": "Fiji",
        "country_code": "fj"
      },
      "address": "1 Narewa Road, Nadi, Western, Fiji"
    },
    {
      "lat": -17.767700487036336,
      "lon": 177.4050917696702,
      "geoinfo": {
        "display_name": "Fantasy Road, Nadi, Ba, Western, Fiji",
        "road": "Fantasy Road",
        "house_number": null,
        "neighbourhood": null,
        "suburb": null,
        "city_district": null,
        "city": "Nadi",
        "state": "Western",
        "postcode": null,
        "country": "Fiji",
        "country_code": "fj"
      },
      "address": "697, Fantasy Road, Nadi, Ba, 03188 Western, Fiji"
    },
    {
      "lat": -17.788873203803394,
      "lon": 177.404868625034,
      "geoinfo": {
        "display_name": "Waqana Road, Nadi, Ba, Western, Fiji",
        "road": "Waqana Road",
        "house_number": null,
        "neighbourhood": null,
        "suburb": null,
        "city_district": null,
        "city": "Nadi",
        "state": "Western",
        "postcode": null,
        "country": "Fiji",
        "country_code": "fj"
      },
      "address": "114, Waqana Road, Nadi, Ba, 49031 Western, Fiji"
    },
    {
      "lat": -17.788123078297268,
      "lon": 177.4040952213616,
      "geoinfo": {
        "display_name": "Waqana Road, Nadi, Ba, Western, Fiji",
        "road": "Waqana Road",
        "house_number": null,
        "neighbourhood": null,
        "suburb": null,
        "city_district": null,
        "city": "Nadi",
        "state": "Western",
        "postcode": null,
        "country": "Fiji",
        "country_code": "fj"
      },
      "address": "868, Waqana Road, Nadi, Ba, 65051 Western, Fiji"
    },
    {
      "lat": -17.816297045837853,
      "lon": 177.39438401501707,
      "geoinfo": {
        "display_name": "Queens Road, Nadi, Ba, Western, Fiji",
        "road": "Queens Road",
        "house_number": null,
        "neighbourhood": null,
        "suburb": null,
        "city_district": null,
        "city": "Nadi",
        "state": "Western",
        "postcode": null,
        "country": "Fiji",
        "country_code": "fj"
      },
      "address": "357, Queens Road, Nadi, Ba, 05911 Western, Fiji"
    },
    {
      "lat": -17.81278279155824,
      "lon": 177.4108041727754,
      "geoinfo": {
        "display_name": "Queens Road, Nadi, Ba, Western, Fiji",
        "road": "Queens Road",
        "house_number": null,
        "neighbourhood": null,
        "suburb": null,
        "city_district": null,
        "city": "Nadi",
        "state": "Western",
        "postcode": null,
        "country": "Fiji",
        "country_code": "fj"
      },
      "address": "680, Queens Road, Nadi, Ba, 90851 Western, Fiji"
    },
    {
      "lat": -17.77054000896869,
      "lon": 177.4365326457936,
      "geoinfo": {
        "display_name": "Nasilivata Road, Nadi, Ba, Western, Fiji",
        "road": "Nasilivata Road",
        "house_number": null,
        "neighbourhood": null,
        "suburb": null,
        "city_district": null,
        "city": "Nadi",
        "state": "Western",
        "postcode": null,
        "country": "Fiji",
        "country_code": "fj"
      },
      "address": "769, Nasilivata Road, Nadi, Ba, 19193 Western, Fiji"
    },
    {
      "lat": -17.80409335354551,
      "lon": 177.39828603984637,
      "geoinfo": {
        "display_name": "SK101, Queens Road, Nadi, Ba, Western, Fiji",
        "road": "Queens Road",
        "house_number": "SK101",
        "neighbourhood": null,
        "suburb": null,
        "city_district": null,
        "city": "Nadi",
        "state": "Western",
        "postcode": null,
        "country": "Fiji",
        "country_code": "fj"
      },
      "address": "SK101, Queens Road, Nadi, Ba, 44101 Western, Fiji"
    },
    {
      "lat": -17.817590969474853,
      "lon": 177.44754773034413,
      "geoinfo": {
        "display_name": "Korociri Nawaka settlement, Nadi, Ba, Western, Fiji",
        "road": null,
        "house_number": null,
        "neighbourhood": null,
        "suburb": null,
        "city_district": null,
        "city": "Nadi",
        "state": "Western",
        "postcode": null,
        "country": "Fiji",
        "country_code": "fj"
      },
      "address": "457, Korociri Nawaka settlement, Nadi, Ba, 47590 Western, Fiji"
    },
    {
      "lat": -17.831055068968997,
      "lon": 177.45056473345042,
      "geoinfo": {
        "display_name": "Nawaka Road, Nadi, Ba, Western, Fiji",
        "road": "Nawaka Road",
        "house_number": null,
        "neighbourhood": null,
        "suburb": null,
        "city_district": null,
        "city": "Nadi",
        "state": "Western",
        "postcode": null,
        "country": "Fiji",
        "country_code": "fj"
      },
      "address": "982, Nawaka Road, Nadi, Ba, 62045 Western, Fiji"
    }
  ],
  "updated_at": "2025-10-19T02:34:49.611559+00:00",
  "_kind": "geo_samples"
}