{
  "country_code": "FJ",
  "country": "Fiji",
  "city": "Sigatoka",
  "geonameid": 2198365,
  "target_addresses": 17,
  "samples": [
    {
      "lat": -18.12745967756876,
      "lon": 177.47588619877538,
      "geoinfo": {
        "display_name": "Vunatovau, Nadroga-Navosa, Western, Fiji",
        "road": null,
        "house_number": null,
        "neighbourhood": null,
        "suburb": null,
        "city_district": null,
        "city": "Vunatovau",
        "state": "Western",
        "postcode": null,
        "country": "Fiji",
        "country_code": "fj"
      },
      "address": "Sigatoka, Western, Fiji"
    },
    {
      "lat": -18.13557286252736,
      "lon": 177.4995828992807,
      "geoinfo": {
        "display_name": "Yaka Road, Sigatoka, Nadroga-Navosa, Western, Fiji",
        "road": "Yaka Road",
        "house_number": null,
        "neighbourhood": null,
        "suburb": null,
        "city_district": null,
        "city": "Sigatoka",
        "state": "Western",
        "postcode": null,
        "country": "Fiji",
        "country_code": "fj"
      },
      "address": "Yaka Road, Sigatoka, Western, Fiji"
    },
    {
      "lat": -18.162182842982062,
      "lon": 177.47949518156804,
      "geoinfo": {
        "display_name": "Queens Road, Kulukulu, Mataqe, Nadroga-Navosa, Western, Fiji",
        "road": "Queens Road",
        "house_number": null,
        "neighbourhood": null,
        "suburb": null,
        "city_district": null,
        "city": "Mataqe",
        "state": "Western",
        "postcode": null,
        "country": "Fiji",
        "country_code": "fj"
      },
      "address": "Queens Road, Sigatoka, Western, Fiji"
    },
    {
      "lat": -18.108549040960447,
      "lon": 177.52084439212095,
      "geoinfo": {
        "display_name": "Nakabuta Methodist Church, Sigatoka Valley Road, Sigatoka, Nadroga-Navosa, Western, Fiji",
        "road": "Sigatoka Valley Road",
        "house_number": null,
        "neighbourhood": null,
        "suburb": null,
        "city_district": null,
        "city": "Sigatoka",
        "state": "Western",
        "postcode": null,
        "country": "Fiji",
        "country_code": "fj"
      },
      "address": "Sigatoka Valley Road, Sigatoka, Western, Fiji"
    },
    {
      "lat": -18.130297463272015,
      "lon": 177.5225838836169,
      "geoinfo": {
        "display_name": "Kavanagasau Road, Nororo, Toga, Nadroga-Navosa, Western, Fiji",
        "road": "Kavanagasau Road",
        "house_number": null,
        "neighbourhood": null,
        "suburb": null,
        "city_district": null,
        "city": "Toga",
        "state": "Western",
        "postcode": null,
        "country": "Fiji",
        "country_code": "fj"
      },
      "address": "Kavanagasau Road, Sigatoka, Western, Fiji"
    },
    {
      "lat": -18.123575992869068,
      "lon": 177.54075342517996,
      "geoinfo": {
        "display_name": "Nasau Back Road, Sigatoka, Nadroga-Navosa, Western, Fiji",
        "road": "Nasau Back Road",
        "house_number": null,
        "neighbourhood": null,
        "suburb": null,
        "city_district": null,
        "city": "Sigatoka",
        "state": "Western",
        "postcode": null,
        "country": "Fiji",
        "country_code": "fj"
      },
      "address": "Nasau Back Road, Sigatoka, Western, Fiji"
    },
    {
      "lat": -18.10019290581409,
      "lon": 177.50844465415386,
      "geoinfo": {
        "display_name": "Butoni Road, Sigatoka, Nadroga-Navosa, Western, Fiji",
        "road": "Butoni Road",
        "house_number": null,
        "neighbourhood": null,
        "suburb": null,
        "city_district": null,
        "city": "Sigatoka",
        "state": "Western",
        "postcode": null,
        "country": "Fiji",
        "country_code": "fj"
      },
      "address": "Butoni Road, Sigatoka, Western, Fiji"
    },
    {
      "lat": -18.130488392215817,
      "lon": 177.51522118394172,
      "geoinfo": {
        "display_name": "Singatoka Valley Road, Lawai, Sigatoka, Nadroga-Navosa, Western, Fiji",
        "road": "Singatoka Valley Road",
        "house_number": null,
        "neighbourhood": null,
        "suburb": null,
        "city_district": null,
        "city": "Sigatoka",
        "state": "Western",
        "postcode": null,
        "country": "Fiji",
        "country_code": "fj"
      },
      "address": "Singatoka Valley Road, Sigatoka, Western, Fiji"
    },
    {
      "lat": -18.13881581752355,
      "lon": 177.50786985264398,
      "geoinfo": {
        "display_name": "Mission Road, Sigatoka, Nadroga-Navosa, Western, Fiji",
        "road": "Mission Road",
        "house_number": null,
        "neighbourhood": null,
        "suburb": null,
        "city_district": null,
        "city": "Sigatoka",
        "state": "Western",
        "postcode": null,
        "country": "Fiji",
        "country_code": "fj"
      },
      "address": "Mission Road, Sigatoka, Western, Fiji"
    },
    {
      "lat": -18.1463975556125,
      "lon": 177.51139578645729,
      "geoinfo": {
        "display_name": "Nayawa Street, Sigatoka, Nadroga-Navosa, Western, Fiji",
        "road": "Nayawa Street",
        "house_number": null,
        "neighbourhood": null,
        "suburb": null,
        "city_district": null,
        "city": "Sigatoka",
        "state": "Western",
        "postcode": null,
        "country": "Fiji",
        "country_code": "fj"
      },
      "address": "Nayawa Street, Sigatoka, Western, Fiji"
    },
    {
      "lat": -18.122677091295675,
      "lon": 177.51392322480146,
      "geoinfo": {
        "display_name": "Lawai, Sigatoka, Nadroga-Navosa, Western, Fiji",
        "road": null,
        "house_number": null,
        "neighbourhood": null,
        "suburb": null,
        "city_district": null,
        "city": "Sigatoka",
        "state": "Western",
        "postcode": null,
        "country": "Fiji",
        "country_code": "fj"
      },
      "address": "350, Lawai, Sigatoka, Nadroga-Navosa, 00847 Western, Fiji"
    },
    {
      "lat": -18.11773685050827,
      "lon": 177.52547105231025,
      "geoinfo": {
        "display_name": "Sigatoka Valley Road, Sigatoka, Nadroga-Navosa, Western, Fiji",
        "road": "Sigatoka Valley Road",
        "house_number": null,
        "neighbourhood": null,
        "suburb": null,
        "city_district": null,
        "city": "Sigatoka",
        "state": "Western",
        "postcode": null,
        "country": "Fiji",
        "country_code": "fj"
      },
      "address": "585, Sigatoka Valley Road, Sigatoka, Nadroga-Navosa, 01597 Western, Fiji"
    },
    {
      "lat": -18.16421998006936,
      "lon": 177.47185695616,
      "geoinfo": {
        "display_name": "Queens Road, Kulukulu, Mataqe, Nadroga-Navosa, Western, Fiji",
        "road": "Queens Road",
        "house_number": null,
        "neighbourhood": null,
        "suburb": null,
        "city_district": null,
        "city": "Mataqe",
        "state": "Western",
        "postcode": null,
        "country": "Fiji",
        "country_code": "fj"
      },
      "address": "060, Queens Road, Sigatoka, 05533 Western, Fiji"
    },
    {
      "lat": -18.11062853139141,
      "lon": 177.52538959228295,
      "geoinfo": {
        "display_name": "Sigatoka Valley Road, Sigatoka, Nadroga-Navosa, Western, Fiji",
        "road": "Sigatoka Valley Road",
        "house_number": null,
        "neighbourhood": null,
        "suburb": null,
        "city_district": null,
        "city": "Sigatoka",
        "state": "Western",
        "postcode": null,
        "country": "Fiji",
        "country_code": "fj"
      },
      "address": "885, Sigatoka Valley Road, Sigatoka, Nadroga-Navosa, 91694 Western, Fiji"
    },
    {
      "lat": -18.132419069925273,
      "lon": 177.50594702839282,
      "geoinfo": {
        "display_name": "Sigatoka, Nadroga-Navosa, Western, Fiji",
        "road": null,
        "house_number": null,
        "neighbourhood": null,
        "suburb": null,
        "city_district": null,
        "city": "Sigatoka",
        "state": "Western",
        "postcode": null,
        "country": "Fiji",
        "country_code": "fj"
      },
      "address": "644, Sigatoka, Nadroga-Navosa, 07113 Western, Fiji"
    },
    {
      "lat": -18.13081999651031,
      "lon": 177.49652514946285,
      "geoinfo": {
        "display_name": "Yaka Road, Sigatoka, Nadroga-Navosa, Western, Fiji",
        "road": "Yaka Road",
        "house_number": null,
        "neighbourhood": null,
        "suburb": null,
        "city_district": null,
        "city": "Sigatoka",
        "state": "Western",
        "postcode": null,
        "country": "Fiji",
        "country_code": "fj"
      },
      "address": "401, Yaka Road, Sigatoka, Nadroga-Navosa, 55165 Western, Fiji"
    },
    {
      "lat": -18.119070530646592,
      "lon": 177.50809339557156,
      "geoinfo": {
        "display_name": "Butoni Road, Sigatoka, Nadroga-Navosa, Western, Fiji",
        "road": "Butoni Road",
        "house_number": null,
        "neighbourhood": null,
        "suburb": null,
        "city_district": null,
        "city": "Sigatoka",
        "state": "Western",
        "postcode": null,
        "country": "Fiji",
        "country_code": "fj"
      },
      "address": "680, Butoni Road, Sigatoka, Nadroga-Navosa, 41880 Western, Fiji"
    },
    {
      "lat": -18.129976997907868,
      "lon": 177.53348167352004,
      "geoinfo": {
        "display_name": "Kavanagasau Road, Nororo, Toga, Nadroga-Navosa, Western, Fiji",
        "road": "Kavanagasau Road",
        "house_number": null,
        "neighbourhood": null,
        "suburb": null,
        "city_district": null,
        "city": "Toga",
        "state": "Western",
        "postcode": null,
        "country": "Fiji",
        "country_code": "fj"
      },
      "address": "914, Kavanagasau Road, Sigatoka, 43487 Western, Fiji"
    },
    {
      "lat": -18.145009798353033,
      "lon": 177.53805577374257,
      "geoinfo": {
        "display_name": "OLOOLO Settlement, Sigatoka, Nadroga-Navosa, Western, Fiji",
        "road": null,
        "house_number": null,
        "neighbourhood": null,
        "suburb": null,
        "city_district": null,
        "city": "Sigatoka",
        "state": "Western",
        "postcode": null,
        "country": "Fiji",
        "country_code": "fj"
      },
      "address": "361, OLOOLO Settlement, Sigatoka, Nadroga-Navosa, 67351 Western, Fiji"
    },
    {
      "lat": -18.12899392052745,
      "lon": 177.50948286089843,
      "geoinfo": {
        "display_name": "Singatoka Valley Road, Lawai, Sigatoka, Nadroga-Navosa, Western, Fiji",
        "road": "Singatoka Valley Road",
        "house_number": null,
        "neighbourhood": null,
        "suburb": null,
        "city_district": null,
        "city": "Sigatoka",
        "state": "Western",
        "postcode": null,
        "country": "Fiji",
        "country_code": "fj"
      },
      "address": "369, Singatoka Valley Road, Lawai, Sigatoka, Nadroga-Navosa, 36785 Western, Fiji"
    },
    {
      "lat": -18.143432350391556,
      "lon": 177.51592638171573,
      "geoinfo": {
        "display_name": "Queens Road, Sigatoka, Nadroga-Navosa, Western, Fiji",
        "road": "Queens Road",
        "house_number": null,
        "neighbourhood": null,
        "suburb": null,
        "city_district": null,
        "city": "Sigatoka",
        "state": "Western",
        "postcode": null,
        "country": "Fiji",
        "country_code": "fj"
      },
      "address": "794, Queens Road, Sigatoka, Nadroga-Navosa, 12476 Western, Fiji"
    }
  ],
  "updated_at": "2025-10-19T04:08:09.163662+00:00",
  "_kind": "geo_samples"
}