{
  "country_code": "FJ",
  "country": "Fiji",
  "city": "Suva",
  "geonameid": 2198148,
  "target_addresses": 17,
  "samples": [
    {
      "lat": -18.10840529183723,
      "lon": 178.4225325842925,
      "geoinfo": {
        "display_name": "Wainidinu settlement, Delainavesi, Suvavou Village, Rewa, Central, Fiji",
        "road": null,
        "house_number": null,
        "neighbourhood": null,
        "suburb": "Delainavesi",
        "city_district": null,
        "city": "Suvavou Village",
        "state": "Central",
        "postcode": null,
        "country": "Fiji",
        "country_code": "fj"
      },
      "address": "Delainavesi, Suva, Central, Fiji"
    },
    {
      "lat": -18.112048074951133,
      "lon": 178.4475060558376,
      "geoinfo": {
        "display_name": "Panapasa Road, Namadi Heights, Suva, Rewa, Central, Fiji",
        "road": "Panapasa Road",
        "house_number": null,
        "neighbourhood": null,
        "suburb": "Namadi Heights",
        "city_district": null,
        "city": "Suva",
        "state": "Central",
        "postcode": null,
        "country": "Fiji",
        "country_code": "fj"
      },
      "address": "Panapasa Road, Suva, Central, Fiji"
    },
    {
      "lat": -18.112682352595762,
      "lon": 178.43978302173426,
      "geoinfo": {
        "display_name": "Goodrum Place, Tamavua, Suva, Rewa, Central, Fiji",
        "road": "Goodrum Place",
        "house_number": null,
        "neighbourhood": null,
        "suburb": "Tamavua",
        "city_district": null,
        "city": "Suva",
        "state": "Central",
        "postcode": null,
        "country": "Fiji",
        "country_code": "fj"
      },
      "address": "Goodrum Place, Suva, Central, Fiji"
    },
    {
      "lat": -18.169822408117557,
      "lon": 178.39592891916277,
      "geoinfo": {
        "display_name": "Nasese, Suva, Rewa, Central, Fiji",
        "road": null,
        "house_number": null,
        "neighbourhood": null,
        "suburb": "Nasese",
        "city_district": null,
        "city": "Suva",
        "state": "Central",
        "postcode": null,
        "country": "Fiji",
        "country_code": "fj"
      },
      "address": "Nasese, Suva, Central, Fiji"
    },
    {
      "lat": -18.15451781469589,
      "lon": 178.38489079492248,
      "geoinfo": {
        "display_name": "Waiqanake, Rewa, Central, Fiji",
        "road": null,
        "house_number": null,
        "neighbourhood": null,
        "suburb": null,
        "city_district": null,
        "city": "Waiqanake",
        "state": "Central",
        "postcode": null,
        "country": "Fiji",
        "country_code": "fj"
      },
      "address": "Suva, Central, Fiji"
    },
    {
      "lat": -18.11520877433498,
      "lon": 178.43142145603218,
      "geoinfo": {
        "display_name": "Tamavua Road, Tamavua-i-wai, Suva, Rewa, Central, Fiji",
        "road": "Tamavua Road",
        "house_number": null,
        "neighbourhood": null,
        "suburb": null,
        "city_district": null,
        "city": "Suva",
        "state": "Central",
        "postcode": null,
        "country": "Fiji",
        "country_code": "fj"
      },
      "address": "Tamavua Road, Suva, Central, Fiji"
    },
    {
      "lat": -18.119441675620646,
      "lon": 178.45129603377376,
      "geoinfo": {
        "display_name": "Paul Sloan Street, Bayview Heights, Suva, Rewa, Central, Fiji",
        "road": "Paul Sloan Street",
        "house_number": null,
        "neighbourhood": null,
        "suburb": "Bayview Heights",
        "city_district": null,
        "city": "Suva",
        "state": "Central",
        "postcode": null,
        "country": "Fiji",
        "country_code": "fj"
      },
      "address": "Paul Sloan Street, Suva, Central, Fiji"
    },
    {
      "lat": -18.16142533050491,
      "lon": 178.4584256673258,
      "geoinfo": {
        "display_name": "Laucala Bay, Suva, Rewa, Central, Fiji",
        "road": null,
        "house_number": null,
        "neighbourhood": null,
        "suburb": "Laucala Bay",
        "city_district": null,
        "city": "Suva",
        "state": "Central",
        "postcode": null,
        "country": "Fiji",
        "country_code": "fj"
      },
      "address": "Laucala Bay, Suva, Central, Fiji"
    },
    {
      "lat": -18.13978267635293,
      "lon": 178.44469125306742,
      "geoinfo": {
        "display_name": "Cheng Place, Raiwai, Suva, Rewa, Central, Fiji",
        "road": "Cheng Place",
        "house_number": null,
        "neighbourhood": null,
        "suburb": "Raiwai",
        "city_district": null,
        "city": "Suva",
        "state": "Central",
        "postcode": null,
        "country": "Fiji",
        "country_code": "fj"
      },
      "address": "Cheng Place, Suva, Central, Fiji"
    },
    {
      "lat": -18.14649941965564,
      "lon": 178.42741984592473,
      "geoinfo": {
        "display_name": "VC3G+HWG, Gorrie Street, The Domain, Suva, Rewa, Central, Fiji",
        "road": "Gorrie Street",
        "house_number": "VC3G+HWG",
        "neighbourhood": null,
        "suburb": "The Domain",
        "city_district": null,
        "city": "Suva",
        "state": "Central",
        "postcode": null,
        "country": "Fiji",
        "country_code": "fj"
      },
      "address": "VC3G+HWG Gorrie Street, Suva, Central, Fiji"
    },
    {
      "lat": -18.123826756902982,
      "lon": 178.45769970117775,
      "geoinfo": {
        "display_name": "Yarawa Road, Raiwasa, Suva, Rewa, Central, Fiji",
        "road": "Yarawa Road",
        "house_number": null,
        "neighbourhood": null,
        "suburb": "Raiwasa",
        "city_district": null,
        "city": "Suva",
        "state": "Central",
        "postcode": null,
        "country": "Fiji",
        "country_code": "fj"
      },
      "address": "Yarawa Road, Suva, Central, Fiji"
    },
    {
      "lat": -18.134171596267038,
      "lon": 178.44694120109077,
      "geoinfo": {
        "display_name": "Raiwaqa, Suva, Rewa, Central, Fiji",
        "road": null,
        "house_number": null,
        "neighbourhood": null,
        "suburb": "Raiwaqa",
        "city_district": null,
        "city": "Suva",
        "state": "Central",
        "postcode": null,
        "country": "Fiji",
        "country_code": "fj"
      },
      "address": "Raiwaqa, Suva, Central, Fiji"
    },
    {
      "lat": -18.160867501329943,
      "lon": 178.44972550679873,
      "geoinfo": {
        "display_name": "Queen Elizabeth Drive, Laucala Bay, Suva, Rewa, Central, Fiji",
        "road": "Queen Elizabeth Drive",
        "house_number": null,
        "neighbourhood": null,
        "suburb": "Laucala Bay",
        "city_district": null,
        "city": "Suva",
        "state": "Central",
        "postcode": null,
        "country": "Fiji",
        "country_code": "fj"
      },
      "address": "Queen Elizabeth Drive, Suva, Central, Fiji"
    },
    {
      "lat": -18.12595519747571,
      "lon": 178.46385011120236,
      "geoinfo": {
        "display_name": "Rifle Range Road, Vatuwaqa, Suva, Rewa, Central, Fiji",
        "road": "Rifle Range Road",
        "house_number": null,
        "neighbourhood": null,
        "suburb": "Vatuwaqa",
        "city_district": null,
        "city": "Suva",
        "state": "Central",
        "postcode": null,
        "country": "Fiji",
        "country_code": "fj"
      },
      "address": "Rifle Range Road, Suva, Central, Fiji"
    },
    {
      "lat": -18.14602972352886,
      "lon": 178.42770927370753,
      "geoinfo": {
        "display_name": "Peace Embassy, 8, McGregor Road, The Domain, Suva, Rewa, Central, Fiji",
        "road": "McGregor Road",
        "house_number": "8",
        "neighbourhood": null,
        "suburb": "The Domain",
        "city_district": null,
        "city": "Suva",
        "state": "Central",
        "postcode": null,
        "country": "Fiji",
        "country_code": "fj"
      },
      "address": "8 McGregor Road, Suva, Central, Fiji"
    },
    {
      "lat": -18.106610249275914,
      "lon": 178.43303339669646,
      "geoinfo": {
        "display_name": "Delainavesi Road, Delainavesi, Nadonumai, Rewa, Central, Fiji",
        "road": "Delainavesi Road",
        "house_number": null,
        "neighbourhood": null,
        "suburb": "Delainavesi",
        "city_district": null,
        "city": "Nadonumai",
        "state": "Central",
        "postcode": null,
        "country": "Fiji",
        "country_code": "fj"
      },
      "address": "Delainavesi Road, Suva, Central, Fiji"
    },
    {
      "lat": -18.101769082210286,
      "lon": 178.4497625894425,
      "geoinfo": {
        "display_name": "Tamavua Heights, Tamavua Village, Naitasiri, Central, Fiji",
        "road": null,
        "house_number": null,
        "neighbourhood": null,
        "suburb": "Tamavua Heights",
        "city_district": null,
        "city": "Tamavua Village",
        "state": "Central",
        "postcode": null,
        "country": "Fiji",
        "country_code": "fj"
      },
      "address": "Tamavua Heights, Suva, Central, Fiji"
    },
    {
      "lat": -18.123888494120862,
      "lon": 178.4621924696159,
      "geoinfo": {
        "display_name": "Batiki Street, Nanuku, Vatuwaqa, Suva, Rewa, Central, Fiji",
        "road": "Batiki Street",
        "house_number": null,
        "neighbourhood": "Nanuku",
        "suburb": "Vatuwaqa",
        "city_district": null,
        "city": "Suva",
        "state": "Central",
        "postcode": null,
        "country": "Fiji",
        "country_code": "fj"
      },
      "address": "872, Batiki Street, Nanuku, Vatuwaqa, Suva, Rewa, 94110 Central, Fiji"
    },
    {
      "lat": -18.110071392944636,
      "lon": 178.40458259706665,
      "geoinfo": {
        "display_name": "Solomoni Street, Naivikinikini, Lami, Rewa, Central, Fiji",
        "road": "Solomoni Street",
        "house_number": null,
        "neighbourhood": null,
        "suburb": null,
        "city_district": null,
        "city": "Lami",
        "state": "Central",
        "postcode": null,
        "country": "Fiji",
        "country_code": "fj"
      },
      "address": "589, Solomoni Street, Suva, 57268 Central, Fiji"
    },
    {
      "lat": -18.10579838888548,
      "lon": 178.42031101789598,
      "geoinfo": {
        "display_name": "Delainavesi, Lami Village, Rewa, Central, Fiji",
        "road": null,
        "house_number": null,
        "neighbourhood": null,
        "suburb": "Delainavesi",
        "city_district": null,
        "city": "Lami Village",
        "state": "Central",
        "postcode": null,
        "country": "Fiji",
        "country_code": "fj"
      },
      "address": "723, Delainavesi, Suva, 39309 Central, Fiji"
    },
    {
      "lat": -18.121199091966204,
      "lon": 178.42661674594032,
      "geoinfo": {
        "display_name": "Suva Yacht Club, Foster Road, Nauluvatu, Suva, Rewa, Central, Fiji",
        "road": "Foster Road",
        "house_number": null,
        "neighbourhood": null,
        "suburb": "Nauluvatu",
        "city_district": null,
        "city": "Suva",
        "state": "Central",
        "postcode": null,
        "country": "Fiji",
        "country_code": "fj"
      },
      "address": "764, Foster Road, Suva, 45926 Central, Fiji"
    },
    {
      "lat": -18.15490627928509,
      "lon": 178.44399431647477,
      "geoinfo": {
        "display_name": "University of the South Pacific, Grantham Road, Raiwaqa, Suva, Rewa, Central, Fiji",
        "road": "Grantham Road",
        "house_number": null,
        "neighbourhood": null,
        "suburb": "Raiwaqa",
        "city_district": null,
        "city": "Suva",
        "state": "Central",
        "postcode": null,
        "country": "Fiji",
        "country_code": "fj"
      },
      "address": "631, Grantham Road, Suva, 22963 Central, Fiji"
    },
    {
      "lat": -18.1780987015456,
      "lon": 178.40674204683174,
      "geoinfo": {
        "display_name": "Nasese, Suva, Rewa, Central, Fiji",
        "road": null,
        "house_number": null,
        "neighbourhood": null,
        "suburb": "Nasese",
        "city_district": null,
        "city": "Suva",
        "state": "Central",
        "postcode": null,
        "country": "Fiji",
        "country_code": "fj"
      },
      "address": "884, Nasese, Suva, Rewa, 75667 Central, Fiji"
    },
    {
      "lat": -18.128577049057604,
      "lon": 178.42134182081446,
      "geoinfo": {
        "display_name": "Eliza Street, Toorak, Suva, Rewa, Central, Fiji",
        "road": "Eliza Street",
        "house_number": null,
        "neighbourhood": null,
        "suburb": "Toorak",
        "city_district": null,
        "city": "Suva",
        "state": "Central",
        "postcode": null,
        "country": "Fiji",
        "country_code": "fj"
      },
      "address": "211, Eliza Street, Toorak, Suva, Rewa, 65995 Central, Fiji"
    },
    {
      "lat": -18.115038662676586,
      "lon": 178.40315061366914,
      "geoinfo": {
        "display_name": "Raghunath Singh Drive, Naivikinikini, Lami, Rewa, Central, Fiji",
        "road": "Raghunath Singh Drive",
        "house_number": null,
        "neighbourhood": null,
        "suburb": null,
        "city_district": null,
        "city": "Lami",
        "state": "Central",
        "postcode": null,
        "country": "Fiji",
        "country_code": "fj"
      },
      "address": "610, Raghunath Singh Drive, Suva, 35658 Central, Fiji"
    },
    {
      "lat": -18.13895488066718,
      "lon": 178.44947755677467,
      "geoinfo": {
        "display_name": "Grantham Road, Raiwaqa, Suva, Rewa, Central, Fiji",
        "road": "Grantham Road",
        "house_number": null,
        "neighbourhood": null,
        "suburb": "Raiwaqa",
        "city_district": null,
        "city": "Suva",
        "state": "Central",
        "postcode": null,
        "country": "Fiji",
        "country_code": "fj"
      },
      "address": "019, Grantham Road, Raiwaqa, Suva, Rewa, 81291 Central, Fiji"
    },
    {
      "lat": -18.11973972403235,
      "lon": 178.45207875050403,
      "geoinfo": {
        "display_name": "Paul Sloan Street, Bayview Heights, Suva, Rewa, Central, Fiji",
        "road": "Paul Sloan Street",
        "house_number": null,
        "neighbourhood": null,
        "suburb": "Bayview Heights",
        "city_district": null,
        "city": "Suva",
        "state": "Central",
        "postcode": null,
        "country": "Fiji",
        "country_code": "fj"
      },
      "address": "605, Paul Sloan Street, Bayview Heights, Suva, Rewa, 78898 Central, Fiji"
    },
    {
      "lat": -18.15776676933605,
      "lon": 178.42151603818007,
      "geoinfo": {
        "display_name": "Queen Elizabeth Drive, Nasese, Suva, Rewa, Central, Fiji",
        "road": "Queen Elizabeth Drive",
        "house_number": null,
        "neighbourhood": null,
        "suburb": "Nasese",
        "city_district": null,
        "city": "Suva",
        "state": "Central",
        "postcode": null,
        "country": "Fiji",
        "country_code": "fj"
      },
      "address": "220, Queen Elizabeth Drive, Nasese, Suva, Rewa, 17705 Central, Fiji"
    },
    {
      "lat": -18.142922473377613,
      "lon": 178.45000046032933,
      "geoinfo": {
        "display_name": "Grantham Road, Raiwaqa, Suva, Rewa, Central, Fiji",
        "road": "Grantham Road",
        "house_number": null,
        "neighbourhood": null,
        "suburb": "Raiwaqa",
        "city_district": null,
        "city": "Suva",
        "state": "Central",
        "postcode": null,
        "country": "Fiji",
        "country_code": "fj"
      },
      "address": "180, Grantham Road, Raiwaqa, Suva, Rewa, 36395 Central, Fiji"
    },
    {
      "lat": -18.13595481151363,
      "lon": 178.41731180683655,
      "geoinfo": {
        "display_name": "Toorak, Suva, Rewa, Central, Fiji",
        "road": null,
        "house_number": null,
        "neighbourhood": null,
        "suburb": "Toorak",
        "city_district": null,
        "city": "Suva",
        "state": "Central",
        "postcode": null,
        "country": "Fiji",
        "country_code": "fj"
      },
      "address": "464, Toorak, Suva, Rewa, 70892 Central, Fiji"
    },
    {
      "lat": -18.108798228833244,
      "lon": 178.44203108586171,
      "geoinfo": {
        "display_name": "Mead Road, Nabua, Suva, Rewa, Central, Fiji",
        "road": "Mead Road",
        "house_number": null,
        "neighbourhood": null,
        "suburb": "Nabua",
        "city_district": null,
        "city": "Suva",
        "state": "Central",
        "postcode": null,
        "country": "Fiji",
        "country_code": "fj"
      },
      "address": "387, Mead Road, Nabua, Suva, Rewa, 17899 Central, Fiji"
    },
    {
      "lat": -18.10256452620407,
      "lon": 178.4050679287556,
      "geoinfo": {
        "display_name": "Qauia Street, Naivikinikini, Lami, Rewa, Central, Fiji",
        "road": "Qauia Street",
        "house_number": null,
        "neighbourhood": null,
        "suburb": null,
        "city_district": null,
        "city": "Lami",
        "state": "Central",
        "postcode": null,
        "country": "Fiji",
        "country_code": "fj"
      },
      "address": "665, Qauia Street, Suva, 49558 Central, Fiji"
    }
  ],
  "updated_at": "2025-10-19T03:57:51.072247+00:00",
  "_kind": "geo_samples"
}