{
  "country_code": "PF",
  "country": "French Polynesia",
  "city": "Faaa",
  "geonameid": 4034561,
  "target_addresses": 34,
  "samples": [
    {
      "lat": -17.570128267913642,
      "lon": -149.5629704339767,
      "geoinfo": {
        "display_name": "Papeete, Windward Islands, French Polynesia, 98714, France",
        "road": null,
        "house_number": null,
        "neighbourhood": null,
        "suburb": null,
        "city_district": null,
        "city": "Papeete",
        "state": "French Polynesia",
        "postcode": "98714",
        "country": "France",
        "country_code": "fr"
      },
      "address": "Faaa, French Polynesia, French Polynesia"
    },
    {
      "lat": -17.56604739053987,
      "lon": -149.61451869619907,
      "geoinfo": {
        "display_name": "Polynesia Trading, Route de Contournement, Bennet, Faʻaʻā, Windward Islands, French Polynesia, 98704, France",
        "road": "Route de Contournement",
        "house_number": null,
        "neighbourhood": "Bennet",
        "suburb": null,
        "city_district": null,
        "city": "Faʻaʻā",
        "state": "French Polynesia",
        "postcode": "98704",
        "country": "France",
        "country_code": "fr"
      },
      "address": "Route de Contournement, Faaa, French Polynesia, French Polynesia"
    },
    {
      "lat": -17.561099079118517,
      "lon": -149.59103388208652,
      "geoinfo": {
        "display_name": "Socredo Pamatai, Faʻaʻā, Windward Islands, French Polynesia, 98704, France",
        "road": null,
        "house_number": null,
        "neighbourhood": "Socredo Pamatai",
        "suburb": null,
        "city_district": null,
        "city": "Faʻaʻā",
        "state": "French Polynesia",
        "postcode": "98704",
        "country": "France",
        "country_code": "fr"
      },
      "address": "Socredo Pamatai, Faaa, French Polynesia, French Polynesia"
    },
    {
      "lat": -17.577756444002194,
      "lon": -149.58324158136202,
      "geoinfo": {
        "display_name": "Route de Saint-Hilaire, Barff, Faʻaʻā, Windward Islands, French Polynesia, 98704, France",
        "road": "Route de Saint-Hilaire",
        "house_number": null,
        "neighbourhood": "Barff",
        "suburb": null,
        "city_district": null,
        "city": "Faʻaʻā",
        "state": "French Polynesia",
        "postcode": "98704",
        "country": "France",
        "country_code": "fr"
      },
      "address": "Route de Saint-Hilaire, Faaa, French Polynesia, French Polynesia"
    },
    {
      "lat": -17.58869348526596,
      "lon": -149.57952522148355,
      "geoinfo": {
        "display_name": "Aratia Mont Marau, Faʻaʻā, Windward Islands, French Polynesia, 98704, France",
        "road": "Aratia Mont Marau",
        "house_number": null,
        "neighbourhood": null,
        "suburb": null,
        "city_district": null,
        "city": "Faʻaʻā",
        "state": "French Polynesia",
        "postcode": "98704",
        "country": "France",
        "country_code": "fr"
      },
      "address": "Aratia Mont Marau, Faaa, French Polynesia, French Polynesia"
    },
    {
      "lat": -17.548583625320163,
      "lon": -149.58988550856733,
      "geoinfo": {
        "display_name": "Aroa Degage 2, Auae, Faʻaʻā, Windward Islands, French Polynesia, 98704, France",
        "road": "Aroa Degage 2",
        "house_number": null,
        "neighbourhood": null,
        "suburb": null,
        "city_district": null,
        "city": "Faʻaʻā",
        "state": "French Polynesia",
        "postcode": "98704",
        "country": "France",
        "country_code": "fr"
      },
      "address": "Aroa Degage 2, Faaa, French Polynesia, French Polynesia"
    },
    {
      "lat": -17.540922694690977,
      "lon": -149.59193788912148,
      "geoinfo": {
        "display_name": "Aroa Sincere, Auae, Faʻaʻā, Windward Islands, French Polynesia, 98704, France",
        "road": "Aroa Sincere",
        "house_number": null,
        "neighbourhood": null,
        "suburb": null,
        "city_district": null,
        "city": "Faʻaʻā",
        "state": "French Polynesia",
        "postcode": "98704",
        "country": "France",
        "country_code": "fr"
      },
      "address": "Aroa Sincere, Faaa, French Polynesia, French Polynesia"
    },
    {
      "lat": -17.57849482995579,
      "lon": -149.624545795213,
      "geoinfo": {
        "display_name": "Aratia Nelson Mandela, Ariipeu, Punaʻauiʻa, Windward Islands, French Polynesia, 98717, France",
        "road": "Aratia Nelson Mandela",
        "house_number": null,
        "neighbourhood": "Ariipeu",
        "suburb": null,
        "city_district": null,
        "city": "Punaʻauiʻa",
        "state": "French Polynesia",
        "postcode": "98717",
        "country": "France",
        "country_code": "fr"
      },
      "address": "Aratia Nelson Mandela, Faaa, French Polynesia, French Polynesia"
    },
    {
      "lat": -17.555089662064752,
      "lon": -149.587949098472,
      "geoinfo": {
        "display_name": "Aroa Teriti Make, Quartier Temaeva Lot 15, Faʻaʻā, Windward Islands, French Polynesia, 98704, France",
        "road": "Aroa Teriti Make",
        "house_number": null,
        "neighbourhood": "Quartier Temaeva Lot 15",
        "suburb": null,
        "city_district": null,
        "city": "Faʻaʻā",
        "state": "French Polynesia",
        "postcode": "98704",
        "country": "France",
        "country_code": "fr"
      },
      "address": "Aroa Teriti Make, Faaa, French Polynesia, French Polynesia"
    },
    {
      "lat": -17.530805483176866,
      "lon": -149.57055384363892,
      "geoinfo": {
        "display_name": "Innovelec/Diesel, Voie M, Vaininiore, Papeete, Windward Islands, French Polynesia, 98714, France",
        "road": "Voie M",
        "house_number": null,
        "neighbourhood": null,
        "suburb": null,
        "city_district": null,
        "city": "Papeete",
        "state": "French Polynesia",
        "postcode": "98714",
        "country": "France",
        "country_code": "fr"
      },
      "address": "Voie M, Faaa, French Polynesia, French Polynesia"
    },
    {
      "lat": -17.529001790191558,
      "lon": -149.59796913425896,
      "geoinfo": {
        "display_name": "Pointe Hotuarea, Sacault, Faʻaʻā, Windward Islands, French Polynesia, 98704, France",
        "road": null,
        "house_number": null,
        "neighbourhood": "Sacault",
        "suburb": null,
        "city_district": null,
        "city": "Faʻaʻā",
        "state": "French Polynesia",
        "postcode": "98704",
        "country": "France",
        "country_code": "fr"
      },
      "address": "Sacault, Faaa, French Polynesia, French Polynesia"
    },
    {
      "lat": -17.552151046716173,
      "lon": -149.58468436994508,
      "geoinfo": {
        "display_name": "Aratia Tavana Ariioehau Francis Sanford, Pamatai, Faʻaʻā, Windward Islands, French Polynesia, 98704, France",
        "road": "Aratia Tavana Ariioehau Francis Sanford",
        "house_number": null,
        "neighbourhood": null,
        "suburb": null,
        "city_district": null,
        "city": "Faʻaʻā",
        "state": "French Polynesia",
        "postcode": "98704",
        "country": "France",
        "country_code": "fr"
      },
      "address": "Aratia Tavana Ariioehau Francis Sanford, Faaa, French Polynesia, French Polynesia"
    },
    {
      "lat": -17.577888405496957,
      "lon": -149.597361021207,
      "geoinfo": {
        "display_name": "Aratia Teroma, Teroma, Faʻaʻā, Windward Islands, French Polynesia, 98704, France",
        "road": "Aratia Teroma",
        "house_number": null,
        "neighbourhood": null,
        "suburb": null,
        "city_district": null,
        "city": "Faʻaʻā",
        "state": "French Polynesia",
        "postcode": "98704",
        "country": "France",
        "country_code": "fr"
      },
      "address": "Aratia Teroma, Faaa, French Polynesia, French Polynesia"
    },
    {
      "lat": -17.559674504844285,
      "lon": -149.6070769596754,
      "geoinfo": {
        "display_name": "Aroa Juventin, Juventin, Faʻaʻā, Windward Islands, French Polynesia, 98704, France",
        "road": "Aroa Juventin",
        "house_number": null,
        "neighbourhood": "Juventin",
        "suburb": null,
        "city_district": null,
        "city": "Faʻaʻā",
        "state": "French Polynesia",
        "postcode": "98704",
        "country": "France",
        "country_code": "fr"
      },
      "address": "Aroa Juventin, Faaa, French Polynesia, French Polynesia"
    },
    {
      "lat": -17.573491006317088,
      "lon": -149.62165483088063,
      "geoinfo": {
        "display_name": "511, Aratia Nelson Mandela, Ariipeu, Punaʻauiʻa, Windward Islands, French Polynesia, 98717, France",
        "road": "Aratia Nelson Mandela",
        "house_number": "511",
        "neighbourhood": "Ariipeu",
        "suburb": null,
        "city_district": null,
        "city": "Punaʻauiʻa",
        "state": "French Polynesia",
        "postcode": "98717",
        "country": "France",
        "country_code": "fr"
      },
      "address": "511 Aratia Nelson Mandela, Faaa, French Polynesia, French Polynesia"
    },
    {
      "lat": -17.566632164383137,
      "lon": -149.58228138707602,
      "geoinfo": {
        "display_name": "Lotissement Bonnefin, Faʻaʻā, Windward Islands, French Polynesia, 98704, France",
        "road": null,
        "house_number": null,
        "neighbourhood": "Lotissement Bonnefin",
        "suburb": null,
        "city_district": null,
        "city": "Faʻaʻā",
        "state": "French Polynesia",
        "postcode": "98704",
        "country": "France",
        "country_code": "fr"
      },
      "address": "Lotissement Bonnefin, Faaa, French Polynesia, French Polynesia"
    },
    {
      "lat": -17.57332078653496,
      "lon": -149.60521270352282,
      "geoinfo": {
        "display_name": "RT 38, Lauglin, Faʻaʻā, Windward Islands, French Polynesia, 98704, France",
        "road": "RT 38",
        "house_number": null,
        "neighbourhood": "Lauglin",
        "suburb": null,
        "city_district": null,
        "city": "Faʻaʻā",
        "state": "French Polynesia",
        "postcode": "98704",
        "country": "France",
        "country_code": "fr"
      },
      "address": "RT 38, Faaa, French Polynesia, French Polynesia"
    },
    {
      "lat": -17.554563137115494,
      "lon": -149.60004227910554,
      "geoinfo": {
        "display_name": "Taae, Faʻaʻā, Windward Islands, French Polynesia, 98704, France",
        "road": null,
        "house_number": null,
        "neighbourhood": "Taae",
        "suburb": null,
        "city_district": null,
        "city": "Faʻaʻā",
        "state": "French Polynesia",
        "postcode": "98704",
        "country": "France",
        "country_code": "fr"
      },
      "address": "Taae, Faaa, French Polynesia, French Polynesia"
    },
    {
      "lat": -17.576780379995263,
      "lon": -149.60889955518385,
      "geoinfo": {
        "display_name": "University of French Polynesia, BP 6570, UPF, Les Hauts de Outumaoro, Faʻaʻā, Windward Islands, French Polynesia, 98702, France",
        "road": "UPF",
        "house_number": "BP 6570",
        "neighbourhood": "Les Hauts de Outumaoro",
        "suburb": null,
        "city_district": null,
        "city": "Faʻaʻā",
        "state": "French Polynesia",
        "postcode": "98702",
        "country": "France",
        "country_code": "fr"
      },
      "address": "BP 6570 UPF, Faaa, French Polynesia, French Polynesia"
    },
    {
      "lat": -17.56106752488977,
      "lon": -149.60407498012557,
      "geoinfo": {
        "display_name": "Aubry, Faʻaʻā, Windward Islands, French Polynesia, 98704, France",
        "road": null,
        "house_number": null,
        "neighbourhood": "Aubry",
        "suburb": null,
        "city_district": null,
        "city": "Faʻaʻā",
        "state": "French Polynesia",
        "postcode": "98704",
        "country": "France",
        "country_code": "fr"
      },
      "address": "Aubry, Faaa, French Polynesia, French Polynesia"
    },
    {
      "lat": -17.55887086810224,
      "lon": -149.60765092823974,
      "geoinfo": {
        "display_name": "Aroa Aubry 2, Lotissement Lai Woa, Faʻaʻā, Windward Islands, French Polynesia, 98704, France",
        "road": "Aroa Aubry 2",
        "house_number": null,
        "neighbourhood": "Lotissement Lai Woa",
        "suburb": null,
        "city_district": null,
        "city": "Faʻaʻā",
        "state": "French Polynesia",
        "postcode": "98704",
        "country": "France",
        "country_code": "fr"
      },
      "address": "Aroa Aubry 2, Faaa, French Polynesia, French Polynesia"
    },
    {
      "lat": -17.57272107258697,
      "lon": -149.56264115079892,
      "geoinfo": {
        "display_name": "Allée Aute, Lotissement les Mamaias, Faʻaʻā, Windward Islands, French Polynesia, 98704, France",
        "road": "Allée Aute",
        "house_number": null,
        "neighbourhood": "Lotissement les Mamaias",
        "suburb": null,
        "city_district": null,
        "city": "Faʻaʻā",
        "state": "French Polynesia",
        "postcode": "98704",
        "country": "France",
        "country_code": "fr"
      },
      "address": "Allée Aute, Faaa, French Polynesia, French Polynesia"
    },
    {
      "lat": -17.537616173487024,
      "lon": -149.60583819177873,
      "geoinfo": {
        "display_name": "site de plongée, Aroa Papehaua, Van Bastoaler, Faʻaʻā, Windward Islands, French Polynesia, 98704, France",
        "road": "Aroa Papehaua",
        "house_number": null,
        "neighbourhood": "Van Bastoaler",
        "suburb": null,
        "city_district": null,
        "city": "Faʻaʻā",
        "state": "French Polynesia",
        "postcode": "98704",
        "country": "France",
        "country_code": "fr"
      },
      "address": "Aroa Papehaua, Faaa, French Polynesia, French Polynesia"
    },
    {
      "lat": -17.57316480961519,
      "lon": -149.60893573234642,
      "geoinfo": {
        "display_name": "Lycée hotelier d'Outumaoro, Route de Dégagement Ouest, Ariipeu, Punaʻauiʻa, Windward Islands, French Polynesia, 98717, France",
        "road": "Route de Dégagement Ouest",
        "house_number": null,
        "neighbourhood": "Ariipeu",
        "suburb": null,
        "city_district": null,
        "city": "Punaʻauiʻa",
        "state": "French Polynesia",
        "postcode": "98717",
        "country": "France",
        "country_code": "fr"
      },
      "address": "Route de Dégagement Ouest, Faaa, French Polynesia, French Polynesia"
    },
    {
      "lat": -17.56708800079065,
      "lon": -149.59837398416647,
      "geoinfo": {
        "display_name": "Aratia Tavararo, Tauraa, Faʻaʻā, Windward Islands, French Polynesia, 98704, France",
        "road": "Aratia Tavararo",
        "house_number": null,
        "neighbourhood": "Tauraa",
        "suburb": null,
        "city_district": null,
        "city": "Faʻaʻā",
        "state": "French Polynesia",
        "postcode": "98704",
        "country": "France",
        "country_code": "fr"
      },
      "address": "Aratia Tavararo, Faaa, French Polynesia, French Polynesia"
    },
    {
      "lat": -17.53426613243574,
      "lon": -149.57328657758808,
      "geoinfo": {
        "display_name": "Voie P, Vaininiore, Papeete, Windward Islands, French Polynesia, 98714, France",
        "road": "Voie P",
        "house_number": null,
        "neighbourhood": null,
        "suburb": null,
        "city_district": null,
        "city": "Papeete",
        "state": "French Polynesia",
        "postcode": "98714",
        "country": "France",
        "country_code": "fr"
      },
      "address": "Voie P, Faaa, French Polynesia, French Polynesia"
    },
    {
      "lat": -17.549564933322923,
      "lon": -149.58242424807224,
      "geoinfo": {
        "display_name": "Rte de L'Uranie, Tipaerui, Faʻaʻā, Windward Islands, French Polynesia, 98714, France",
        "road": "Rte de L'Uranie",
        "house_number": null,
        "neighbourhood": null,
        "suburb": null,
        "city_district": null,
        "city": "Faʻaʻā",
        "state": "French Polynesia",
        "postcode": "98714",
        "country": "France",
        "country_code": "fr"
      },
      "address": "Rte de L'Uranie, Faaa, French Polynesia, French Polynesia"
    },
    {
      "lat": -17.568647231307317,
      "lon": -149.58244260782166,
      "geoinfo": {
        "display_name": "Aratia Oremu, Lotissement Bonnefin, Faʻaʻā, Windward Islands, French Polynesia, 98704, France",
        "road": "Aratia Oremu",
        "house_number": null,
        "neighbourhood": "Lotissement Bonnefin",
        "suburb": null,
        "city_district": null,
        "city": "Faʻaʻā",
        "state": "French Polynesia",
        "postcode": "98704",
        "country": "France",
        "country_code": "fr"
      },
      "address": "Aratia Oremu, Faaa, French Polynesia, French Polynesia"
    },
    {
      "lat": -17.57593921864005,
      "lon": -149.60419111053469,
      "geoinfo": {
        "display_name": "Les Hauts de Outumaoro, Punaʻauiʻa, Windward Islands, French Polynesia, 92704, France",
        "road": null,
        "house_number": null,
        "neighbourhood": "Les Hauts de Outumaoro",
        "suburb": null,
        "city_district": null,
        "city": "Punaʻauiʻa",
        "state": "French Polynesia",
        "postcode": "92704",
        "country": "France",
        "country_code": "fr"
      },
      "address": "Les Hauts de Outumaoro, Faaa, French Polynesia, French Polynesia"
    },
    {
      "lat": -17.5470599280258,
      "lon": -149.5902453065155,
      "geoinfo": {
        "display_name": "Aroa Les Tropiques, Auae, Faʻaʻā, Windward Islands, French Polynesia, 98704, France",
        "road": "Aroa Les Tropiques",
        "house_number": null,
        "neighbourhood": null,
        "suburb": null,
        "city_district": null,
        "city": "Faʻaʻā",
        "state": "French Polynesia",
        "postcode": "98704",
        "country": "France",
        "country_code": "fr"
      },
      "address": "Aroa Les Tropiques, Faaa, French Polynesia, French Polynesia"
    },
    {
      "lat": -17.553013763995175,
      "lon": -149.61293864022943,
      "geoinfo": {
        "display_name": "Aéroport international de Tahiti-Faa'a, Aroa Teuru a Maurirere, Outuaramea, Faʻaʻā, Windward Islands, French Polynesia, 98704, France",
        "road": "Aroa Teuru a Maurirere",
        "house_number": null,
        "neighbourhood": "Outuaramea",
        "suburb": null,
        "city_district": null,
        "city": "Faʻaʻā",
        "state": "French Polynesia",
        "postcode": "98704",
        "country": "France",
        "country_code": "fr"
      },
      "address": "Aroa Teuru a Maurirere, Faaa, French Polynesia, French Polynesia"
    },
    {
      "lat": -17.54650301546741,
      "lon": -149.59498882584052,
      "geoinfo": {
        "display_name": "Aroā Raoulx, Auae, Faʻaʻā, Windward Islands, French Polynesia, 98704, France",
        "road": "Aroā Raoulx",
        "house_number": null,
        "neighbourhood": null,
        "suburb": null,
        "city_district": null,
        "city": "Faʻaʻā",
        "state": "French Polynesia",
        "postcode": "98704",
        "country": "France",
        "country_code": "fr"
      },
      "address": "Aroā Raoulx, Faaa, French Polynesia, French Polynesia"
    },
    {
      "lat": -17.558275185567844,
      "lon": -149.5851010806397,
      "geoinfo": {
        "display_name": "Aroa Terua Puna, Radford, Faʻaʻā, Windward Islands, French Polynesia, 98704, France",
        "road": "Aroa Terua Puna",
        "house_number": null,
        "neighbourhood": "Radford",
        "suburb": null,
        "city_district": null,
        "city": "Faʻaʻā",
        "state": "French Polynesia",
        "postcode": "98704",
        "country": "France",
        "country_code": "fr"
      },
      "address": "Aroa Terua Puna, Faaa, French Polynesia, French Polynesia"
    },
    {
      "lat": -17.5634945204923,
      "lon": -149.588584993047,
      "geoinfo": {
        "display_name": "Lot. Puurai Voie C, Lotissement Bonnefin, Faʻaʻā, Windward Islands, French Polynesia, 98704, France",
        "road": "Lot. Puurai Voie C",
        "house_number": null,
        "neighbourhood": "Lotissement Bonnefin",
        "suburb": null,
        "city_district": null,
        "city": "Faʻaʻā",
        "state": "French Polynesia",
        "postcode": "98704",
        "country": "France",
        "country_code": "fr"
      },
      "address": "Lot. Puurai Voie C, Faaa, French Polynesia, French Polynesia"
    }
  ],
  "updated_at": "2025-10-16T21:02:14.729769+00:00",
  "_kind": "geo_samples"
}