{
  "country_code": "PF",
  "country": "French Polynesia",
  "city": "Punaauia",
  "geonameid": 4033779,
  "target_addresses": 34,
  "samples": [
    {
      "lat": -17.63989593235248,
      "lon": -149.58926974648048,
      "geoinfo": {
        "display_name": "Montée des parapentes, Ateni, Punaʻauiʻa, Windward Islands, French Polynesia, 98703, France",
        "road": "Montée des parapentes",
        "house_number": null,
        "neighbourhood": null,
        "suburb": null,
        "city_district": null,
        "city": "Punaʻauiʻa",
        "state": "French Polynesia",
        "postcode": "98703",
        "country": "France",
        "country_code": "fr"
      },
      "address": "Montée des parapentes, Punaauia, French Polynesia, French Polynesia"
    },
    {
      "lat": -17.630900786963814,
      "lon": -149.6245573857243,
      "geoinfo": {
        "display_name": "Nu’uroa, Teoneanini, Punaʻauiʻa, Windward Islands, French Polynesia, 98703, France",
        "road": null,
        "house_number": null,
        "neighbourhood": null,
        "suburb": null,
        "city_district": null,
        "city": "Punaʻauiʻa",
        "state": "French Polynesia",
        "postcode": "98703",
        "country": "France",
        "country_code": "fr"
      },
      "address": "Punaauia, French Polynesia, French Polynesia"
    },
    {
      "lat": -17.67177466814474,
      "lon": -149.59138265732463,
      "geoinfo": {
        "display_name": "Route de Ceinture Ouest, Aoua, Pāʻea, Windward Islands, French Polynesia, 98711, France",
        "road": "Route de Ceinture Ouest",
        "house_number": null,
        "neighbourhood": null,
        "suburb": null,
        "city_district": null,
        "city": "Pāʻea",
        "state": "French Polynesia",
        "postcode": "98711",
        "country": "France",
        "country_code": "fr"
      },
      "address": "Route de Ceinture Ouest, Punaauia, French Polynesia, French Polynesia"
    },
    {
      "lat": -17.599270595570225,
      "lon": -149.59238534795716,
      "geoinfo": {
        "display_name": "Matatia 1, Punaʻauiʻa, Windward Islands, French Polynesia, 98717, France",
        "road": null,
        "house_number": null,
        "neighbourhood": "Matatia 1",
        "suburb": null,
        "city_district": null,
        "city": "Punaʻauiʻa",
        "state": "French Polynesia",
        "postcode": "98717",
        "country": "France",
        "country_code": "fr"
      },
      "address": "Matatia 1, Punaauia, French Polynesia, French Polynesia"
    },
    {
      "lat": -17.608006047118312,
      "lon": -149.57641767704953,
      "geoinfo": {
        "display_name": "Chemin de la vallée de Matatia, Matatia 2, Punaʻauiʻa, Windward Islands, French Polynesia, 98718, France",
        "road": "Chemin de la vallée de Matatia",
        "house_number": null,
        "neighbourhood": "Matatia 2",
        "suburb": null,
        "city_district": null,
        "city": "Punaʻauiʻa",
        "state": "French Polynesia",
        "postcode": "98718",
        "country": "France",
        "country_code": "fr"
      },
      "address": "Chemin de la vallée de Matatia, Punaauia, French Polynesia, French Polynesia"
    },
    {
      "lat": -17.650431707252505,
      "lon": -149.590929748216,
      "geoinfo": {
        "display_name": "Rte de Te Maruata, Mata Miti 2, Punaʻauiʻa, Windward Islands, French Polynesia, 98703, France",
        "road": "Rte de Te Maruata",
        "house_number": null,
        "neighbourhood": "Mata Miti 2",
        "suburb": null,
        "city_district": null,
        "city": "Punaʻauiʻa",
        "state": "French Polynesia",
        "postcode": "98703",
        "country": "France",
        "country_code": "fr"
      },
      "address": "Rte de Te Maruata, Punaauia, French Polynesia, French Polynesia"
    },
    {
      "lat": -17.60428282963304,
      "lon": -149.619032058756,
      "geoinfo": {
        "display_name": "Servitude Turia, Teruamao, Punaʻauiʻa, Windward Islands, French Polynesia, 98717, France",
        "road": "Servitude Turia",
        "house_number": null,
        "neighbourhood": "Teruamao",
        "suburb": null,
        "city_district": null,
        "city": "Punaʻauiʻa",
        "state": "French Polynesia",
        "postcode": "98717",
        "country": "France",
        "country_code": "fr"
      },
      "address": "Servitude Turia, Punaauia, French Polynesia, French Polynesia"
    },
    {
      "lat": -17.631052373672322,
      "lon": -149.59129695017296,
      "geoinfo": {
        "display_name": "Domaine Sage, Punaʻauiʻa, Windward Islands, French Polynesia, 98718, France",
        "road": null,
        "house_number": null,
        "neighbourhood": "Domaine Sage",
        "suburb": null,
        "city_district": null,
        "city": "Punaʻauiʻa",
        "state": "French Polynesia",
        "postcode": "98718",
        "country": "France",
        "country_code": "fr"
      },
      "address": "Domaine Sage, Punaauia, French Polynesia, French Polynesia"
    },
    {
      "lat": -17.618631372171514,
      "lon": -149.59348521477648,
      "geoinfo": {
        "display_name": "Lot. Punavai Nui - Voie T, Punaʻauiʻa, Windward Islands, French Polynesia, 98718, France",
        "road": "Lot. Punavai Nui - Voie T",
        "house_number": null,
        "neighbourhood": null,
        "suburb": null,
        "city_district": null,
        "city": "Punaʻauiʻa",
        "state": "French Polynesia",
        "postcode": "98718",
        "country": "France",
        "country_code": "fr"
      },
      "address": "Lot. Punavai Nui - Voie T, Punaauia, French Polynesia, French Polynesia"
    },
    {
      "lat": -17.64783126239448,
      "lon": -149.5896495775344,
      "geoinfo": {
        "display_name": "lot 110, Rte de Te Maruata, Mata Miti 2, Punaʻauiʻa, Windward Islands, French Polynesia, 98703, France",
        "road": "Rte de Te Maruata",
        "house_number": "lot 110",
        "neighbourhood": "Mata Miti 2",
        "suburb": null,
        "city_district": null,
        "city": "Punaʻauiʻa",
        "state": "French Polynesia",
        "postcode": "98703",
        "country": "France",
        "country_code": "fr"
      },
      "address": "lot 110 Rte de Te Maruata, Punaauia, French Polynesia, French Polynesia"
    },
    {
      "lat": -17.631861798865298,
      "lon": -149.56647064470272,
      "geoinfo": {
        "display_name": "Montée de Tamanu, Punaʻauiʻa, Windward Islands, French Polynesia, France",
        "road": "Montée de Tamanu",
        "house_number": null,
        "neighbourhood": null,
        "suburb": null,
        "city_district": null,
        "city": "Punaʻauiʻa",
        "state": "French Polynesia",
        "postcode": null,
        "country": "France",
        "country_code": "fr"
      },
      "address": "Montée de Tamanu, Punaauia, French Polynesia, French Polynesia"
    },
    {
      "lat": -17.66128613984605,
      "lon": -149.6024867098433,
      "geoinfo": {
        "display_name": "Sentier aquatique de Vaiava, Servitude Teonetere, Papehue, Punaʻauiʻa, Windward Islands, French Polynesia, 98711, France",
        "road": "Servitude Teonetere",
        "house_number": null,
        "neighbourhood": null,
        "suburb": null,
        "city_district": null,
        "city": "Punaʻauiʻa",
        "state": "French Polynesia",
        "postcode": "98711",
        "country": "France",
        "country_code": "fr"
      },
      "address": "Servitude Teonetere, Punaauia, French Polynesia, French Polynesia"
    },
    {
      "lat": -17.600011546445156,
      "lon": -149.58149128497203,
      "geoinfo": {
        "display_name": "Vallée Matatia, Matatia 2, Punaʻauiʻa, Windward Islands, French Polynesia, 98718, France",
        "road": null,
        "house_number": null,
        "neighbourhood": "Matatia 2",
        "suburb": null,
        "city_district": null,
        "city": "Punaʻauiʻa",
        "state": "French Polynesia",
        "postcode": "98718",
        "country": "France",
        "country_code": "fr"
      },
      "address": "Matatia 2, Punaauia, French Polynesia, French Polynesia"
    },
    {
      "lat": -17.63113705270184,
      "lon": -149.60388703781504,
      "geoinfo": {
        "display_name": "RT 1, Ateni, Punaʻauiʻa, Windward Islands, French Polynesia, 98703, France",
        "road": "RT 1",
        "house_number": null,
        "neighbourhood": null,
        "suburb": null,
        "city_district": null,
        "city": "Punaʻauiʻa",
        "state": "French Polynesia",
        "postcode": "98703",
        "country": "France",
        "country_code": "fr"
      },
      "address": "RT 1, Punaauia, French Polynesia, French Polynesia"
    },
    {
      "lat": -17.620416406328456,
      "lon": -149.58560828623135,
      "geoinfo": {
        "display_name": "Rte du Lot. Punavai Nui, Punaʻauiʻa, Windward Islands, French Polynesia, 98718, France",
        "road": "Rte du Lot. Punavai Nui",
        "house_number": null,
        "neighbourhood": null,
        "suburb": null,
        "city_district": null,
        "city": "Punaʻauiʻa",
        "state": "French Polynesia",
        "postcode": "98718",
        "country": "France",
        "country_code": "fr"
      },
      "address": "Rte du Lot. Punavai Nui, Punaauia, French Polynesia, French Polynesia"
    },
    {
      "lat": -17.62656460486299,
      "lon": -149.60179378125662,
      "geoinfo": {
        "display_name": "Vaiopu 1, Punaʻauiʻa, Windward Islands, French Polynesia, 98718, France",
        "road": null,
        "house_number": null,
        "neighbourhood": "Vaiopu 1",
        "suburb": null,
        "city_district": null,
        "city": "Punaʻauiʻa",
        "state": "French Polynesia",
        "postcode": "98718",
        "country": "France",
        "country_code": "fr"
      },
      "address": "Vaiopu 1, Punaauia, French Polynesia, French Polynesia"
    },
    {
      "lat": -17.61860472256214,
      "lon": -149.61180613414123,
      "geoinfo": {
        "display_name": "Servitude Deligny 1, Atiue, Punaʻauiʻa, Windward Islands, French Polynesia, 98718, France",
        "road": "Servitude Deligny 1",
        "house_number": null,
        "neighbourhood": null,
        "suburb": null,
        "city_district": null,
        "city": "Punaʻauiʻa",
        "state": "French Polynesia",
        "postcode": "98718",
        "country": "France",
        "country_code": "fr"
      },
      "address": "Servitude Deligny 1, Punaauia, French Polynesia, French Polynesia"
    },
    {
      "lat": -17.65089874267503,
      "lon": -149.60740106112098,
      "geoinfo": {
        "display_name": "Servitude Ferrand 3, Punaʻauiʻa, Windward Islands, French Polynesia, 98703, France",
        "road": "Servitude Ferrand 3",
        "house_number": null,
        "neighbourhood": null,
        "suburb": null,
        "city_district": null,
        "city": "Punaʻauiʻa",
        "state": "French Polynesia",
        "postcode": "98703",
        "country": "France",
        "country_code": "fr"
      },
      "address": "Servitude Ferrand 3, Punaauia, French Polynesia, French Polynesia"
    },
    {
      "lat": -17.59113493502309,
      "lon": -149.59617620988436,
      "geoinfo": {
        "display_name": "Avenue Fara, Lotissement Miri, Punaʻauiʻa, Windward Islands, French Polynesia, 98717, France",
        "road": "Avenue Fara",
        "house_number": null,
        "neighbourhood": null,
        "suburb": null,
        "city_district": null,
        "city": "Punaʻauiʻa",
        "state": "French Polynesia",
        "postcode": "98717",
        "country": "France",
        "country_code": "fr"
      },
      "address": "Avenue Fara, Punaauia, French Polynesia, French Polynesia"
    },
    {
      "lat": -17.61226542020507,
      "lon": -149.60552572375676,
      "geoinfo": {
        "display_name": "Jambolana, Punaʻauiʻa, Windward Islands, French Polynesia, 98718, France",
        "road": null,
        "house_number": null,
        "neighbourhood": "Jambolana",
        "suburb": null,
        "city_district": null,
        "city": "Punaʻauiʻa",
        "state": "French Polynesia",
        "postcode": "98718",
        "country": "France",
        "country_code": "fr"
      },
      "address": "Jambolana, Punaauia, French Polynesia, French Polynesia"
    },
    {
      "lat": -17.63555352707361,
      "lon": -149.6219708916217,
      "geoinfo": {
        "display_name": "Aroa Hopu, Teoneanini, Punaʻauiʻa, Windward Islands, French Polynesia, 98703, France",
        "road": "Aroa Hopu",
        "house_number": null,
        "neighbourhood": null,
        "suburb": null,
        "city_district": null,
        "city": "Punaʻauiʻa",
        "state": "French Polynesia",
        "postcode": "98703",
        "country": "France",
        "country_code": "fr"
      },
      "address": "Aroa Hopu, Punaauia, French Polynesia, French Polynesia"
    },
    {
      "lat": -17.6180310232157,
      "lon": -149.610463524283,
      "geoinfo": {
        "display_name": "Servitude Manotahi, Atiue, Punaʻauiʻa, Windward Islands, French Polynesia, 98718, France",
        "road": "Servitude Manotahi",
        "house_number": null,
        "neighbourhood": null,
        "suburb": null,
        "city_district": null,
        "city": "Punaʻauiʻa",
        "state": "French Polynesia",
        "postcode": "98718",
        "country": "France",
        "country_code": "fr"
      },
      "address": "Servitude Manotahi, Punaauia, French Polynesia, French Polynesia"
    },
    {
      "lat": -17.599983745145547,
      "lon": -149.5971287589065,
      "geoinfo": {
        "display_name": "Lotissement Taapuna, Punaʻauiʻa, Windward Islands, French Polynesia, 98717, France",
        "road": null,
        "house_number": null,
        "neighbourhood": "Lotissement Taapuna",
        "suburb": null,
        "city_district": null,
        "city": "Punaʻauiʻa",
        "state": "French Polynesia",
        "postcode": "98717",
        "country": "France",
        "country_code": "fr"
      },
      "address": "Lotissement Taapuna, Punaauia, French Polynesia, French Polynesia"
    },
    {
      "lat": -17.647818541168945,
      "lon": -149.57744852271742,
      "geoinfo": {
        "display_name": "Mata Miti 2, Punaʻauiʻa, Windward Islands, French Polynesia, 98703, France",
        "road": null,
        "house_number": null,
        "neighbourhood": "Mata Miti 2",
        "suburb": null,
        "city_district": null,
        "city": "Punaʻauiʻa",
        "state": "French Polynesia",
        "postcode": "98703",
        "country": "France",
        "country_code": "fr"
      },
      "address": "Mata Miti 2, Punaauia, French Polynesia, French Polynesia"
    },
    {
      "lat": -17.61443205899319,
      "lon": -149.60404067884107,
      "geoinfo": {
        "display_name": "Montée de Vaitavere, Atiue, Punaʻauiʻa, Windward Islands, French Polynesia, 98718, France",
        "road": "Montée de Vaitavere",
        "house_number": null,
        "neighbourhood": null,
        "suburb": null,
        "city_district": null,
        "city": "Punaʻauiʻa",
        "state": "French Polynesia",
        "postcode": "98718",
        "country": "France",
        "country_code": "fr"
      },
      "address": "Montée de Vaitavere, Punaauia, French Polynesia, French Polynesia"
    },
    {
      "lat": -17.63328049105387,
      "lon": -149.6081807415054,
      "geoinfo": {
        "display_name": "Servitude Sage 2, Ateni, Punaʻauiʻa, Windward Islands, French Polynesia, 98703, France",
        "road": "Servitude Sage 2",
        "house_number": null,
        "neighbourhood": null,
        "suburb": null,
        "city_district": null,
        "city": "Punaʻauiʻa",
        "state": "French Polynesia",
        "postcode": "98703",
        "country": "France",
        "country_code": "fr"
      },
      "address": "Servitude Sage 2, Punaauia, French Polynesia, French Polynesia"
    },
    {
      "lat": -17.63146535806077,
      "lon": -149.59791701437194,
      "geoinfo": {
        "display_name": "Rémy Chung, Lot. Vaiopu 1, Vaiopu 2, Punaʻauiʻa, Windward Islands, French Polynesia, 98703, France",
        "road": "Lot. Vaiopu 1",
        "house_number": null,
        "neighbourhood": "Vaiopu 2",
        "suburb": null,
        "city_district": null,
        "city": "Punaʻauiʻa",
        "state": "French Polynesia",
        "postcode": "98703",
        "country": "France",
        "country_code": "fr"
      },
      "address": "Lot. Vaiopu 1, Punaauia, French Polynesia, French Polynesia"
    },
    {
      "lat": -17.604371834150502,
      "lon": -149.60295280904083,
      "geoinfo": {
        "display_name": "Aroa Matatia 7, Les Hauts de Matatia, Punaʻauiʻa, Windward Islands, French Polynesia, 98718, France",
        "road": "Aroa Matatia 7",
        "house_number": null,
        "neighbourhood": "Les Hauts de Matatia",
        "suburb": null,
        "city_district": null,
        "city": "Punaʻauiʻa",
        "state": "French Polynesia",
        "postcode": "98718",
        "country": "France",
        "country_code": "fr"
      },
      "address": "Aroa Matatia 7, Punaauia, French Polynesia, French Polynesia"
    },
    {
      "lat": -17.666220147934936,
      "lon": -149.5843774146031,
      "geoinfo": {
        "display_name": "Voie 12, Lotissement Vaimuna, Pāʻea, Windward Islands, French Polynesia, 98711, France",
        "road": "Voie 12",
        "house_number": null,
        "neighbourhood": "Lotissement Vaimuna",
        "suburb": null,
        "city_district": null,
        "city": "Pāʻea",
        "state": "French Polynesia",
        "postcode": "98711",
        "country": "France",
        "country_code": "fr"
      },
      "address": "Voie 12, Punaauia, French Polynesia, French Polynesia"
    },
    {
      "lat": -17.63900017530407,
      "lon": -149.55395618596825,
      "geoinfo": {
        "display_name": "Longue Descente, Punaʻauiʻa, Windward Islands, French Polynesia, France",
        "road": "Longue Descente",
        "house_number": null,
        "neighbourhood": null,
        "suburb": null,
        "city_district": null,
        "city": "Punaʻauiʻa",
        "state": "French Polynesia",
        "postcode": null,
        "country": "France",
        "country_code": "fr"
      },
      "address": "Longue Descente, Punaauia, French Polynesia, French Polynesia"
    },
    {
      "lat": -17.627043392339743,
      "lon": -149.61109876248491,
      "geoinfo": {
        "display_name": "Servitude Vaipuarii, Ateni, Punaʻauiʻa, Windward Islands, French Polynesia, 98703, France",
        "road": "Servitude Vaipuarii",
        "house_number": null,
        "neighbourhood": null,
        "suburb": null,
        "city_district": null,
        "city": "Punaʻauiʻa",
        "state": "French Polynesia",
        "postcode": "98703",
        "country": "France",
        "country_code": "fr"
      },
      "address": "Servitude Vaipuarii, Punaauia, French Polynesia, French Polynesia"
    },
    {
      "lat": -17.65440243677386,
      "lon": -149.59948222013992,
      "geoinfo": {
        "display_name": "Servitude Marmouyet 2, Lotissement Te Maru Ata, Punaʻauiʻa, Windward Islands, French Polynesia, 98703, France",
        "road": "Servitude Marmouyet 2",
        "house_number": null,
        "neighbourhood": null,
        "suburb": null,
        "city_district": null,
        "city": "Punaʻauiʻa",
        "state": "French Polynesia",
        "postcode": "98703",
        "country": "France",
        "country_code": "fr"
      },
      "address": "Servitude Marmouyet 2, Punaauia, French Polynesia, French Polynesia"
    },
    {
      "lat": -17.641307392308345,
      "lon": -149.60854918064246,
      "geoinfo": {
        "display_name": "Servitude Tahua, Teoneanini, Punaʻauiʻa, Windward Islands, French Polynesia, 98703, France",
        "road": "Servitude Tahua",
        "house_number": null,
        "neighbourhood": null,
        "suburb": null,
        "city_district": null,
        "city": "Punaʻauiʻa",
        "state": "French Polynesia",
        "postcode": "98703",
        "country": "France",
        "country_code": "fr"
      },
      "address": "Servitude Tahua, Punaauia, French Polynesia, French Polynesia"
    },
    {
      "lat": -17.606217894306777,
      "lon": -149.58821291518228,
      "geoinfo": {
        "display_name": "Chemin de la vallée de la Matatia, Matatia 2, Punaʻauiʻa, Windward Islands, French Polynesia, 98718, France",
        "road": "Chemin de la vallée de la Matatia",
        "house_number": null,
        "neighbourhood": "Matatia 2",
        "suburb": null,
        "city_district": null,
        "city": "Punaʻauiʻa",
        "state": "French Polynesia",
        "postcode": "98718",
        "country": "France",
        "country_code": "fr"
      },
      "address": "Chemin de la vallée de la Matatia, Punaauia, French Polynesia, French Polynesia"
    },
    {
      "lat": -17.636954944260147,
      "lon": -149.61325980796826,
      "geoinfo": {
        "display_name": "Servitude NU'UROA 1, Teoneanini, Punaʻauiʻa, Windward Islands, French Polynesia, 98703, France",
        "road": "Servitude NU'UROA 1",
        "house_number": null,
        "neighbourhood": null,
        "suburb": null,
        "city_district": null,
        "city": "Punaʻauiʻa",
        "state": "French Polynesia",
        "postcode": "98703",
        "country": "France",
        "country_code": "fr"
      },
      "address": "Servitude NU'UROA 1, Punaauia, 98703 French Polynesia, French Polynesia"
    },
    {
      "lat": -17.656842793038855,
      "lon": -149.63693060938462,
      "geoinfo": {
        "display_name": "French Polynesia, France",
        "road": null,
        "house_number": null,
        "neighbourhood": null,
        "suburb": null,
        "city_district": null,
        "city": null,
        "state": "French Polynesia",
        "postcode": null,
        "country": "France",
        "country_code": "fr"
      },
      "address": "055, Punaauia, 16030 French Polynesia, French Polynesia"
    },
    {
      "lat": -17.59304850154029,
      "lon": -149.61242521284132,
      "geoinfo": {
        "display_name": "Route de Ceinture Ouest, Domaine Siu, Punaʻauiʻa, Windward Islands, French Polynesia, 98717, France",
        "road": "Route de Ceinture Ouest",
        "house_number": null,
        "neighbourhood": "Domaine Siu",
        "suburb": null,
        "city_district": null,
        "city": "Punaʻauiʻa",
        "state": "French Polynesia",
        "postcode": "98717",
        "country": "France",
        "country_code": "fr"
      },
      "address": "673, Route de Ceinture Ouest, Punaauia, 98717 French Polynesia, French Polynesia"
    },
    {
      "lat": -17.633418866617674,
      "lon": -149.56223174427456,
      "geoinfo": {
        "display_name": "Montée de Tamanu, Punaʻauiʻa, Windward Islands, French Polynesia, France",
        "road": "Montée de Tamanu",
        "house_number": null,
        "neighbourhood": null,
        "suburb": null,
        "city_district": null,
        "city": "Punaʻauiʻa",
        "state": "French Polynesia",
        "postcode": null,
        "country": "France",
        "country_code": "fr"
      },
      "address": "118, Montée de Tamanu, Punaauia, 46247 French Polynesia, French Polynesia"
    },
    {
      "lat": -17.636494046925808,
      "lon": -149.6416858993718,
      "geoinfo": {
        "display_name": "French Polynesia, France",
        "road": null,
        "house_number": null,
        "neighbourhood": null,
        "suburb": null,
        "city_district": null,
        "city": null,
        "state": "French Polynesia",
        "postcode": null,
        "country": "France",
        "country_code": "fr"
      },
      "address": "571, Punaauia, 96530 French Polynesia, French Polynesia"
    },
    {
      "lat": -17.595189662726778,
      "lon": -149.60019657441967,
      "geoinfo": {
        "display_name": "Lotissement Te Tavake, Punaʻauiʻa, Windward Islands, French Polynesia, 98717, France",
        "road": null,
        "house_number": null,
        "neighbourhood": null,
        "suburb": null,
        "city_district": null,
        "city": "Punaʻauiʻa",
        "state": "French Polynesia",
        "postcode": "98717",
        "country": "France",
        "country_code": "fr"
      },
      "address": "129, Punaauia, 98717 French Polynesia, French Polynesia"
    },
    {
      "lat": -17.605440932978663,
      "lon": -149.6088873830719,
      "geoinfo": {
        "display_name": "Route des Plaines, Jambolana, Punaʻauiʻa, Windward Islands, French Polynesia, 98718, France",
        "road": "Route des Plaines",
        "house_number": null,
        "neighbourhood": "Jambolana",
        "suburb": null,
        "city_district": null,
        "city": "Punaʻauiʻa",
        "state": "French Polynesia",
        "postcode": "98718",
        "country": "France",
        "country_code": "fr"
      },
      "address": "647, Route des Plaines, Punaauia, 98718 French Polynesia, French Polynesia"
    },
    {
      "lat": -17.622205589876756,
      "lon": -149.5911178519163,
      "geoinfo": {
        "display_name": "Domaine Sage, Punaʻauiʻa, Windward Islands, French Polynesia, 98718, France",
        "road": null,
        "house_number": null,
        "neighbourhood": "Domaine Sage",
        "suburb": null,
        "city_district": null,
        "city": "Punaʻauiʻa",
        "state": "French Polynesia",
        "postcode": "98718",
        "country": "France",
        "country_code": "fr"
      },
      "address": "067, Domaine Sage, Punaauia, 98718 French Polynesia, French Polynesia"
    },
    {
      "lat": -17.64001960542157,
      "lon": -149.62262008004242,
      "geoinfo": {
        "display_name": "Nu’uroa, Teoneanini, Punaʻauiʻa, Windward Islands, French Polynesia, 98703, France",
        "road": null,
        "house_number": null,
        "neighbourhood": null,
        "suburb": null,
        "city_district": null,
        "city": "Punaʻauiʻa",
        "state": "French Polynesia",
        "postcode": "98703",
        "country": "France",
        "country_code": "fr"
      },
      "address": "417, Punaauia, 98703 French Polynesia, French Polynesia"
    },
    {
      "lat": -17.649138774134435,
      "lon": -149.5739762713843,
      "geoinfo": {
        "display_name": "Vallée Maruapo, Lotissement Te Maru Ata, Punaʻauiʻa, Windward Islands, French Polynesia, 98703, France",
        "road": null,
        "house_number": null,
        "neighbourhood": null,
        "suburb": null,
        "city_district": null,
        "city": "Punaʻauiʻa",
        "state": "French Polynesia",
        "postcode": "98703",
        "country": "France",
        "country_code": "fr"
      },
      "address": "809, Punaauia, 98703 French Polynesia, French Polynesia"
    },
    {
      "lat": -17.642211843506168,
      "lon": -149.599610122013,
      "geoinfo": {
        "display_name": "Montée des parapentes, Ateni, Punaʻauiʻa, Windward Islands, French Polynesia, 98703, France",
        "road": "Montée des parapentes",
        "house_number": null,
        "neighbourhood": null,
        "suburb": null,
        "city_district": null,
        "city": "Punaʻauiʻa",
        "state": "French Polynesia",
        "postcode": "98703",
        "country": "France",
        "country_code": "fr"
      },
      "address": "577, Montée des parapentes, Punaauia, 98703 French Polynesia, French Polynesia"
    },
    {
      "lat": -17.592933264583902,
      "lon": -149.61266521253143,
      "geoinfo": {
        "display_name": "Route de Ceinture Ouest, Domaine Siu, Punaʻauiʻa, Windward Islands, French Polynesia, 98717, France",
        "road": "Route de Ceinture Ouest",
        "house_number": null,
        "neighbourhood": "Domaine Siu",
        "suburb": null,
        "city_district": null,
        "city": "Punaʻauiʻa",
        "state": "French Polynesia",
        "postcode": "98717",
        "country": "France",
        "country_code": "fr"
      },
      "address": "493, Route de Ceinture Ouest, Punaauia, 98717 French Polynesia, French Polynesia"
    },
    {
      "lat": -17.649314837245857,
      "lon": -149.64122211510374,
      "geoinfo": {
        "display_name": "French Polynesia, France",
        "road": null,
        "house_number": null,
        "neighbourhood": null,
        "suburb": null,
        "city_district": null,
        "city": null,
        "state": "French Polynesia",
        "postcode": null,
        "country": "France",
        "country_code": "fr"
      },
      "address": "774, Punaauia, 24645 French Polynesia, French Polynesia"
    },
    {
      "lat": -17.622445607896854,
      "lon": -149.63425394289737,
      "geoinfo": {
        "display_name": "Rocher Taipari, French Polynesia, 98703, France",
        "road": null,
        "house_number": null,
        "neighbourhood": null,
        "suburb": null,
        "city_district": null,
        "city": null,
        "state": "French Polynesia",
        "postcode": "98703",
        "country": "France",
        "country_code": "fr"
      },
      "address": "543, Punaauia, 98703 French Polynesia, French Polynesia"
    },
    {
      "lat": -17.626630723235476,
      "lon": -149.6067143629525,
      "geoinfo": {
        "display_name": "Punavai Montagne, Punaʻauiʻa, Windward Islands, French Polynesia, 98703, France",
        "road": null,
        "house_number": null,
        "neighbourhood": "Punavai Montagne",
        "suburb": null,
        "city_district": null,
        "city": "Punaʻauiʻa",
        "state": "French Polynesia",
        "postcode": "98703",
        "country": "France",
        "country_code": "fr"
      },
      "address": "408, Punavai Montagne, Punaauia, 98703 French Polynesia, French Polynesia"
    },
    {
      "lat": -17.624827661593653,
      "lon": -149.60088852240182,
      "geoinfo": {
        "display_name": "Domaine Sage, Punaʻauiʻa, Windward Islands, French Polynesia, 98718, France",
        "road": null,
        "house_number": null,
        "neighbourhood": "Domaine Sage",
        "suburb": null,
        "city_district": null,
        "city": "Punaʻauiʻa",
        "state": "French Polynesia",
        "postcode": "98718",
        "country": "France",
        "country_code": "fr"
      },
      "address": "163, Domaine Sage, Punaauia, 98718 French Polynesia, French Polynesia"
    },
    {
      "lat": -17.630708869850743,
      "lon": -149.58040112533385,
      "geoinfo": {
        "display_name": "Vallée Punaruu, Zone industrielle de la Punaaruu, Punaʻauiʻa, Windward Islands, French Polynesia, 98703, France",
        "road": null,
        "house_number": null,
        "neighbourhood": null,
        "suburb": null,
        "city_district": null,
        "city": "Punaʻauiʻa",
        "state": "French Polynesia",
        "postcode": "98703",
        "country": "France",
        "country_code": "fr"
      },
      "address": "983, Punaauia, 98703 French Polynesia, French Polynesia"
    },
    {
      "lat": -17.62670503415852,
      "lon": -149.62733744382192,
      "geoinfo": {
        "display_name": "Rocher Taipari, French Polynesia, 98703, France",
        "road": null,
        "house_number": null,
        "neighbourhood": null,
        "suburb": null,
        "city_district": null,
        "city": null,
        "state": "French Polynesia",
        "postcode": "98703",
        "country": "France",
        "country_code": "fr"
      },
      "address": "818, Punaauia, 98703 French Polynesia, French Polynesia"
    },
    {
      "lat": -17.651704066758082,
      "lon": -149.63257612901194,
      "geoinfo": {
        "display_name": "French Polynesia, France",
        "road": null,
        "house_number": null,
        "neighbourhood": null,
        "suburb": null,
        "city_district": null,
        "city": null,
        "state": "French Polynesia",
        "postcode": null,
        "country": "France",
        "country_code": "fr"
      },
      "address": "178, Punaauia, 02633 French Polynesia, French Polynesia"
    },
    {
      "lat": -17.64356753404502,
      "lon": -149.59844905615913,
      "geoinfo": {
        "display_name": "Rte de Te Maruata, Lotissement Te Maru Ata, Punaʻauiʻa, Windward Islands, French Polynesia, 98703, France",
        "road": "Rte de Te Maruata",
        "house_number": null,
        "neighbourhood": null,
        "suburb": null,
        "city_district": null,
        "city": "Punaʻauiʻa",
        "state": "French Polynesia",
        "postcode": "98703",
        "country": "France",
        "country_code": "fr"
      },
      "address": "004, Rte de Te Maruata, Punaauia, 98703 French Polynesia, French Polynesia"
    },
    {
      "lat": -17.634291086046304,
      "lon": -149.5549847302969,
      "geoinfo": {
        "display_name": "Longue Descente, Punaʻauiʻa, Windward Islands, French Polynesia, France",
        "road": "Longue Descente",
        "house_number": null,
        "neighbourhood": null,
        "suburb": null,
        "city_district": null,
        "city": "Punaʻauiʻa",
        "state": "French Polynesia",
        "postcode": null,
        "country": "France",
        "country_code": "fr"
      },
      "address": "362, Longue Descente, Punaauia, 77012 French Polynesia, French Polynesia"
    },
    {
      "lat": -17.63495236292578,
      "lon": -149.62018928435901,
      "geoinfo": {
        "display_name": "Aroa Hopu, Teoneanini, Punaʻauiʻa, Windward Islands, French Polynesia, 98703, France",
        "road": "Aroa Hopu",
        "house_number": null,
        "neighbourhood": null,
        "suburb": null,
        "city_district": null,
        "city": "Punaʻauiʻa",
        "state": "French Polynesia",
        "postcode": "98703",
        "country": "France",
        "country_code": "fr"
      },
      "address": "250, Aroa Hopu, Punaauia, 98703 French Polynesia, French Polynesia"
    },
    {
      "lat": -17.614100359403597,
      "lon": -149.63906293288554,
      "geoinfo": {
        "display_name": "Rocher Taipari, French Polynesia, 98703, France",
        "road": null,
        "house_number": null,
        "neighbourhood": null,
        "suburb": null,
        "city_district": null,
        "city": null,
        "state": "French Polynesia",
        "postcode": "98703",
        "country": "France",
        "country_code": "fr"
      },
      "address": "745, Punaauia, 98703 French Polynesia, French Polynesia"
    },
    {
      "lat": -17.655465542779982,
      "lon": -149.56020065683813,
      "geoinfo": {
        "display_name": "Vallée Hopuetamai, Pāʻea, Windward Islands, French Polynesia, 98711, France",
        "road": null,
        "house_number": null,
        "neighbourhood": null,
        "suburb": null,
        "city_district": null,
        "city": "Pāʻea",
        "state": "French Polynesia",
        "postcode": "98711",
        "country": "France",
        "country_code": "fr"
      },
      "address": "609, Punaauia, 98711 French Polynesia, French Polynesia"
    },
    {
      "lat": -17.652230140183825,
      "lon": -149.62592928964435,
      "geoinfo": {
        "display_name": "French Polynesia, France",
        "road": null,
        "house_number": null,
        "neighbourhood": null,
        "suburb": null,
        "city_district": null,
        "city": null,
        "state": "French Polynesia",
        "postcode": null,
        "country": "France",
        "country_code": "fr"
      },
      "address": "034, Punaauia, 56122 French Polynesia, French Polynesia"
    },
    {
      "lat": -17.608021126294606,
      "lon": -149.58079732221185,
      "geoinfo": {
        "display_name": "Chemin de la vallée de Matatia, Matatia 2, Punaʻauiʻa, Windward Islands, French Polynesia, 98718, France",
        "road": "Chemin de la vallée de Matatia",
        "house_number": null,
        "neighbourhood": "Matatia 2",
        "suburb": null,
        "city_district": null,
        "city": "Punaʻauiʻa",
        "state": "French Polynesia",
        "postcode": "98718",
        "country": "France",
        "country_code": "fr"
      },
      "address": "010, Chemin de la vallée de Matatia, Punaauia, 98718 French Polynesia, French Polynesia"
    },
    {
      "lat": -17.61781096385936,
      "lon": -149.56232299984066,
      "geoinfo": {
        "display_name": "Montée de Tamanu, Punaʻauiʻa, Windward Islands, French Polynesia, 98718, France",
        "road": "Montée de Tamanu",
        "house_number": null,
        "neighbourhood": null,
        "suburb": null,
        "city_district": null,
        "city": "Punaʻauiʻa",
        "state": "French Polynesia",
        "postcode": "98718",
        "country": "France",
        "country_code": "fr"
      },
      "address": "326, Montée de Tamanu, Punaauia, 98718 French Polynesia, French Polynesia"
    },
    {
      "lat": -17.608801528747517,
      "lon": -149.62487252293081,
      "geoinfo": {
        "display_name": "Ta’apuna, French Polynesia, 98717, France",
        "road": null,
        "house_number": null,
        "neighbourhood": null,
        "suburb": null,
        "city_district": null,
        "city": null,
        "state": "French Polynesia",
        "postcode": "98717",
        "country": "France",
        "country_code": "fr"
      },
      "address": "789, Punaauia, 98717 French Polynesia, French Polynesia"
    },
    {
      "lat": -17.61786509868045,
      "lon": -149.59969072235717,
      "geoinfo": {
        "display_name": "Lotissement Punavai, Punaʻauiʻa, Windward Islands, French Polynesia, 98718, France",
        "road": null,
        "house_number": null,
        "neighbourhood": null,
        "suburb": null,
        "city_district": null,
        "city": "Punaʻauiʻa",
        "state": "French Polynesia",
        "postcode": "98718",
        "country": "France",
        "country_code": "fr"
      },
      "address": "600, Punaauia, 98718 French Polynesia, French Polynesia"
    },
    {
      "lat": -17.610191698096703,
      "lon": -149.62555550078807,
      "geoinfo": {
        "display_name": "Rocher Teiripario, French Polynesia, 98718, France",
        "road": null,
        "house_number": null,
        "neighbourhood": null,
        "suburb": null,
        "city_district": null,
        "city": null,
        "state": "French Polynesia",
        "postcode": "98718",
        "country": "France",
        "country_code": "fr"
      },
      "address": "520, Punaauia, 98718 French Polynesia, French Polynesia"
    },
    {
      "lat": -17.64309356253436,
      "lon": -149.578603209329,
      "geoinfo": {
        "display_name": "Montée des parapentes, Ateni, Punaʻauiʻa, Windward Islands, French Polynesia, 98703, France",
        "road": "Montée des parapentes",
        "house_number": null,
        "neighbourhood": null,
        "suburb": null,
        "city_district": null,
        "city": "Punaʻauiʻa",
        "state": "French Polynesia",
        "postcode": "98703",
        "country": "France",
        "country_code": "fr"
      },
      "address": "189, Montée des parapentes, Punaauia, 98703 French Polynesia, French Polynesia"
    }
  ],
  "updated_at": "2025-10-19T06:32:29.464804+00:00",
  "_kind": "geo_samples"
}