{
  "country_code": "KG",
  "country": "Kyrgyzstan",
  "city": "Bazar-Korgon",
  "geonameid": 1528717,
  "target_addresses": 4,
  "samples": [
    {
      "lat": 41.06390191016208,
      "lon": 72.79060403707564,
      "geoinfo": {
        "display_name": "Karacha, Bazar-Korgon, Bazar-Korgon District, Jalal-Abad Region, 720800, Kyrgyzstan",
        "road": null,
        "house_number": null,
        "neighbourhood": null,
        "suburb": null,
        "city_district": null,
        "city": "Bazar-Korgon",
        "state": "Jalal-Abad Region",
        "postcode": "720800",
        "country": "Kyrgyzstan",
        "country_code": "kg"
      },
      "address": "Bazar-Korgon, Jalal-Abad Region, Kyrgyzstan"
    },
    {
      "lat": 41.06402405649022,
      "lon": 72.69836345901727,
      "geoinfo": {
        "display_name": "Bishkek-Osh, Кёк-Айдар, Nooken District, Jalal-Abad Region, Kyrgyzstan",
        "road": "Bishkek-Osh",
        "house_number": null,
        "neighbourhood": null,
        "suburb": null,
        "city_district": null,
        "city": "Кёк-Айдар",
        "state": "Jalal-Abad Region",
        "postcode": null,
        "country": "Kyrgyzstan",
        "country_code": "kg"
      },
      "address": "Bishkek-Osh, Bazar-Korgon, Jalal-Abad Region, Kyrgyzstan"
    },
    {
      "lat": 41.04145553341898,
      "lon": 72.7827103094193,
      "geoinfo": {
        "display_name": "Улица К. Маркса, Beshik-Jon, Bazar-Korgon District, Jalal-Abad Region, 720800, Kyrgyzstan",
        "road": "Улица К. Маркса",
        "house_number": null,
        "neighbourhood": null,
        "suburb": null,
        "city_district": null,
        "city": "Beshik-Jon",
        "state": "Jalal-Abad Region",
        "postcode": "720800",
        "country": "Kyrgyzstan",
        "country_code": "kg"
      },
      "address": "Улица К. Маркса, Bazar-Korgon, Jalal-Abad Region, Kyrgyzstan"
    },
    {
      "lat": 41.04338259276712,
      "lon": 72.75906984208069,
      "geoinfo": {
        "display_name": "Сайдуллаева Т. улица, Bazar-Korgon, Bazar-Korgon District, Jalal-Abad Region, 720800, Kyrgyzstan",
        "road": "Сайдуллаева Т. улица",
        "house_number": null,
        "neighbourhood": null,
        "suburb": null,
        "city_district": null,
        "city": "Bazar-Korgon",
        "state": "Jalal-Abad Region",
        "postcode": "720800",
        "country": "Kyrgyzstan",
        "country_code": "kg"
      },
      "address": "Сайдуллаева Т. улица, Bazar-Korgon, Jalal-Abad Region, Kyrgyzstan"
    },
    {
      "lat": 40.993235726298245,
      "lon": 72.74043555760711,
      "geoinfo": {
        "display_name": "Bazar-Korgon District, Jalal-Abad Region, 720800, Kyrgyzstan",
        "road": null,
        "house_number": null,
        "neighbourhood": null,
        "suburb": null,
        "city_district": null,
        "city": null,
        "state": "Jalal-Abad Region",
        "postcode": "720800",
        "country": "Kyrgyzstan",
        "country_code": "kg"
      },
      "address": "291, Bazar-Korgon District, Jalal-Abad Region, 720800, Kyrgyzstan"
    },
    {
      "lat": 41.04854238052894,
      "lon": 72.76791400971177,
      "geoinfo": {
        "display_name": "Bishkek-Osh, Bazar-Korgon, Bazar-Korgon District, Jalal-Abad Region, 720800, Kyrgyzstan",
        "road": "Bishkek-Osh",
        "house_number": null,
        "neighbourhood": null,
        "suburb": null,
        "city_district": null,
        "city": "Bazar-Korgon",
        "state": "Jalal-Abad Region",
        "postcode": "720800",
        "country": "Kyrgyzstan",
        "country_code": "kg"
      },
      "address": "733, Bishkek-Osh, Bazar-Korgon, Bazar-Korgon District, Jalal-Abad Region, 720800, Kyrgyzstan"
    },
    {
      "lat": 41.05639617237911,
      "lon": 72.72754470152648,
      "geoinfo": {
        "display_name": "Абдираимов, Bazar-Korgon District, Jalal-Abad Region, 720800, Kyrgyzstan",
        "road": null,
        "house_number": null,
        "neighbourhood": null,
        "suburb": null,
        "city_district": null,
        "city": "Абдираимов",
        "state": "Jalal-Abad Region",
        "postcode": "720800",
        "country": "Kyrgyzstan",
        "country_code": "kg"
      },
      "address": "131, Абдираимов, Bazar-Korgon District, Jalal-Abad Region, 720800, Kyrgyzstan"
    },
    {
      "lat": 41.06609309079567,
      "lon": 72.76986500857741,
      "geoinfo": {
        "display_name": "Bazar-Korgon District, Jalal-Abad Region, 720800, Kyrgyzstan",
        "road": null,
        "house_number": null,
        "neighbourhood": null,
        "suburb": null,
        "city_district": null,
        "city": null,
        "state": "Jalal-Abad Region",
        "postcode": "720800",
        "country": "Kyrgyzstan",
        "country_code": "kg"
      },
      "address": "249, Bazar-Korgon District, Jalal-Abad Region, 720800, Kyrgyzstan"
    }
  ],
  "updated_at": "2025-10-19T07:31:55.963728+00:00",
  "_kind": "geo_samples"
}