{
  "country_code": "KG",
  "country": "Kyrgyzstan",
  "city": "Iradan",
  "geonameid": 1528283,
  "target_addresses": 4,
  "samples": [
    {
      "lat": 40.292604509033175,
      "lon": 72.10482310496558,
      "geoinfo": {
        "display_name": "Kadamjay District, Batken Region, 720305, Kyrgyzstan",
        "road": null,
        "house_number": null,
        "neighbourhood": null,
        "suburb": null,
        "city_district": null,
        "city": null,
        "state": "Batken Region",
        "postcode": "720305",
        "country": "Kyrgyzstan",
        "country_code": "kg"
      },
      "address": "459, Kadamjay District, Batken Region, 720305, Kyrgyzstan"
    },
    {
      "lat": 40.233265195242694,
      "lon": 72.128239398875,
      "geoinfo": {
        "display_name": "Боз, Kyzyl-Kyya City, Kadamjay District, Batken Region, 720300, Kyrgyzstan",
        "road": null,
        "house_number": null,
        "neighbourhood": null,
        "suburb": null,
        "city_district": null,
        "city": "Kyzyl-Kyya City",
        "state": "Batken Region",
        "postcode": "720300",
        "country": "Kyrgyzstan",
        "country_code": "kg"
      },
      "address": "681, Боз, Kyzyl-Kyya City, Kadamjay District, Batken Region, 720300, Kyrgyzstan"
    },
    {
      "lat": 40.25667006789648,
      "lon": 72.11160914753563,
      "geoinfo": {
        "display_name": "Kyzyl-Kyya, Kadamjay District, Batken Region, 720305, Kyrgyzstan",
        "road": null,
        "house_number": null,
        "neighbourhood": null,
        "suburb": null,
        "city_district": null,
        "city": "Kyzyl-Kyya",
        "state": "Batken Region",
        "postcode": "720305",
        "country": "Kyrgyzstan",
        "country_code": "kg"
      },
      "address": "823, Kyzyl-Kyya, Kadamjay District, Batken Region, 720305, Kyrgyzstan"
    },
    {
      "lat": 40.2452768287282,
      "lon": 72.10233692571575,
      "geoinfo": {
        "display_name": "Боз, Kyzyl-Kyya, Kadamjay District, Batken Region, 720305, Kyrgyzstan",
        "road": null,
        "house_number": null,
        "neighbourhood": null,
        "suburb": null,
        "city_district": null,
        "city": "Kyzyl-Kyya",
        "state": "Batken Region",
        "postcode": "720305",
        "country": "Kyrgyzstan",
        "country_code": "kg"
      },
      "address": "995, Боз, Kyzyl-Kyya, Kadamjay District, Batken Region, 720305, Kyrgyzstan"
    }
  ],
  "updated_at": "2025-10-19T03:28:14.340388+00:00",
  "_kind": "geo_samples"
}