{
  "country_code": "KG",
  "country": "Kyrgyzstan",
  "city": "Kant",
  "geonameid": 1528193,
  "target_addresses": 4,
  "samples": [
    {
      "lat": 42.8739150309371,
      "lon": 74.81649019950288,
      "geoinfo": {
        "display_name": "Ysyk-Ata District, Chuy Region, Kyrgyzstan",
        "road": null,
        "house_number": null,
        "neighbourhood": null,
        "suburb": null,
        "city_district": null,
        "city": null,
        "state": "Chuy Region",
        "postcode": null,
        "country": "Kyrgyzstan",
        "country_code": "kg"
      },
      "address": "Kant, Chuy Region, Kyrgyzstan"
    },
    {
      "lat": 42.88560549592045,
      "lon": 74.89856027183633,
      "geoinfo": {
        "display_name": "Кирова улица, Dmitrievka, Ysyk-Ata District, 725011, Kyrgyzstan",
        "road": "Кирова улица",
        "house_number": null,
        "neighbourhood": null,
        "suburb": null,
        "city_district": null,
        "city": "Dmitrievka",
        "state": null,
        "postcode": "725011",
        "country": "Kyrgyzstan",
        "country_code": "kg"
      },
      "address": "Кирова улица, Kant, Chuy Region, Kyrgyzstan"
    },
    {
      "lat": 42.88410718761573,
      "lon": 74.80671182624977,
      "geoinfo": {
        "display_name": "Ленина улица, Kirg Shelk, Ysyk-Ata District, Kyrgyzstan",
        "road": "Ленина улица",
        "house_number": null,
        "neighbourhood": null,
        "suburb": null,
        "city_district": null,
        "city": "Kirg Shelk",
        "state": null,
        "postcode": null,
        "country": "Kyrgyzstan",
        "country_code": "kg"
      },
      "address": "Ленина улица, Kant, Chuy Region, Kyrgyzstan"
    },
    {
      "lat": 42.9106549456061,
      "lon": 74.88519976642972,
      "geoinfo": {
        "display_name": "M-033, Kant, Ysyk-Ata District, 725011, Kyrgyzstan",
        "road": "M-033",
        "house_number": null,
        "neighbourhood": null,
        "suburb": null,
        "city_district": null,
        "city": "Kant",
        "state": null,
        "postcode": "725011",
        "country": "Kyrgyzstan",
        "country_code": "kg"
      },
      "address": "M-033, Kant, Chuy Region, Kyrgyzstan"
    },
    {
      "lat": 42.89058220449107,
      "lon": 74.83814284586495,
      "geoinfo": {
        "display_name": "Забайкальская, Kant, Ysyk-Ata District, Chuy Region, 725000, Kyrgyzstan",
        "road": "Забайкальская",
        "house_number": null,
        "neighbourhood": null,
        "suburb": null,
        "city_district": null,
        "city": "Kant",
        "state": "Chuy Region",
        "postcode": "725000",
        "country": "Kyrgyzstan",
        "country_code": "kg"
      },
      "address": "470, Забайкальская, Kant, Ysyk-Ata District, Chuy Region, 725000, Kyrgyzstan"
    },
    {
      "lat": 42.90242975730365,
      "lon": 74.82360983490449,
      "geoinfo": {
        "display_name": "Ysyk-Ata District, Chuy Region, Kyrgyzstan",
        "road": null,
        "house_number": null,
        "neighbourhood": null,
        "suburb": null,
        "city_district": null,
        "city": null,
        "state": "Chuy Region",
        "postcode": null,
        "country": "Kyrgyzstan",
        "country_code": "kg"
      },
      "address": "584, Kant, 12511 Chuy Region, Kyrgyzstan"
    },
    {
      "lat": 42.89855304527803,
      "lon": 74.8729127437996,
      "geoinfo": {
        "display_name": "ЭМ-20, Ysyk-Ata District, Chuy Region, 725011, Kyrgyzstan",
        "road": "ЭМ-20",
        "house_number": null,
        "neighbourhood": null,
        "suburb": null,
        "city_district": null,
        "city": null,
        "state": "Chuy Region",
        "postcode": "725011",
        "country": "Kyrgyzstan",
        "country_code": "kg"
      },
      "address": "ЭМ-20, Kant, 725011 Chuy Region, Kyrgyzstan"
    },
    {
      "lat": 42.913154450781406,
      "lon": 74.88641159996638,
      "geoinfo": {
        "display_name": "Ysyk-Ata District, Chuy Region, Kyrgyzstan",
        "road": null,
        "house_number": null,
        "neighbourhood": null,
        "suburb": null,
        "city_district": null,
        "city": null,
        "state": "Chuy Region",
        "postcode": null,
        "country": "Kyrgyzstan",
        "country_code": "kg"
      },
      "address": "988, Kant, 94003 Chuy Region, Kyrgyzstan"
    }
  ],
  "updated_at": "2025-10-19T03:28:05.217001+00:00",
  "_kind": "geo_samples"
}