{
  "country_code": "KG",
  "country": "Kyrgyzstan",
  "city": "Kara-Kulja",
  "geonameid": 8145969,
  "target_addresses": 4,
  "samples": [
    {
      "lat": 40.64653507289092,
      "lon": 73.55861368854167,
      "geoinfo": {
        "display_name": "Камчыбеков Карим улица, Sary-Bulak, Kara-Kulja District, Osh Region, Kyrgyzstan",
        "road": "Камчыбеков Карим улица",
        "house_number": null,
        "neighbourhood": null,
        "suburb": null,
        "city_district": null,
        "city": "Sary-Bulak",
        "state": "Osh Region",
        "postcode": null,
        "country": "Kyrgyzstan",
        "country_code": "kg"
      },
      "address": "Камчыбеков Карим улица, Kara-Kulja, Osh Region, Kyrgyzstan"
    },
    {
      "lat": 40.622991315855984,
      "lon": 73.5403550645103,
      "geoinfo": {
        "display_name": "Kara-Kulja District, Osh Region, Kyrgyzstan",
        "road": null,
        "house_number": null,
        "neighbourhood": null,
        "suburb": null,
        "city_district": null,
        "city": null,
        "state": "Osh Region",
        "postcode": null,
        "country": "Kyrgyzstan",
        "country_code": "kg"
      },
      "address": "Kara-Kulja, Osh Region, Kyrgyzstan"
    },
    {
      "lat": 40.58896118519777,
      "lon": 73.59299358575083,
      "geoinfo": {
        "display_name": "Ажимаматов Саткынбай улица, Ylai-Talaa, Ylay-Talaa, Kara-Kulja District, Osh Region, Kyrgyzstan",
        "road": "Ажимаматов Саткынбай улица",
        "house_number": null,
        "neighbourhood": null,
        "suburb": null,
        "city_district": null,
        "city": "Ylay-Talaa",
        "state": "Osh Region",
        "postcode": null,
        "country": "Kyrgyzstan",
        "country_code": "kg"
      },
      "address": "Ажимаматов Саткынбай улица, Kara-Kulja, Osh Region, Kyrgyzstan"
    },
    {
      "lat": 40.65152621797872,
      "lon": 73.60369530033796,
      "geoinfo": {
        "display_name": "Ак-Кыя улица, Ак-Кыя, Kara-Kulja District, Osh Region, Kyrgyzstan",
        "road": "Ак-Кыя улица",
        "house_number": null,
        "neighbourhood": null,
        "suburb": null,
        "city_district": null,
        "city": "Ак-Кыя",
        "state": "Osh Region",
        "postcode": null,
        "country": "Kyrgyzstan",
        "country_code": "kg"
      },
      "address": "Ак-Кыя улица, Kara-Kulja, Osh Region, Kyrgyzstan"
    },
    {
      "lat": 40.607147231899326,
      "lon": 73.61794194285909,
      "geoinfo": {
        "display_name": "Ylay-Talaa, Kara-Kulja District, Osh Region, Kyrgyzstan",
        "road": null,
        "house_number": null,
        "neighbourhood": null,
        "suburb": null,
        "city_district": null,
        "city": "Ylay-Talaa",
        "state": "Osh Region",
        "postcode": null,
        "country": "Kyrgyzstan",
        "country_code": "kg"
      },
      "address": "006, Ylay-Talaa, Kara-Kulja District, 91710 Osh Region, Kyrgyzstan"
    },
    {
      "lat": 40.63017958561502,
      "lon": 73.6142178843112,
      "geoinfo": {
        "display_name": "Kara-Kulja, Kara-Kulja District, Osh Region, Kyrgyzstan",
        "road": null,
        "house_number": null,
        "neighbourhood": null,
        "suburb": null,
        "city_district": null,
        "city": "Kara-Kulja",
        "state": "Osh Region",
        "postcode": null,
        "country": "Kyrgyzstan",
        "country_code": "kg"
      },
      "address": "074, Kara-Kulja, Kara-Kulja District, 06563 Osh Region, Kyrgyzstan"
    },
    {
      "lat": 40.6053431005862,
      "lon": 73.61181435000985,
      "geoinfo": {
        "display_name": "Ylay-Talaa, Kara-Kulja District, Osh Region, Kyrgyzstan",
        "road": null,
        "house_number": null,
        "neighbourhood": null,
        "suburb": null,
        "city_district": null,
        "city": "Ylay-Talaa",
        "state": "Osh Region",
        "postcode": null,
        "country": "Kyrgyzstan",
        "country_code": "kg"
      },
      "address": "886, Ylay-Talaa, Kara-Kulja District, 88867 Osh Region, Kyrgyzstan"
    },
    {
      "lat": 40.60861768749303,
      "lon": 73.61172333438229,
      "geoinfo": {
        "display_name": "Ylay-Talaa, Kara-Kulja District, Osh Region, Kyrgyzstan",
        "road": null,
        "house_number": null,
        "neighbourhood": null,
        "suburb": null,
        "city_district": null,
        "city": "Ylay-Talaa",
        "state": "Osh Region",
        "postcode": null,
        "country": "Kyrgyzstan",
        "country_code": "kg"
      },
      "address": "031, Ylay-Talaa, Kara-Kulja District, 95277 Osh Region, Kyrgyzstan"
    }
  ],
  "updated_at": "2025-10-19T05:36:18.788960+00:00",
  "_kind": "geo_samples"
}