{
  "country_code": "KG",
  "country": "Kyrgyzstan",
  "city": "Kyzyl-Suu",
  "geonameid": 1527497,
  "target_addresses": 4,
  "samples": [
    {
      "lat": 42.36913380081051,
      "lon": 78.04865001342587,
      "geoinfo": {
        "display_name": "Тынаева Жамаке улица, Оргочор, Jeti-Ögüz District, Issyk-Kul Region, Kyrgyzstan",
        "road": "Тынаева Жамаке улица",
        "house_number": null,
        "neighbourhood": null,
        "suburb": null,
        "city_district": null,
        "city": "Оргочор",
        "state": "Issyk-Kul Region",
        "postcode": null,
        "country": "Kyrgyzstan",
        "country_code": "kg"
      },
      "address": "Тынаева Жамаке улица, Kyzyl-Suu, Issyk-Kul Region, Kyrgyzstan"
    },
    {
      "lat": 42.3519052109239,
      "lon": 77.99066354702477,
      "geoinfo": {
        "display_name": "Kyzyl-Suu, Jeti-Ögüz District, Issyk-Kul Region, Kyrgyzstan",
        "road": null,
        "house_number": null,
        "neighbourhood": null,
        "suburb": null,
        "city_district": null,
        "city": "Kyzyl-Suu",
        "state": "Issyk-Kul Region",
        "postcode": null,
        "country": "Kyrgyzstan",
        "country_code": "kg"
      },
      "address": "Kyzyl-Suu, Issyk-Kul Region, Kyrgyzstan"
    },
    {
      "lat": 42.36411067824865,
      "lon": 78.03266544452136,
      "geoinfo": {
        "display_name": "ЭМ-10, Оргочор, Jeti-Ögüz District, Issyk-Kul Region, Kyrgyzstan",
        "road": "ЭМ-10",
        "house_number": null,
        "neighbourhood": null,
        "suburb": null,
        "city_district": null,
        "city": "Оргочор",
        "state": "Issyk-Kul Region",
        "postcode": null,
        "country": "Kyrgyzstan",
        "country_code": "kg"
      },
      "address": "ЭМ-10, Kyzyl-Suu, Issyk-Kul Region, Kyrgyzstan"
    },
    {
      "lat": 42.34679660284153,
      "lon": 78.02422462819295,
      "geoinfo": {
        "display_name": "Зеленая улица, Kyzyl-Suu, Jeti-Ögüz District, Issyk-Kul Region, Kyrgyzstan",
        "road": "Зеленая улица",
        "house_number": null,
        "neighbourhood": null,
        "suburb": null,
        "city_district": null,
        "city": "Kyzyl-Suu",
        "state": "Issyk-Kul Region",
        "postcode": null,
        "country": "Kyrgyzstan",
        "country_code": "kg"
      },
      "address": "Зеленая улица, Kyzyl-Suu, Issyk-Kul Region, Kyrgyzstan"
    },
    {
      "lat": 42.37111763139762,
      "lon": 77.99429039637366,
      "geoinfo": {
        "display_name": "Jeti-Ögüz District, Issyk-Kul Region, Kyrgyzstan",
        "road": null,
        "house_number": null,
        "neighbourhood": null,
        "suburb": null,
        "city_district": null,
        "city": null,
        "state": "Issyk-Kul Region",
        "postcode": null,
        "country": "Kyrgyzstan",
        "country_code": "kg"
      },
      "address": "369, Kyzyl-Suu, 55170 Issyk-Kul Region, Kyrgyzstan"
    },
    {
      "lat": 42.348122996587456,
      "lon": 78.04148850408153,
      "geoinfo": {
        "display_name": "Jeti-Ögüz District, Issyk-Kul Region, Kyrgyzstan",
        "road": null,
        "house_number": null,
        "neighbourhood": null,
        "suburb": null,
        "city_district": null,
        "city": null,
        "state": "Issyk-Kul Region",
        "postcode": null,
        "country": "Kyrgyzstan",
        "country_code": "kg"
      },
      "address": "136, Kyzyl-Suu, 80350 Issyk-Kul Region, Kyrgyzstan"
    },
    {
      "lat": 42.32709674240089,
      "lon": 78.00671418761772,
      "geoinfo": {
        "display_name": "Красновосточная улица, Kyzyl-Suu, Jeti-Ögüz District, Issyk-Kul Region, Kyrgyzstan",
        "road": "Красновосточная улица",
        "house_number": null,
        "neighbourhood": null,
        "suburb": null,
        "city_district": null,
        "city": "Kyzyl-Suu",
        "state": "Issyk-Kul Region",
        "postcode": null,
        "country": "Kyrgyzstan",
        "country_code": "kg"
      },
      "address": "865, Красновосточная улица, Kyzyl-Suu, Jeti-Ögüz District, 74691 Issyk-Kul Region, Kyrgyzstan"
    },
    {
      "lat": 42.369509289515314,
      "lon": 78.02927371983591,
      "geoinfo": {
        "display_name": "Jeti-Ögüz District, Issyk-Kul Region, Kyrgyzstan",
        "road": null,
        "house_number": null,
        "neighbourhood": null,
        "suburb": null,
        "city_district": null,
        "city": null,
        "state": "Issyk-Kul Region",
        "postcode": null,
        "country": "Kyrgyzstan",
        "country_code": "kg"
      },
      "address": "657, Kyzyl-Suu, 60749 Issyk-Kul Region, Kyrgyzstan"
    }
  ],
  "updated_at": "2025-10-19T07:31:31.763917+00:00",
  "_kind": "geo_samples"
}