{
  "country_code": "KG",
  "country": "Kyrgyzstan",
  "city": "Nookat",
  "geonameid": 1528339,
  "target_addresses": 4,
  "samples": [
    {
      "lat": 40.26422741831276,
      "lon": 72.59394879529862,
      "geoinfo": {
        "display_name": "Nookat, Nookat District, Osh Region, 723400, Kyrgyzstan",
        "road": null,
        "house_number": null,
        "neighbourhood": null,
        "suburb": null,
        "city_district": null,
        "city": "Nookat",
        "state": "Osh Region",
        "postcode": "723400",
        "country": "Kyrgyzstan",
        "country_code": "kg"
      },
      "address": "Nookat, Osh Region, Kyrgyzstan"
    },
    {
      "lat": 40.257418852355755,
      "lon": 72.63623040741338,
      "geoinfo": {
        "display_name": "Хаким палван2, Nookat, Nookat District, Osh Region, 715334, Kyrgyzstan",
        "road": "Хаким палван2",
        "house_number": null,
        "neighbourhood": null,
        "suburb": null,
        "city_district": null,
        "city": "Nookat",
        "state": "Osh Region",
        "postcode": "715334",
        "country": "Kyrgyzstan",
        "country_code": "kg"
      },
      "address": "Хаким палван2, Nookat, Osh Region, Kyrgyzstan"
    },
    {
      "lat": 40.25654120426951,
      "lon": 72.62701530742362,
      "geoinfo": {
        "display_name": "Учкампир1, Nookat, Nookat District, Osh Region, 715334, Kyrgyzstan",
        "road": "Учкампир1",
        "house_number": null,
        "neighbourhood": null,
        "suburb": null,
        "city_district": null,
        "city": "Nookat",
        "state": "Osh Region",
        "postcode": "715334",
        "country": "Kyrgyzstan",
        "country_code": "kg"
      },
      "address": "Учкампир1, Nookat, Osh Region, Kyrgyzstan"
    },
    {
      "lat": 40.28380444603954,
      "lon": 72.57030371098662,
      "geoinfo": {
        "display_name": "Кызыл Тейит көчөсү, Kyzyl-Teyit, Nookat District, Osh Region, 723404, Kyrgyzstan",
        "road": "Кызыл Тейит көчөсү",
        "house_number": null,
        "neighbourhood": null,
        "suburb": null,
        "city_district": null,
        "city": "Kyzyl-Teyit",
        "state": "Osh Region",
        "postcode": "723404",
        "country": "Kyrgyzstan",
        "country_code": "kg"
      },
      "address": "Кызыл Тейит көчөсү, Nookat, Osh Region, Kyrgyzstan"
    },
    {
      "lat": 40.241844549316276,
      "lon": 72.58059888576051,
      "geoinfo": {
        "display_name": "Nookat District, Osh Region, 723404, Kyrgyzstan",
        "road": null,
        "house_number": null,
        "neighbourhood": null,
        "suburb": null,
        "city_district": null,
        "city": null,
        "state": "Osh Region",
        "postcode": "723404",
        "country": "Kyrgyzstan",
        "country_code": "kg"
      },
      "address": "189, Nookat District, Osh Region, 723404, Kyrgyzstan"
    },
    {
      "lat": 40.257160937479306,
      "lon": 72.5619158183038,
      "geoinfo": {
        "display_name": "Gylstan, Nookat District, Osh Region, 723404, Kyrgyzstan",
        "road": null,
        "house_number": null,
        "neighbourhood": null,
        "suburb": null,
        "city_district": null,
        "city": "Gylstan",
        "state": "Osh Region",
        "postcode": "723404",
        "country": "Kyrgyzstan",
        "country_code": "kg"
      },
      "address": "809, Gylstan, Nookat District, Osh Region, 723404, Kyrgyzstan"
    },
    {
      "lat": 40.236060254029745,
      "lon": 72.60025128610395,
      "geoinfo": {
        "display_name": "Nookat, Nookat District, Osh Region, 715334, Kyrgyzstan",
        "road": null,
        "house_number": null,
        "neighbourhood": null,
        "suburb": null,
        "city_district": null,
        "city": "Nookat",
        "state": "Osh Region",
        "postcode": "715334",
        "country": "Kyrgyzstan",
        "country_code": "kg"
      },
      "address": "287, Nookat, Nookat District, Osh Region, 715334, Kyrgyzstan"
    },
    {
      "lat": 40.25820130311546,
      "lon": 72.61015681527506,
      "geoinfo": {
        "display_name": "Атаназар каары, Nookat, Nookat District, Osh Region, 715334, Kyrgyzstan",
        "road": "Атаназар каары",
        "house_number": null,
        "neighbourhood": null,
        "suburb": null,
        "city_district": null,
        "city": "Nookat",
        "state": "Osh Region",
        "postcode": "715334",
        "country": "Kyrgyzstan",
        "country_code": "kg"
      },
      "address": "802, Атаназар каары, Nookat, Nookat District, Osh Region, 715334, Kyrgyzstan"
    }
  ],
  "updated_at": "2025-10-19T05:36:04.575243+00:00",
  "_kind": "geo_samples"
}