{
  "country_code": "MT",
  "country": "Malta",
  "city": "Birkirkara",
  "geonameid": 2563191,
  "target_addresses": 15,
  "samples": [
    {
      "lat": 35.89638553560779,
      "lon": 14.474738292073399,
      "geoinfo": {
        "display_name": "Triq l-Aħwa Hyzler, Fleur-de-Lys, Birkirkara, Central Region, BKR 3089, Malta",
        "road": "Triq l-Aħwa Hyzler",
        "house_number": null,
        "neighbourhood": null,
        "suburb": null,
        "city_district": null,
        "city": "Birkirkara",
        "state": "Central Region",
        "postcode": "BKR 3089",
        "country": "Malta",
        "country_code": "mt"
      },
      "address": "Triq l-Aħwa Hyzler, Birkirkara, Central Region, Malta"
    },
    {
      "lat": 35.90081846179276,
      "lon": 14.45993572819649,
      "geoinfo": {
        "display_name": "Triq Ignatio Saverio Mifsud, Birkirkara, Central Region, BKR 9046, Malta",
        "road": "Triq Ignatio Saverio Mifsud",
        "house_number": null,
        "neighbourhood": null,
        "suburb": null,
        "city_district": null,
        "city": "Birkirkara",
        "state": "Central Region",
        "postcode": "BKR 9046",
        "country": "Malta",
        "country_code": "mt"
      },
      "address": "Triq Ignatio Saverio Mifsud, Birkirkara, Central Region, Malta"
    },
    {
      "lat": 35.9034486160263,
      "lon": 14.470517217411327,
      "geoinfo": {
        "display_name": "Sqaq it-Tiġieġ, Qasam Industrijali San Ġwann, San Ġwann, Central Region, ATD 1301, Malta",
        "road": "Sqaq it-Tiġieġ",
        "house_number": null,
        "neighbourhood": null,
        "suburb": null,
        "city_district": null,
        "city": "San Ġwann",
        "state": "Central Region",
        "postcode": "ATD 1301",
        "country": "Malta",
        "country_code": "mt"
      },
      "address": "Sqaq it-Tiġieġ, Birkirkara, Central Region, Malta"
    },
    {
      "lat": 35.89311527628161,
      "lon": 14.45459572500095,
      "geoinfo": {
        "display_name": "Mdina Road, Attard, Central Region, BZN 1708, Malta",
        "road": "Mdina Road",
        "house_number": null,
        "neighbourhood": null,
        "suburb": null,
        "city_district": null,
        "city": "Attard",
        "state": "Central Region",
        "postcode": "BZN 1708",
        "country": "Malta",
        "country_code": "mt"
      },
      "address": "Mdina Road, Birkirkara, Central Region, Malta"
    },
    {
      "lat": 35.88846900056239,
      "lon": 14.447534336557382,
      "geoinfo": {
        "display_name": "Attard, Central Region, BZN 9023, Malta",
        "road": null,
        "house_number": null,
        "neighbourhood": null,
        "suburb": null,
        "city_district": null,
        "city": "Attard",
        "state": "Central Region",
        "postcode": "BZN 9023",
        "country": "Malta",
        "country_code": "mt"
      },
      "address": "Birkirkara, Central Region, Malta"
    },
    {
      "lat": 35.90278184455047,
      "lon": 14.456979078586256,
      "geoinfo": {
        "display_name": "Birkirkara Bypass, Birkirkara, Central Region, IKL 1020, Malta",
        "road": "Birkirkara Bypass",
        "house_number": null,
        "neighbourhood": null,
        "suburb": null,
        "city_district": null,
        "city": "Birkirkara",
        "state": "Central Region",
        "postcode": "IKL 1020",
        "country": "Malta",
        "country_code": "mt"
      },
      "address": "Birkirkara Bypass, Birkirkara, Central Region, Malta"
    },
    {
      "lat": 35.90614645303235,
      "lon": 14.461970094767224,
      "geoinfo": {
        "display_name": "Triq Ħal Għargħur, San Ġwann, Central Region, BKR 9037, Malta",
        "road": "Triq Ħal Għargħur",
        "house_number": null,
        "neighbourhood": null,
        "suburb": null,
        "city_district": null,
        "city": "San Ġwann",
        "state": "Central Region",
        "postcode": "BKR 9037",
        "country": "Malta",
        "country_code": "mt"
      },
      "address": "Triq Ħal Għargħur, Birkirkara, Central Region, Malta"
    },
    {
      "lat": 35.906382051197035,
      "lon": 14.478983021205828,
      "geoinfo": {
        "display_name": "Saint Julian Road, San Ġwann, Central Region, SGN 9031, Malta",
        "road": "Saint Julian Road",
        "house_number": null,
        "neighbourhood": null,
        "suburb": null,
        "city_district": null,
        "city": "San Ġwann",
        "state": "Central Region",
        "postcode": "SGN 9031",
        "country": "Malta",
        "country_code": "mt"
      },
      "address": "Saint Julian Road, Birkirkara, Central Region, Malta"
    }
  ],
  "updated_at": "2025-10-16T19:53:50.750667+00:00",
  "_kind": "geo_samples"
}