{
  "country_code": "MT",
  "country": "Malta",
  "city": "Mosta",
  "geonameid": 2562704,
  "target_addresses": 15,
  "samples": [
    {
      "lat": 35.9045821882597,
      "lon": 14.440989033515118,
      "geoinfo": {
        "display_name": "Mosta Road, Lija, Central Region, LJA 9012, Malta",
        "road": "Mosta Road",
        "house_number": null,
        "neighbourhood": null,
        "suburb": null,
        "city_district": null,
        "city": "Lija",
        "state": "Central Region",
        "postcode": "LJA 9012",
        "country": "Malta",
        "country_code": "mt"
      },
      "address": "Mosta Road, Mosta, Central Region, Malta"
    },
    {
      "lat": 35.89820952470988,
      "lon": 14.374491517527042,
      "geoinfo": {
        "display_name": "Rabat, Northern Region, RBT 4017, Malta",
        "road": null,
        "house_number": null,
        "neighbourhood": null,
        "suburb": null,
        "city_district": null,
        "city": "Rabat",
        "state": "Northern Region",
        "postcode": "RBT 4017",
        "country": "Malta",
        "country_code": "mt"
      },
      "address": "Mosta, Northern Region, Malta"
    },
    {
      "lat": 35.905205183726466,
      "lon": 14.417651010981315,
      "geoinfo": {
        "display_name": "Triq San Pawl tal-Qliegħa, Tal-Ħanżira, Mosta, Northern Region, MST 1015, Malta",
        "road": "Triq San Pawl tal-Qliegħa",
        "house_number": null,
        "neighbourhood": "Tal-Ħanżira",
        "suburb": null,
        "city_district": null,
        "city": "Mosta",
        "state": "Northern Region",
        "postcode": "MST 1015",
        "country": "Malta",
        "country_code": "mt"
      },
      "address": "Triq San Pawl tal-Qliegħa, Mosta, Northern Region, Malta"
    },
    {
      "lat": 35.934826074493415,
      "lon": 14.427835255860645,
      "geoinfo": {
        "display_name": "Triq il-Prinjol, Naxxar, Northern Region, NXR 6712, Malta",
        "road": "Triq il-Prinjol",
        "house_number": null,
        "neighbourhood": null,
        "suburb": null,
        "city_district": null,
        "city": "Naxxar",
        "state": "Northern Region",
        "postcode": "NXR 6712",
        "country": "Malta",
        "country_code": "mt"
      },
      "address": "Triq il-Prinjol, Mosta, Northern Region, Malta"
    },
    {
      "lat": 35.88581198592312,
      "lon": 14.379007491253263,
      "geoinfo": {
        "display_name": "126, Landrijiet, Rabat, Northern Region, RBT 4017, Malta",
        "road": "126",
        "house_number": null,
        "neighbourhood": null,
        "suburb": null,
        "city_district": null,
        "city": "Rabat",
        "state": "Northern Region",
        "postcode": "RBT 4017",
        "country": "Malta",
        "country_code": "mt"
      },
      "address": "126, Mosta, Northern Region, Malta"
    },
    {
      "lat": 35.92139886422819,
      "lon": 14.45126314635619,
      "geoinfo": {
        "display_name": "Triq San Ġwann, Għargħur, Northern Region, GHR 1305, Malta",
        "road": "Triq San Ġwann",
        "house_number": null,
        "neighbourhood": null,
        "suburb": null,
        "city_district": null,
        "city": "Għargħur",
        "state": "Northern Region",
        "postcode": "GHR 1305",
        "country": "Malta",
        "country_code": "mt"
      },
      "address": "Triq San Ġwann, Mosta, Northern Region, Malta"
    },
    {
      "lat": 35.913171398723,
      "lon": 14.432000403005034,
      "geoinfo": {
        "display_name": "Triq tal-Wej, Tal-Awrora, Mosta, Northern Region, MST 3291, Malta",
        "road": "Triq tal-Wej",
        "house_number": null,
        "neighbourhood": "Tal-Awrora",
        "suburb": null,
        "city_district": null,
        "city": "Mosta",
        "state": "Northern Region",
        "postcode": "MST 3291",
        "country": "Malta",
        "country_code": "mt"
      },
      "address": "Triq tal-Wej, Mosta, Northern Region, Malta"
    },
    {
      "lat": 35.93300848426373,
      "lon": 14.426615246802953,
      "geoinfo": {
        "display_name": "Burmarrad Road, Vassallo Business Park, Burmarrad, Naxxar, Northern Region, NXR 6057, Malta",
        "road": "Burmarrad Road",
        "house_number": null,
        "neighbourhood": null,
        "suburb": null,
        "city_district": null,
        "city": "Naxxar",
        "state": "Northern Region",
        "postcode": "NXR 6057",
        "country": "Malta",
        "country_code": "mt"
      },
      "address": "Burmarrad Road, Mosta, Northern Region, Malta"
    },
    {
      "lat": 35.88985041357775,
      "lon": 14.446659278602509,
      "geoinfo": {
        "display_name": "Attard, Central Region, BZN 9023, Malta",
        "road": null,
        "house_number": null,
        "neighbourhood": null,
        "suburb": null,
        "city_district": null,
        "city": "Attard",
        "state": "Central Region",
        "postcode": "BZN 9023",
        "country": "Malta",
        "country_code": "mt"
      },
      "address": "Mosta, Central Region, Malta"
    },
    {
      "lat": 35.92204252856786,
      "lon": 14.43060152087841,
      "geoinfo": {
        "display_name": "Malta Police Dog Squad, Triq il-Vittmi tal-Gwerra Naxxarin, Mosta, Northern Region, MST 4000, Malta",
        "road": "Triq il-Vittmi tal-Gwerra Naxxarin",
        "house_number": null,
        "neighbourhood": null,
        "suburb": null,
        "city_district": null,
        "city": "Mosta",
        "state": "Northern Region",
        "postcode": "MST 4000",
        "country": "Malta",
        "country_code": "mt"
      },
      "address": "Triq il-Vittmi tal-Gwerra Naxxarin, Mosta, Northern Region, Malta"
    },
    {
      "lat": 35.913646804833114,
      "lon": 14.430707846418787,
      "geoinfo": {
        "display_name": "Triq il-Monsinjur Mikiel Azzopardi, Santa Margerita, Mosta, Northern Region, MST 3291, Malta",
        "road": "Triq il-Monsinjur Mikiel Azzopardi",
        "house_number": null,
        "neighbourhood": null,
        "suburb": null,
        "city_district": null,
        "city": "Mosta",
        "state": "Northern Region",
        "postcode": "MST 3291",
        "country": "Malta",
        "country_code": "mt"
      },
      "address": "Triq il-Monsinjur Mikiel Azzopardi, Mosta, Northern Region, Malta"
    },
    {
      "lat": 35.90423403394093,
      "lon": 14.41945618627753,
      "geoinfo": {
        "display_name": "48, Triq Gio Maria Camilleri, Tal-Ħanżira, Mosta, Northern Region, MST 3877, Malta",
        "road": "Triq Gio Maria Camilleri",
        "house_number": "48",
        "neighbourhood": "Tal-Ħanżira",
        "suburb": null,
        "city_district": null,
        "city": "Mosta",
        "state": "Northern Region",
        "postcode": "MST 3877",
        "country": "Malta",
        "country_code": "mt"
      },
      "address": "48 Triq Gio Maria Camilleri, Mosta, Northern Region, Malta"
    },
    {
      "lat": 35.92258624508207,
      "lon": 14.437180150756852,
      "geoinfo": {
        "display_name": "Triq il-Fortizza tal-Mosta, San Pawl tat-Tarġa, Naxxar, Northern Region, NXR 6712, Malta",
        "road": "Triq il-Fortizza tal-Mosta",
        "house_number": null,
        "neighbourhood": null,
        "suburb": null,
        "city_district": null,
        "city": "Naxxar",
        "state": "Northern Region",
        "postcode": "NXR 6712",
        "country": "Malta",
        "country_code": "mt"
      },
      "address": "Triq il-Fortizza tal-Mosta, Mosta, Northern Region, Malta"
    },
    {
      "lat": 35.916131519871115,
      "lon": 14.429774402274978,
      "geoinfo": {
        "display_name": "Triq l-Għadajjar, Santa Margerita, Mosta, Northern Region, MST 4000, Malta",
        "road": "Triq l-Għadajjar",
        "house_number": null,
        "neighbourhood": null,
        "suburb": null,
        "city_district": null,
        "city": "Mosta",
        "state": "Northern Region",
        "postcode": "MST 4000",
        "country": "Malta",
        "country_code": "mt"
      },
      "address": "Triq l-Għadajjar, Mosta, Northern Region, Malta"
    },
    {
      "lat": 35.92389919131051,
      "lon": 14.386278756180458,
      "geoinfo": {
        "display_name": "Triq il-Bidnija, Iż-Żebbiegħ, Mġarr, Northern Region, MGR 1502, Malta",
        "road": "Triq il-Bidnija",
        "house_number": null,
        "neighbourhood": null,
        "suburb": null,
        "city_district": null,
        "city": "Mġarr",
        "state": "Northern Region",
        "postcode": "MGR 1502",
        "country": "Malta",
        "country_code": "mt"
      },
      "address": "Triq il-Bidnija, Mosta, Northern Region, Malta"
    },
    {
      "lat": 35.895959043932415,
      "lon": 14.473348109380211,
      "geoinfo": {
        "display_name": "Triq il-Vittmi tal-Gwerra, Fleur-de-Lys, Birkirkara, Central Region, BKR 3089, Malta",
        "road": "Triq il-Vittmi tal-Gwerra",
        "house_number": null,
        "neighbourhood": null,
        "suburb": null,
        "city_district": null,
        "city": "Birkirkara",
        "state": "Central Region",
        "postcode": "BKR 3089",
        "country": "Malta",
        "country_code": "mt"
      },
      "address": "973, Triq il-Vittmi tal-Gwerra, Fleur-de-Lys, Birkirkara, Central Region, BKR 3089, Malta"
    },
    {
      "lat": 35.90090053823608,
      "lon": 14.459862766887467,
      "geoinfo": {
        "display_name": "Triq Ignatio Saverio Mifsud, Birkirkara, Central Region, BKR 9046, Malta",
        "road": "Triq Ignatio Saverio Mifsud",
        "house_number": null,
        "neighbourhood": null,
        "suburb": null,
        "city_district": null,
        "city": "Birkirkara",
        "state": "Central Region",
        "postcode": "BKR 9046",
        "country": "Malta",
        "country_code": "mt"
      },
      "address": "286, Triq Ignatio Saverio Mifsud, Birkirkara, Central Region, BKR 9046, Malta"
    },
    {
      "lat": 35.930771563916934,
      "lon": 14.399187232468243,
      "geoinfo": {
        "display_name": "Saint Paul's Bay, Northern Region, SPB 6101, Malta",
        "road": null,
        "house_number": null,
        "neighbourhood": null,
        "suburb": null,
        "city_district": null,
        "city": "Saint Paul's Bay",
        "state": "Northern Region",
        "postcode": "SPB 6101",
        "country": "Malta",
        "country_code": "mt"
      },
      "address": "892, Mosta, SPB 6101 Northern Region, Malta"
    },
    {
      "lat": 35.9068993104846,
      "lon": 14.412055539643303,
      "geoinfo": {
        "display_name": "Triq l-Għansal Ikħal, Taċ-Ċawla, Mosta, Northern Region, MST 9072, Malta",
        "road": "Triq l-Għansal Ikħal",
        "house_number": null,
        "neighbourhood": "Taċ-Ċawla",
        "suburb": null,
        "city_district": null,
        "city": "Mosta",
        "state": "Northern Region",
        "postcode": "MST 9072",
        "country": "Malta",
        "country_code": "mt"
      },
      "address": "650, Triq l-Għansal Ikħal, Taċ-Ċawla, Mosta, Northern Region, MST 9072, Malta"
    },
    {
      "lat": 35.90535999969298,
      "lon": 14.411287174176026,
      "geoinfo": {
        "display_name": "Triq il-Kaħwiela, Taċ-Ċawla, Mosta, Northern Region, MST 9072, Malta",
        "road": "Triq il-Kaħwiela",
        "house_number": null,
        "neighbourhood": "Taċ-Ċawla",
        "suburb": null,
        "city_district": null,
        "city": "Mosta",
        "state": "Northern Region",
        "postcode": "MST 9072",
        "country": "Malta",
        "country_code": "mt"
      },
      "address": "789, Triq il-Kaħwiela, Taċ-Ċawla, Mosta, Northern Region, MST 9072, Malta"
    },
    {
      "lat": 35.92686348211277,
      "lon": 14.441360556187828,
      "geoinfo": {
        "display_name": "Triq il-Widna Radar, San Pawl tat-Tarġa, Baħar iċ-Ċagħaq, Naxxar, Northern Region, GHR 1305, Malta",
        "road": "Triq il-Widna Radar",
        "house_number": null,
        "neighbourhood": null,
        "suburb": null,
        "city_district": null,
        "city": "Naxxar",
        "state": "Northern Region",
        "postcode": "GHR 1305",
        "country": "Malta",
        "country_code": "mt"
      },
      "address": "159, Triq il-Widna Radar, San Pawl tat-Tarġa, Baħar iċ-Ċagħaq, Naxxar, Northern Region, GHR 1305, Malta"
    },
    {
      "lat": 35.935082019212224,
      "lon": 14.425849596169723,
      "geoinfo": {
        "display_name": "Naxxar, Northern Region, NXR 6057, Malta",
        "road": null,
        "house_number": null,
        "neighbourhood": null,
        "suburb": null,
        "city_district": null,
        "city": "Naxxar",
        "state": "Northern Region",
        "postcode": "NXR 6057",
        "country": "Malta",
        "country_code": "mt"
      },
      "address": "315, Mosta, NXR 6057 Northern Region, Malta"
    }
  ],
  "updated_at": "2025-10-19T04:25:32.581456+00:00",
  "_kind": "geo_samples"
}