{
  "country_code": "MT",
  "country": "Malta",
  "city": "Qormi",
  "geonameid": 2562629,
  "target_addresses": 15,
  "samples": [
    {
      "lat": 35.887965213759614,
      "lon": 14.458517057678725,
      "geoinfo": {
        "display_name": "Qormi, Southern Region, BKR 3000, Malta",
        "road": null,
        "house_number": null,
        "neighbourhood": null,
        "suburb": null,
        "city_district": null,
        "city": "Qormi",
        "state": "Southern Region",
        "postcode": "BKR 3000",
        "country": "Malta",
        "country_code": "mt"
      },
      "address": "Qormi, Southern Region, Malta"
    },
    {
      "lat": 35.84556184945932,
      "lon": 14.481379635748992,
      "geoinfo": {
        "display_name": "Triq il-Belt Valletta, Kirkop, Southern Region, ZRQ 1089, Malta",
        "road": "Triq il-Belt Valletta",
        "house_number": null,
        "neighbourhood": null,
        "suburb": null,
        "city_district": null,
        "city": "Kirkop",
        "state": "Southern Region",
        "postcode": "ZRQ 1089",
        "country": "Malta",
        "country_code": "mt"
      },
      "address": "Triq il-Belt Valletta, Qormi, Southern Region, Malta"
    },
    {
      "lat": 35.86533087967146,
      "lon": 14.47045957561653,
      "geoinfo": {
        "display_name": "Tal-Ħandaq, Qormi, Southern Region, LQA 1039, Malta",
        "road": null,
        "house_number": null,
        "neighbourhood": null,
        "suburb": "Tal-Ħandaq",
        "city_district": null,
        "city": "Qormi",
        "state": "Southern Region",
        "postcode": "LQA 1039",
        "country": "Malta",
        "country_code": "mt"
      },
      "address": "Tal-Ħandaq, Qormi, Southern Region, Malta"
    },
    {
      "lat": 35.88103473519367,
      "lon": 14.420982558975018,
      "geoinfo": {
        "display_name": "Ħal Muxi, Żebbuġ, Southern Region, ATD 4000, Malta",
        "road": null,
        "house_number": null,
        "neighbourhood": null,
        "suburb": "Ħal Muxi",
        "city_district": null,
        "city": "Żebbuġ",
        "state": "Southern Region",
        "postcode": "ATD 4000",
        "country": "Malta",
        "country_code": "mt"
      },
      "address": "Ħal Muxi, Qormi, Southern Region, Malta"
    },
    {
      "lat": 35.873375745593535,
      "lon": 14.46859254735576,
      "geoinfo": {
        "display_name": "Triq Manwel Borg Gauci, Tal-Ħandaq, Qormi, Southern Region, QRM 2503, Malta",
        "road": "Triq Manwel Borg Gauci",
        "house_number": null,
        "neighbourhood": null,
        "suburb": "Tal-Ħandaq",
        "city_district": null,
        "city": "Qormi",
        "state": "Southern Region",
        "postcode": "QRM 2503",
        "country": "Malta",
        "country_code": "mt"
      },
      "address": "Triq Manwel Borg Gauci, Qormi, Southern Region, Malta"
    },
    {
      "lat": 35.85391535568324,
      "lon": 14.439179359764154,
      "geoinfo": {
        "display_name": "Mallia Petrol Station LTD, 77, Triq id-Dejqa, Is-Siġġiewi, Siġġiewi, Southern Region, SGW 1071, Malta",
        "road": "Triq id-Dejqa",
        "house_number": "77",
        "neighbourhood": null,
        "suburb": null,
        "city_district": null,
        "city": "Siġġiewi",
        "state": "Southern Region",
        "postcode": "SGW 1071",
        "country": "Malta",
        "country_code": "mt"
      },
      "address": "77 Triq id-Dejqa, Qormi, Southern Region, Malta"
    },
    {
      "lat": 35.87801754426173,
      "lon": 14.435433943428135,
      "geoinfo": {
        "display_name": "Saint Dorothy's Convent School, Mdina Road, Ħal Muxi, Żebbuġ, Southern Region, ZBG 1420, Malta",
        "road": "Mdina Road",
        "house_number": null,
        "neighbourhood": null,
        "suburb": "Ħal Muxi",
        "city_district": null,
        "city": "Żebbuġ",
        "state": "Southern Region",
        "postcode": "ZBG 1420",
        "country": "Malta",
        "country_code": "mt"
      },
      "address": "Mdina Road, Qormi, Southern Region, Malta"
    },
    {
      "lat": 35.88752764515041,
      "lon": 14.447782107372511,
      "geoinfo": {
        "display_name": "Triq ta' Qassati, Attard, Central Region, ATD 9038, Malta",
        "road": "Triq ta' Qassati",
        "house_number": null,
        "neighbourhood": null,
        "suburb": null,
        "city_district": null,
        "city": "Attard",
        "state": "Central Region",
        "postcode": "ATD 9038",
        "country": "Malta",
        "country_code": "mt"
      },
      "address": "Triq ta' Qassati, Qormi, Central Region, Malta"
    },
    {
      "lat": 35.865381067955674,
      "lon": 14.43905324897666,
      "geoinfo": {
        "display_name": "Ħal Dwin, Żebbuġ, Southern Region, ZBG 1011, Malta",
        "road": null,
        "house_number": null,
        "neighbourhood": null,
        "suburb": "Ħal Dwin",
        "city_district": null,
        "city": "Żebbuġ",
        "state": "Southern Region",
        "postcode": "ZBG 1011",
        "country": "Malta",
        "country_code": "mt"
      },
      "address": "Ħal Dwin, Qormi, Southern Region, Malta"
    },
    {
      "lat": 35.883323304780724,
      "lon": 14.431747467326078,
      "geoinfo": {
        "display_name": "Attard, Central Region, ZBG 1609, Malta",
        "road": null,
        "house_number": null,
        "neighbourhood": null,
        "suburb": null,
        "city_district": null,
        "city": "Attard",
        "state": "Central Region",
        "postcode": "ZBG 1609",
        "country": "Malta",
        "country_code": "mt"
      },
      "address": "Qormi, Central Region, Malta"
    },
    {
      "lat": 35.86646183191998,
      "lon": 14.482696363532892,
      "geoinfo": {
        "display_name": "Qormi Road, Luqa, Southern Region, LQA 3301, Malta",
        "road": "Qormi Road",
        "house_number": null,
        "neighbourhood": null,
        "suburb": null,
        "city_district": null,
        "city": "Luqa",
        "state": "Southern Region",
        "postcode": "LQA 3301",
        "country": "Malta",
        "country_code": "mt"
      },
      "address": "Qormi Road, Qormi, Southern Region, Malta"
    },
    {
      "lat": 35.87019652444256,
      "lon": 14.457565073384075,
      "geoinfo": {
        "display_name": "Sqaq ta' Ħal Mula, Ħal Mula, Żebbuġ, Southern Region, ZBG 9019, Malta",
        "road": "Sqaq ta' Ħal Mula",
        "house_number": null,
        "neighbourhood": null,
        "suburb": "Ħal Mula",
        "city_district": null,
        "city": "Żebbuġ",
        "state": "Southern Region",
        "postcode": "ZBG 9019",
        "country": "Malta",
        "country_code": "mt"
      },
      "address": "Sqaq ta' Ħal Mula, Qormi, Southern Region, Malta"
    },
    {
      "lat": 35.878955561495395,
      "lon": 14.453307504789741,
      "geoinfo": {
        "display_name": "Triq Tal-Ħlas, Qormi, Southern Region, ZBG 9019, Malta",
        "road": "Triq Tal-Ħlas",
        "house_number": null,
        "neighbourhood": null,
        "suburb": null,
        "city_district": null,
        "city": "Qormi",
        "state": "Southern Region",
        "postcode": "ZBG 9019",
        "country": "Malta",
        "country_code": "mt"
      },
      "address": "Triq Tal-Ħlas, Qormi, Southern Region, Malta"
    },
    {
      "lat": 35.8681882244343,
      "lon": 14.503210787183198,
      "geoinfo": {
        "display_name": "Paola, South Eastern Region, PLA 1411, Malta",
        "road": null,
        "house_number": null,
        "neighbourhood": null,
        "suburb": null,
        "city_district": null,
        "city": "Paola",
        "state": "South Eastern Region",
        "postcode": "PLA 1411",
        "country": "Malta",
        "country_code": "mt"
      },
      "address": "Qormi, South Eastern Region, Malta"
    },
    {
      "lat": 35.84715329396838,
      "lon": 14.496126583975567,
      "geoinfo": {
        "display_name": "Malta International Airport, 31;117, Żurrieq, Southern Region, ZRQ 1089, Malta",
        "road": "31;117",
        "house_number": null,
        "neighbourhood": null,
        "suburb": null,
        "city_district": null,
        "city": "Żurrieq",
        "state": "Southern Region",
        "postcode": "ZRQ 1089",
        "country": "Malta",
        "country_code": "mt"
      },
      "address": "31;117, Qormi, Southern Region, Malta"
    },
    {
      "lat": 35.88040103519456,
      "lon": 14.430536324838576,
      "geoinfo": {
        "display_name": "Mdina Road, Żebbuġ, Southern Region, ZBG 1420, Malta",
        "road": "Mdina Road",
        "house_number": null,
        "neighbourhood": null,
        "suburb": null,
        "city_district": null,
        "city": "Żebbuġ",
        "state": "Southern Region",
        "postcode": "ZBG 1420",
        "country": "Malta",
        "country_code": "mt"
      },
      "address": "534, Mdina Road, Qormi, ZBG 1420 Southern Region, Malta"
    },
    {
      "lat": 35.890657342928826,
      "lon": 14.459974384861068,
      "geoinfo": {
        "display_name": "Triq l-Għadam, L-Imrieħel, Birkirkara, Central Region, BKR 1810, Malta",
        "road": "Triq l-Għadam",
        "house_number": null,
        "neighbourhood": null,
        "suburb": "L-Imrieħel",
        "city_district": null,
        "city": "Birkirkara",
        "state": "Central Region",
        "postcode": "BKR 1810",
        "country": "Malta",
        "country_code": "mt"
      },
      "address": "827, Triq l-Għadam, L-Imrieħel, Birkirkara, Central Region, BKR 1810, Malta"
    },
    {
      "lat": 35.83493360561579,
      "lon": 14.486710853239474,
      "geoinfo": {
        "display_name": "Triq San Ġwann, Safi, Southern Region, ZRQ 1089, Malta",
        "road": "Triq San Ġwann",
        "house_number": null,
        "neighbourhood": null,
        "suburb": null,
        "city_district": null,
        "city": "Safi",
        "state": "Southern Region",
        "postcode": "ZRQ 1089",
        "country": "Malta",
        "country_code": "mt"
      },
      "address": "602, Triq San Ġwann, Safi, Southern Region, ZRQ 1089, Malta"
    },
    {
      "lat": 35.857635196073204,
      "lon": 14.516621267785956,
      "geoinfo": {
        "display_name": "Triq il-Belt Valletta, Għaxaq, Southern Region, ZTN 9090, Malta",
        "road": "Triq il-Belt Valletta",
        "house_number": null,
        "neighbourhood": null,
        "suburb": null,
        "city_district": null,
        "city": "Għaxaq",
        "state": "Southern Region",
        "postcode": "ZTN 9090",
        "country": "Malta",
        "country_code": "mt"
      },
      "address": "569, Triq il-Belt Valletta, Għaxaq, Southern Region, ZTN 9090, Malta"
    },
    {
      "lat": 35.90926254445517,
      "lon": 14.482778326062313,
      "geoinfo": {
        "display_name": "Triq il-Kuċċard, San Ġwann, Central Region, SGN 9033, Malta",
        "road": "Triq il-Kuċċard",
        "house_number": null,
        "neighbourhood": null,
        "suburb": null,
        "city_district": null,
        "city": "San Ġwann",
        "state": "Central Region",
        "postcode": "SGN 9033",
        "country": "Malta",
        "country_code": "mt"
      },
      "address": "064, Triq il-Kuċċard, San Ġwann, Central Region, SGN 9033, Malta"
    },
    {
      "lat": 35.89951186369571,
      "lon": 14.50839975173418,
      "geoinfo": {
        "display_name": "Mill Street, Valletta, South Eastern Region, VLT 1105, Malta",
        "road": "Mill Street",
        "house_number": null,
        "neighbourhood": null,
        "suburb": null,
        "city_district": null,
        "city": "Valletta",
        "state": "South Eastern Region",
        "postcode": "VLT 1105",
        "country": "Malta",
        "country_code": "mt"
      },
      "address": "912, Mill Street, Valletta, South Eastern Region, VLT 1105, Malta"
    },
    {
      "lat": 35.87721225722913,
      "lon": 14.4439857849635,
      "geoinfo": {
        "display_name": "Mdina Road, Ta' Żaruna, Żebbuġ, Southern Region, ZBG 1652, Malta",
        "road": "Mdina Road",
        "house_number": null,
        "neighbourhood": null,
        "suburb": "Ta' Żaruna",
        "city_district": null,
        "city": "Żebbuġ",
        "state": "Southern Region",
        "postcode": "ZBG 1652",
        "country": "Malta",
        "country_code": "mt"
      },
      "address": "346, Mdina Road, Qormi, ZBG 1652 Southern Region, Malta"
    },
    {
      "lat": 35.87960421767832,
      "lon": 14.468861478465355,
      "geoinfo": {
        "display_name": "Skola Primarja Qormi San Ġorġ, Triq Cappadocia, Tal-Ħandaq, Qormi, Southern Region, QRM 2503, Malta",
        "road": "Triq Cappadocia",
        "house_number": null,
        "neighbourhood": null,
        "suburb": "Tal-Ħandaq",
        "city_district": null,
        "city": "Qormi",
        "state": "Southern Region",
        "postcode": "QRM 2503",
        "country": "Malta",
        "country_code": "mt"
      },
      "address": "818, Triq Cappadocia, Qormi, QRM 2503 Southern Region, Malta"
    }
  ],
  "updated_at": "2025-10-19T06:10:21.265394+00:00",
  "_kind": "geo_samples"
}