{
  "country_code": "MT",
  "country": "Malta",
  "city": "Valletta",
  "geonameid": 2562305,
  "target_addresses": 15,
  "samples": [
    {
      "lat": 35.914541853442685,
      "lon": 14.51780288289611,
      "geoinfo": {
        "display_name": "Camarata, L-Arċipierku, Valletta, South Eastern Region, VLT 1645, Malta",
        "road": null,
        "house_number": null,
        "neighbourhood": "Camarata",
        "suburb": null,
        "city_district": null,
        "city": "Valletta",
        "state": "South Eastern Region",
        "postcode": "VLT 1645",
        "country": "Malta",
        "country_code": "mt"
      },
      "address": "Camarata, Valletta, South Eastern Region, Malta"
    },
    {
      "lat": 35.894975514567264,
      "lon": 14.556466439619788,
      "geoinfo": {
        "display_name": "San Leonardo, Żabbar, South Eastern Region, ZBR 2853, Malta",
        "road": null,
        "house_number": null,
        "neighbourhood": null,
        "suburb": null,
        "city_district": null,
        "city": "Żabbar",
        "state": "South Eastern Region",
        "postcode": "ZBR 2853",
        "country": "Malta",
        "country_code": "mt"
      },
      "address": "Valletta, South Eastern Region, Malta"
    },
    {
      "lat": 35.92089549371865,
      "lon": 14.516535515759248,
      "geoinfo": {
        "display_name": "Il-Fossa, Valletta, South Eastern Region, VLT 1820, Malta",
        "road": null,
        "house_number": null,
        "neighbourhood": "Il-Fossa",
        "suburb": null,
        "city_district": null,
        "city": "Valletta",
        "state": "South Eastern Region",
        "postcode": "VLT 1820",
        "country": "Malta",
        "country_code": "mt"
      },
      "address": "Il-Fossa, Valletta, South Eastern Region, Malta"
    },
    {
      "lat": 35.86672963009781,
      "lon": 14.53590903579173,
      "geoinfo": {
        "display_name": "Triq San Ġużepp, Qasam tad-Djar ta' Bulebel, Żabbar, South Eastern Region, ZBR 1503, Malta",
        "road": "Triq San Ġużepp",
        "house_number": null,
        "neighbourhood": null,
        "suburb": "Qasam tad-Djar ta' Bulebel",
        "city_district": null,
        "city": "Żabbar",
        "state": "South Eastern Region",
        "postcode": "ZBR 1503",
        "country": "Malta",
        "country_code": "mt"
      },
      "address": "Triq San Ġużepp, Valletta, South Eastern Region, Malta"
    },
    {
      "lat": 35.896275614672994,
      "lon": 14.511687995057903,
      "geoinfo": {
        "display_name": "National Lottery, Melita Street, L-Arċipierku, Valletta, South Eastern Region, VLT 1111, Malta",
        "road": "Melita Street",
        "house_number": null,
        "neighbourhood": "L-Arċipierku",
        "suburb": null,
        "city_district": null,
        "city": "Valletta",
        "state": "South Eastern Region",
        "postcode": "VLT 1111",
        "country": "Malta",
        "country_code": "mt"
      },
      "address": "Melita Street, Valletta, South Eastern Region, Malta"
    },
    {
      "lat": 35.879612509520896,
      "lon": 14.511768533327055,
      "geoinfo": {
        "display_name": "8, Paola, South Eastern Region, PLA 1962, Malta",
        "road": "8",
        "house_number": null,
        "neighbourhood": null,
        "suburb": null,
        "city_district": null,
        "city": "Paola",
        "state": "South Eastern Region",
        "postcode": "PLA 1962",
        "country": "Malta",
        "country_code": "mt"
      },
      "address": "8, Valletta, South Eastern Region, Malta"
    },
    {
      "lat": 35.871360939200635,
      "lon": 14.490132210119182,
      "geoinfo": {
        "display_name": "Valletta Road, Qasam Industrijali tal-Marsa, Marsa, South Eastern Region, MRS 3000, Malta",
        "road": "Valletta Road",
        "house_number": null,
        "neighbourhood": null,
        "suburb": null,
        "city_district": null,
        "city": "Marsa",
        "state": "South Eastern Region",
        "postcode": "MRS 3000",
        "country": "Malta",
        "country_code": "mt"
      },
      "address": "170, Valletta Road, Qasam Industrijali tal-Marsa, Marsa, South Eastern Region, MRS 3000, Malta"
    },
    {
      "lat": 35.90205009287814,
      "lon": 14.534013345174845,
      "geoinfo": {
        "display_name": "Ix-Xewkija, Kalkara, South Eastern Region, BRG 1105, Malta",
        "road": null,
        "house_number": null,
        "neighbourhood": null,
        "suburb": null,
        "city_district": null,
        "city": "Kalkara",
        "state": "South Eastern Region",
        "postcode": "BRG 1105",
        "country": "Malta",
        "country_code": "mt"
      },
      "address": "099, Valletta, BRG 1105 South Eastern Region, Malta"
    },
    {
      "lat": 35.88626785457745,
      "lon": 14.486211814204601,
      "geoinfo": {
        "display_name": "Triq San Gejtanu, Hamrun, Southern Region, HMR 1760, Malta",
        "road": "Triq San Gejtanu",
        "house_number": null,
        "neighbourhood": null,
        "suburb": null,
        "city_district": null,
        "city": "Hamrun",
        "state": "Southern Region",
        "postcode": "HMR 1760",
        "country": "Malta",
        "country_code": "mt"
      },
      "address": "056, Triq San Gejtanu, Hamrun, Southern Region, HMR 1760, Malta"
    },
    {
      "lat": 35.8958871002407,
      "lon": 14.475033747212404,
      "geoinfo": {
        "display_name": "Triq il-Vittmi tal-Gwerra, Fleur-de-Lys, Birkirkara, Central Region, BKR 3089, Malta",
        "road": "Triq il-Vittmi tal-Gwerra",
        "house_number": null,
        "neighbourhood": null,
        "suburb": null,
        "city_district": null,
        "city": "Birkirkara",
        "state": "Central Region",
        "postcode": "BKR 3089",
        "country": "Malta",
        "country_code": "mt"
      },
      "address": "624, Triq il-Vittmi tal-Gwerra, Fleur-de-Lys, Birkirkara, Central Region, BKR 3089, Malta"
    },
    {
      "lat": 35.896368371047835,
      "lon": 14.550934427584705,
      "geoinfo": {
        "display_name": "San Leonardo, Żabbar, South Eastern Region, ZBR 2853, Malta",
        "road": null,
        "house_number": null,
        "neighbourhood": null,
        "suburb": null,
        "city_district": null,
        "city": "Żabbar",
        "state": "South Eastern Region",
        "postcode": "ZBR 2853",
        "country": "Malta",
        "country_code": "mt"
      },
      "address": "574, San Leonardo, Żabbar, South Eastern Region, ZBR 2853, Malta"
    }
  ],
  "updated_at": "2025-10-19T06:05:36.247054+00:00",
  "_kind": "geo_samples"
}