{
  "country_code": "MT",
  "country": "Malta",
  "city": "Żabbar",
  "geonameid": 2562266,
  "target_addresses": 15,
  "samples": [
    {
      "lat": 35.9001297969155,
      "lon": 14.554992411493133,
      "geoinfo": {
        "display_name": "Qasam tad-Djar ta' Bulebel, Żabbar, South Eastern Region, FGR 2131, Malta",
        "road": null,
        "house_number": null,
        "neighbourhood": null,
        "suburb": "Qasam tad-Djar ta' Bulebel",
        "city_district": null,
        "city": "Żabbar",
        "state": "South Eastern Region",
        "postcode": "FGR 2131",
        "country": "Malta",
        "country_code": "mt"
      },
      "address": "Qasam tad-Djar ta' Bulebel, Żabbar, South Eastern Region, Malta"
    },
    {
      "lat": 35.86343920394492,
      "lon": 14.546235163394599,
      "geoinfo": {
        "display_name": "Triq Wied il-Għajn, Marsascala, South Eastern Region, MSK 4613, Malta",
        "road": "Triq Wied il-Għajn",
        "house_number": null,
        "neighbourhood": null,
        "suburb": null,
        "city_district": null,
        "city": "Marsascala",
        "state": "South Eastern Region",
        "postcode": "MSK 4613",
        "country": "Malta",
        "country_code": "mt"
      },
      "address": "Triq Wied il-Għajn, Żabbar, South Eastern Region, Malta"
    },
    {
      "lat": 35.881327339785074,
      "lon": 14.518338936182289,
      "geoinfo": {
        "display_name": "Triq Feliċ, Cospicua, South Eastern Region, BML 2064, Malta",
        "road": "Triq Feliċ",
        "house_number": null,
        "neighbourhood": null,
        "suburb": null,
        "city_district": null,
        "city": "Cospicua",
        "state": "South Eastern Region",
        "postcode": "BML 2064",
        "country": "Malta",
        "country_code": "mt"
      },
      "address": "Triq Feliċ, Żabbar, South Eastern Region, Malta"
    },
    {
      "lat": 35.87372530260792,
      "lon": 14.585077585290179,
      "geoinfo": {
        "display_name": "Iż-Żonqor, Marsascala, South Eastern Region, MSK 3043, Malta",
        "road": null,
        "house_number": null,
        "neighbourhood": null,
        "suburb": null,
        "city_district": null,
        "city": "Marsascala",
        "state": "South Eastern Region",
        "postcode": "MSK 3043",
        "country": "Malta",
        "country_code": "mt"
      },
      "address": "Żabbar, South Eastern Region, Malta"
    },
    {
      "lat": 35.87198225335846,
      "lon": 14.54580609821973,
      "geoinfo": {
        "display_name": "Triq Ħas-Sajjied, Qasam tad-Djar ta' Bulebel, Żabbar, South Eastern Region, ZBR 2853, Malta",
        "road": "Triq Ħas-Sajjied",
        "house_number": null,
        "neighbourhood": null,
        "suburb": "Qasam tad-Djar ta' Bulebel",
        "city_district": null,
        "city": "Żabbar",
        "state": "South Eastern Region",
        "postcode": "ZBR 2853",
        "country": "Malta",
        "country_code": "mt"
      },
      "address": "Triq Ħas-Sajjied, Żabbar, South Eastern Region, Malta"
    },
    {
      "lat": 35.869469367378194,
      "lon": 14.544160222315293,
      "geoinfo": {
        "display_name": "Trejqet Wied ta' Mazza, Qasam tad-Djar ta' Bulebel, Żabbar, South Eastern Region, MSK 4613, Malta",
        "road": "Trejqet Wied ta' Mazza",
        "house_number": null,
        "neighbourhood": null,
        "suburb": "Qasam tad-Djar ta' Bulebel",
        "city_district": null,
        "city": "Żabbar",
        "state": "South Eastern Region",
        "postcode": "MSK 4613",
        "country": "Malta",
        "country_code": "mt"
      },
      "address": "Trejqet Wied ta' Mazza, Żabbar, South Eastern Region, Malta"
    },
    {
      "lat": 35.8797763820099,
      "lon": 14.564668440595524,
      "geoinfo": {
        "display_name": "Torri ta' Triq il-Wiesgħa / Torri Mwieġen, Triq il-Wiesgħa, Żabbar, South Eastern Region, MSK 3043, Malta",
        "road": "Triq il-Wiesgħa",
        "house_number": null,
        "neighbourhood": null,
        "suburb": null,
        "city_district": null,
        "city": "Żabbar",
        "state": "South Eastern Region",
        "postcode": "MSK 3043",
        "country": "Malta",
        "country_code": "mt"
      },
      "address": "Triq il-Wiesgħa, Żabbar, South Eastern Region, Malta"
    },
    {
      "lat": 35.871985217888906,
      "lon": 14.533505833515088,
      "geoinfo": {
        "display_name": "Triq Sant' Antnin, Żabbar, Qasam tad-Djar ta' Bulebel, Żabbar, South Eastern Region, ZBR 1503, Malta",
        "road": "Triq Sant' Antnin",
        "house_number": null,
        "neighbourhood": null,
        "suburb": "Qasam tad-Djar ta' Bulebel",
        "city_district": null,
        "city": "Żabbar",
        "state": "South Eastern Region",
        "postcode": "ZBR 1503",
        "country": "Malta",
        "country_code": "mt"
      },
      "address": "Triq Sant' Antnin, Żabbar, South Eastern Region, Malta"
    },
    {
      "lat": 35.85305614047166,
      "lon": 14.527589243598994,
      "geoinfo": {
        "display_name": "Iż-Żejtun - Farrugia, Triq il-Labour, Żejtun, South Eastern Region, ZTN 1414, Malta",
        "road": "Triq il-Labour",
        "house_number": null,
        "neighbourhood": null,
        "suburb": null,
        "city_district": null,
        "city": "Żejtun",
        "state": "South Eastern Region",
        "postcode": "ZTN 1414",
        "country": "Malta",
        "country_code": "mt"
      },
      "address": "Triq il-Labour, Żabbar, South Eastern Region, Malta"
    },
    {
      "lat": 35.88436220855082,
      "lon": 14.560444903836387,
      "geoinfo": {
        "display_name": "Trejqet il-Fortizza, Żabbar, South Eastern Region, ZBR 2853, Malta",
        "road": "Trejqet il-Fortizza",
        "house_number": null,
        "neighbourhood": null,
        "suburb": null,
        "city_district": null,
        "city": "Żabbar",
        "state": "South Eastern Region",
        "postcode": "ZBR 2853",
        "country": "Malta",
        "country_code": "mt"
      },
      "address": "Trejqet il-Fortizza, Żabbar, South Eastern Region, Malta"
    },
    {
      "lat": 35.88102058110855,
      "lon": 14.536765201976854,
      "geoinfo": {
        "display_name": "Triq il-Għasel, Qasam tad-Djar ta' Bulebel, Żabbar, South Eastern Region, ZBR 1800, Malta",
        "road": "Triq il-Għasel",
        "house_number": null,
        "neighbourhood": null,
        "suburb": "Qasam tad-Djar ta' Bulebel",
        "city_district": null,
        "city": "Żabbar",
        "state": "South Eastern Region",
        "postcode": "ZBR 1800",
        "country": "Malta",
        "country_code": "mt"
      },
      "address": "Triq il-Għasel, Żabbar, South Eastern Region, Malta"
    },
    {
      "lat": 35.869331100184496,
      "lon": 14.535400542193525,
      "geoinfo": {
        "display_name": "Triq San Ġużepp, Qasam tad-Djar ta' Bulebel, Żabbar, South Eastern Region, ZBR 1503, Malta",
        "road": "Triq San Ġużepp",
        "house_number": null,
        "neighbourhood": null,
        "suburb": "Qasam tad-Djar ta' Bulebel",
        "city_district": null,
        "city": "Żabbar",
        "state": "South Eastern Region",
        "postcode": "ZBR 1503",
        "country": "Malta",
        "country_code": "mt"
      },
      "address": "Triq San Ġużepp, Żabbar, South Eastern Region, Malta"
    },
    {
      "lat": 35.87127706574417,
      "lon": 14.50547371855865,
      "geoinfo": {
        "display_name": "Triq il-Foss, Paola, South Eastern Region, PLA 1116, Malta",
        "road": "Triq il-Foss",
        "house_number": null,
        "neighbourhood": null,
        "suburb": null,
        "city_district": null,
        "city": "Paola",
        "state": "South Eastern Region",
        "postcode": "PLA 1116",
        "country": "Malta",
        "country_code": "mt"
      },
      "address": "Triq il-Foss, Żabbar, South Eastern Region, Malta"
    },
    {
      "lat": 35.881110895152226,
      "lon": 14.53717074182771,
      "geoinfo": {
        "display_name": "Triq Nicholas Cottoner, Qasam tad-Djar ta' Bulebel, Żabbar, South Eastern Region, ZBR 1800, Malta",
        "road": "Triq Nicholas Cottoner",
        "house_number": null,
        "neighbourhood": null,
        "suburb": "Qasam tad-Djar ta' Bulebel",
        "city_district": null,
        "city": "Żabbar",
        "state": "South Eastern Region",
        "postcode": "ZBR 1800",
        "country": "Malta",
        "country_code": "mt"
      },
      "address": "Triq Nicholas Cottoner, Żabbar, South Eastern Region, Malta"
    },
    {
      "lat": 35.881086974384765,
      "lon": 14.53421690887241,
      "geoinfo": {
        "display_name": "Trejqet San Luigi, Qasam tad-Djar ta' Bulebel, Żabbar, South Eastern Region, ZBR 1800, Malta",
        "road": "Trejqet San Luigi",
        "house_number": null,
        "neighbourhood": null,
        "suburb": "Qasam tad-Djar ta' Bulebel",
        "city_district": null,
        "city": "Żabbar",
        "state": "South Eastern Region",
        "postcode": "ZBR 1800",
        "country": "Malta",
        "country_code": "mt"
      },
      "address": "495, Trejqet San Luigi, Qasam tad-Djar ta' Bulebel, Żabbar, South Eastern Region, ZBR 1800, Malta"
    },
    {
      "lat": 35.87849083503831,
      "lon": 14.581300000667557,
      "geoinfo": {
        "display_name": "Iż-Żonqor, Marsascala, South Eastern Region, MSK 3043, Malta",
        "road": null,
        "house_number": null,
        "neighbourhood": null,
        "suburb": null,
        "city_district": null,
        "city": "Marsascala",
        "state": "South Eastern Region",
        "postcode": "MSK 3043",
        "country": "Malta",
        "country_code": "mt"
      },
      "address": "282, Żabbar, MSK 3043 South Eastern Region, Malta"
    },
    {
      "lat": 35.852455768282134,
      "lon": 14.531892056458036,
      "geoinfo": {
        "display_name": "Sqaq San Publiju, Żejtun, South Eastern Region, ZTN 1414, Malta",
        "road": "Sqaq San Publiju",
        "house_number": null,
        "neighbourhood": null,
        "suburb": null,
        "city_district": null,
        "city": "Żejtun",
        "state": "South Eastern Region",
        "postcode": "ZTN 1414",
        "country": "Malta",
        "country_code": "mt"
      },
      "address": "338, Sqaq San Publiju, Żejtun, South Eastern Region, ZTN 1414, Malta"
    },
    {
      "lat": 35.87129467973686,
      "lon": 14.540867911341731,
      "geoinfo": {
        "display_name": "Triq tal-Plier, Qasam tad-Djar ta' Bulebel, Żabbar, South Eastern Region, ZBR 1017, Malta",
        "road": "Triq tal-Plier",
        "house_number": null,
        "neighbourhood": null,
        "suburb": "Qasam tad-Djar ta' Bulebel",
        "city_district": null,
        "city": "Żabbar",
        "state": "South Eastern Region",
        "postcode": "ZBR 1017",
        "country": "Malta",
        "country_code": "mt"
      },
      "address": "665, Triq tal-Plier, Qasam tad-Djar ta' Bulebel, Żabbar, South Eastern Region, ZBR 1017, Malta"
    },
    {
      "lat": 35.8574936569395,
      "lon": 14.558360945950358,
      "geoinfo": {
        "display_name": "Marsascala, South Eastern Region, MSK 4070, Malta",
        "road": null,
        "house_number": null,
        "neighbourhood": null,
        "suburb": null,
        "city_district": null,
        "city": "Marsascala",
        "state": "South Eastern Region",
        "postcode": "MSK 4070",
        "country": "Malta",
        "country_code": "mt"
      },
      "address": "905, Żabbar, MSK 4070 South Eastern Region, Malta"
    },
    {
      "lat": 35.87677541038712,
      "lon": 14.586041020751033,
      "geoinfo": {
        "display_name": "Iż-Żonqor, Marsascala, South Eastern Region, MSK 3043, Malta",
        "road": null,
        "house_number": null,
        "neighbourhood": null,
        "suburb": null,
        "city_district": null,
        "city": "Marsascala",
        "state": "South Eastern Region",
        "postcode": "MSK 3043",
        "country": "Malta",
        "country_code": "mt"
      },
      "address": "918, Żabbar, MSK 3043 South Eastern Region, Malta"
    }
  ],
  "updated_at": "2025-10-19T06:02:14.187318+00:00",
  "_kind": "geo_samples"
}