{
  "country_code": "KN",
  "country": "Saint Kitts and Nevis",
  "city": "Basseterre",
  "geonameid": 3575551,
  "target_addresses": 100,
  "samples": [
    {
      "lat": 17.262743219057544,
      "lon": -62.70604045865625,
      "geoinfo": {
        "display_name": "Suncrest, Basseterre, Saint George Basseterre, Saint Kitts, Saint Kitts and Nevis",
        "road": null,
        "house_number": null,
        "neighbourhood": null,
        "suburb": "Suncrest",
        "city_district": null,
        "city": "Basseterre",
        "state": null,
        "postcode": null,
        "country": "Saint Kitts and Nevis",
        "country_code": "kn"
      },
      "address": "Suncrest, Basseterre, Saint Kitts and Nevis"
    },
    {
      "lat": 17.284275094023805,
      "lon": -62.7144101055851,
      "geoinfo": {
        "display_name": "Suncrest, Naomi Webster St., The Moorings, Suncrest, New Road, Saint George Basseterre, Saint Kitts, Saint Kitts and Nevis",
        "road": "Naomi Webster St.",
        "house_number": null,
        "neighbourhood": "The Moorings",
        "suburb": "Suncrest",
        "city_district": null,
        "city": "New Road",
        "state": null,
        "postcode": null,
        "country": "Saint Kitts and Nevis",
        "country_code": "kn"
      },
      "address": "Naomi Webster St., Basseterre, Saint Kitts and Nevis"
    },
    {
      "lat": 17.316063107985297,
      "lon": -62.750146594952575,
      "geoinfo": {
        "display_name": "Beacon Heights, Brumaire, Saint George Basseterre, Saint Kitts, Saint Kitts and Nevis",
        "road": null,
        "house_number": null,
        "neighbourhood": "Beacon Heights",
        "suburb": null,
        "city_district": null,
        "city": "Brumaire",
        "state": null,
        "postcode": null,
        "country": "Saint Kitts and Nevis",
        "country_code": "kn"
      },
      "address": "Beacon Heights, Basseterre, Saint Kitts and Nevis"
    },
    {
      "lat": 17.27397805147638,
      "lon": -62.74723936619095,
      "geoinfo": {
        "display_name": "Port Zante, Basseterre, Saint George Basseterre, Saint Kitts, Saint Kitts and Nevis",
        "road": null,
        "house_number": null,
        "neighbourhood": null,
        "suburb": "Port Zante",
        "city_district": null,
        "city": "Basseterre",
        "state": null,
        "postcode": null,
        "country": "Saint Kitts and Nevis",
        "country_code": "kn"
      },
      "address": "Port Zante, Basseterre, Saint Kitts and Nevis"
    },
    {
      "lat": 17.29728525897884,
      "lon": -62.7628147714867,
      "geoinfo": {
        "display_name": "Boyds, Trinity Palmetto Point, Saint Kitts, Saint Kitts and Nevis",
        "road": null,
        "house_number": null,
        "neighbourhood": null,
        "suburb": null,
        "city_district": null,
        "city": "Boyds",
        "state": null,
        "postcode": null,
        "country": "Saint Kitts and Nevis",
        "country_code": "kn"
      },
      "address": "Basseterre, Saint Kitts and Nevis"
    },
    {
      "lat": 17.32361427399661,
      "lon": -62.7426968904126,
      "geoinfo": {
        "display_name": "Cedar Grove, St. Peter's, Saint Peter Basseterre, Saint Kitts, Saint Kitts and Nevis",
        "road": null,
        "house_number": null,
        "neighbourhood": "Cedar Grove",
        "suburb": null,
        "city_district": null,
        "city": "St. Peter's",
        "state": null,
        "postcode": null,
        "country": "Saint Kitts and Nevis",
        "country_code": "kn"
      },
      "address": "Cedar Grove, Basseterre, Saint Kitts and Nevis"
    },
    {
      "lat": 17.302082610795924,
      "lon": -62.72588926580902,
      "geoinfo": {
        "display_name": "College Housing, Lower New Road, New Road, Saint George Basseterre, Saint Kitts, Saint Kitts and Nevis",
        "road": null,
        "house_number": null,
        "neighbourhood": "College Housing",
        "suburb": "Lower New Road",
        "city_district": null,
        "city": "New Road",
        "state": null,
        "postcode": null,
        "country": "Saint Kitts and Nevis",
        "country_code": "kn"
      },
      "address": "College Housing, Basseterre, Saint Kitts and Nevis"
    },
    {
      "lat": 17.2991821111857,
      "lon": -62.69858307807569,
      "geoinfo": {
        "display_name": "Frigate Bay Road, Suncrest, Kittian Village, Saint George Basseterre, Saint Kitts, Saint Kitts and Nevis",
        "road": "Frigate Bay Road",
        "house_number": null,
        "neighbourhood": null,
        "suburb": "Suncrest",
        "city_district": null,
        "city": "Kittian Village",
        "state": null,
        "postcode": null,
        "country": "Saint Kitts and Nevis",
        "country_code": "kn"
      },
      "address": "Frigate Bay Road, Basseterre, Saint Kitts and Nevis"
    },
    {
      "lat": 17.314821510291484,
      "lon": -62.73695102305833,
      "geoinfo": {
        "display_name": "Shadwell Estate, Lower New Road, New Road, Saint George Basseterre, Saint Kitts, Saint Kitts and Nevis",
        "road": null,
        "house_number": null,
        "neighbourhood": "Shadwell Estate",
        "suburb": "Lower New Road",
        "city_district": null,
        "city": "New Road",
        "state": null,
        "postcode": null,
        "country": "Saint Kitts and Nevis",
        "country_code": "kn"
      },
      "address": "Shadwell Estate, Basseterre, Saint Kitts and Nevis"
    },
    {
      "lat": 17.29273305747658,
      "lon": -62.73451055242605,
      "geoinfo": {
        "display_name": "Wilkin Street, Irish Town, Port Zante, Brumaire, Saint George Basseterre, Saint Kitts, Saint Kitts and Nevis",
        "road": "Wilkin Street",
        "house_number": null,
        "neighbourhood": "Irish Town",
        "suburb": "Port Zante",
        "city_district": null,
        "city": "Brumaire",
        "state": null,
        "postcode": null,
        "country": "Saint Kitts and Nevis",
        "country_code": "kn"
      },
      "address": "Wilkin Street, Basseterre, Saint Kitts and Nevis"
    },
    {
      "lat": 17.30554402150432,
      "lon": -62.71781342865944,
      "geoinfo": {
        "display_name": "Lower New Road, New Road, Saint George Basseterre, Saint Kitts, Saint Kitts and Nevis",
        "road": null,
        "house_number": null,
        "neighbourhood": null,
        "suburb": "Lower New Road",
        "city_district": null,
        "city": "New Road",
        "state": null,
        "postcode": null,
        "country": "Saint Kitts and Nevis",
        "country_code": "kn"
      },
      "address": "Lower New Road, Basseterre, Saint Kitts and Nevis"
    },
    {
      "lat": 17.298079721978926,
      "lon": -62.74432951623578,
      "geoinfo": {
        "display_name": "Dewars, Brumaire, Saint George Basseterre, Saint Kitts, Saint Kitts and Nevis",
        "road": null,
        "house_number": null,
        "neighbourhood": "Dewars",
        "suburb": null,
        "city_district": null,
        "city": "Brumaire",
        "state": null,
        "postcode": null,
        "country": "Saint Kitts and Nevis",
        "country_code": "kn"
      },
      "address": "Dewars, Basseterre, Saint Kitts and Nevis"
    },
    {
      "lat": 17.29644987864563,
      "lon": -62.707782141764895,
      "geoinfo": {
        "display_name": "Ram's, Bird Rock Road, Suncrest, Basseterre, Saint George Basseterre, Saint Kitts, Saint Kitts and Nevis",
        "road": "Bird Rock Road",
        "house_number": null,
        "neighbourhood": null,
        "suburb": "Suncrest",
        "city_district": null,
        "city": "Basseterre",
        "state": null,
        "postcode": null,
        "country": "Saint Kitts and Nevis",
        "country_code": "kn"
      },
      "address": "Bird Rock Road, Basseterre, Saint Kitts and Nevis"
    },
    {
      "lat": 17.306459783762197,
      "lon": -62.75149238665058,
      "geoinfo": {
        "display_name": "Mattingley Drive, Boyds, Trinity Palmetto Point, Saint Kitts, Saint Kitts and Nevis",
        "road": "Mattingley Drive",
        "house_number": null,
        "neighbourhood": null,
        "suburb": null,
        "city_district": null,
        "city": "Boyds",
        "state": null,
        "postcode": null,
        "country": "Saint Kitts and Nevis",
        "country_code": "kn"
      },
      "address": "Mattingley Drive, Basseterre, Saint Kitts and Nevis"
    },
    {
      "lat": 17.29390800184062,
      "lon": -62.7328465946937,
      "geoinfo": {
        "display_name": "CFBC Annex, Infirmary Road, Irish Town, Port Zante, Brumaire, Saint George Basseterre, Saint Kitts, Saint Kitts and Nevis",
        "road": "Infirmary Road",
        "house_number": null,
        "neighbourhood": "Irish Town",
        "suburb": "Port Zante",
        "city_district": null,
        "city": "Brumaire",
        "state": null,
        "postcode": null,
        "country": "Saint Kitts and Nevis",
        "country_code": "kn"
      },
      "address": "Infirmary Road, Basseterre, Saint Kitts and Nevis"
    },
    {
      "lat": 17.27753333016923,
      "lon": -62.73686854757093,
      "geoinfo": {
        "display_name": "Irish Town, Port Zante, Brumaire, Saint George Basseterre, Saint Kitts, Saint Kitts and Nevis",
        "road": null,
        "house_number": null,
        "neighbourhood": "Irish Town",
        "suburb": "Port Zante",
        "city_district": null,
        "city": "Brumaire",
        "state": null,
        "postcode": null,
        "country": "Saint Kitts and Nevis",
        "country_code": "kn"
      },
      "address": "Irish Town, Basseterre, Saint Kitts and Nevis"
    },
    {
      "lat": 17.298584538261927,
      "lon": -62.72283236296157,
      "geoinfo": {
        "display_name": "Warner Park Cricket Stadium, Park Range, College Housing, Port Zante, Basseterre, Saint George Basseterre, Saint Kitts, Saint Kitts and Nevis",
        "road": "Park Range",
        "house_number": null,
        "neighbourhood": "College Housing",
        "suburb": "Port Zante",
        "city_district": null,
        "city": "Basseterre",
        "state": null,
        "postcode": null,
        "country": "Saint Kitts and Nevis",
        "country_code": "kn"
      },
      "address": "Park Range, Basseterre, Saint Kitts and Nevis"
    },
    {
      "lat": 17.321991217036256,
      "lon": -62.69491280498541,
      "geoinfo": {
        "display_name": "Landfill Road, Conaree Beach, Upper Conaree, Saint Peter Basseterre, Saint Kitts, Saint Kitts and Nevis",
        "road": "Landfill Road",
        "house_number": null,
        "neighbourhood": null,
        "suburb": null,
        "city_district": null,
        "city": "Upper Conaree",
        "state": null,
        "postcode": null,
        "country": "Saint Kitts and Nevis",
        "country_code": "kn"
      },
      "address": "Landfill Road, Basseterre, Saint Kitts and Nevis"
    },
    {
      "lat": 17.325493955645697,
      "lon": -62.705793628719064,
      "geoinfo": {
        "display_name": "Island Main Road, Canada, Saint Peter Basseterre, Saint Kitts, Saint Kitts and Nevis",
        "road": "Island Main Road",
        "house_number": null,
        "neighbourhood": null,
        "suburb": null,
        "city_district": null,
        "city": "Canada",
        "state": null,
        "postcode": null,
        "country": "Saint Kitts and Nevis",
        "country_code": "kn"
      },
      "address": "Island Main Road, Basseterre, Saint Kitts and Nevis"
    },
    {
      "lat": 17.281849836952556,
      "lon": -62.74441392139984,
      "geoinfo": {
        "display_name": "Buckley's Estate, Brumaire, Saint George Basseterre, Saint Kitts, Saint Kitts and Nevis",
        "road": null,
        "house_number": null,
        "neighbourhood": "Buckley's Estate",
        "suburb": null,
        "city_district": null,
        "city": "Brumaire",
        "state": null,
        "postcode": null,
        "country": "Saint Kitts and Nevis",
        "country_code": "kn"
      },
      "address": "Buckley's Estate, Basseterre, Saint Kitts and Nevis"
    },
    {
      "lat": 17.291461524018313,
      "lon": -62.68338020531279,
      "geoinfo": {
        "display_name": "St. Kitts Marriott Resort, Zenway Boulevard, Kittian Village, Saint George Basseterre, Saint Kitts, Saint Kitts and Nevis",
        "road": "Zenway Boulevard",
        "house_number": null,
        "neighbourhood": null,
        "suburb": null,
        "city_district": null,
        "city": "Kittian Village",
        "state": null,
        "postcode": null,
        "country": "Saint Kitts and Nevis",
        "country_code": "kn"
      },
      "address": "Zenway Boulevard, Basseterre, Saint Kitts and Nevis"
    },
    {
      "lat": 17.28595850616575,
      "lon": -62.70170552709583,
      "geoinfo": {
        "display_name": "Courys Hill Road, The Moorings, Suncrest, Basseterre, Saint George Basseterre, Saint Kitts, Saint Kitts and Nevis",
        "road": "Courys Hill Road",
        "house_number": null,
        "neighbourhood": "The Moorings",
        "suburb": "Suncrest",
        "city_district": null,
        "city": "Basseterre",
        "state": null,
        "postcode": null,
        "country": "Saint Kitts and Nevis",
        "country_code": "kn"
      },
      "address": "Courys Hill Road, Basseterre, Saint Kitts and Nevis"
    },
    {
      "lat": 17.33334591666353,
      "lon": -62.73293743652149,
      "geoinfo": {
        "display_name": "Stapleton Village, Ogees, Saint Peter Basseterre, Saint Kitts, Saint Kitts and Nevis",
        "road": null,
        "house_number": null,
        "neighbourhood": "Stapleton Village",
        "suburb": null,
        "city_district": null,
        "city": "Ogees",
        "state": null,
        "postcode": null,
        "country": "Saint Kitts and Nevis",
        "country_code": "kn"
      },
      "address": "Stapleton Village, Basseterre, Saint Kitts and Nevis"
    },
    {
      "lat": 17.276909871025588,
      "lon": -62.69915664144395,
      "geoinfo": {
        "display_name": "The Moorings, Suncrest, Basseterre, Saint George Basseterre, Saint Kitts, Saint Kitts and Nevis",
        "road": null,
        "house_number": null,
        "neighbourhood": "The Moorings",
        "suburb": "Suncrest",
        "city_district": null,
        "city": "Basseterre",
        "state": null,
        "postcode": null,
        "country": "Saint Kitts and Nevis",
        "country_code": "kn"
      },
      "address": "The Moorings, Basseterre, Saint Kitts and Nevis"
    },
    {
      "lat": 17.286185424993267,
      "lon": -62.720773742844884,
      "geoinfo": {
        "display_name": "Port Zante, Bay Road, Soho, Port Zante, Basseterre, Saint George Basseterre, Saint Kitts, Saint Kitts and Nevis",
        "road": "Bay Road",
        "house_number": null,
        "neighbourhood": "Soho",
        "suburb": "Port Zante",
        "city_district": null,
        "city": "Basseterre",
        "state": null,
        "postcode": null,
        "country": "Saint Kitts and Nevis",
        "country_code": "kn"
      },
      "address": "Bay Road, Basseterre, Saint Kitts and Nevis"
    },
    {
      "lat": 17.31836711084159,
      "lon": -62.72686499326693,
      "geoinfo": {
        "display_name": "John England Village, Monkey Hill, Saint Peter Basseterre, Saint Kitts, Saint Kitts and Nevis",
        "road": null,
        "house_number": null,
        "neighbourhood": "John England Village",
        "suburb": null,
        "city_district": null,
        "city": "Monkey Hill",
        "state": null,
        "postcode": null,
        "country": "Saint Kitts and Nevis",
        "country_code": "kn"
      },
      "address": "John England Village, Basseterre, Saint Kitts and Nevis"
    },
    {
      "lat": 17.289845827744045,
      "lon": -62.732943587382394,
      "geoinfo": {
        "display_name": "Horsfords Road, Irish Town, Port Zante, Brumaire, Saint George Basseterre, Saint Kitts, Saint Kitts and Nevis",
        "road": "Horsfords Road",
        "house_number": null,
        "neighbourhood": "Irish Town",
        "suburb": "Port Zante",
        "city_district": null,
        "city": "Brumaire",
        "state": null,
        "postcode": null,
        "country": "Saint Kitts and Nevis",
        "country_code": "kn"
      },
      "address": "Horsfords Road, Basseterre, Saint Kitts and Nevis"
    },
    {
      "lat": 17.30373022546099,
      "lon": -62.73243546298766,
      "geoinfo": {
        "display_name": "BMTF Boulevard, Shadwell Estate, Lower New Road, Brumaire, Saint George Basseterre, Saint Kitts, Saint Kitts and Nevis",
        "road": "BMTF Boulevard",
        "house_number": null,
        "neighbourhood": "Shadwell Estate",
        "suburb": "Lower New Road",
        "city_district": null,
        "city": "Brumaire",
        "state": null,
        "postcode": null,
        "country": "Saint Kitts and Nevis",
        "country_code": "kn"
      },
      "address": "BMTF Boulevard, Basseterre, Saint Kitts and Nevis"
    },
    {
      "lat": 17.290139019438357,
      "lon": -62.70055584026297,
      "geoinfo": {
        "display_name": "Bentels Drive, The Moorings, Suncrest, New Road, Saint George Basseterre, Saint Kitts, Saint Kitts and Nevis",
        "road": "Bentels Drive",
        "house_number": null,
        "neighbourhood": "The Moorings",
        "suburb": "Suncrest",
        "city_district": null,
        "city": "New Road",
        "state": null,
        "postcode": null,
        "country": "Saint Kitts and Nevis",
        "country_code": "kn"
      },
      "address": "Bentels Drive, Basseterre, Saint Kitts and Nevis"
    },
    {
      "lat": 17.310789577259317,
      "lon": -62.69476184219363,
      "geoinfo": {
        "display_name": "Half Moon Drive, Upper Conaree, Saint Peter Basseterre, Saint Kitts, Saint Kitts and Nevis",
        "road": "Half Moon Drive",
        "house_number": null,
        "neighbourhood": null,
        "suburb": null,
        "city_district": null,
        "city": "Upper Conaree",
        "state": null,
        "postcode": null,
        "country": "Saint Kitts and Nevis",
        "country_code": "kn"
      },
      "address": "Half Moon Drive, Basseterre, Saint Kitts and Nevis"
    },
    {
      "lat": 17.28381413413455,
      "lon": -62.687597802422395,
      "geoinfo": {
        "display_name": "Trevor Levine Drive, Suncrest, Kittian Village, Saint George Basseterre, Saint Kitts, Saint Kitts and Nevis",
        "road": "Trevor Levine Drive",
        "house_number": null,
        "neighbourhood": null,
        "suburb": "Suncrest",
        "city_district": null,
        "city": "Kittian Village",
        "state": null,
        "postcode": null,
        "country": "Saint Kitts and Nevis",
        "country_code": "kn"
      },
      "address": "Trevor Levine Drive, Basseterre, Saint Kitts and Nevis"
    },
    {
      "lat": 17.295344643306578,
      "lon": -62.67961020960471,
      "geoinfo": {
        "display_name": "Beach Volley Ball, Grand Plaza, Kittian Village, Saint George Basseterre, Saint Kitts, Saint Kitts and Nevis",
        "road": "Grand Plaza",
        "house_number": null,
        "neighbourhood": null,
        "suburb": null,
        "city_district": null,
        "city": "Kittian Village",
        "state": null,
        "postcode": null,
        "country": "Saint Kitts and Nevis",
        "country_code": "kn"
      },
      "address": "Grand Plaza, Basseterre, Saint Kitts and Nevis"
    },
    {
      "lat": 17.326412810910927,
      "lon": -62.742019605500424,
      "geoinfo": {
        "display_name": "Fountain, St. Peter's, Saint Peter Basseterre, Saint Kitts, Saint Kitts and Nevis",
        "road": null,
        "house_number": null,
        "neighbourhood": "Fountain",
        "suburb": null,
        "city_district": null,
        "city": "St. Peter's",
        "state": null,
        "postcode": null,
        "country": "Saint Kitts and Nevis",
        "country_code": "kn"
      },
      "address": "Fountain, Basseterre, Saint Kitts and Nevis"
    },
    {
      "lat": 17.302835467289366,
      "lon": -62.73079013812453,
      "geoinfo": {
        "display_name": "F. T. Williams Highway, Shadwell Housing, Lower New Road, Brumaire, Saint George Basseterre, Saint Kitts, Saint Kitts and Nevis",
        "road": "F. T. Williams Highway",
        "house_number": null,
        "neighbourhood": "Shadwell Housing",
        "suburb": "Lower New Road",
        "city_district": null,
        "city": "Brumaire",
        "state": null,
        "postcode": null,
        "country": "Saint Kitts and Nevis",
        "country_code": "kn"
      },
      "address": "F. T. Williams Highway, Basseterre, Saint Kitts and Nevis"
    },
    {
      "lat": 17.315398223663472,
      "lon": -62.7125959641336,
      "geoinfo": {
        "display_name": "Commercial Road, Golden Rock Commercial Development, Conaree, Saint Peter Basseterre, Saint Kitts, Saint Kitts and Nevis",
        "road": "Commercial Road",
        "house_number": null,
        "neighbourhood": null,
        "suburb": null,
        "city_district": null,
        "city": "Conaree",
        "state": null,
        "postcode": null,
        "country": "Saint Kitts and Nevis",
        "country_code": "kn"
      },
      "address": "Commercial Road, Basseterre, Saint Kitts and Nevis"
    },
    {
      "lat": 17.319019131853857,
      "lon": -62.724979084170236,
      "geoinfo": {
        "display_name": "Jamaica Boulevard, Douglas Estate, Monkey Hill, Saint Peter Basseterre, Saint Kitts, Saint Kitts and Nevis",
        "road": "Jamaica Boulevard",
        "house_number": null,
        "neighbourhood": "Douglas Estate",
        "suburb": null,
        "city_district": null,
        "city": "Monkey Hill",
        "state": null,
        "postcode": null,
        "country": "Saint Kitts and Nevis",
        "country_code": "kn"
      },
      "address": "Jamaica Boulevard, Basseterre, Saint Kitts and Nevis"
    },
    {
      "lat": 17.310814568553305,
      "lon": -62.718550360220384,
      "geoinfo": {
        "display_name": "Robert L. Bradshaw International Airport, Sugar Factory Road, Lower New Road, New Road, Saint George Basseterre, Saint Kitts, Saint Kitts and Nevis",
        "road": "Sugar Factory Road",
        "house_number": null,
        "neighbourhood": null,
        "suburb": "Lower New Road",
        "city_district": null,
        "city": "New Road",
        "state": null,
        "postcode": null,
        "country": "Saint Kitts and Nevis",
        "country_code": "kn"
      },
      "address": "Sugar Factory Road, Basseterre, Saint Kitts and Nevis"
    },
    {
      "lat": 17.294376833038392,
      "lon": -62.72613858575099,
      "geoinfo": {
        "display_name": "Market Street, Soho, Port Zante, Basseterre, Saint George Basseterre, Saint Kitts, Saint Kitts and Nevis",
        "road": "Market Street",
        "house_number": null,
        "neighbourhood": "Soho",
        "suburb": "Port Zante",
        "city_district": null,
        "city": "Basseterre",
        "state": null,
        "postcode": null,
        "country": "Saint Kitts and Nevis",
        "country_code": "kn"
      },
      "address": "Market Street, Basseterre, Saint Kitts and Nevis"
    },
    {
      "lat": 17.326841303615407,
      "lon": -62.70507009610546,
      "geoinfo": {
        "display_name": "Quarry Road, Canada, Saint Peter Basseterre, Saint Kitts, Saint Kitts and Nevis",
        "road": "Quarry Road",
        "house_number": null,
        "neighbourhood": null,
        "suburb": null,
        "city_district": null,
        "city": "Canada",
        "state": null,
        "postcode": null,
        "country": "Saint Kitts and Nevis",
        "country_code": "kn"
      },
      "address": "Quarry Road, Basseterre, Saint Kitts and Nevis"
    },
    {
      "lat": 17.303191427601,
      "lon": -62.71296759955428,
      "geoinfo": {
        "display_name": "Leornard Dickinson Street, Port Zante, Basseterre, Saint George Basseterre, Saint Kitts, Saint Kitts and Nevis",
        "road": "Leornard Dickinson Street",
        "house_number": null,
        "neighbourhood": null,
        "suburb": "Port Zante",
        "city_district": null,
        "city": "Basseterre",
        "state": null,
        "postcode": null,
        "country": "Saint Kitts and Nevis",
        "country_code": "kn"
      },
      "address": "Leornard Dickinson Street, Basseterre, Saint Kitts and Nevis"
    },
    {
      "lat": 17.28987713414241,
      "lon": -62.717510721364434,
      "geoinfo": {
        "display_name": "Soho, Port Zante, Basseterre, Saint George Basseterre, Saint Kitts, Saint Kitts and Nevis",
        "road": null,
        "house_number": null,
        "neighbourhood": "Soho",
        "suburb": "Port Zante",
        "city_district": null,
        "city": "Basseterre",
        "state": null,
        "postcode": null,
        "country": "Saint Kitts and Nevis",
        "country_code": "kn"
      },
      "address": "Soho, Basseterre, Saint Kitts and Nevis"
    },
    {
      "lat": 17.284379439475597,
      "lon": -62.703857121756144,
      "geoinfo": {
        "display_name": "Pelican Drive South, The Moorings, Suncrest, Basseterre, Saint George Basseterre, Saint Kitts, Saint Kitts and Nevis",
        "road": "Pelican Drive South",
        "house_number": null,
        "neighbourhood": "The Moorings",
        "suburb": "Suncrest",
        "city_district": null,
        "city": "Basseterre",
        "state": null,
        "postcode": null,
        "country": "Saint Kitts and Nevis",
        "country_code": "kn"
      },
      "address": "Pelican Drive South, Basseterre, Saint Kitts and Nevis"
    },
    {
      "lat": 17.321162655576966,
      "lon": -62.71014194794521,
      "geoinfo": {
        "display_name": "St. Kitts Investment Promotion Agency (SKIPA), Koi Building, Airport Road, Basseterre, Saint Peter Basseterre, Saint Kitts, Saint Kitts and Nevis",
        "road": "Airport Road",
        "house_number": "Koi Building",
        "neighbourhood": null,
        "suburb": null,
        "city_district": null,
        "city": "Basseterre",
        "state": null,
        "postcode": null,
        "country": "Saint Kitts and Nevis",
        "country_code": "kn"
      },
      "address": "Koi Building Airport Road, Basseterre, Saint Kitts and Nevis"
    },
    {
      "lat": 17.33694691057221,
      "lon": -62.735016324166736,
      "geoinfo": {
        "display_name": "Ogees Road, Bayford's, Saint Peter Basseterre, Saint Kitts, Saint Kitts and Nevis",
        "road": "Ogees Road",
        "house_number": null,
        "neighbourhood": null,
        "suburb": null,
        "city_district": null,
        "city": "Bayford's",
        "state": null,
        "postcode": null,
        "country": "Saint Kitts and Nevis",
        "country_code": "kn"
      },
      "address": "Ogees Road, Basseterre, Saint Kitts and Nevis"
    },
    {
      "lat": 17.29722740637413,
      "lon": -62.7270585887463,
      "geoinfo": {
        "display_name": "Seventh-Day Adventist Church St.Kitts Coordinating Council Office, Cayon Street, Soho, Port Zante, Basseterre, Saint George Basseterre, Saint Kitts, Saint Kitts and Nevis",
        "road": "Cayon Street",
        "house_number": null,
        "neighbourhood": "Soho",
        "suburb": "Port Zante",
        "city_district": null,
        "city": "Basseterre",
        "state": null,
        "postcode": null,
        "country": "Saint Kitts and Nevis",
        "country_code": "kn"
      },
      "address": "Cayon Street, Basseterre, Saint Kitts and Nevis"
    },
    {
      "lat": 17.302688958236295,
      "lon": -62.72230055522162,
      "geoinfo": {
        "display_name": "The Basseterre High School, Bernard Audain Drive, College Housing, Lower New Road, Basseterre, Saint George Basseterre, Saint Kitts, Saint Kitts and Nevis",
        "road": "Bernard Audain Drive",
        "house_number": null,
        "neighbourhood": "College Housing",
        "suburb": "Lower New Road",
        "city_district": null,
        "city": "Basseterre",
        "state": null,
        "postcode": null,
        "country": "Saint Kitts and Nevis",
        "country_code": "kn"
      },
      "address": "Bernard Audain Drive, Basseterre, Saint Kitts and Nevis"
    },
    {
      "lat": 17.31751722996453,
      "lon": -62.723761563570605,
      "geoinfo": {
        "display_name": "Saint Lucia Drive, Douglas Estate, Monkey Hill, Saint Peter Basseterre, Saint Kitts, Saint Kitts and Nevis",
        "road": "Saint Lucia Drive",
        "house_number": null,
        "neighbourhood": "Douglas Estate",
        "suburb": null,
        "city_district": null,
        "city": "Monkey Hill",
        "state": null,
        "postcode": null,
        "country": "Saint Kitts and Nevis",
        "country_code": "kn"
      },
      "address": "Saint Lucia Drive, Basseterre, Saint Kitts and Nevis"
    },
    {
      "lat": 17.301129739049415,
      "lon": -62.73978613708276,
      "geoinfo": {
        "display_name": "LaGuerite Village, Lower New Road, Brumaire, Saint George Basseterre, Saint Kitts, Saint Kitts and Nevis",
        "road": null,
        "house_number": null,
        "neighbourhood": "LaGuerite Village",
        "suburb": "Lower New Road",
        "city_district": null,
        "city": "Brumaire",
        "state": null,
        "postcode": null,
        "country": "Saint Kitts and Nevis",
        "country_code": "kn"
      },
      "address": "LaGuerite Village, Basseterre, Saint Kitts and Nevis"
    },
    {
      "lat": 17.32848191105879,
      "lon": -62.71871035770714,
      "geoinfo": {
        "display_name": "Stapleton Estate, St. Peter's, Saint Peter Basseterre, Saint Kitts, Saint Kitts and Nevis",
        "road": null,
        "house_number": null,
        "neighbourhood": "Stapleton Estate",
        "suburb": null,
        "city_district": null,
        "city": "St. Peter's",
        "state": null,
        "postcode": null,
        "country": "Saint Kitts and Nevis",
        "country_code": "kn"
      },
      "address": "Stapleton Estate, Basseterre, Saint Kitts and Nevis"
    },
    {
      "lat": 17.325343703214283,
      "lon": -62.7187969984758,
      "geoinfo": {
        "display_name": "Douglas Estate, Monkey Hill, Saint Peter Basseterre, Saint Kitts, Saint Kitts and Nevis",
        "road": null,
        "house_number": null,
        "neighbourhood": "Douglas Estate",
        "suburb": null,
        "city_district": null,
        "city": "Monkey Hill",
        "state": null,
        "postcode": null,
        "country": "Saint Kitts and Nevis",
        "country_code": "kn"
      },
      "address": "Douglas Estate, Basseterre, Saint Kitts and Nevis"
    },
    {
      "lat": 17.295203149434048,
      "lon": -62.71368997469328,
      "geoinfo": {
        "display_name": "Reformation Fellowship Centre, Marispa Drive, Port Zante, Basseterre, Saint George Basseterre, Saint Kitts, Saint Kitts and Nevis",
        "road": "Marispa Drive",
        "house_number": null,
        "neighbourhood": null,
        "suburb": "Port Zante",
        "city_district": null,
        "city": "Basseterre",
        "state": null,
        "postcode": null,
        "country": "Saint Kitts and Nevis",
        "country_code": "kn"
      },
      "address": "Marispa Drive, Basseterre, Saint Kitts and Nevis"
    },
    {
      "lat": 17.306917164031017,
      "lon": -62.7079767668542,
      "geoinfo": {
        "display_name": "Kim Collins Highway, Needmust Estate, Conaree, Saint Peter Basseterre, Saint Kitts, Saint Kitts and Nevis",
        "road": "Kim Collins Highway",
        "house_number": null,
        "neighbourhood": null,
        "suburb": null,
        "city_district": null,
        "city": "Conaree",
        "state": null,
        "postcode": null,
        "country": "Saint Kitts and Nevis",
        "country_code": "kn"
      },
      "address": "Kim Collins Highway, Basseterre, Saint Kitts and Nevis"
    },
    {
      "lat": 17.28924167037778,
      "lon": -62.70394133149426,
      "geoinfo": {
        "display_name": "Pelican Drive North, The Moorings, Suncrest, New Road, Saint George Basseterre, Saint Kitts, Saint Kitts and Nevis",
        "road": "Pelican Drive North",
        "house_number": null,
        "neighbourhood": "The Moorings",
        "suburb": "Suncrest",
        "city_district": null,
        "city": "New Road",
        "state": null,
        "postcode": null,
        "country": "Saint Kitts and Nevis",
        "country_code": "kn"
      },
      "address": "Pelican Drive North, Basseterre, Saint Kitts and Nevis"
    },
    {
      "lat": 17.31515019030879,
      "lon": -62.69985537345302,
      "geoinfo": {
        "display_name": "Orchard Way, Upper Conaree, Saint Peter Basseterre, Saint Kitts, Saint Kitts and Nevis",
        "road": "Orchard Way",
        "house_number": null,
        "neighbourhood": null,
        "suburb": null,
        "city_district": null,
        "city": "Upper Conaree",
        "state": null,
        "postcode": null,
        "country": "Saint Kitts and Nevis",
        "country_code": "kn"
      },
      "address": "Orchard Way, Basseterre, Saint Kitts and Nevis"
    },
    {
      "lat": 17.313848863383864,
      "lon": -62.71845365342713,
      "geoinfo": {
        "display_name": "Gillard Meadows, Monkey Hill, Saint Peter Basseterre, Saint Kitts, Saint Kitts and Nevis",
        "road": null,
        "house_number": null,
        "neighbourhood": "Gillard Meadows",
        "suburb": null,
        "city_district": null,
        "city": "Monkey Hill",
        "state": null,
        "postcode": null,
        "country": "Saint Kitts and Nevis",
        "country_code": "kn"
      },
      "address": "Gillard Meadows, Basseterre, Saint Kitts and Nevis"
    },
    {
      "lat": 17.29540151769107,
      "lon": -62.73789642036293,
      "geoinfo": {
        "display_name": "Lime Kiln Grounds, Walwyn Avenue (Democrat Road), Buckley's Estate, Brumaire, Saint George Basseterre, Saint Kitts, Saint Kitts and Nevis",
        "road": "Walwyn Avenue (Democrat Road)",
        "house_number": null,
        "neighbourhood": "Buckley's Estate",
        "suburb": null,
        "city_district": null,
        "city": "Brumaire",
        "state": null,
        "postcode": null,
        "country": "Saint Kitts and Nevis",
        "country_code": "kn"
      },
      "address": "Walwyn Avenue (Democrat Road), Basseterre, Saint Kitts and Nevis"
    },
    {
      "lat": 17.321556939322203,
      "lon": -62.728382764880465,
      "geoinfo": {
        "display_name": "White House Estate, St. Peter's, Saint Peter Basseterre, Saint Kitts, Saint Kitts and Nevis",
        "road": null,
        "house_number": null,
        "neighbourhood": "White House Estate",
        "suburb": null,
        "city_district": null,
        "city": "St. Peter's",
        "state": null,
        "postcode": null,
        "country": "Saint Kitts and Nevis",
        "country_code": "kn"
      },
      "address": "White House Estate, Basseterre, Saint Kitts and Nevis"
    },
    {
      "lat": 17.29144109534785,
      "lon": -62.7070312387214,
      "geoinfo": {
        "display_name": "Janice Ferrel-Harris Street, The Moorings, Suncrest, New Road, Saint George Basseterre, Saint Kitts, Saint Kitts and Nevis",
        "road": "Janice Ferrel-Harris Street",
        "house_number": null,
        "neighbourhood": "The Moorings",
        "suburb": "Suncrest",
        "city_district": null,
        "city": "New Road",
        "state": null,
        "postcode": null,
        "country": "Saint Kitts and Nevis",
        "country_code": "kn"
      },
      "address": "Janice Ferrel-Harris Street, Basseterre, Saint Kitts and Nevis"
    },
    {
      "lat": 17.28846848384995,
      "lon": -62.68951137792053,
      "geoinfo": {
        "display_name": "Golf Gardens Drive, Suncrest, Kittian Village, Saint George Basseterre, Saint Kitts, Saint Kitts and Nevis",
        "road": "Golf Gardens Drive",
        "house_number": null,
        "neighbourhood": null,
        "suburb": "Suncrest",
        "city_district": null,
        "city": "Kittian Village",
        "state": null,
        "postcode": null,
        "country": "Saint Kitts and Nevis",
        "country_code": "kn"
      },
      "address": "Golf Gardens Drive, Basseterre, Saint Kitts and Nevis"
    },
    {
      "lat": 17.30699700503893,
      "lon": -62.712745519134295,
      "geoinfo": {
        "display_name": "Wellington Road, Port Zante, New Road, Saint Peter Basseterre, Saint Kitts, Saint Kitts and Nevis",
        "road": "Wellington Road",
        "house_number": null,
        "neighbourhood": null,
        "suburb": "Port Zante",
        "city_district": null,
        "city": "New Road",
        "state": null,
        "postcode": null,
        "country": "Saint Kitts and Nevis",
        "country_code": "kn"
      },
      "address": "Wellington Road, Basseterre, Saint Kitts and Nevis"
    },
    {
      "lat": 17.287296044456042,
      "lon": -62.69356793608486,
      "geoinfo": {
        "display_name": "Southwell Way, Suncrest, Kittian Village, Saint George Basseterre, Saint Kitts, Saint Kitts and Nevis",
        "road": "Southwell Way",
        "house_number": null,
        "neighbourhood": null,
        "suburb": "Suncrest",
        "city_district": null,
        "city": "Kittian Village",
        "state": null,
        "postcode": null,
        "country": "Saint Kitts and Nevis",
        "country_code": "kn"
      },
      "address": "Southwell Way, Basseterre, Saint Kitts and Nevis"
    },
    {
      "lat": 17.317432683403435,
      "lon": -62.704962072690854,
      "geoinfo": {
        "display_name": "Conaree Garden, Upper Conaree, Saint Peter Basseterre, Saint Kitts, Saint Kitts and Nevis",
        "road": "Conaree Garden",
        "house_number": null,
        "neighbourhood": null,
        "suburb": null,
        "city_district": null,
        "city": "Upper Conaree",
        "state": null,
        "postcode": null,
        "country": "Saint Kitts and Nevis",
        "country_code": "kn"
      },
      "address": "Conaree Garden, Basseterre, Saint Kitts and Nevis"
    },
    {
      "lat": 17.285327456453402,
      "lon": -62.732723241242574,
      "geoinfo": {
        "display_name": "Fort Thomas, Wigley Avenue, Irish Town, Port Zante, Brumaire, Saint George Basseterre, Saint Kitts, Saint Kitts and Nevis",
        "road": "Wigley Avenue",
        "house_number": null,
        "neighbourhood": "Irish Town",
        "suburb": "Port Zante",
        "city_district": null,
        "city": "Brumaire",
        "state": null,
        "postcode": null,
        "country": "Saint Kitts and Nevis",
        "country_code": "kn"
      },
      "address": "Wigley Avenue, Basseterre, Saint Kitts and Nevis"
    },
    {
      "lat": 17.320375647537865,
      "lon": -62.73275020923643,
      "geoinfo": {
        "display_name": "Upper Monkey Hill, St. Peter's, Saint Peter Basseterre, Saint Kitts, Saint Kitts and Nevis",
        "road": null,
        "house_number": null,
        "neighbourhood": "Upper Monkey Hill",
        "suburb": null,
        "city_district": null,
        "city": "St. Peter's",
        "state": null,
        "postcode": null,
        "country": "Saint Kitts and Nevis",
        "country_code": "kn"
      },
      "address": "Upper Monkey Hill, Basseterre, Saint Kitts and Nevis"
    },
    {
      "lat": 17.301155142501997,
      "lon": -62.69707448697365,
      "geoinfo": {
        "display_name": "Grouper Lane, Lucas, Saint Peter Basseterre, Saint Kitts, Saint Kitts and Nevis",
        "road": "Grouper Lane",
        "house_number": null,
        "neighbourhood": null,
        "suburb": null,
        "city_district": null,
        "city": "Lucas",
        "state": null,
        "postcode": null,
        "country": "Saint Kitts and Nevis",
        "country_code": "kn"
      },
      "address": "Grouper Lane, Basseterre, Saint Kitts and Nevis"
    },
    {
      "lat": 17.30267028462781,
      "lon": -62.72681460289687,
      "geoinfo": {
        "display_name": "Wadee Boulevard, Wades Garden, Lower New Road, New Road, Saint George Basseterre, Saint Kitts, Saint Kitts and Nevis",
        "road": "Wadee Boulevard",
        "house_number": null,
        "neighbourhood": "Wades Garden",
        "suburb": "Lower New Road",
        "city_district": null,
        "city": "New Road",
        "state": null,
        "postcode": null,
        "country": "Saint Kitts and Nevis",
        "country_code": "kn"
      },
      "address": "Wadee Boulevard, Basseterre, Saint Kitts and Nevis"
    },
    {
      "lat": 17.305076970556097,
      "lon": -62.732434950220075,
      "geoinfo": {
        "display_name": "Frys Village, Lower New Road, Brumaire, Saint George Basseterre, Saint Kitts, Saint Kitts and Nevis",
        "road": null,
        "house_number": null,
        "neighbourhood": "Frys Village",
        "suburb": "Lower New Road",
        "city_district": null,
        "city": "Brumaire",
        "state": null,
        "postcode": null,
        "country": "Saint Kitts and Nevis",
        "country_code": "kn"
      },
      "address": "Frys Village, Basseterre, Saint Kitts and Nevis"
    },
    {
      "lat": 17.298990606811206,
      "lon": -62.734647230541,
      "geoinfo": {
        "display_name": "Cemetery Road, LaGuerite Village, Port Zante, Brumaire, Saint George Basseterre, Saint Kitts, Saint Kitts and Nevis",
        "road": "Cemetery Road",
        "house_number": null,
        "neighbourhood": "LaGuerite Village",
        "suburb": "Port Zante",
        "city_district": null,
        "city": "Brumaire",
        "state": null,
        "postcode": null,
        "country": "Saint Kitts and Nevis",
        "country_code": "kn"
      },
      "address": "Cemetery Road, Basseterre, Saint Kitts and Nevis"
    },
    {
      "lat": 17.296734739904256,
      "lon": -62.72612843407768,
      "geoinfo": {
        "display_name": "Prickly Pear Avenue, Soho, Port Zante, Basseterre, Saint George Basseterre, Saint Kitts, Saint Kitts and Nevis",
        "road": "Prickly Pear Avenue",
        "house_number": null,
        "neighbourhood": "Soho",
        "suburb": "Port Zante",
        "city_district": null,
        "city": "Basseterre",
        "state": null,
        "postcode": null,
        "country": "Saint Kitts and Nevis",
        "country_code": "kn"
      },
      "address": "Prickly Pear Avenue, Basseterre, Saint Kitts and Nevis"
    },
    {
      "lat": 17.31683205788903,
      "lon": -62.73051642296202,
      "geoinfo": {
        "display_name": "Scenic Street, Lower Monkey Hill, La Monge, Saint Peter Basseterre, Saint Kitts, Saint Kitts and Nevis",
        "road": "Scenic Street",
        "house_number": null,
        "neighbourhood": "Lower Monkey Hill",
        "suburb": null,
        "city_district": null,
        "city": "La Monge",
        "state": null,
        "postcode": null,
        "country": "Saint Kitts and Nevis",
        "country_code": "kn"
      },
      "address": "Scenic Street, Basseterre, Saint Kitts and Nevis"
    },
    {
      "lat": 17.29150329729998,
      "lon": -62.699697896351005,
      "geoinfo": {
        "display_name": "Paradence Road, The Moorings, Suncrest, New Road, Saint George Basseterre, Saint Kitts, Saint Kitts and Nevis",
        "road": "Paradence Road",
        "house_number": null,
        "neighbourhood": "The Moorings",
        "suburb": "Suncrest",
        "city_district": null,
        "city": "New Road",
        "state": null,
        "postcode": null,
        "country": "Saint Kitts and Nevis",
        "country_code": "kn"
      },
      "address": "Paradence Road, Basseterre, Saint Kitts and Nevis"
    },
    {
      "lat": 17.299302056604734,
      "lon": -62.727163758937785,
      "geoinfo": {
        "display_name": "63, Rectory Road, Dorset Park, Port Zante, Basseterre, Saint George Basseterre, Saint Kitts, Saint Kitts and Nevis",
        "road": "Rectory Road",
        "house_number": "63",
        "neighbourhood": "Dorset Park",
        "suburb": "Port Zante",
        "city_district": null,
        "city": "Basseterre",
        "state": null,
        "postcode": null,
        "country": "Saint Kitts and Nevis",
        "country_code": "kn"
      },
      "address": "63 Rectory Road, Basseterre, Saint Kitts and Nevis"
    },
    {
      "lat": 17.290069567676895,
      "lon": -62.69484733165217,
      "geoinfo": {
        "display_name": "Red Snapper Lane, Suncrest, Kittian Village, Saint George Basseterre, Saint Kitts, Saint Kitts and Nevis",
        "road": "Red Snapper Lane",
        "house_number": null,
        "neighbourhood": null,
        "suburb": "Suncrest",
        "city_district": null,
        "city": "Kittian Village",
        "state": null,
        "postcode": null,
        "country": "Saint Kitts and Nevis",
        "country_code": "kn"
      },
      "address": "Red Snapper Lane, Basseterre, Saint Kitts and Nevis"
    },
    {
      "lat": 17.26127184136999,
      "lon": -62.73624872630652,
      "geoinfo": {
        "display_name": "Port Zante, Basseterre, Saint George Basseterre, Saint Kitts, Saint Kitts and Nevis",
        "road": null,
        "house_number": null,
        "neighbourhood": null,
        "suburb": "Port Zante",
        "city_district": null,
        "city": "Basseterre",
        "state": null,
        "postcode": null,
        "country": "Saint Kitts and Nevis",
        "country_code": "kn"
      },
      "address": "230, Port Zante, Basseterre, Saint George Basseterre, 29960 Saint Kitts, Saint Kitts and Nevis"
    },
    {
      "lat": 17.266038949426108,
      "lon": -62.75293094930993,
      "geoinfo": {
        "display_name": "Brumaire, Saint George Basseterre, Saint Kitts, Saint Kitts and Nevis",
        "road": null,
        "house_number": null,
        "neighbourhood": null,
        "suburb": null,
        "city_district": null,
        "city": "Brumaire",
        "state": null,
        "postcode": null,
        "country": "Saint Kitts and Nevis",
        "country_code": "kn"
      },
      "address": "556, Brumaire, Saint George Basseterre, 66154 Saint Kitts, Saint Kitts and Nevis"
    },
    {
      "lat": 17.322260730240593,
      "lon": -62.74555600215714,
      "geoinfo": {
        "display_name": "Cedar Grove, St. Peter's, Saint Peter Basseterre, Saint Kitts, Saint Kitts and Nevis",
        "road": null,
        "house_number": null,
        "neighbourhood": "Cedar Grove",
        "suburb": null,
        "city_district": null,
        "city": "St. Peter's",
        "state": null,
        "postcode": null,
        "country": "Saint Kitts and Nevis",
        "country_code": "kn"
      },
      "address": "484, Cedar Grove, St. Peter's, Saint Peter Basseterre, 57284 Saint Kitts, Saint Kitts and Nevis"
    },
    {
      "lat": 17.292204300464537,
      "lon": -62.7405386721899,
      "geoinfo": {
        "display_name": "#32, Abatiaur Way, Buckley's Estate, Brumaire, Saint George Basseterre, Saint Kitts, 07162, Saint Kitts and Nevis",
        "road": "Abatiaur Way",
        "house_number": "#32",
        "neighbourhood": "Buckley's Estate",
        "suburb": null,
        "city_district": null,
        "city": "Brumaire",
        "state": null,
        "postcode": "07162",
        "country": "Saint Kitts and Nevis",
        "country_code": "kn"
      },
      "address": "#32, Abatiaur Way, Buckley's Estate, Brumaire, Saint George Basseterre, Saint Kitts, 07162, Saint Kitts and Nevis"
    },
    {
      "lat": 17.281668384578413,
      "lon": -62.73457252417038,
      "geoinfo": {
        "display_name": "Irish Town, Port Zante, Brumaire, Saint George Basseterre, Saint Kitts, Saint Kitts and Nevis",
        "road": null,
        "house_number": null,
        "neighbourhood": "Irish Town",
        "suburb": "Port Zante",
        "city_district": null,
        "city": "Brumaire",
        "state": null,
        "postcode": null,
        "country": "Saint Kitts and Nevis",
        "country_code": "kn"
      },
      "address": "143, Irish Town, Port Zante, Brumaire, Saint George Basseterre, 83070 Saint Kitts, Saint Kitts and Nevis"
    },
    {
      "lat": 17.31298561742781,
      "lon": -62.6939033693697,
      "geoinfo": {
        "display_name": "Half Moon Drive, Upper Conaree, Saint Peter Basseterre, Saint Kitts, Saint Kitts and Nevis",
        "road": "Half Moon Drive",
        "house_number": null,
        "neighbourhood": null,
        "suburb": null,
        "city_district": null,
        "city": "Upper Conaree",
        "state": null,
        "postcode": null,
        "country": "Saint Kitts and Nevis",
        "country_code": "kn"
      },
      "address": "409, Half Moon Drive, Upper Conaree, Saint Peter Basseterre, 94605 Saint Kitts, Saint Kitts and Nevis"
    },
    {
      "lat": 17.28361812166207,
      "lon": -62.71265980197258,
      "geoinfo": {
        "display_name": "Suncrest, Naomi Webster St., The Moorings, Suncrest, New Road, Saint George Basseterre, Saint Kitts, Saint Kitts and Nevis",
        "road": "Naomi Webster St.",
        "house_number": null,
        "neighbourhood": "The Moorings",
        "suburb": "Suncrest",
        "city_district": null,
        "city": "New Road",
        "state": null,
        "postcode": null,
        "country": "Saint Kitts and Nevis",
        "country_code": "kn"
      },
      "address": "537, Naomi Webster St., 29236 Basseterre, Saint Kitts and Nevis"
    },
    {
      "lat": 17.289284453267392,
      "lon": -62.71142062119834,
      "geoinfo": {
        "display_name": "Naomi Webster St., The Moorings, Suncrest, New Road, Saint George Basseterre, Saint Kitts, Saint Kitts and Nevis",
        "road": "Naomi Webster St.",
        "house_number": null,
        "neighbourhood": "The Moorings",
        "suburb": "Suncrest",
        "city_district": null,
        "city": "New Road",
        "state": null,
        "postcode": null,
        "country": "Saint Kitts and Nevis",
        "country_code": "kn"
      },
      "address": "537, Naomi Webster St., The Moorings, Suncrest, New Road, Saint George Basseterre, 20561 Saint Kitts, Saint Kitts and Nevis"
    },
    {
      "lat": 17.258946895139456,
      "lon": -62.7242703235906,
      "geoinfo": {
        "display_name": "Port Zante, Basseterre, Saint George Basseterre, Saint Kitts, Saint Kitts and Nevis",
        "road": null,
        "house_number": null,
        "neighbourhood": null,
        "suburb": "Port Zante",
        "city_district": null,
        "city": "Basseterre",
        "state": null,
        "postcode": null,
        "country": "Saint Kitts and Nevis",
        "country_code": "kn"
      },
      "address": "444, Port Zante, Basseterre, Saint George Basseterre, 67484 Saint Kitts, Saint Kitts and Nevis"
    },
    {
      "lat": 17.283881979824425,
      "lon": -62.723190050058264,
      "geoinfo": {
        "display_name": "Port Zante, Basseterre, Saint George Basseterre, Saint Kitts, Saint Kitts and Nevis",
        "road": null,
        "house_number": null,
        "neighbourhood": null,
        "suburb": "Port Zante",
        "city_district": null,
        "city": "Basseterre",
        "state": null,
        "postcode": null,
        "country": "Saint Kitts and Nevis",
        "country_code": "kn"
      },
      "address": "347, Port Zante, Basseterre, Saint George Basseterre, 40669 Saint Kitts, Saint Kitts and Nevis"
    },
    {
      "lat": 17.280786093401,
      "lon": -62.68431335439529,
      "geoinfo": {
        "display_name": "Kittian Village, Saint George Basseterre, Saint Kitts, Saint Kitts and Nevis",
        "road": null,
        "house_number": null,
        "neighbourhood": null,
        "suburb": null,
        "city_district": null,
        "city": "Kittian Village",
        "state": null,
        "postcode": null,
        "country": "Saint Kitts and Nevis",
        "country_code": "kn"
      },
      "address": "444, Kittian Village, Saint George Basseterre, 68659 Saint Kitts, Saint Kitts and Nevis"
    },
    {
      "lat": 17.25729863136348,
      "lon": -62.71742608459986,
      "geoinfo": {
        "display_name": "Suncrest, Basseterre, Saint George Basseterre, Saint Kitts, Saint Kitts and Nevis",
        "road": null,
        "house_number": null,
        "neighbourhood": null,
        "suburb": "Suncrest",
        "city_district": null,
        "city": "Basseterre",
        "state": null,
        "postcode": null,
        "country": "Saint Kitts and Nevis",
        "country_code": "kn"
      },
      "address": "721, Suncrest, Basseterre, Saint George Basseterre, 52911 Saint Kitts, Saint Kitts and Nevis"
    },
    {
      "lat": 17.273280979720177,
      "lon": -62.70210448126029,
      "geoinfo": {
        "display_name": "The Moorings, Suncrest, Basseterre, Saint George Basseterre, Saint Kitts, Saint Kitts and Nevis",
        "road": null,
        "house_number": null,
        "neighbourhood": "The Moorings",
        "suburb": "Suncrest",
        "city_district": null,
        "city": "Basseterre",
        "state": null,
        "postcode": null,
        "country": "Saint Kitts and Nevis",
        "country_code": "kn"
      },
      "address": "342, The Moorings, Suncrest, Basseterre, Saint George Basseterre, 59044 Saint Kitts, Saint Kitts and Nevis"
    },
    {
      "lat": 17.29255434235586,
      "lon": -62.72529854824512,
      "geoinfo": {
        "display_name": "Port Zante Marina, Bay Road, Irish Town, Port Zante, Basseterre, Saint George Basseterre, Saint Kitts, Saint Kitts and Nevis",
        "road": "Bay Road",
        "house_number": null,
        "neighbourhood": "Irish Town",
        "suburb": "Port Zante",
        "city_district": null,
        "city": "Basseterre",
        "state": null,
        "postcode": null,
        "country": "Saint Kitts and Nevis",
        "country_code": "kn"
      },
      "address": "718, Bay Road, 27760 Basseterre, Saint Kitts and Nevis"
    },
    {
      "lat": 17.331723024730298,
      "lon": -62.70528694489008,
      "geoinfo": {
        "display_name": "Canada, Saint Peter Basseterre, Saint Kitts, Saint Kitts and Nevis",
        "road": null,
        "house_number": null,
        "neighbourhood": null,
        "suburb": null,
        "city_district": null,
        "city": "Canada",
        "state": null,
        "postcode": null,
        "country": "Saint Kitts and Nevis",
        "country_code": "kn"
      },
      "address": "159, Canada, Saint Peter Basseterre, 58189 Saint Kitts, Saint Kitts and Nevis"
    },
    {
      "lat": 17.32278822894698,
      "lon": -62.73866190496292,
      "geoinfo": {
        "display_name": "Cedar Grove, St. Peter's, Saint Peter Basseterre, Saint Kitts, Saint Kitts and Nevis",
        "road": null,
        "house_number": null,
        "neighbourhood": "Cedar Grove",
        "suburb": null,
        "city_district": null,
        "city": "St. Peter's",
        "state": null,
        "postcode": null,
        "country": "Saint Kitts and Nevis",
        "country_code": "kn"
      },
      "address": "635, Cedar Grove, St. Peter's, Saint Peter Basseterre, 27491 Saint Kitts, Saint Kitts and Nevis"
    },
    {
      "lat": 17.316051169852823,
      "lon": -62.71216139088116,
      "geoinfo": {
        "display_name": "Commercial Road, Golden Rock Commercial Development, Conaree, Saint Peter Basseterre, Saint Kitts, Saint Kitts and Nevis",
        "road": "Commercial Road",
        "house_number": null,
        "neighbourhood": null,
        "suburb": null,
        "city_district": null,
        "city": "Conaree",
        "state": null,
        "postcode": null,
        "country": "Saint Kitts and Nevis",
        "country_code": "kn"
      },
      "address": "558, Commercial Road, Golden Rock Commercial Development, Conaree, Saint Peter Basseterre, 98051 Saint Kitts, Saint Kitts and Nevis"
    },
    {
      "lat": 17.310139480598234,
      "lon": -62.68817549601628,
      "geoinfo": {
        "display_name": "Lucas, Saint Peter Basseterre, Saint Kitts, Saint Kitts and Nevis",
        "road": null,
        "house_number": null,
        "neighbourhood": null,
        "suburb": null,
        "city_district": null,
        "city": "Lucas",
        "state": null,
        "postcode": null,
        "country": "Saint Kitts and Nevis",
        "country_code": "kn"
      },
      "address": "739, Lucas, Saint Peter Basseterre, 28911 Saint Kitts, Saint Kitts and Nevis"
    },
    {
      "lat": 17.288214470503537,
      "lon": -62.75763901094616,
      "geoinfo": {
        "display_name": "Island Main Road, Boyds, Trinity Palmetto Point, Saint Kitts, Saint Kitts and Nevis",
        "road": "Island Main Road",
        "house_number": null,
        "neighbourhood": null,
        "suburb": null,
        "city_district": null,
        "city": "Boyds",
        "state": null,
        "postcode": null,
        "country": "Saint Kitts and Nevis",
        "country_code": "kn"
      },
      "address": "786, Island Main Road, 69547 Basseterre, Saint Kitts and Nevis"
    },
    {
      "lat": 17.26001767438974,
      "lon": -62.72015907920049,
      "geoinfo": {
        "display_name": "Suncrest, Basseterre, Saint George Basseterre, Saint Kitts, Saint Kitts and Nevis",
        "road": null,
        "house_number": null,
        "neighbourhood": null,
        "suburb": "Suncrest",
        "city_district": null,
        "city": "Basseterre",
        "state": null,
        "postcode": null,
        "country": "Saint Kitts and Nevis",
        "country_code": "kn"
      },
      "address": "022, Suncrest, Basseterre, Saint George Basseterre, 66168 Saint Kitts, Saint Kitts and Nevis"
    },
    {
      "lat": 17.270968408015392,
      "lon": -62.72151112347443,
      "geoinfo": {
        "display_name": "Port Zante, Basseterre, Saint George Basseterre, Saint Kitts, Saint Kitts and Nevis",
        "road": null,
        "house_number": null,
        "neighbourhood": null,
        "suburb": "Port Zante",
        "city_district": null,
        "city": "Basseterre",
        "state": null,
        "postcode": null,
        "country": "Saint Kitts and Nevis",
        "country_code": "kn"
      },
      "address": "751, Port Zante, Basseterre, Saint George Basseterre, 50244 Saint Kitts, Saint Kitts and Nevis"
    },
    {
      "lat": 17.302996041325475,
      "lon": -62.73627363088985,
      "geoinfo": {
        "display_name": "Dewar's Estate, Lower New Road, Brumaire, Saint George Basseterre, Saint Kitts, Saint Kitts and Nevis",
        "road": null,
        "house_number": null,
        "neighbourhood": null,
        "suburb": "Lower New Road",
        "city_district": null,
        "city": "Brumaire",
        "state": null,
        "postcode": null,
        "country": "Saint Kitts and Nevis",
        "country_code": "kn"
      },
      "address": "221, Dewar's Estate, Lower New Road, Brumaire, Saint George Basseterre, 42932 Saint Kitts, Saint Kitts and Nevis"
    },
    {
      "lat": 17.296981162417,
      "lon": -62.73202513498841,
      "geoinfo": {
        "display_name": "Cayon Street, Soho, Port Zante, Basseterre, Saint George Basseterre, Saint Kitts, Saint Kitts and Nevis",
        "road": "Cayon Street",
        "house_number": null,
        "neighbourhood": "Soho",
        "suburb": "Port Zante",
        "city_district": null,
        "city": "Basseterre",
        "state": null,
        "postcode": null,
        "country": "Saint Kitts and Nevis",
        "country_code": "kn"
      },
      "address": "950, Cayon Street, Soho, Port Zante, Basseterre, Saint George Basseterre, 65068 Saint Kitts, Saint Kitts and Nevis"
    },
    {
      "lat": 17.300953167341106,
      "lon": -62.68147794374001,
      "geoinfo": {
        "display_name": "Zenway Boulevard, Kittian Village, Saint Peter Basseterre, Saint Kitts, Saint Kitts and Nevis",
        "road": "Zenway Boulevard",
        "house_number": null,
        "neighbourhood": null,
        "suburb": null,
        "city_district": null,
        "city": "Kittian Village",
        "state": null,
        "postcode": null,
        "country": "Saint Kitts and Nevis",
        "country_code": "kn"
      },
      "address": "026, Zenway Boulevard, Kittian Village, Saint Peter Basseterre, 94455 Saint Kitts, Saint Kitts and Nevis"
    },
    {
      "lat": 17.30487675240434,
      "lon": -62.72235241170998,
      "geoinfo": {
        "display_name": "Reuben Pemberton Avenue, College Housing, Lower New Road, New Road, Saint George Basseterre, Saint Kitts, Saint Kitts and Nevis",
        "road": "Reuben Pemberton Avenue",
        "house_number": null,
        "neighbourhood": "College Housing",
        "suburb": "Lower New Road",
        "city_district": null,
        "city": "New Road",
        "state": null,
        "postcode": null,
        "country": "Saint Kitts and Nevis",
        "country_code": "kn"
      },
      "address": "160, Reuben Pemberton Avenue, College Housing, Lower New Road, New Road, Saint George Basseterre, 24299 Saint Kitts, Saint Kitts and Nevis"
    },
    {
      "lat": 17.261906339903227,
      "lon": -62.732702473591004,
      "geoinfo": {
        "display_name": "Port Zante, Basseterre, Saint George Basseterre, Saint Kitts, Saint Kitts and Nevis",
        "road": null,
        "house_number": null,
        "neighbourhood": null,
        "suburb": "Port Zante",
        "city_district": null,
        "city": "Basseterre",
        "state": null,
        "postcode": null,
        "country": "Saint Kitts and Nevis",
        "country_code": "kn"
      },
      "address": "685, Port Zante, Basseterre, Saint George Basseterre, 17651 Saint Kitts, Saint Kitts and Nevis"
    },
    {
      "lat": 17.280429814869745,
      "lon": -62.75281463740056,
      "geoinfo": {
        "display_name": "Port Zante, Basseterre, Saint George Basseterre, Saint Kitts, Saint Kitts and Nevis",
        "road": null,
        "house_number": null,
        "neighbourhood": null,
        "suburb": "Port Zante",
        "city_district": null,
        "city": "Basseterre",
        "state": null,
        "postcode": null,
        "country": "Saint Kitts and Nevis",
        "country_code": "kn"
      },
      "address": "929, Port Zante, Basseterre, Saint George Basseterre, 92796 Saint Kitts, Saint Kitts and Nevis"
    },
    {
      "lat": 17.33615634823119,
      "lon": -62.706928212935914,
      "geoinfo": {
        "display_name": "Canada, Saint Peter Basseterre, Saint Kitts, Saint Kitts and Nevis",
        "road": null,
        "house_number": null,
        "neighbourhood": null,
        "suburb": null,
        "city_district": null,
        "city": "Canada",
        "state": null,
        "postcode": null,
        "country": "Saint Kitts and Nevis",
        "country_code": "kn"
      },
      "address": "893, Canada, Saint Peter Basseterre, 17994 Saint Kitts, Saint Kitts and Nevis"
    },
    {
      "lat": 17.33492074983863,
      "lon": -62.74596199854571,
      "geoinfo": {
        "display_name": "Fountain, St. Peter's, Saint Peter Basseterre, Saint Kitts, Saint Kitts and Nevis",
        "road": null,
        "house_number": null,
        "neighbourhood": "Fountain",
        "suburb": null,
        "city_district": null,
        "city": "St. Peter's",
        "state": null,
        "postcode": null,
        "country": "Saint Kitts and Nevis",
        "country_code": "kn"
      },
      "address": "335, Fountain, St. Peter's, Saint Peter Basseterre, 26912 Saint Kitts, Saint Kitts and Nevis"
    },
    {
      "lat": 17.285393269548337,
      "lon": -62.71460675132731,
      "geoinfo": {
        "display_name": "Suncrest, Naomi Webster St., The Moorings, Suncrest, New Road, Saint George Basseterre, Saint Kitts, Saint Kitts and Nevis",
        "road": "Naomi Webster St.",
        "house_number": null,
        "neighbourhood": "The Moorings",
        "suburb": "Suncrest",
        "city_district": null,
        "city": "New Road",
        "state": null,
        "postcode": null,
        "country": "Saint Kitts and Nevis",
        "country_code": "kn"
      },
      "address": "283, Naomi Webster St., 33828 Basseterre, Saint Kitts and Nevis"
    },
    {
      "lat": 17.277256383767785,
      "lon": -62.72109020296439,
      "geoinfo": {
        "display_name": "The Moorings, Suncrest, Basseterre, Saint George Basseterre, Saint Kitts, Saint Kitts and Nevis",
        "road": null,
        "house_number": null,
        "neighbourhood": "The Moorings",
        "suburb": "Suncrest",
        "city_district": null,
        "city": "Basseterre",
        "state": null,
        "postcode": null,
        "country": "Saint Kitts and Nevis",
        "country_code": "kn"
      },
      "address": "285, The Moorings, Suncrest, Basseterre, Saint George Basseterre, 00019 Saint Kitts, Saint Kitts and Nevis"
    },
    {
      "lat": 17.338814108969718,
      "lon": -62.736406690886504,
      "geoinfo": {
        "display_name": "Ogees Road, Bayford's, Saint Mary Cayon, Saint Kitts, Saint Kitts and Nevis",
        "road": "Ogees Road",
        "house_number": null,
        "neighbourhood": null,
        "suburb": null,
        "city_district": null,
        "city": "Bayford's",
        "state": null,
        "postcode": null,
        "country": "Saint Kitts and Nevis",
        "country_code": "kn"
      },
      "address": "338, Ogees Road, 45105 Basseterre, Saint Kitts and Nevis"
    },
    {
      "lat": 17.28322488175283,
      "lon": -62.72279730472486,
      "geoinfo": {
        "display_name": "Port Zante, Basseterre, Saint George Basseterre, Saint Kitts, Saint Kitts and Nevis",
        "road": null,
        "house_number": null,
        "neighbourhood": null,
        "suburb": "Port Zante",
        "city_district": null,
        "city": "Basseterre",
        "state": null,
        "postcode": null,
        "country": "Saint Kitts and Nevis",
        "country_code": "kn"
      },
      "address": "947, Port Zante, Basseterre, Saint George Basseterre, 91225 Saint Kitts, Saint Kitts and Nevis"
    },
    {
      "lat": 17.270045112634733,
      "lon": -62.74249969598599,
      "geoinfo": {
        "display_name": "Port Zante, Basseterre, Saint George Basseterre, Saint Kitts, Saint Kitts and Nevis",
        "road": null,
        "house_number": null,
        "neighbourhood": null,
        "suburb": "Port Zante",
        "city_district": null,
        "city": "Basseterre",
        "state": null,
        "postcode": null,
        "country": "Saint Kitts and Nevis",
        "country_code": "kn"
      },
      "address": "668, Port Zante, Basseterre, Saint George Basseterre, 78333 Saint Kitts, Saint Kitts and Nevis"
    },
    {
      "lat": 17.32626884612418,
      "lon": -62.7218491421036,
      "geoinfo": {
        "display_name": "Stapleton Estate, St. Peter's, Saint Peter Basseterre, Saint Kitts, Saint Kitts and Nevis",
        "road": null,
        "house_number": null,
        "neighbourhood": "Stapleton Estate",
        "suburb": null,
        "city_district": null,
        "city": "St. Peter's",
        "state": null,
        "postcode": null,
        "country": "Saint Kitts and Nevis",
        "country_code": "kn"
      },
      "address": "922, Stapleton Estate, St. Peter's, Saint Peter Basseterre, 09760 Saint Kitts, Saint Kitts and Nevis"
    },
    {
      "lat": 17.259984404098397,
      "lon": -62.74187523688029,
      "geoinfo": {
        "display_name": "Port Zante, Basseterre, Saint George Basseterre, Saint Kitts, Saint Kitts and Nevis",
        "road": null,
        "house_number": null,
        "neighbourhood": null,
        "suburb": "Port Zante",
        "city_district": null,
        "city": "Basseterre",
        "state": null,
        "postcode": null,
        "country": "Saint Kitts and Nevis",
        "country_code": "kn"
      },
      "address": "553, Port Zante, Basseterre, Saint George Basseterre, 91847 Saint Kitts, Saint Kitts and Nevis"
    },
    {
      "lat": 17.29685542234463,
      "lon": -62.74325765241787,
      "geoinfo": {
        "display_name": "Island Main Road, Boyds, Saint George Basseterre, Saint Kitts, Saint Kitts and Nevis",
        "road": "Island Main Road",
        "house_number": null,
        "neighbourhood": null,
        "suburb": null,
        "city_district": null,
        "city": "Boyds",
        "state": null,
        "postcode": null,
        "country": "Saint Kitts and Nevis",
        "country_code": "kn"
      },
      "address": "815, Island Main Road, Boyds, Saint George Basseterre, 29136 Saint Kitts, Saint Kitts and Nevis"
    },
    {
      "lat": 17.285102964643944,
      "lon": -62.68633497597237,
      "geoinfo": {
        "display_name": "Trevor Levine Drive, Suncrest, Kittian Village, Saint George Basseterre, Saint Kitts, Saint Kitts and Nevis",
        "road": "Trevor Levine Drive",
        "house_number": null,
        "neighbourhood": null,
        "suburb": "Suncrest",
        "city_district": null,
        "city": "Kittian Village",
        "state": null,
        "postcode": null,
        "country": "Saint Kitts and Nevis",
        "country_code": "kn"
      },
      "address": "749, Trevor Levine Drive, Suncrest, Kittian Village, Saint George Basseterre, 82147 Saint Kitts, Saint Kitts and Nevis"
    },
    {
      "lat": 17.31601966378074,
      "lon": -62.703854319555916,
      "geoinfo": {
        "display_name": "Upper Conaree, Saint Peter Basseterre, Saint Kitts, Saint Kitts and Nevis",
        "road": null,
        "house_number": null,
        "neighbourhood": null,
        "suburb": null,
        "city_district": null,
        "city": "Upper Conaree",
        "state": null,
        "postcode": null,
        "country": "Saint Kitts and Nevis",
        "country_code": "kn"
      },
      "address": "187, Upper Conaree, Saint Peter Basseterre, 09095 Saint Kitts, Saint Kitts and Nevis"
    },
    {
      "lat": 17.32196853084179,
      "lon": -62.752590813726655,
      "geoinfo": {
        "display_name": "Lower New Road, New Road, Saint George Basseterre, Saint Kitts, Saint Kitts and Nevis",
        "road": null,
        "house_number": null,
        "neighbourhood": null,
        "suburb": "Lower New Road",
        "city_district": null,
        "city": "New Road",
        "state": null,
        "postcode": null,
        "country": "Saint Kitts and Nevis",
        "country_code": "kn"
      },
      "address": "497, Lower New Road, New Road, Saint George Basseterre, 21992 Saint Kitts, Saint Kitts and Nevis"
    },
    {
      "lat": 17.32929044583904,
      "lon": -62.70263868697378,
      "geoinfo": {
        "display_name": "Canada, Saint Peter Basseterre, Saint Kitts, Saint Kitts and Nevis",
        "road": null,
        "house_number": null,
        "neighbourhood": null,
        "suburb": null,
        "city_district": null,
        "city": "Canada",
        "state": null,
        "postcode": null,
        "country": "Saint Kitts and Nevis",
        "country_code": "kn"
      },
      "address": "031, Canada, Saint Peter Basseterre, 92462 Saint Kitts, Saint Kitts and Nevis"
    },
    {
      "lat": 17.26374297301278,
      "lon": -62.74765529612421,
      "geoinfo": {
        "display_name": "Port Zante, Basseterre, Saint George Basseterre, Saint Kitts, Saint Kitts and Nevis",
        "road": null,
        "house_number": null,
        "neighbourhood": null,
        "suburb": "Port Zante",
        "city_district": null,
        "city": "Basseterre",
        "state": null,
        "postcode": null,
        "country": "Saint Kitts and Nevis",
        "country_code": "kn"
      },
      "address": "311, Port Zante, Basseterre, Saint George Basseterre, 91353 Saint Kitts, Saint Kitts and Nevis"
    },
    {
      "lat": 17.260594067146275,
      "lon": -62.709083975711124,
      "geoinfo": {
        "display_name": "Suncrest, Basseterre, Saint George Basseterre, Saint Kitts, Saint Kitts and Nevis",
        "road": null,
        "house_number": null,
        "neighbourhood": null,
        "suburb": "Suncrest",
        "city_district": null,
        "city": "Basseterre",
        "state": null,
        "postcode": null,
        "country": "Saint Kitts and Nevis",
        "country_code": "kn"
      },
      "address": "075, Suncrest, Basseterre, Saint George Basseterre, 40833 Saint Kitts, Saint Kitts and Nevis"
    },
    {
      "lat": 17.276855875527325,
      "lon": -62.70287041505665,
      "geoinfo": {
        "display_name": "The Moorings, Suncrest, Basseterre, Saint George Basseterre, Saint Kitts, Saint Kitts and Nevis",
        "road": null,
        "house_number": null,
        "neighbourhood": "The Moorings",
        "suburb": "Suncrest",
        "city_district": null,
        "city": "Basseterre",
        "state": null,
        "postcode": null,
        "country": "Saint Kitts and Nevis",
        "country_code": "kn"
      },
      "address": "512, The Moorings, Suncrest, Basseterre, Saint George Basseterre, 91949 Saint Kitts, Saint Kitts and Nevis"
    },
    {
      "lat": 17.31633454383426,
      "lon": -62.73219186939301,
      "geoinfo": {
        "display_name": "Upper Monkey Hill Road, Upper Monkey Hill, Monkey Hill, Saint Peter Basseterre, Saint Kitts, Saint Kitts and Nevis",
        "road": "Upper Monkey Hill Road",
        "house_number": null,
        "neighbourhood": "Upper Monkey Hill",
        "suburb": null,
        "city_district": null,
        "city": "Monkey Hill",
        "state": null,
        "postcode": null,
        "country": "Saint Kitts and Nevis",
        "country_code": "kn"
      },
      "address": "848, Upper Monkey Hill Road, Upper Monkey Hill, Monkey Hill, Saint Peter Basseterre, 04061 Saint Kitts, Saint Kitts and Nevis"
    },
    {
      "lat": 17.294501649354636,
      "lon": -62.71584548524995,
      "geoinfo": {
        "display_name": "Bay Road, Soho, Port Zante, Basseterre, Saint George Basseterre, Saint Kitts, Saint Kitts and Nevis",
        "road": "Bay Road",
        "house_number": null,
        "neighbourhood": "Soho",
        "suburb": "Port Zante",
        "city_district": null,
        "city": "Basseterre",
        "state": null,
        "postcode": null,
        "country": "Saint Kitts and Nevis",
        "country_code": "kn"
      },
      "address": "962, Bay Road, Soho, Port Zante, Basseterre, Saint George Basseterre, 43145 Saint Kitts, Saint Kitts and Nevis"
    },
    {
      "lat": 17.331024337756897,
      "lon": -62.72159927742326,
      "geoinfo": {
        "display_name": "Stapleton Village, Ogees, Saint Peter Basseterre, Saint Kitts, Saint Kitts and Nevis",
        "road": null,
        "house_number": null,
        "neighbourhood": "Stapleton Village",
        "suburb": null,
        "city_district": null,
        "city": "Ogees",
        "state": null,
        "postcode": null,
        "country": "Saint Kitts and Nevis",
        "country_code": "kn"
      },
      "address": "581, Stapleton Village, Ogees, Saint Peter Basseterre, 91030 Saint Kitts, Saint Kitts and Nevis"
    },
    {
      "lat": 17.31491355868249,
      "lon": -62.70820478098519,
      "geoinfo": {
        "display_name": "Golden Rock Commercial Development, Conaree, Saint Peter Basseterre, Saint Kitts, Saint Kitts and Nevis",
        "road": null,
        "house_number": null,
        "neighbourhood": null,
        "suburb": null,
        "city_district": null,
        "city": "Conaree",
        "state": null,
        "postcode": null,
        "country": "Saint Kitts and Nevis",
        "country_code": "kn"
      },
      "address": "933, Golden Rock Commercial Development, Conaree, Saint Peter Basseterre, 82663 Saint Kitts, Saint Kitts and Nevis"
    },
    {
      "lat": 17.296042734090307,
      "lon": -62.680193816404824,
      "geoinfo": {
        "display_name": "St. Kitts Marriott Resort, Zenway Boulevard, Kittian Village, Saint George Basseterre, Saint Kitts, Saint Kitts and Nevis",
        "road": "Zenway Boulevard",
        "house_number": null,
        "neighbourhood": null,
        "suburb": null,
        "city_district": null,
        "city": "Kittian Village",
        "state": null,
        "postcode": null,
        "country": "Saint Kitts and Nevis",
        "country_code": "kn"
      },
      "address": "966, Zenway Boulevard, 68644 Basseterre, Saint Kitts and Nevis"
    },
    {
      "lat": 17.3210643281355,
      "lon": -62.733390417137336,
      "geoinfo": {
        "display_name": "Upper Monkey Hill, St. Peter's, Saint Peter Basseterre, Saint Kitts, Saint Kitts and Nevis",
        "road": null,
        "house_number": null,
        "neighbourhood": "Upper Monkey Hill",
        "suburb": null,
        "city_district": null,
        "city": "St. Peter's",
        "state": null,
        "postcode": null,
        "country": "Saint Kitts and Nevis",
        "country_code": "kn"
      },
      "address": "402, Upper Monkey Hill, St. Peter's, Saint Peter Basseterre, 00311 Saint Kitts, Saint Kitts and Nevis"
    },
    {
      "lat": 17.334461816355812,
      "lon": -62.70724477984064,
      "geoinfo": {
        "display_name": "Island Main Road, Canada, Saint Peter Basseterre, Saint Kitts, Saint Kitts and Nevis",
        "road": "Island Main Road",
        "house_number": null,
        "neighbourhood": null,
        "suburb": null,
        "city_district": null,
        "city": "Canada",
        "state": null,
        "postcode": null,
        "country": "Saint Kitts and Nevis",
        "country_code": "kn"
      },
      "address": "962, Island Main Road, Canada, Saint Peter Basseterre, 46989 Saint Kitts, Saint Kitts and Nevis"
    },
    {
      "lat": 17.276668268029145,
      "lon": -62.71159230999233,
      "geoinfo": {
        "display_name": "The Moorings, Suncrest, Basseterre, Saint George Basseterre, Saint Kitts, Saint Kitts and Nevis",
        "road": null,
        "house_number": null,
        "neighbourhood": "The Moorings",
        "suburb": "Suncrest",
        "city_district": null,
        "city": "Basseterre",
        "state": null,
        "postcode": null,
        "country": "Saint Kitts and Nevis",
        "country_code": "kn"
      },
      "address": "236, The Moorings, Suncrest, Basseterre, Saint George Basseterre, 65779 Saint Kitts, Saint Kitts and Nevis"
    },
    {
      "lat": 17.301183025398572,
      "lon": -62.73556854342185,
      "geoinfo": {
        "display_name": "Dewar's Estate, Lower New Road, Brumaire, Saint George Basseterre, Saint Kitts, Saint Kitts and Nevis",
        "road": null,
        "house_number": null,
        "neighbourhood": null,
        "suburb": "Lower New Road",
        "city_district": null,
        "city": "Brumaire",
        "state": null,
        "postcode": null,
        "country": "Saint Kitts and Nevis",
        "country_code": "kn"
      },
      "address": "428, Dewar's Estate, Lower New Road, Brumaire, Saint George Basseterre, 52821 Saint Kitts, Saint Kitts and Nevis"
    },
    {
      "lat": 17.28624477457375,
      "lon": -62.68280278521741,
      "geoinfo": {
        "display_name": "Zenway Boulevard, Kittian Village, Saint George Basseterre, Saint Kitts, Saint Kitts and Nevis",
        "road": "Zenway Boulevard",
        "house_number": null,
        "neighbourhood": null,
        "suburb": null,
        "city_district": null,
        "city": "Kittian Village",
        "state": null,
        "postcode": null,
        "country": "Saint Kitts and Nevis",
        "country_code": "kn"
      },
      "address": "126, Zenway Boulevard, Kittian Village, Saint George Basseterre, 39425 Saint Kitts, Saint Kitts and Nevis"
    },
    {
      "lat": 17.29652943480393,
      "lon": -62.73982734986207,
      "geoinfo": {
        "display_name": "Cayon Street, LaGuerite Village, Port Zante, Brumaire, Saint George Basseterre, Saint Kitts, Saint Kitts and Nevis",
        "road": "Cayon Street",
        "house_number": null,
        "neighbourhood": "LaGuerite Village",
        "suburb": "Port Zante",
        "city_district": null,
        "city": "Brumaire",
        "state": null,
        "postcode": null,
        "country": "Saint Kitts and Nevis",
        "country_code": "kn"
      },
      "address": "707, Cayon Street, LaGuerite Village, Port Zante, Brumaire, Saint George Basseterre, 50666 Saint Kitts, Saint Kitts and Nevis"
    },
    {
      "lat": 17.284762460508638,
      "lon": -62.702922616401516,
      "geoinfo": {
        "display_name": "Pelican Drive South, The Moorings, Suncrest, Basseterre, Saint George Basseterre, Saint Kitts, Saint Kitts and Nevis",
        "road": "Pelican Drive South",
        "house_number": null,
        "neighbourhood": "The Moorings",
        "suburb": "Suncrest",
        "city_district": null,
        "city": "Basseterre",
        "state": null,
        "postcode": null,
        "country": "Saint Kitts and Nevis",
        "country_code": "kn"
      },
      "address": "737, Pelican Drive South, The Moorings, Suncrest, Basseterre, Saint George Basseterre, 05090 Saint Kitts, Saint Kitts and Nevis"
    },
    {
      "lat": 17.323690664188913,
      "lon": -62.73204867279527,
      "geoinfo": {
        "display_name": "Stapleton Village, St. Peter's, Saint Peter Basseterre, Saint Kitts, Saint Kitts and Nevis",
        "road": null,
        "house_number": null,
        "neighbourhood": "Stapleton Village",
        "suburb": null,
        "city_district": null,
        "city": "St. Peter's",
        "state": null,
        "postcode": null,
        "country": "Saint Kitts and Nevis",
        "country_code": "kn"
      },
      "address": "696, Stapleton Village, St. Peter's, Saint Peter Basseterre, 44754 Saint Kitts, Saint Kitts and Nevis"
    },
    {
      "lat": 17.277459764048928,
      "lon": -62.70539829203779,
      "geoinfo": {
        "display_name": "The Moorings, Suncrest, Basseterre, Saint George Basseterre, Saint Kitts, Saint Kitts and Nevis",
        "road": null,
        "house_number": null,
        "neighbourhood": "The Moorings",
        "suburb": "Suncrest",
        "city_district": null,
        "city": "Basseterre",
        "state": null,
        "postcode": null,
        "country": "Saint Kitts and Nevis",
        "country_code": "kn"
      },
      "address": "317, The Moorings, Suncrest, Basseterre, Saint George Basseterre, 11070 Saint Kitts, Saint Kitts and Nevis"
    },
    {
      "lat": 17.307351661003025,
      "lon": -62.71469546358389,
      "geoinfo": {
        "display_name": "Technical Mission of the Republic of China (Taiwan), Wellington Road, Port Zante, New Road, Saint Peter Basseterre, Saint Kitts, Saint Kitts and Nevis",
        "road": "Wellington Road",
        "house_number": null,
        "neighbourhood": null,
        "suburb": "Port Zante",
        "city_district": null,
        "city": "New Road",
        "state": null,
        "postcode": null,
        "country": "Saint Kitts and Nevis",
        "country_code": "kn"
      },
      "address": "706, Wellington Road, 05806 Basseterre, Saint Kitts and Nevis"
    },
    {
      "lat": 17.284452294256216,
      "lon": -62.748776557195455,
      "geoinfo": {
        "display_name": "Buckley's Estate, Brumaire, Saint George Basseterre, Saint Kitts, Saint Kitts and Nevis",
        "road": null,
        "house_number": null,
        "neighbourhood": "Buckley's Estate",
        "suburb": null,
        "city_district": null,
        "city": "Brumaire",
        "state": null,
        "postcode": null,
        "country": "Saint Kitts and Nevis",
        "country_code": "kn"
      },
      "address": "905, Buckley's Estate, Brumaire, Saint George Basseterre, 93608 Saint Kitts, Saint Kitts and Nevis"
    },
    {
      "lat": 17.282241722380085,
      "lon": -62.71135575373726,
      "geoinfo": {
        "display_name": "Suncrest, Naomi Webster St., The Moorings, Suncrest, New Road, Saint George Basseterre, Saint Kitts, Saint Kitts and Nevis",
        "road": "Naomi Webster St.",
        "house_number": null,
        "neighbourhood": "The Moorings",
        "suburb": "Suncrest",
        "city_district": null,
        "city": "New Road",
        "state": null,
        "postcode": null,
        "country": "Saint Kitts and Nevis",
        "country_code": "kn"
      },
      "address": "681, Naomi Webster St., 75315 Basseterre, Saint Kitts and Nevis"
    },
    {
      "lat": 17.275029471772065,
      "lon": -62.690542504546286,
      "geoinfo": {
        "display_name": "Kittian Village, Saint George Basseterre, Saint Kitts, Saint Kitts and Nevis",
        "road": null,
        "house_number": null,
        "neighbourhood": null,
        "suburb": null,
        "city_district": null,
        "city": "Kittian Village",
        "state": null,
        "postcode": null,
        "country": "Saint Kitts and Nevis",
        "country_code": "kn"
      },
      "address": "555, Kittian Village, Saint George Basseterre, 33855 Saint Kitts, Saint Kitts and Nevis"
    },
    {
      "lat": 17.27542407668413,
      "lon": -62.707932271939725,
      "geoinfo": {
        "display_name": "The Moorings, Suncrest, Basseterre, Saint George Basseterre, Saint Kitts, Saint Kitts and Nevis",
        "road": null,
        "house_number": null,
        "neighbourhood": "The Moorings",
        "suburb": "Suncrest",
        "city_district": null,
        "city": "Basseterre",
        "state": null,
        "postcode": null,
        "country": "Saint Kitts and Nevis",
        "country_code": "kn"
      },
      "address": "731, The Moorings, Suncrest, Basseterre, Saint George Basseterre, 67103 Saint Kitts, Saint Kitts and Nevis"
    },
    {
      "lat": 17.317199575360625,
      "lon": -62.72675010805483,
      "geoinfo": {
        "display_name": "Lower Monkey Hill, La Monge, Saint Peter Basseterre, Saint Kitts, Saint Kitts and Nevis",
        "road": null,
        "house_number": null,
        "neighbourhood": "Lower Monkey Hill",
        "suburb": null,
        "city_district": null,
        "city": "La Monge",
        "state": null,
        "postcode": null,
        "country": "Saint Kitts and Nevis",
        "country_code": "kn"
      },
      "address": "096, Lower Monkey Hill, La Monge, Saint Peter Basseterre, 96427 Saint Kitts, Saint Kitts and Nevis"
    },
    {
      "lat": 17.338830359328604,
      "lon": -62.73495684035531,
      "geoinfo": {
        "display_name": "Ogees Road, Bayford's, Saint Mary Cayon, Saint Kitts, Saint Kitts and Nevis",
        "road": "Ogees Road",
        "house_number": null,
        "neighbourhood": null,
        "suburb": null,
        "city_district": null,
        "city": "Bayford's",
        "state": null,
        "postcode": null,
        "country": "Saint Kitts and Nevis",
        "country_code": "kn"
      },
      "address": "501, Ogees Road, 81022 Basseterre, Saint Kitts and Nevis"
    },
    {
      "lat": 17.30266627863965,
      "lon": -62.724601005225665,
      "geoinfo": {
        "display_name": "Bernard Audain Drive, College Housing, Lower New Road, New Road, Saint George Basseterre, Saint Kitts, Saint Kitts and Nevis",
        "road": "Bernard Audain Drive",
        "house_number": null,
        "neighbourhood": "College Housing",
        "suburb": "Lower New Road",
        "city_district": null,
        "city": "New Road",
        "state": null,
        "postcode": null,
        "country": "Saint Kitts and Nevis",
        "country_code": "kn"
      },
      "address": "887, Bernard Audain Drive, College Housing, Lower New Road, New Road, Saint George Basseterre, 60621 Saint Kitts, Saint Kitts and Nevis"
    },
    {
      "lat": 17.287437908453303,
      "lon": -62.69101022730655,
      "geoinfo": {
        "display_name": "Suncrest, Kittian Village, Saint George Basseterre, Saint Kitts, Saint Kitts and Nevis",
        "road": null,
        "house_number": null,
        "neighbourhood": null,
        "suburb": "Suncrest",
        "city_district": null,
        "city": "Kittian Village",
        "state": null,
        "postcode": null,
        "country": "Saint Kitts and Nevis",
        "country_code": "kn"
      },
      "address": "135, Suncrest, 62437 Basseterre, Saint Kitts and Nevis"
    },
    {
      "lat": 17.33133566004401,
      "lon": -62.74862725000689,
      "geoinfo": {
        "display_name": "Fountain, St. Peter's, Saint Peter Basseterre, Saint Kitts, Saint Kitts and Nevis",
        "road": null,
        "house_number": null,
        "neighbourhood": "Fountain",
        "suburb": null,
        "city_district": null,
        "city": "St. Peter's",
        "state": null,
        "postcode": null,
        "country": "Saint Kitts and Nevis",
        "country_code": "kn"
      },
      "address": "583, Fountain, St. Peter's, Saint Peter Basseterre, 91879 Saint Kitts, Saint Kitts and Nevis"
    },
    {
      "lat": 17.28738509225498,
      "lon": -62.74432492225491,
      "geoinfo": {
        "display_name": "Buckley's Estate, Brumaire, Saint George Basseterre, Saint Kitts, Saint Kitts and Nevis",
        "road": null,
        "house_number": null,
        "neighbourhood": "Buckley's Estate",
        "suburb": null,
        "city_district": null,
        "city": "Brumaire",
        "state": null,
        "postcode": null,
        "country": "Saint Kitts and Nevis",
        "country_code": "kn"
      },
      "address": "634, Buckley's Estate, Brumaire, Saint George Basseterre, 05053 Saint Kitts, Saint Kitts and Nevis"
    },
    {
      "lat": 17.290908453072237,
      "lon": -62.703332271783765,
      "geoinfo": {
        "display_name": "The Moorings, Suncrest, New Road, Saint George Basseterre, Saint Kitts, Saint Kitts and Nevis",
        "road": null,
        "house_number": null,
        "neighbourhood": "The Moorings",
        "suburb": "Suncrest",
        "city_district": null,
        "city": "New Road",
        "state": null,
        "postcode": null,
        "country": "Saint Kitts and Nevis",
        "country_code": "kn"
      },
      "address": "196, The Moorings, 11975 Basseterre, Saint Kitts and Nevis"
    },
    {
      "lat": 17.297183567269947,
      "lon": -62.69484951932962,
      "geoinfo": {
        "display_name": "Lucas, Saint Peter Basseterre, Saint Kitts, Saint Kitts and Nevis",
        "road": null,
        "house_number": null,
        "neighbourhood": null,
        "suburb": null,
        "city_district": null,
        "city": "Lucas",
        "state": null,
        "postcode": null,
        "country": "Saint Kitts and Nevis",
        "country_code": "kn"
      },
      "address": "024, Lucas, Saint Peter Basseterre, 73727 Saint Kitts, Saint Kitts and Nevis"
    },
    {
      "lat": 17.308923393699406,
      "lon": -62.68858715970109,
      "geoinfo": {
        "display_name": "Koi Resort, Half Moon Drive, Lucas, Saint Peter Basseterre, Saint Kitts, Saint Kitts and Nevis",
        "road": "Half Moon Drive",
        "house_number": null,
        "neighbourhood": null,
        "suburb": null,
        "city_district": null,
        "city": "Lucas",
        "state": null,
        "postcode": null,
        "country": "Saint Kitts and Nevis",
        "country_code": "kn"
      },
      "address": "036, Half Moon Drive, 33937 Basseterre, Saint Kitts and Nevis"
    },
    {
      "lat": 17.306879182033544,
      "lon": -62.72055035010858,
      "geoinfo": {
        "display_name": "Robert L. Bradshaw International Airport, Sugar Factory Road, Port Zante, New Road, Saint George Basseterre, Saint Kitts, Saint Kitts and Nevis",
        "road": "Sugar Factory Road",
        "house_number": null,
        "neighbourhood": null,
        "suburb": "Port Zante",
        "city_district": null,
        "city": "New Road",
        "state": null,
        "postcode": null,
        "country": "Saint Kitts and Nevis",
        "country_code": "kn"
      },
      "address": "139, Sugar Factory Road, 00398 Basseterre, Saint Kitts and Nevis"
    },
    {
      "lat": 17.267882547486842,
      "lon": -62.722994917051736,
      "geoinfo": {
        "display_name": "Port Zante, Basseterre, Saint George Basseterre, Saint Kitts, Saint Kitts and Nevis",
        "road": null,
        "house_number": null,
        "neighbourhood": null,
        "suburb": "Port Zante",
        "city_district": null,
        "city": "Basseterre",
        "state": null,
        "postcode": null,
        "country": "Saint Kitts and Nevis",
        "country_code": "kn"
      },
      "address": "866, Port Zante, Basseterre, Saint George Basseterre, 47893 Saint Kitts, Saint Kitts and Nevis"
    },
    {
      "lat": 17.31779338666886,
      "lon": -62.733690174801254,
      "geoinfo": {
        "display_name": "Upper Monkey Hill Road, Upper Monkey Hill, Monkey Hill, Saint Peter Basseterre, Saint Kitts, Saint Kitts and Nevis",
        "road": "Upper Monkey Hill Road",
        "house_number": null,
        "neighbourhood": "Upper Monkey Hill",
        "suburb": null,
        "city_district": null,
        "city": "Monkey Hill",
        "state": null,
        "postcode": null,
        "country": "Saint Kitts and Nevis",
        "country_code": "kn"
      },
      "address": "136, Upper Monkey Hill Road, Upper Monkey Hill, Monkey Hill, Saint Peter Basseterre, 12161 Saint Kitts, Saint Kitts and Nevis"
    },
    {
      "lat": 17.302953151042875,
      "lon": -62.69999979094712,
      "geoinfo": {
        "display_name": "Lucas, Saint Peter Basseterre, Saint Kitts, Saint Kitts and Nevis",
        "road": null,
        "house_number": null,
        "neighbourhood": null,
        "suburb": null,
        "city_district": null,
        "city": "Lucas",
        "state": null,
        "postcode": null,
        "country": "Saint Kitts and Nevis",
        "country_code": "kn"
      },
      "address": "250, Lucas, Saint Peter Basseterre, 78926 Saint Kitts, Saint Kitts and Nevis"
    },
    {
      "lat": 17.28719785765275,
      "lon": -62.71010547499771,
      "geoinfo": {
        "display_name": "Suncrest, Naomi Webster St., The Moorings, Suncrest, New Road, Saint George Basseterre, Saint Kitts, Saint Kitts and Nevis",
        "road": "Naomi Webster St.",
        "house_number": null,
        "neighbourhood": "The Moorings",
        "suburb": "Suncrest",
        "city_district": null,
        "city": "New Road",
        "state": null,
        "postcode": null,
        "country": "Saint Kitts and Nevis",
        "country_code": "kn"
      },
      "address": "922, Naomi Webster St., 75151 Basseterre, Saint Kitts and Nevis"
    },
    {
      "lat": 17.268459623326052,
      "lon": -62.73488099754371,
      "geoinfo": {
        "display_name": "Port Zante, Basseterre, Saint George Basseterre, Saint Kitts, Saint Kitts and Nevis",
        "road": null,
        "house_number": null,
        "neighbourhood": null,
        "suburb": "Port Zante",
        "city_district": null,
        "city": "Basseterre",
        "state": null,
        "postcode": null,
        "country": "Saint Kitts and Nevis",
        "country_code": "kn"
      },
      "address": "519, Port Zante, Basseterre, Saint George Basseterre, 45067 Saint Kitts, Saint Kitts and Nevis"
    },
    {
      "lat": 17.28355382926361,
      "lon": -62.722966032434904,
      "geoinfo": {
        "display_name": "Port Zante, Basseterre, Saint George Basseterre, Saint Kitts, Saint Kitts and Nevis",
        "road": null,
        "house_number": null,
        "neighbourhood": null,
        "suburb": "Port Zante",
        "city_district": null,
        "city": "Basseterre",
        "state": null,
        "postcode": null,
        "country": "Saint Kitts and Nevis",
        "country_code": "kn"
      },
      "address": "298, Port Zante, Basseterre, Saint George Basseterre, 51878 Saint Kitts, Saint Kitts and Nevis"
    },
    {
      "lat": 17.27240421582021,
      "lon": -62.70189757866483,
      "geoinfo": {
        "display_name": "The Moorings, Suncrest, Basseterre, Saint George Basseterre, Saint Kitts, Saint Kitts and Nevis",
        "road": null,
        "house_number": null,
        "neighbourhood": "The Moorings",
        "suburb": "Suncrest",
        "city_district": null,
        "city": "Basseterre",
        "state": null,
        "postcode": null,
        "country": "Saint Kitts and Nevis",
        "country_code": "kn"
      },
      "address": "335, The Moorings, Suncrest, Basseterre, Saint George Basseterre, 68590 Saint Kitts, Saint Kitts and Nevis"
    },
    {
      "lat": 17.317635843430107,
      "lon": -62.71089472740968,
      "geoinfo": {
        "display_name": "25, Island Main Road, Golden Rock Commercial Development, Conaree, Saint Peter Basseterre, Saint Kitts, Saint Kitts and Nevis",
        "road": "Island Main Road",
        "house_number": null,
        "neighbourhood": null,
        "suburb": null,
        "city_district": null,
        "city": "Conaree",
        "state": null,
        "postcode": null,
        "country": "Saint Kitts and Nevis",
        "country_code": "kn"
      },
      "address": "25, Island Main Road, Golden Rock Commercial Development, Conaree, Saint Peter Basseterre, 15509 Saint Kitts, Saint Kitts and Nevis"
    },
    {
      "lat": 17.318139137487222,
      "lon": -62.7320756672939,
      "geoinfo": {
        "display_name": "Upper Monkey Hill Road, Upper Monkey Hill, Monkey Hill, Saint Peter Basseterre, Saint Kitts, Saint Kitts and Nevis",
        "road": "Upper Monkey Hill Road",
        "house_number": null,
        "neighbourhood": "Upper Monkey Hill",
        "suburb": null,
        "city_district": null,
        "city": "Monkey Hill",
        "state": null,
        "postcode": null,
        "country": "Saint Kitts and Nevis",
        "country_code": "kn"
      },
      "address": "071, Upper Monkey Hill Road, Upper Monkey Hill, Monkey Hill, Saint Peter Basseterre, 17747 Saint Kitts, Saint Kitts and Nevis"
    },
    {
      "lat": 17.281916440076827,
      "lon": -62.749116306209864,
      "geoinfo": {
        "display_name": "Buckley's Estate, Brumaire, Saint George Basseterre, Saint Kitts, Saint Kitts and Nevis",
        "road": null,
        "house_number": null,
        "neighbourhood": "Buckley's Estate",
        "suburb": null,
        "city_district": null,
        "city": "Brumaire",
        "state": null,
        "postcode": null,
        "country": "Saint Kitts and Nevis",
        "country_code": "kn"
      },
      "address": "941, Buckley's Estate, Brumaire, Saint George Basseterre, 07647 Saint Kitts, Saint Kitts and Nevis"
    },
    {
      "lat": 17.332579207943862,
      "lon": -62.71561327036914,
      "geoinfo": {
        "display_name": "St. Peter's, Saint Peter Basseterre, Saint Kitts, Saint Kitts and Nevis",
        "road": null,
        "house_number": null,
        "neighbourhood": null,
        "suburb": null,
        "city_district": null,
        "city": "St. Peter's",
        "state": null,
        "postcode": null,
        "country": "Saint Kitts and Nevis",
        "country_code": "kn"
      },
      "address": "447, St. Peter's, Saint Peter Basseterre, 67503 Saint Kitts, Saint Kitts and Nevis"
    },
    {
      "lat": 17.285940091142447,
      "lon": -62.734648626222416,
      "geoinfo": {
        "display_name": "Fort Thomas, Wigley Avenue, Irish Town, Port Zante, Brumaire, Saint George Basseterre, Saint Kitts, Saint Kitts and Nevis",
        "road": "Wigley Avenue",
        "house_number": null,
        "neighbourhood": "Irish Town",
        "suburb": "Port Zante",
        "city_district": null,
        "city": "Brumaire",
        "state": null,
        "postcode": null,
        "country": "Saint Kitts and Nevis",
        "country_code": "kn"
      },
      "address": "524, Wigley Avenue, 94234 Basseterre, Saint Kitts and Nevis"
    },
    {
      "lat": 17.280585874944208,
      "lon": -62.68616874586559,
      "geoinfo": {
        "display_name": "Timothy Beach Resort, Frigate Bay Road, Kittian Village, Saint George Basseterre, Saint Kitts, Saint Kitts and Nevis",
        "road": "Frigate Bay Road",
        "house_number": null,
        "neighbourhood": null,
        "suburb": null,
        "city_district": null,
        "city": "Kittian Village",
        "state": null,
        "postcode": null,
        "country": "Saint Kitts and Nevis",
        "country_code": "kn"
      },
      "address": "049, Frigate Bay Road, 77919 Basseterre, Saint Kitts and Nevis"
    }
  ],
  "updated_at": "2025-10-21T20:41:52.213197+00:00",
  "_kind": "geo_samples"
}