{
  "country_code": "NG",
  "country": "Nigeria",
  "city": "Afikpo",
  "geonameid": 2352250,
  "target_addresses": 3,
  "samples": [
    {
      "lat": 5.8856204793040865,
      "lon": 7.91611374825617,
      "geoinfo": {
        "display_name": "Magregor College, F112, Ozara-Ukwu, Afikpo North, Ebonyi State, Nigeria",
        "road": "F112",
        "house_number": null,
        "neighbourhood": null,
        "suburb": null,
        "city_district": null,
        "city": "Ozara-Ukwu",
        "state": "Ebonyi State",
        "postcode": null,
        "country": "Nigeria",
        "country_code": "ng"
      },
      "address": "F112, Afikpo, Ebonyi State, Nigeria"
    },
    {
      "lat": 5.909984833225748,
      "lon": 7.895258823699633,
      "geoinfo": {
        "display_name": "Amaseri, Afikpo North, Ebonyi State, Nigeria",
        "road": null,
        "house_number": null,
        "neighbourhood": null,
        "suburb": null,
        "city_district": null,
        "city": "Amaseri",
        "state": "Ebonyi State",
        "postcode": null,
        "country": "Nigeria",
        "country_code": "ng"
      },
      "address": "517, Amaseri, Afikpo North, 02292 Ebonyi State, Nigeria"
    },
    {
      "lat": 5.9010995659396315,
      "lon": 7.906310408454684,
      "geoinfo": {
        "display_name": "F112, Ozara-Ukwu, Afikpo North, Ebonyi State, Nigeria",
        "road": "F112",
        "house_number": null,
        "neighbourhood": null,
        "suburb": null,
        "city_district": null,
        "city": "Ozara-Ukwu",
        "state": "Ebonyi State",
        "postcode": null,
        "country": "Nigeria",
        "country_code": "ng"
      },
      "address": "F112, Ozara-Ukwu, Afikpo North, 29141 Ebonyi State, Nigeria"
    }
  ],
  "updated_at": "2025-10-19T05:57:48.027449+00:00",
  "_kind": "geo_samples"
}