{
  "country_code": "KI",
  "country": "Kiribati",
  "city": "Tarawa",
  "geonameid": 2110257,
  "target_addresses": 100,
  "samples": [
    {
      "lat": 1.3087391883509667,
      "lon": 172.95758883812852,
      "geoinfo": {
        "display_name": "Bairiki, South Tarawa, Gilbert Islands, Kiribati",
        "road": null,
        "house_number": null,
        "neighbourhood": null,
        "suburb": null,
        "city_district": null,
        "city": "Bairiki",
        "state": "Gilbert Islands",
        "postcode": null,
        "country": "Kiribati",
        "country_code": "ki"
      },
      "address": "Tarawa, Gilbert Islands, Kiribati"
    },
    {
      "lat": 1.3232951974640974,
      "lon": 172.96580022900397,
      "geoinfo": {
        "display_name": "Tabonkabwauea, Bairiki, South Tarawa, Gilbert Islands, Kiribati",
        "road": null,
        "house_number": null,
        "neighbourhood": "Tabonkabwauea",
        "suburb": null,
        "city_district": null,
        "city": "South Tarawa",
        "state": "Gilbert Islands",
        "postcode": null,
        "country": "Kiribati",
        "country_code": "ki"
      },
      "address": "Tabonkabwauea, Tarawa, Gilbert Islands, Kiribati"
    },
    {
      "lat": 1.3397782090746917,
      "lon": 173.0133255651567,
      "geoinfo": {
        "display_name": "Fair Price, Main Road, Teaoerereke, South Tarawa, Gilbert Islands, Kiribati",
        "road": "Main Road",
        "house_number": null,
        "neighbourhood": null,
        "suburb": null,
        "city_district": null,
        "city": "South Tarawa",
        "state": "Gilbert Islands",
        "postcode": null,
        "country": "Kiribati",
        "country_code": "ki"
      },
      "address": "Main Road, Tarawa, Gilbert Islands, Kiribati"
    },
    {
      "lat": 1.3241931998373795,
      "lon": 172.99896134067077,
      "geoinfo": {
        "display_name": "Uenikai II Maneaba, Nanikai Clinic Access Road, Nanikai, South Tarawa, Gilbert Islands, Kiribati",
        "road": "Nanikai Clinic Access Road",
        "house_number": null,
        "neighbourhood": null,
        "suburb": null,
        "city_district": null,
        "city": "South Tarawa",
        "state": "Gilbert Islands",
        "postcode": null,
        "country": "Kiribati",
        "country_code": "ki"
      },
      "address": "Nanikai Clinic Access Road, Tarawa, Gilbert Islands, Kiribati"
    },
    {
      "lat": 1.3256318842808383,
      "lon": 172.9917015605466,
      "geoinfo": {
        "display_name": "Bairiki Causeway, Nanikai, South Tarawa, Gilbert Islands, Kiribati",
        "road": "Bairiki Causeway",
        "house_number": null,
        "neighbourhood": null,
        "suburb": null,
        "city_district": null,
        "city": "South Tarawa",
        "state": "Gilbert Islands",
        "postcode": null,
        "country": "Kiribati",
        "country_code": "ki"
      },
      "address": "Bairiki Causeway, Tarawa, Gilbert Islands, Kiribati"
    },
    {
      "lat": 1.3315633333122714,
      "lon": 173.00598855913393,
      "geoinfo": {
        "display_name": "Bishop's House, 79, MSC Teaoraereke, Teaoraereke, South Tarawa, Gilbert Islands, Kiribati",
        "road": "MSC Teaoraereke",
        "house_number": "79",
        "neighbourhood": null,
        "suburb": null,
        "city_district": null,
        "city": "South Tarawa",
        "state": "Gilbert Islands",
        "postcode": null,
        "country": "Kiribati",
        "country_code": "ki"
      },
      "address": "79 MSC Teaoraereke, Tarawa, Gilbert Islands, Kiribati"
    },
    {
      "lat": 1.3330244685725583,
      "lon": 172.97128445568654,
      "geoinfo": {
        "display_name": "Bairiki Side, Nippon Causeway, Tabonkabwauea, Bairiki, South Tarawa, Gilbert Islands, Kiribati",
        "road": "Nippon Causeway",
        "house_number": null,
        "neighbourhood": "Tabonkabwauea",
        "suburb": null,
        "city_district": null,
        "city": "South Tarawa",
        "state": "Gilbert Islands",
        "postcode": null,
        "country": "Kiribati",
        "country_code": "ki"
      },
      "address": "Nippon Causeway, Tarawa, Gilbert Islands, Kiribati"
    },
    {
      "lat": 1.3223493293192605,
      "lon": 172.97407080534254,
      "geoinfo": {
        "display_name": "Taken Bairiki Primary School, Stadium Road, Tabonkabwauea, Bairiki, South Tarawa, Gilbert Islands, Kiribati",
        "road": "Stadium Road",
        "house_number": null,
        "neighbourhood": "Tabonkabwauea",
        "suburb": null,
        "city_district": null,
        "city": "South Tarawa",
        "state": "Gilbert Islands",
        "postcode": null,
        "country": "Kiribati",
        "country_code": "ki"
      },
      "address": "Stadium Road, Tarawa, Gilbert Islands, Kiribati"
    },
    {
      "lat": 1.3250367608879663,
      "lon": 173.00646582859736,
      "geoinfo": {
        "display_name": "Senior Campus for Saint Louis High School, MSC Teaoraereke, Teaoerereke, South Tarawa, Gilbert Islands, Kiribati",
        "road": "MSC Teaoraereke",
        "house_number": null,
        "neighbourhood": null,
        "suburb": null,
        "city_district": null,
        "city": "South Tarawa",
        "state": "Gilbert Islands",
        "postcode": null,
        "country": "Kiribati",
        "country_code": "ki"
      },
      "address": "MSC Teaoraereke, Tarawa, Gilbert Islands, Kiribati"
    },
    {
      "lat": 1.3334478856700303,
      "lon": 172.97906047340936,
      "geoinfo": {
        "display_name": "Tokatarawa Maneaba, Beach Road, Tabon te Uaabu, Bairiki, South Tarawa, Gilbert Islands, Kiribati",
        "road": "Beach Road",
        "house_number": null,
        "neighbourhood": null,
        "suburb": null,
        "city_district": null,
        "city": "South Tarawa",
        "state": "Gilbert Islands",
        "postcode": null,
        "country": "Kiribati",
        "country_code": "ki"
      },
      "address": "Beach Road, Tarawa, Gilbert Islands, Kiribati"
    },
    {
      "lat": 1.3315908542159565,
      "lon": 173.0209145566827,
      "geoinfo": {
        "display_name": "Rannaba Street, Teaoerereke, South Tarawa, Gilbert Islands, Kiribati",
        "road": "Rannaba Street",
        "house_number": null,
        "neighbourhood": null,
        "suburb": null,
        "city_district": null,
        "city": "South Tarawa",
        "state": "Gilbert Islands",
        "postcode": null,
        "country": "Kiribati",
        "country_code": "ki"
      },
      "address": "Rannaba Street, Tarawa, Gilbert Islands, Kiribati"
    },
    {
      "lat": 1.329367933530659,
      "lon": 173.0168867988753,
      "geoinfo": {
        "display_name": "USP Kiribati Campus, USP Road, Teaoerereke, South Tarawa, Gilbert Islands, Kiribati",
        "road": "USP Road",
        "house_number": null,
        "neighbourhood": null,
        "suburb": null,
        "city_district": null,
        "city": "South Tarawa",
        "state": "Gilbert Islands",
        "postcode": null,
        "country": "Kiribati",
        "country_code": "ki"
      },
      "address": "USP Road, Tarawa, Gilbert Islands, Kiribati"
    },
    {
      "lat": 1.3635980481932963,
      "lon": 172.97997952399243,
      "geoinfo": {
        "display_name": "Galloping Gus, Nippon Causeway, Betio, Gilbert Islands, Kiribati",
        "road": "Nippon Causeway",
        "house_number": null,
        "neighbourhood": null,
        "suburb": null,
        "city_district": null,
        "city": "Betio",
        "state": "Gilbert Islands",
        "postcode": null,
        "country": "Kiribati",
        "country_code": "ki"
      },
      "address": "334, Nippon Causeway, Tarawa, 61950 Gilbert Islands, Kiribati"
    },
    {
      "lat": 1.3412275445308106,
      "lon": 172.98432581487643,
      "geoinfo": {
        "display_name": "Tabonkabwauea, Bairiki, South Tarawa, Gilbert Islands, Kiribati",
        "road": null,
        "house_number": null,
        "neighbourhood": "Tabonkabwauea",
        "suburb": null,
        "city_district": null,
        "city": "South Tarawa",
        "state": "Gilbert Islands",
        "postcode": null,
        "country": "Kiribati",
        "country_code": "ki"
      },
      "address": "945, Tabonkabwauea, Bairiki, South Tarawa, 62393 Gilbert Islands, Kiribati"
    },
    {
      "lat": 1.355600733976427,
      "lon": 173.00517787295422,
      "geoinfo": {
        "display_name": "Teaoraereke, South Tarawa, Gilbert Islands, Kiribati",
        "road": null,
        "house_number": null,
        "neighbourhood": null,
        "suburb": null,
        "city_district": null,
        "city": "South Tarawa",
        "state": "Gilbert Islands",
        "postcode": null,
        "country": "Kiribati",
        "country_code": "ki"
      },
      "address": "434, Teaoraereke, South Tarawa, 45106 Gilbert Islands, Kiribati"
    },
    {
      "lat": 1.3596384938861361,
      "lon": 173.00035448383693,
      "geoinfo": {
        "display_name": "Teaoraereke, South Tarawa, Gilbert Islands, Kiribati",
        "road": null,
        "house_number": null,
        "neighbourhood": null,
        "suburb": null,
        "city_district": null,
        "city": "South Tarawa",
        "state": "Gilbert Islands",
        "postcode": null,
        "country": "Kiribati",
        "country_code": "ki"
      },
      "address": "380, Teaoraereke, South Tarawa, 64237 Gilbert Islands, Kiribati"
    },
    {
      "lat": 1.2892427829547493,
      "lon": 172.96725160932667,
      "geoinfo": {
        "display_name": "Bairiki, South Tarawa, Gilbert Islands, Kiribati",
        "road": null,
        "house_number": null,
        "neighbourhood": null,
        "suburb": null,
        "city_district": null,
        "city": "Bairiki",
        "state": "Gilbert Islands",
        "postcode": null,
        "country": "Kiribati",
        "country_code": "ki"
      },
      "address": "040, Bairiki, South Tarawa, 12601 Gilbert Islands, Kiribati"
    },
    {
      "lat": 1.3584924985179068,
      "lon": 172.96557189675528,
      "geoinfo": {
        "display_name": "Betio, Gilbert Islands, Kiribati",
        "road": null,
        "house_number": null,
        "neighbourhood": null,
        "suburb": null,
        "city_district": null,
        "city": "Betio",
        "state": "Gilbert Islands",
        "postcode": null,
        "country": "Kiribati",
        "country_code": "ki"
      },
      "address": "561, Tarawa, 44017 Gilbert Islands, Kiribati"
    },
    {
      "lat": 1.3321488646325854,
      "lon": 173.01896404558047,
      "geoinfo": {
        "display_name": "Rannaba Street, Teaoerereke, South Tarawa, Gilbert Islands, Kiribati",
        "road": "Rannaba Street",
        "house_number": null,
        "neighbourhood": null,
        "suburb": null,
        "city_district": null,
        "city": "South Tarawa",
        "state": "Gilbert Islands",
        "postcode": null,
        "country": "Kiribati",
        "country_code": "ki"
      },
      "address": "838, Rannaba Street, Teaoerereke, South Tarawa, 51979 Gilbert Islands, Kiribati"
    },
    {
      "lat": 1.2883779515277451,
      "lon": 172.9811639004996,
      "geoinfo": {
        "display_name": "Bairiki, South Tarawa, Gilbert Islands, Kiribati",
        "road": null,
        "house_number": null,
        "neighbourhood": null,
        "suburb": null,
        "city_district": null,
        "city": "Bairiki",
        "state": "Gilbert Islands",
        "postcode": null,
        "country": "Kiribati",
        "country_code": "ki"
      },
      "address": "850, Bairiki, South Tarawa, 15415 Gilbert Islands, Kiribati"
    },
    {
      "lat": 1.3604934778805338,
      "lon": 172.9705079116568,
      "geoinfo": {
        "display_name": "Bairiki, South Tarawa, Gilbert Islands, Kiribati",
        "road": null,
        "house_number": null,
        "neighbourhood": null,
        "suburb": null,
        "city_district": null,
        "city": "Bairiki",
        "state": "Gilbert Islands",
        "postcode": null,
        "country": "Kiribati",
        "country_code": "ki"
      },
      "address": "471, Bairiki, South Tarawa, 78462 Gilbert Islands, Kiribati"
    },
    {
      "lat": 1.3261883503262628,
      "lon": 173.01841712178842,
      "geoinfo": {
        "display_name": "Teaoraereke, South Tarawa, Gilbert Islands, Kiribati",
        "road": null,
        "house_number": null,
        "neighbourhood": null,
        "suburb": null,
        "city_district": null,
        "city": "South Tarawa",
        "state": "Gilbert Islands",
        "postcode": null,
        "country": "Kiribati",
        "country_code": "ki"
      },
      "address": "851, Teaoraereke, South Tarawa, 09876 Gilbert Islands, Kiribati"
    },
    {
      "lat": 1.3423190951836976,
      "lon": 172.97044118338687,
      "geoinfo": {
        "display_name": "Tabonkabwauea, Bairiki, South Tarawa, Gilbert Islands, Kiribati",
        "road": null,
        "house_number": null,
        "neighbourhood": "Tabonkabwauea",
        "suburb": null,
        "city_district": null,
        "city": "South Tarawa",
        "state": "Gilbert Islands",
        "postcode": null,
        "country": "Kiribati",
        "country_code": "ki"
      },
      "address": "343, Tabonkabwauea, Bairiki, South Tarawa, 99055 Gilbert Islands, Kiribati"
    },
    {
      "lat": 1.326283085567984,
      "lon": 172.99057849704977,
      "geoinfo": {
        "display_name": "Bairiki Causeway, Bairiki, South Tarawa, Gilbert Islands, Kiribati",
        "road": "Bairiki Causeway",
        "house_number": null,
        "neighbourhood": null,
        "suburb": null,
        "city_district": null,
        "city": "South Tarawa",
        "state": "Gilbert Islands",
        "postcode": null,
        "country": "Kiribati",
        "country_code": "ki"
      },
      "address": "394, Bairiki Causeway, Bairiki, South Tarawa, 59660 Gilbert Islands, Kiribati"
    },
    {
      "lat": 1.3032024846955417,
      "lon": 173.01048544036246,
      "geoinfo": {
        "display_name": "Nanikai, South Tarawa, Gilbert Islands, Kiribati",
        "road": null,
        "house_number": null,
        "neighbourhood": null,
        "suburb": null,
        "city_district": null,
        "city": "South Tarawa",
        "state": "Gilbert Islands",
        "postcode": null,
        "country": "Kiribati",
        "country_code": "ki"
      },
      "address": "597, Nanikai, South Tarawa, 68165 Gilbert Islands, Kiribati"
    },
    {
      "lat": 1.348156534932013,
      "lon": 172.97633821600067,
      "geoinfo": {
        "display_name": "Nanikai, South Tarawa, Gilbert Islands, Kiribati",
        "road": null,
        "house_number": null,
        "neighbourhood": null,
        "suburb": null,
        "city_district": null,
        "city": "South Tarawa",
        "state": "Gilbert Islands",
        "postcode": null,
        "country": "Kiribati",
        "country_code": "ki"
      },
      "address": "486, Nanikai, South Tarawa, 39993 Gilbert Islands, Kiribati"
    },
    {
      "lat": 1.3083320951456332,
      "lon": 172.97331516488413,
      "geoinfo": {
        "display_name": "Tabonkabwauea, Bairiki, South Tarawa, Gilbert Islands, Kiribati",
        "road": null,
        "house_number": null,
        "neighbourhood": "Tabonkabwauea",
        "suburb": null,
        "city_district": null,
        "city": "South Tarawa",
        "state": "Gilbert Islands",
        "postcode": null,
        "country": "Kiribati",
        "country_code": "ki"
      },
      "address": "143, Tabonkabwauea, Bairiki, South Tarawa, 38700 Gilbert Islands, Kiribati"
    },
    {
      "lat": 1.30423686466943,
      "lon": 173.0005485084561,
      "geoinfo": {
        "display_name": "Nanikai, South Tarawa, Gilbert Islands, Kiribati",
        "road": null,
        "house_number": null,
        "neighbourhood": null,
        "suburb": null,
        "city_district": null,
        "city": "South Tarawa",
        "state": "Gilbert Islands",
        "postcode": null,
        "country": "Kiribati",
        "country_code": "ki"
      },
      "address": "365, Nanikai, South Tarawa, 51047 Gilbert Islands, Kiribati"
    },
    {
      "lat": 1.333048638228396,
      "lon": 172.98908046814313,
      "geoinfo": {
        "display_name": "Bairiki Causeway, Bairiki, South Tarawa, Gilbert Islands, Kiribati",
        "road": "Bairiki Causeway",
        "house_number": null,
        "neighbourhood": null,
        "suburb": null,
        "city_district": null,
        "city": "South Tarawa",
        "state": "Gilbert Islands",
        "postcode": null,
        "country": "Kiribati",
        "country_code": "ki"
      },
      "address": "145, Bairiki Causeway, Bairiki, South Tarawa, 36128 Gilbert Islands, Kiribati"
    },
    {
      "lat": 1.3089477117139472,
      "lon": 172.9680185366957,
      "geoinfo": {
        "display_name": "Nanikai, South Tarawa, Gilbert Islands, Kiribati",
        "road": null,
        "house_number": null,
        "neighbourhood": null,
        "suburb": null,
        "city_district": null,
        "city": "South Tarawa",
        "state": "Gilbert Islands",
        "postcode": null,
        "country": "Kiribati",
        "country_code": "ki"
      },
      "address": "029, Nanikai, South Tarawa, 36082 Gilbert Islands, Kiribati"
    },
    {
      "lat": 1.3464202069354159,
      "lon": 172.95584890406033,
      "geoinfo": {
        "display_name": "Nippon Causeway, Betio, Gilbert Islands, Kiribati",
        "road": "Nippon Causeway",
        "house_number": null,
        "neighbourhood": null,
        "suburb": null,
        "city_district": null,
        "city": "Betio",
        "state": "Gilbert Islands",
        "postcode": null,
        "country": "Kiribati",
        "country_code": "ki"
      },
      "address": "826, Nippon Causeway, Tarawa, 37522 Gilbert Islands, Kiribati"
    },
    {
      "lat": 1.3083748381827451,
      "lon": 172.99678367452395,
      "geoinfo": {
        "display_name": "Nanikai, South Tarawa, Gilbert Islands, Kiribati",
        "road": null,
        "house_number": null,
        "neighbourhood": null,
        "suburb": null,
        "city_district": null,
        "city": "South Tarawa",
        "state": "Gilbert Islands",
        "postcode": null,
        "country": "Kiribati",
        "country_code": "ki"
      },
      "address": "899, Nanikai, South Tarawa, 83935 Gilbert Islands, Kiribati"
    },
    {
      "lat": 1.28624031150254,
      "lon": 172.9914870156807,
      "geoinfo": {
        "display_name": "Bairiki, South Tarawa, Gilbert Islands, Kiribati",
        "road": null,
        "house_number": null,
        "neighbourhood": null,
        "suburb": null,
        "city_district": null,
        "city": "Bairiki",
        "state": "Gilbert Islands",
        "postcode": null,
        "country": "Kiribati",
        "country_code": "ki"
      },
      "address": "729, Bairiki, South Tarawa, 78015 Gilbert Islands, Kiribati"
    },
    {
      "lat": 1.3390115863560186,
      "lon": 172.94250130293014,
      "geoinfo": {
        "display_name": "Betio, Gilbert Islands, Kiribati",
        "road": null,
        "house_number": null,
        "neighbourhood": null,
        "suburb": null,
        "city_district": null,
        "city": "Betio",
        "state": "Gilbert Islands",
        "postcode": null,
        "country": "Kiribati",
        "country_code": "ki"
      },
      "address": "840, Tarawa, 30508 Gilbert Islands, Kiribati"
    },
    {
      "lat": 1.290520083727803,
      "lon": 172.9848840873912,
      "geoinfo": {
        "display_name": "Bairiki, South Tarawa, Gilbert Islands, Kiribati",
        "road": null,
        "house_number": null,
        "neighbourhood": null,
        "suburb": null,
        "city_district": null,
        "city": "Bairiki",
        "state": "Gilbert Islands",
        "postcode": null,
        "country": "Kiribati",
        "country_code": "ki"
      },
      "address": "697, Bairiki, South Tarawa, 30870 Gilbert Islands, Kiribati"
    },
    {
      "lat": 1.3027248624002292,
      "lon": 172.98769109386222,
      "geoinfo": {
        "display_name": "Nanikai, South Tarawa, Gilbert Islands, Kiribati",
        "road": null,
        "house_number": null,
        "neighbourhood": null,
        "suburb": null,
        "city_district": null,
        "city": "South Tarawa",
        "state": "Gilbert Islands",
        "postcode": null,
        "country": "Kiribati",
        "country_code": "ki"
      },
      "address": "314, Nanikai, South Tarawa, 45973 Gilbert Islands, Kiribati"
    },
    {
      "lat": 1.294370937882929,
      "lon": 172.97375761601765,
      "geoinfo": {
        "display_name": "Bairiki, South Tarawa, Gilbert Islands, Kiribati",
        "road": null,
        "house_number": null,
        "neighbourhood": null,
        "suburb": null,
        "city_district": null,
        "city": "Bairiki",
        "state": "Gilbert Islands",
        "postcode": null,
        "country": "Kiribati",
        "country_code": "ki"
      },
      "address": "151, Bairiki, South Tarawa, 24769 Gilbert Islands, Kiribati"
    },
    {
      "lat": 1.3537951813487767,
      "lon": 172.96040011523849,
      "geoinfo": {
        "display_name": "Betio, Gilbert Islands, Kiribati",
        "road": null,
        "house_number": null,
        "neighbourhood": null,
        "suburb": null,
        "city_district": null,
        "city": "Betio",
        "state": "Gilbert Islands",
        "postcode": null,
        "country": "Kiribati",
        "country_code": "ki"
      },
      "address": "259, Tarawa, 68857 Gilbert Islands, Kiribati"
    },
    {
      "lat": 1.3621671470464607,
      "lon": 173.00400871754212,
      "geoinfo": {
        "display_name": "Teaoraereke, South Tarawa, Gilbert Islands, Kiribati",
        "road": null,
        "house_number": null,
        "neighbourhood": null,
        "suburb": null,
        "city_district": null,
        "city": "South Tarawa",
        "state": "Gilbert Islands",
        "postcode": null,
        "country": "Kiribati",
        "country_code": "ki"
      },
      "address": "358, Teaoraereke, South Tarawa, 91527 Gilbert Islands, Kiribati"
    },
    {
      "lat": 1.30812415871948,
      "lon": 172.94437398035902,
      "geoinfo": {
        "display_name": "Bairiki, South Tarawa, Gilbert Islands, Kiribati",
        "road": null,
        "house_number": null,
        "neighbourhood": null,
        "suburb": null,
        "city_district": null,
        "city": "Bairiki",
        "state": "Gilbert Islands",
        "postcode": null,
        "country": "Kiribati",
        "country_code": "ki"
      },
      "address": "546, Bairiki, South Tarawa, 28018 Gilbert Islands, Kiribati"
    },
    {
      "lat": 1.3522908220155452,
      "lon": 172.96007284112937,
      "geoinfo": {
        "display_name": "Betio, Gilbert Islands, Kiribati",
        "road": null,
        "house_number": null,
        "neighbourhood": null,
        "suburb": null,
        "city_district": null,
        "city": "Betio",
        "state": "Gilbert Islands",
        "postcode": null,
        "country": "Kiribati",
        "country_code": "ki"
      },
      "address": "159, Tarawa, 51399 Gilbert Islands, Kiribati"
    },
    {
      "lat": 1.347007802314793,
      "lon": 172.94717990445542,
      "geoinfo": {
        "display_name": "Main Road, Betio, Gilbert Islands, Kiribati",
        "road": "Main Road",
        "house_number": null,
        "neighbourhood": null,
        "suburb": null,
        "city_district": null,
        "city": "Betio",
        "state": "Gilbert Islands",
        "postcode": null,
        "country": "Kiribati",
        "country_code": "ki"
      },
      "address": "738, Main Road, Tarawa, 84607 Gilbert Islands, Kiribati"
    },
    {
      "lat": 1.3231762627378738,
      "lon": 172.95984717587473,
      "geoinfo": {
        "display_name": "Tabonkabwauea, Bairiki, South Tarawa, Gilbert Islands, Kiribati",
        "road": null,
        "house_number": null,
        "neighbourhood": "Tabonkabwauea",
        "suburb": null,
        "city_district": null,
        "city": "South Tarawa",
        "state": "Gilbert Islands",
        "postcode": null,
        "country": "Kiribati",
        "country_code": "ki"
      },
      "address": "969, Tabonkabwauea, Bairiki, South Tarawa, 31635 Gilbert Islands, Kiribati"
    },
    {
      "lat": 1.3448121526112713,
      "lon": 173.01719113481636,
      "geoinfo": {
        "display_name": "Antebuka, South Tarawa, Gilbert Islands, Kiribati",
        "road": null,
        "house_number": null,
        "neighbourhood": null,
        "suburb": null,
        "city_district": null,
        "city": "South Tarawa",
        "state": "Gilbert Islands",
        "postcode": null,
        "country": "Kiribati",
        "country_code": "ki"
      },
      "address": "301, Antebuka, South Tarawa, 07445 Gilbert Islands, Kiribati"
    },
    {
      "lat": 1.3010218177365624,
      "lon": 172.98460877297694,
      "geoinfo": {
        "display_name": "Nanikai, South Tarawa, Gilbert Islands, Kiribati",
        "road": null,
        "house_number": null,
        "neighbourhood": null,
        "suburb": null,
        "city_district": null,
        "city": "South Tarawa",
        "state": "Gilbert Islands",
        "postcode": null,
        "country": "Kiribati",
        "country_code": "ki"
      },
      "address": "207, Nanikai, South Tarawa, 68527 Gilbert Islands, Kiribati"
    },
    {
      "lat": 1.304193934722002,
      "lon": 172.94882996148954,
      "geoinfo": {
        "display_name": "Bairiki, South Tarawa, Gilbert Islands, Kiribati",
        "road": null,
        "house_number": null,
        "neighbourhood": null,
        "suburb": null,
        "city_district": null,
        "city": "Bairiki",
        "state": "Gilbert Islands",
        "postcode": null,
        "country": "Kiribati",
        "country_code": "ki"
      },
      "address": "921, Bairiki, South Tarawa, 95124 Gilbert Islands, Kiribati"
    },
    {
      "lat": 1.3533646975695537,
      "lon": 173.00711503203075,
      "geoinfo": {
        "display_name": "Teaoraereke, South Tarawa, Gilbert Islands, Kiribati",
        "road": null,
        "house_number": null,
        "neighbourhood": null,
        "suburb": null,
        "city_district": null,
        "city": "South Tarawa",
        "state": "Gilbert Islands",
        "postcode": null,
        "country": "Kiribati",
        "country_code": "ki"
      },
      "address": "981, Teaoraereke, South Tarawa, 45654 Gilbert Islands, Kiribati"
    },
    {
      "lat": 1.3271788831261908,
      "lon": 173.01130252423346,
      "geoinfo": {
        "display_name": "Senior Campus for Saint Louis High School, MSC Teaoraereke, Teaoerereke, South Tarawa, Gilbert Islands, Kiribati",
        "road": "MSC Teaoraereke",
        "house_number": null,
        "neighbourhood": null,
        "suburb": null,
        "city_district": null,
        "city": "South Tarawa",
        "state": "Gilbert Islands",
        "postcode": null,
        "country": "Kiribati",
        "country_code": "ki"
      },
      "address": "648, MSC Teaoraereke, Tarawa, 41223 Gilbert Islands, Kiribati"
    },
    {
      "lat": 1.3444805521328307,
      "lon": 172.96798838176295,
      "geoinfo": {
        "display_name": "Tabonkabwauea, Bairiki, South Tarawa, Gilbert Islands, Kiribati",
        "road": null,
        "house_number": null,
        "neighbourhood": "Tabonkabwauea",
        "suburb": null,
        "city_district": null,
        "city": "South Tarawa",
        "state": "Gilbert Islands",
        "postcode": null,
        "country": "Kiribati",
        "country_code": "ki"
      },
      "address": "606, Tabonkabwauea, Bairiki, South Tarawa, 70987 Gilbert Islands, Kiribati"
    },
    {
      "lat": 1.3424364468746386,
      "lon": 173.01568377144366,
      "geoinfo": {
        "display_name": "Teaoraereke, South Tarawa, Gilbert Islands, Kiribati",
        "road": null,
        "house_number": null,
        "neighbourhood": null,
        "suburb": null,
        "city_district": null,
        "city": "South Tarawa",
        "state": "Gilbert Islands",
        "postcode": null,
        "country": "Kiribati",
        "country_code": "ki"
      },
      "address": "602, Teaoraereke, South Tarawa, 14025 Gilbert Islands, Kiribati"
    },
    {
      "lat": 1.3493813820499971,
      "lon": 172.98565731784896,
      "geoinfo": {
        "display_name": "Nanikai, South Tarawa, Gilbert Islands, Kiribati",
        "road": null,
        "house_number": null,
        "neighbourhood": null,
        "suburb": null,
        "city_district": null,
        "city": "South Tarawa",
        "state": "Gilbert Islands",
        "postcode": null,
        "country": "Kiribati",
        "country_code": "ki"
      },
      "address": "837, Nanikai, South Tarawa, 08283 Gilbert Islands, Kiribati"
    },
    {
      "lat": 1.3375590868856113,
      "lon": 172.97815440071653,
      "geoinfo": {
        "display_name": "Tabonkabwauea, Bairiki, South Tarawa, Gilbert Islands, Kiribati",
        "road": null,
        "house_number": null,
        "neighbourhood": "Tabonkabwauea",
        "suburb": null,
        "city_district": null,
        "city": "South Tarawa",
        "state": "Gilbert Islands",
        "postcode": null,
        "country": "Kiribati",
        "country_code": "ki"
      },
      "address": "196, Tabonkabwauea, Bairiki, South Tarawa, 71589 Gilbert Islands, Kiribati"
    },
    {
      "lat": 1.3085454002396917,
      "lon": 172.9835399849547,
      "geoinfo": {
        "display_name": "Nanikai, South Tarawa, Gilbert Islands, Kiribati",
        "road": null,
        "house_number": null,
        "neighbourhood": null,
        "suburb": null,
        "city_district": null,
        "city": "South Tarawa",
        "state": "Gilbert Islands",
        "postcode": null,
        "country": "Kiribati",
        "country_code": "ki"
      },
      "address": "565, Nanikai, South Tarawa, 44589 Gilbert Islands, Kiribati"
    },
    {
      "lat": 1.3444528920732846,
      "lon": 173.01106924661283,
      "geoinfo": {
        "display_name": "Teaoraereke, South Tarawa, Gilbert Islands, Kiribati",
        "road": null,
        "house_number": null,
        "neighbourhood": null,
        "suburb": null,
        "city_district": null,
        "city": "South Tarawa",
        "state": "Gilbert Islands",
        "postcode": null,
        "country": "Kiribati",
        "country_code": "ki"
      },
      "address": "827, Teaoraereke, South Tarawa, 32080 Gilbert Islands, Kiribati"
    },
    {
      "lat": 1.3268932074325748,
      "lon": 172.94819201159845,
      "geoinfo": {
        "display_name": "Betio, Gilbert Islands, Kiribati",
        "road": null,
        "house_number": null,
        "neighbourhood": null,
        "suburb": null,
        "city_district": null,
        "city": "Betio",
        "state": "Gilbert Islands",
        "postcode": null,
        "country": "Kiribati",
        "country_code": "ki"
      },
      "address": "672, Tarawa, 42884 Gilbert Islands, Kiribati"
    },
    {
      "lat": 1.3295977473229812,
      "lon": 172.96457671147203,
      "geoinfo": {
        "display_name": "Nippon Causeway, Tabonkabwauea, Bairiki, South Tarawa, Gilbert Islands, Kiribati",
        "road": "Nippon Causeway",
        "house_number": null,
        "neighbourhood": "Tabonkabwauea",
        "suburb": null,
        "city_district": null,
        "city": "South Tarawa",
        "state": "Gilbert Islands",
        "postcode": null,
        "country": "Kiribati",
        "country_code": "ki"
      },
      "address": "526, Nippon Causeway, Tabonkabwauea, Bairiki, South Tarawa, 67275 Gilbert Islands, Kiribati"
    },
    {
      "lat": 1.307398598544983,
      "lon": 172.98081212259285,
      "geoinfo": {
        "display_name": "Nanikai, South Tarawa, Gilbert Islands, Kiribati",
        "road": null,
        "house_number": null,
        "neighbourhood": null,
        "suburb": null,
        "city_district": null,
        "city": "South Tarawa",
        "state": "Gilbert Islands",
        "postcode": null,
        "country": "Kiribati",
        "country_code": "ki"
      },
      "address": "762, Nanikai, South Tarawa, 38153 Gilbert Islands, Kiribati"
    },
    {
      "lat": 1.2964539591798945,
      "lon": 172.9973944478449,
      "geoinfo": {
        "display_name": "Nanikai, South Tarawa, Gilbert Islands, Kiribati",
        "road": null,
        "house_number": null,
        "neighbourhood": null,
        "suburb": null,
        "city_district": null,
        "city": "South Tarawa",
        "state": "Gilbert Islands",
        "postcode": null,
        "country": "Kiribati",
        "country_code": "ki"
      },
      "address": "057, Nanikai, South Tarawa, 88753 Gilbert Islands, Kiribati"
    },
    {
      "lat": 1.320312245462293,
      "lon": 172.9839677910756,
      "geoinfo": {
        "display_name": "Tabonkabwauea, Bairiki, South Tarawa, Gilbert Islands, Kiribati",
        "road": null,
        "house_number": null,
        "neighbourhood": "Tabonkabwauea",
        "suburb": null,
        "city_district": null,
        "city": "South Tarawa",
        "state": "Gilbert Islands",
        "postcode": null,
        "country": "Kiribati",
        "country_code": "ki"
      },
      "address": "619, Tabonkabwauea, Bairiki, South Tarawa, 77685 Gilbert Islands, Kiribati"
    },
    {
      "lat": 1.3157794619664884,
      "lon": 173.00484092449096,
      "geoinfo": {
        "display_name": "Nanikai, South Tarawa, Gilbert Islands, Kiribati",
        "road": null,
        "house_number": null,
        "neighbourhood": null,
        "suburb": null,
        "city_district": null,
        "city": "South Tarawa",
        "state": "Gilbert Islands",
        "postcode": null,
        "country": "Kiribati",
        "country_code": "ki"
      },
      "address": "525, Nanikai, South Tarawa, 21612 Gilbert Islands, Kiribati"
    },
    {
      "lat": 1.363946317476551,
      "lon": 172.9691391117577,
      "geoinfo": {
        "display_name": "Betio, Gilbert Islands, Kiribati",
        "road": null,
        "house_number": null,
        "neighbourhood": null,
        "suburb": null,
        "city_district": null,
        "city": "Betio",
        "state": "Gilbert Islands",
        "postcode": null,
        "country": "Kiribati",
        "country_code": "ki"
      },
      "address": "102, Tarawa, 16009 Gilbert Islands, Kiribati"
    },
    {
      "lat": 1.3714817817598335,
      "lon": 172.973591883357,
      "geoinfo": {
        "display_name": "North Tarawa, Gilbert Islands, Kiribati",
        "road": null,
        "house_number": null,
        "neighbourhood": null,
        "suburb": null,
        "city_district": null,
        "city": "North Tarawa",
        "state": "Gilbert Islands",
        "postcode": null,
        "country": "Kiribati",
        "country_code": "ki"
      },
      "address": "252, North Tarawa, 86496 Gilbert Islands, Kiribati"
    },
    {
      "lat": 1.3454466251980908,
      "lon": 172.94783771822972,
      "geoinfo": {
        "display_name": "WWII Bunker, Main Road, Betio, Gilbert Islands, Kiribati",
        "road": "Main Road",
        "house_number": null,
        "neighbourhood": null,
        "suburb": null,
        "city_district": null,
        "city": "Betio",
        "state": "Gilbert Islands",
        "postcode": null,
        "country": "Kiribati",
        "country_code": "ki"
      },
      "address": "131, Main Road, Tarawa, 67975 Gilbert Islands, Kiribati"
    },
    {
      "lat": 1.331639374347459,
      "lon": 173.00741360962402,
      "geoinfo": {
        "display_name": "MSC Teaoraereke, Teaoerereke, South Tarawa, Gilbert Islands, Kiribati",
        "road": "MSC Teaoraereke",
        "house_number": null,
        "neighbourhood": null,
        "suburb": null,
        "city_district": null,
        "city": "South Tarawa",
        "state": "Gilbert Islands",
        "postcode": null,
        "country": "Kiribati",
        "country_code": "ki"
      },
      "address": "196, MSC Teaoraereke, Teaoerereke, South Tarawa, 40020 Gilbert Islands, Kiribati"
    },
    {
      "lat": 1.325600079368329,
      "lon": 173.00585962339093,
      "geoinfo": {
        "display_name": "Senior Campus for Saint Louis High School, MSC Teaoraereke, Teaoerereke, South Tarawa, Gilbert Islands, Kiribati",
        "road": "MSC Teaoraereke",
        "house_number": null,
        "neighbourhood": null,
        "suburb": null,
        "city_district": null,
        "city": "South Tarawa",
        "state": "Gilbert Islands",
        "postcode": null,
        "country": "Kiribati",
        "country_code": "ki"
      },
      "address": "352, MSC Teaoraereke, Tarawa, 78962 Gilbert Islands, Kiribati"
    },
    {
      "lat": 1.3374058114539042,
      "lon": 172.96792661924223,
      "geoinfo": {
        "display_name": "Nippon Causeway, Tabonkabwauea, Bairiki, South Tarawa, Gilbert Islands, Kiribati",
        "road": "Nippon Causeway",
        "house_number": null,
        "neighbourhood": "Tabonkabwauea",
        "suburb": null,
        "city_district": null,
        "city": "South Tarawa",
        "state": "Gilbert Islands",
        "postcode": null,
        "country": "Kiribati",
        "country_code": "ki"
      },
      "address": "239, Nippon Causeway, Tabonkabwauea, Bairiki, South Tarawa, 17261 Gilbert Islands, Kiribati"
    },
    {
      "lat": 1.318848270662249,
      "lon": 172.96630037721695,
      "geoinfo": {
        "display_name": "Tabonkabwauea, Bairiki, South Tarawa, Gilbert Islands, Kiribati",
        "road": null,
        "house_number": null,
        "neighbourhood": "Tabonkabwauea",
        "suburb": null,
        "city_district": null,
        "city": "South Tarawa",
        "state": "Gilbert Islands",
        "postcode": null,
        "country": "Kiribati",
        "country_code": "ki"
      },
      "address": "014, Tabonkabwauea, Bairiki, South Tarawa, 93583 Gilbert Islands, Kiribati"
    },
    {
      "lat": 1.3622005676289815,
      "lon": 172.95809354482932,
      "geoinfo": {
        "display_name": "Betio, Gilbert Islands, Kiribati",
        "road": null,
        "house_number": null,
        "neighbourhood": null,
        "suburb": null,
        "city_district": null,
        "city": "Betio",
        "state": "Gilbert Islands",
        "postcode": null,
        "country": "Kiribati",
        "country_code": "ki"
      },
      "address": "491, Tarawa, 81688 Gilbert Islands, Kiribati"
    },
    {
      "lat": 1.3438888795395632,
      "lon": 172.95165086769867,
      "geoinfo": {
        "display_name": "Nippon Causeway, Betio, Gilbert Islands, Kiribati",
        "road": "Nippon Causeway",
        "house_number": null,
        "neighbourhood": null,
        "suburb": null,
        "city_district": null,
        "city": "Betio",
        "state": "Gilbert Islands",
        "postcode": null,
        "country": "Kiribati",
        "country_code": "ki"
      },
      "address": "319, Nippon Causeway, Tarawa, 63910 Gilbert Islands, Kiribati"
    },
    {
      "lat": 1.318911252451717,
      "lon": 172.95703921982226,
      "geoinfo": {
        "display_name": "Tabonkabwauea, Bairiki, South Tarawa, Gilbert Islands, Kiribati",
        "road": null,
        "house_number": null,
        "neighbourhood": "Tabonkabwauea",
        "suburb": null,
        "city_district": null,
        "city": "South Tarawa",
        "state": "Gilbert Islands",
        "postcode": null,
        "country": "Kiribati",
        "country_code": "ki"
      },
      "address": "321, Tabonkabwauea, Bairiki, South Tarawa, 98432 Gilbert Islands, Kiribati"
    },
    {
      "lat": 1.3387356853008214,
      "lon": 172.99649625609132,
      "geoinfo": {
        "display_name": "Nanikai, South Tarawa, Gilbert Islands, Kiribati",
        "road": null,
        "house_number": null,
        "neighbourhood": null,
        "suburb": null,
        "city_district": null,
        "city": "South Tarawa",
        "state": "Gilbert Islands",
        "postcode": null,
        "country": "Kiribati",
        "country_code": "ki"
      },
      "address": "642, Nanikai, South Tarawa, 94949 Gilbert Islands, Kiribati"
    },
    {
      "lat": 1.3646147171533196,
      "lon": 172.98818498714917,
      "geoinfo": {
        "display_name": "Nanikai, South Tarawa, Gilbert Islands, Kiribati",
        "road": null,
        "house_number": null,
        "neighbourhood": null,
        "suburb": null,
        "city_district": null,
        "city": "South Tarawa",
        "state": "Gilbert Islands",
        "postcode": null,
        "country": "Kiribati",
        "country_code": "ki"
      },
      "address": "306, Nanikai, South Tarawa, 62643 Gilbert Islands, Kiribati"
    },
    {
      "lat": 1.3423482255188612,
      "lon": 172.9430746630264,
      "geoinfo": {
        "display_name": "Betio, Gilbert Islands, Kiribati",
        "road": null,
        "house_number": null,
        "neighbourhood": null,
        "suburb": null,
        "city_district": null,
        "city": "Betio",
        "state": "Gilbert Islands",
        "postcode": null,
        "country": "Kiribati",
        "country_code": "ki"
      },
      "address": "793, Tarawa, 95018 Gilbert Islands, Kiribati"
    },
    {
      "lat": 1.3583414928105502,
      "lon": 172.9789428613757,
      "geoinfo": {
        "display_name": "Galloping Gus, Nippon Causeway, Betio, Gilbert Islands, Kiribati",
        "road": "Nippon Causeway",
        "house_number": null,
        "neighbourhood": null,
        "suburb": null,
        "city_district": null,
        "city": "Betio",
        "state": "Gilbert Islands",
        "postcode": null,
        "country": "Kiribati",
        "country_code": "ki"
      },
      "address": "817, Nippon Causeway, Tarawa, 85475 Gilbert Islands, Kiribati"
    },
    {
      "lat": 1.3014441785938438,
      "lon": 172.99525329220378,
      "geoinfo": {
        "display_name": "Nanikai, South Tarawa, Gilbert Islands, Kiribati",
        "road": null,
        "house_number": null,
        "neighbourhood": null,
        "suburb": null,
        "city_district": null,
        "city": "South Tarawa",
        "state": "Gilbert Islands",
        "postcode": null,
        "country": "Kiribati",
        "country_code": "ki"
      },
      "address": "230, Nanikai, South Tarawa, 58568 Gilbert Islands, Kiribati"
    },
    {
      "lat": 1.3389361890119649,
      "lon": 172.97466273474603,
      "geoinfo": {
        "display_name": "Tabonkabwauea, Bairiki, South Tarawa, Gilbert Islands, Kiribati",
        "road": null,
        "house_number": null,
        "neighbourhood": "Tabonkabwauea",
        "suburb": null,
        "city_district": null,
        "city": "South Tarawa",
        "state": "Gilbert Islands",
        "postcode": null,
        "country": "Kiribati",
        "country_code": "ki"
      },
      "address": "816, Tabonkabwauea, Bairiki, South Tarawa, 05956 Gilbert Islands, Kiribati"
    },
    {
      "lat": 1.3643587847510983,
      "lon": 172.97831131217578,
      "geoinfo": {
        "display_name": "Galloping Gus, Nippon Causeway, Betio, Gilbert Islands, Kiribati",
        "road": "Nippon Causeway",
        "house_number": null,
        "neighbourhood": null,
        "suburb": null,
        "city_district": null,
        "city": "Betio",
        "state": "Gilbert Islands",
        "postcode": null,
        "country": "Kiribati",
        "country_code": "ki"
      },
      "address": "856, Nippon Causeway, Tarawa, 02451 Gilbert Islands, Kiribati"
    },
    {
      "lat": 1.3591201144794214,
      "lon": 173.00479935604218,
      "geoinfo": {
        "display_name": "Teaoraereke, South Tarawa, Gilbert Islands, Kiribati",
        "road": null,
        "house_number": null,
        "neighbourhood": null,
        "suburb": null,
        "city_district": null,
        "city": "South Tarawa",
        "state": "Gilbert Islands",
        "postcode": null,
        "country": "Kiribati",
        "country_code": "ki"
      },
      "address": "466, Teaoraereke, South Tarawa, 83318 Gilbert Islands, Kiribati"
    },
    {
      "lat": 1.3360201314756184,
      "lon": 172.9935695124036,
      "geoinfo": {
        "display_name": "Nanikai, South Tarawa, Gilbert Islands, Kiribati",
        "road": null,
        "house_number": null,
        "neighbourhood": null,
        "suburb": null,
        "city_district": null,
        "city": "South Tarawa",
        "state": "Gilbert Islands",
        "postcode": null,
        "country": "Kiribati",
        "country_code": "ki"
      },
      "address": "502, Nanikai, South Tarawa, 93001 Gilbert Islands, Kiribati"
    },
    {
      "lat": 1.305569675991656,
      "lon": 172.98601305167176,
      "geoinfo": {
        "display_name": "Nanikai, South Tarawa, Gilbert Islands, Kiribati",
        "road": null,
        "house_number": null,
        "neighbourhood": null,
        "suburb": null,
        "city_district": null,
        "city": "South Tarawa",
        "state": "Gilbert Islands",
        "postcode": null,
        "country": "Kiribati",
        "country_code": "ki"
      },
      "address": "240, Nanikai, South Tarawa, 47556 Gilbert Islands, Kiribati"
    },
    {
      "lat": 1.3128720326935261,
      "lon": 173.00649139623584,
      "geoinfo": {
        "display_name": "Nanikai, South Tarawa, Gilbert Islands, Kiribati",
        "road": null,
        "house_number": null,
        "neighbourhood": null,
        "suburb": null,
        "city_district": null,
        "city": "South Tarawa",
        "state": "Gilbert Islands",
        "postcode": null,
        "country": "Kiribati",
        "country_code": "ki"
      },
      "address": "237, Nanikai, South Tarawa, 57046 Gilbert Islands, Kiribati"
    },
    {
      "lat": 1.355558556694205,
      "lon": 172.96636648533533,
      "geoinfo": {
        "display_name": "Betio, Gilbert Islands, Kiribati",
        "road": null,
        "house_number": null,
        "neighbourhood": null,
        "suburb": null,
        "city_district": null,
        "city": "Betio",
        "state": "Gilbert Islands",
        "postcode": null,
        "country": "Kiribati",
        "country_code": "ki"
      },
      "address": "658, Tarawa, 65355 Gilbert Islands, Kiribati"
    },
    {
      "lat": 1.337254354753095,
      "lon": 172.94580080190963,
      "geoinfo": {
        "display_name": "Betio, Gilbert Islands, Kiribati",
        "road": null,
        "house_number": null,
        "neighbourhood": null,
        "suburb": null,
        "city_district": null,
        "city": "Betio",
        "state": "Gilbert Islands",
        "postcode": null,
        "country": "Kiribati",
        "country_code": "ki"
      },
      "address": "610, Tarawa, 19721 Gilbert Islands, Kiribati"
    },
    {
      "lat": 1.354122388612019,
      "lon": 172.96111964133357,
      "geoinfo": {
        "display_name": "Betio, Gilbert Islands, Kiribati",
        "road": null,
        "house_number": null,
        "neighbourhood": null,
        "suburb": null,
        "city_district": null,
        "city": "Betio",
        "state": "Gilbert Islands",
        "postcode": null,
        "country": "Kiribati",
        "country_code": "ki"
      },
      "address": "713, Tarawa, 50431 Gilbert Islands, Kiribati"
    },
    {
      "lat": 1.3155156207683476,
      "lon": 172.99584860126387,
      "geoinfo": {
        "display_name": "Nanikai, South Tarawa, Gilbert Islands, Kiribati",
        "road": null,
        "house_number": null,
        "neighbourhood": null,
        "suburb": null,
        "city_district": null,
        "city": "South Tarawa",
        "state": "Gilbert Islands",
        "postcode": null,
        "country": "Kiribati",
        "country_code": "ki"
      },
      "address": "783, Nanikai, South Tarawa, 68631 Gilbert Islands, Kiribati"
    },
    {
      "lat": 1.3219247124804707,
      "lon": 173.01190432211544,
      "geoinfo": {
        "display_name": "Teaoraereke, South Tarawa, Gilbert Islands, Kiribati",
        "road": null,
        "house_number": null,
        "neighbourhood": null,
        "suburb": null,
        "city_district": null,
        "city": "South Tarawa",
        "state": "Gilbert Islands",
        "postcode": null,
        "country": "Kiribati",
        "country_code": "ki"
      },
      "address": "765, Teaoraereke, South Tarawa, 83425 Gilbert Islands, Kiribati"
    },
    {
      "lat": 1.333284035810331,
      "lon": 173.01758057326276,
      "geoinfo": {
        "display_name": "The Church of Jesus Christ of Latter-day Saints, Main Road, Teaoerereke, South Tarawa, Gilbert Islands, Kiribati",
        "road": "Main Road",
        "house_number": null,
        "neighbourhood": null,
        "suburb": null,
        "city_district": null,
        "city": "South Tarawa",
        "state": "Gilbert Islands",
        "postcode": null,
        "country": "Kiribati",
        "country_code": "ki"
      },
      "address": "309, Main Road, Tarawa, 27792 Gilbert Islands, Kiribati"
    },
    {
      "lat": 1.3300923167737688,
      "lon": 172.95195283026865,
      "geoinfo": {
        "display_name": "Bairiki, South Tarawa, Gilbert Islands, Kiribati",
        "road": null,
        "house_number": null,
        "neighbourhood": null,
        "suburb": null,
        "city_district": null,
        "city": "Bairiki",
        "state": "Gilbert Islands",
        "postcode": null,
        "country": "Kiribati",
        "country_code": "ki"
      },
      "address": "941, Bairiki, South Tarawa, 30785 Gilbert Islands, Kiribati"
    },
    {
      "lat": 1.3412092496486783,
      "lon": 172.99667998323062,
      "geoinfo": {
        "display_name": "Nanikai, South Tarawa, Gilbert Islands, Kiribati",
        "road": null,
        "house_number": null,
        "neighbourhood": null,
        "suburb": null,
        "city_district": null,
        "city": "South Tarawa",
        "state": "Gilbert Islands",
        "postcode": null,
        "country": "Kiribati",
        "country_code": "ki"
      },
      "address": "386, Nanikai, South Tarawa, 21519 Gilbert Islands, Kiribati"
    },
    {
      "lat": 1.3193084760612364,
      "lon": 172.99850151752105,
      "geoinfo": {
        "display_name": "Nanikai, South Tarawa, Gilbert Islands, Kiribati",
        "road": null,
        "house_number": null,
        "neighbourhood": null,
        "suburb": null,
        "city_district": null,
        "city": "South Tarawa",
        "state": "Gilbert Islands",
        "postcode": null,
        "country": "Kiribati",
        "country_code": "ki"
      },
      "address": "859, Nanikai, South Tarawa, 83998 Gilbert Islands, Kiribati"
    },
    {
      "lat": 1.3240612535727063,
      "lon": 172.94241519994668,
      "geoinfo": {
        "display_name": "Betio, Gilbert Islands, Kiribati",
        "road": null,
        "house_number": null,
        "neighbourhood": null,
        "suburb": null,
        "city_district": null,
        "city": "Betio",
        "state": "Gilbert Islands",
        "postcode": null,
        "country": "Kiribati",
        "country_code": "ki"
      },
      "address": "969, Tarawa, 48401 Gilbert Islands, Kiribati"
    },
    {
      "lat": 1.33917345815269,
      "lon": 172.9871234060023,
      "geoinfo": {
        "display_name": "Tabonkabwauea, Bairiki, South Tarawa, Gilbert Islands, Kiribati",
        "road": null,
        "house_number": null,
        "neighbourhood": "Tabonkabwauea",
        "suburb": null,
        "city_district": null,
        "city": "South Tarawa",
        "state": "Gilbert Islands",
        "postcode": null,
        "country": "Kiribati",
        "country_code": "ki"
      },
      "address": "457, Tabonkabwauea, Bairiki, South Tarawa, 86552 Gilbert Islands, Kiribati"
    },
    {
      "lat": 1.3699218898632606,
      "lon": 172.9661293652339,
      "geoinfo": {
        "display_name": "Betio, Gilbert Islands, Kiribati",
        "road": null,
        "house_number": null,
        "neighbourhood": null,
        "suburb": null,
        "city_district": null,
        "city": "Betio",
        "state": "Gilbert Islands",
        "postcode": null,
        "country": "Kiribati",
        "country_code": "ki"
      },
      "address": "351, Tarawa, 80311 Gilbert Islands, Kiribati"
    },
    {
      "lat": 1.2993909760474833,
      "lon": 172.97448041868552,
      "geoinfo": {
        "display_name": "Nanikai, South Tarawa, Gilbert Islands, Kiribati",
        "road": null,
        "house_number": null,
        "neighbourhood": null,
        "suburb": null,
        "city_district": null,
        "city": "South Tarawa",
        "state": "Gilbert Islands",
        "postcode": null,
        "country": "Kiribati",
        "country_code": "ki"
      },
      "address": "390, Nanikai, South Tarawa, 06753 Gilbert Islands, Kiribati"
    },
    {
      "lat": 1.3193079477034664,
      "lon": 173.00737650620368,
      "geoinfo": {
        "display_name": "Nanikai, South Tarawa, Gilbert Islands, Kiribati",
        "road": null,
        "house_number": null,
        "neighbourhood": null,
        "suburb": null,
        "city_district": null,
        "city": "South Tarawa",
        "state": "Gilbert Islands",
        "postcode": null,
        "country": "Kiribati",
        "country_code": "ki"
      },
      "address": "605, Nanikai, South Tarawa, 24114 Gilbert Islands, Kiribati"
    },
    {
      "lat": 1.366026164339501,
      "lon": 172.98093848981287,
      "geoinfo": {
        "display_name": "Galloping Gus, Nippon Causeway, Betio, Gilbert Islands, Kiribati",
        "road": "Nippon Causeway",
        "house_number": null,
        "neighbourhood": null,
        "suburb": null,
        "city_district": null,
        "city": "Betio",
        "state": "Gilbert Islands",
        "postcode": null,
        "country": "Kiribati",
        "country_code": "ki"
      },
      "address": "018, Nippon Causeway, Tarawa, 95818 Gilbert Islands, Kiribati"
    },
    {
      "lat": 1.2990469811948102,
      "lon": 173.0099332557949,
      "geoinfo": {
        "display_name": "Nanikai, South Tarawa, Gilbert Islands, Kiribati",
        "road": null,
        "house_number": null,
        "neighbourhood": null,
        "suburb": null,
        "city_district": null,
        "city": "South Tarawa",
        "state": "Gilbert Islands",
        "postcode": null,
        "country": "Kiribati",
        "country_code": "ki"
      },
      "address": "931, Nanikai, South Tarawa, 83008 Gilbert Islands, Kiribati"
    },
    {
      "lat": 1.307920698303775,
      "lon": 172.99589674496247,
      "geoinfo": {
        "display_name": "Nanikai, South Tarawa, Gilbert Islands, Kiribati",
        "road": null,
        "house_number": null,
        "neighbourhood": null,
        "suburb": null,
        "city_district": null,
        "city": "South Tarawa",
        "state": "Gilbert Islands",
        "postcode": null,
        "country": "Kiribati",
        "country_code": "ki"
      },
      "address": "211, Nanikai, South Tarawa, 82453 Gilbert Islands, Kiribati"
    },
    {
      "lat": 1.3307070672748338,
      "lon": 172.9866742997852,
      "geoinfo": {
        "display_name": "Main Road, Tabon te Uaabu, Bairiki, South Tarawa, Gilbert Islands, Kiribati",
        "road": "Main Road",
        "house_number": null,
        "neighbourhood": null,
        "suburb": null,
        "city_district": null,
        "city": "South Tarawa",
        "state": "Gilbert Islands",
        "postcode": null,
        "country": "Kiribati",
        "country_code": "ki"
      },
      "address": "334, Main Road, Tabon te Uaabu, Bairiki, South Tarawa, 76901 Gilbert Islands, Kiribati"
    },
    {
      "lat": 1.349206337997169,
      "lon": 172.94058628284776,
      "geoinfo": {
        "display_name": "Betio, Gilbert Islands, Kiribati",
        "road": null,
        "house_number": null,
        "neighbourhood": null,
        "suburb": null,
        "city_district": null,
        "city": "Betio",
        "state": "Gilbert Islands",
        "postcode": null,
        "country": "Kiribati",
        "country_code": "ki"
      },
      "address": "306, Tarawa, 50446 Gilbert Islands, Kiribati"
    },
    {
      "lat": 1.3371183865673248,
      "lon": 172.96199105509965,
      "geoinfo": {
        "display_name": "Nippon Causeway, Tabonkabwauea, Bairiki, South Tarawa, Gilbert Islands, Kiribati",
        "road": "Nippon Causeway",
        "house_number": null,
        "neighbourhood": "Tabonkabwauea",
        "suburb": null,
        "city_district": null,
        "city": "South Tarawa",
        "state": "Gilbert Islands",
        "postcode": null,
        "country": "Kiribati",
        "country_code": "ki"
      },
      "address": "270, Nippon Causeway, Tabonkabwauea, Bairiki, South Tarawa, 88649 Gilbert Islands, Kiribati"
    },
    {
      "lat": 1.2839391636859734,
      "lon": 172.98515642715475,
      "geoinfo": {
        "display_name": "Bairiki, South Tarawa, Gilbert Islands, Kiribati",
        "road": null,
        "house_number": null,
        "neighbourhood": null,
        "suburb": null,
        "city_district": null,
        "city": "Bairiki",
        "state": "Gilbert Islands",
        "postcode": null,
        "country": "Kiribati",
        "country_code": "ki"
      },
      "address": "364, Bairiki, South Tarawa, 27513 Gilbert Islands, Kiribati"
    },
    {
      "lat": 1.3066380669477256,
      "lon": 172.93808415348084,
      "geoinfo": {
        "display_name": "Bairiki, South Tarawa, Gilbert Islands, Kiribati",
        "road": null,
        "house_number": null,
        "neighbourhood": null,
        "suburb": null,
        "city_district": null,
        "city": "Bairiki",
        "state": "Gilbert Islands",
        "postcode": null,
        "country": "Kiribati",
        "country_code": "ki"
      },
      "address": "977, Bairiki, South Tarawa, 99372 Gilbert Islands, Kiribati"
    },
    {
      "lat": 1.3287943886673128,
      "lon": 173.01698822597413,
      "geoinfo": {
        "display_name": "USP Road, Teaoerereke, South Tarawa, Gilbert Islands, Kiribati",
        "road": "USP Road",
        "house_number": null,
        "neighbourhood": null,
        "suburb": null,
        "city_district": null,
        "city": "South Tarawa",
        "state": "Gilbert Islands",
        "postcode": null,
        "country": "Kiribati",
        "country_code": "ki"
      },
      "address": "487, USP Road, Teaoerereke, South Tarawa, 05223 Gilbert Islands, Kiribati"
    },
    {
      "lat": 1.3287018281295537,
      "lon": 173.01237780576432,
      "geoinfo": {
        "display_name": "Abaunamou Primary School, Main Road, Teaoerereke, South Tarawa, Gilbert Islands, Kiribati",
        "road": "Main Road",
        "house_number": null,
        "neighbourhood": null,
        "suburb": null,
        "city_district": null,
        "city": "South Tarawa",
        "state": "Gilbert Islands",
        "postcode": null,
        "country": "Kiribati",
        "country_code": "ki"
      },
      "address": "288, Main Road, Tarawa, 42711 Gilbert Islands, Kiribati"
    },
    {
      "lat": 1.3484557608755725,
      "lon": 172.9921977462313,
      "geoinfo": {
        "display_name": "Nanikai, South Tarawa, Gilbert Islands, Kiribati",
        "road": null,
        "house_number": null,
        "neighbourhood": null,
        "suburb": null,
        "city_district": null,
        "city": "South Tarawa",
        "state": "Gilbert Islands",
        "postcode": null,
        "country": "Kiribati",
        "country_code": "ki"
      },
      "address": "345, Nanikai, South Tarawa, 50789 Gilbert Islands, Kiribati"
    },
    {
      "lat": 1.3163953315678227,
      "lon": 172.94223877358385,
      "geoinfo": {
        "display_name": "Bairiki, South Tarawa, Gilbert Islands, Kiribati",
        "road": null,
        "house_number": null,
        "neighbourhood": null,
        "suburb": null,
        "city_district": null,
        "city": "Bairiki",
        "state": "Gilbert Islands",
        "postcode": null,
        "country": "Kiribati",
        "country_code": "ki"
      },
      "address": "273, Bairiki, South Tarawa, 70982 Gilbert Islands, Kiribati"
    },
    {
      "lat": 1.3188985193881715,
      "lon": 172.96636997597471,
      "geoinfo": {
        "display_name": "Tabonkabwauea, Bairiki, South Tarawa, Gilbert Islands, Kiribati",
        "road": null,
        "house_number": null,
        "neighbourhood": "Tabonkabwauea",
        "suburb": null,
        "city_district": null,
        "city": "South Tarawa",
        "state": "Gilbert Islands",
        "postcode": null,
        "country": "Kiribati",
        "country_code": "ki"
      },
      "address": "809, Tabonkabwauea, Bairiki, South Tarawa, 30908 Gilbert Islands, Kiribati"
    },
    {
      "lat": 1.2880959864233268,
      "lon": 172.98158996827615,
      "geoinfo": {
        "display_name": "Bairiki, South Tarawa, Gilbert Islands, Kiribati",
        "road": null,
        "house_number": null,
        "neighbourhood": null,
        "suburb": null,
        "city_district": null,
        "city": "Bairiki",
        "state": "Gilbert Islands",
        "postcode": null,
        "country": "Kiribati",
        "country_code": "ki"
      },
      "address": "690, Bairiki, South Tarawa, 54632 Gilbert Islands, Kiribati"
    },
    {
      "lat": 1.307143376013718,
      "lon": 172.9779399256182,
      "geoinfo": {
        "display_name": "Nanikai, South Tarawa, Gilbert Islands, Kiribati",
        "road": null,
        "house_number": null,
        "neighbourhood": null,
        "suburb": null,
        "city_district": null,
        "city": "South Tarawa",
        "state": "Gilbert Islands",
        "postcode": null,
        "country": "Kiribati",
        "country_code": "ki"
      },
      "address": "861, Nanikai, South Tarawa, 63631 Gilbert Islands, Kiribati"
    },
    {
      "lat": 1.348570399450266,
      "lon": 173.00492914910666,
      "geoinfo": {
        "display_name": "Teaoraereke, South Tarawa, Gilbert Islands, Kiribati",
        "road": null,
        "house_number": null,
        "neighbourhood": null,
        "suburb": null,
        "city_district": null,
        "city": "South Tarawa",
        "state": "Gilbert Islands",
        "postcode": null,
        "country": "Kiribati",
        "country_code": "ki"
      },
      "address": "500, Teaoraereke, South Tarawa, 95604 Gilbert Islands, Kiribati"
    },
    {
      "lat": 1.2959534887659305,
      "lon": 172.95814574836024,
      "geoinfo": {
        "display_name": "Bairiki, South Tarawa, Gilbert Islands, Kiribati",
        "road": null,
        "house_number": null,
        "neighbourhood": null,
        "suburb": null,
        "city_district": null,
        "city": "Bairiki",
        "state": "Gilbert Islands",
        "postcode": null,
        "country": "Kiribati",
        "country_code": "ki"
      },
      "address": "980, Bairiki, South Tarawa, 02733 Gilbert Islands, Kiribati"
    }
  ],
  "updated_at": "2025-10-19T07:40:51.662701+00:00",
  "_kind": "geo_samples"
}