{
  "country_code": "MW",
  "country": "Malawi",
  "city": "Mangochi",
  "geonameid": 927246,
  "target_addresses": 5,
  "samples": [
    {
      "lat": -14.465066139102976,
      "lon": 35.239855481927094,
      "geoinfo": {
        "display_name": "Sadiki, Mponda, Mangochi, Southern Region, Malawi, Malawi",
        "road": null,
        "house_number": null,
        "neighbourhood": null,
        "suburb": null,
        "city_district": null,
        "city": "Sadiki",
        "state": "Mangochi",
        "postcode": null,
        "country": "Malawi",
        "country_code": "mw"
      },
      "address": "Mangochi, Mangochi, Malawi"
    },
    {
      "lat": -14.464828724472087,
      "lon": 35.28654034357741,
      "geoinfo": {
        "display_name": "Bakili Muluzi Highway, Chowe, Mangochi, Southern Region, Malawi, Malawi",
        "road": "Bakili Muluzi Highway",
        "house_number": null,
        "neighbourhood": null,
        "suburb": null,
        "city_district": null,
        "city": null,
        "state": "Mangochi",
        "postcode": null,
        "country": "Malawi",
        "country_code": "mw"
      },
      "address": "Bakili Muluzi Highway, Mangochi, Mangochi, Malawi"
    },
    {
      "lat": -14.485462921853005,
      "lon": 35.274858528202614,
      "geoinfo": {
        "display_name": "Road, Mangochi, Southern Region, Malawi, Malawi",
        "road": "Road",
        "house_number": null,
        "neighbourhood": null,
        "suburb": null,
        "city_district": null,
        "city": "Mangochi",
        "state": "Mangochi",
        "postcode": null,
        "country": "Malawi",
        "country_code": "mw"
      },
      "address": "Road, Mangochi, Mangochi, Malawi"
    },
    {
      "lat": -14.503226427593148,
      "lon": 35.23669184254127,
      "geoinfo": {
        "display_name": "M3, Mpinganjila, Mponda, Mangochi, Southern Region, Malawi, Malawi",
        "road": "M3",
        "house_number": null,
        "neighbourhood": null,
        "suburb": null,
        "city_district": null,
        "city": "Mpinganjila",
        "state": "Mangochi",
        "postcode": null,
        "country": "Malawi",
        "country_code": "mw"
      },
      "address": "M3, Mangochi, Mangochi, Malawi"
    },
    {
      "lat": -14.459885408220428,
      "lon": 35.24125160718152,
      "geoinfo": {
        "display_name": "M10, Malunda, Mponda, Mangochi, Southern Region, Malawi, Malawi",
        "road": "M10",
        "house_number": null,
        "neighbourhood": null,
        "suburb": null,
        "city_district": null,
        "city": "Malunda",
        "state": "Mangochi",
        "postcode": null,
        "country": "Malawi",
        "country_code": "mw"
      },
      "address": "M10, Mangochi, Mangochi, Malawi"
    },
    {
      "lat": -14.44622356771367,
      "lon": 35.27523489683635,
      "geoinfo": {
        "display_name": "Chowe, Mangochi, Southern Region, Malawi, Malawi",
        "road": null,
        "house_number": null,
        "neighbourhood": null,
        "suburb": null,
        "city_district": null,
        "city": null,
        "state": "Mangochi",
        "postcode": null,
        "country": "Malawi",
        "country_code": "mw"
      },
      "address": "449, Chowe, Mangochi, Southern Region, 14697 Malawi, Malawi"
    },
    {
      "lat": -14.48917698023698,
      "lon": 35.25116589615739,
      "geoinfo": {
        "display_name": "M3, Mangochi, Southern Region, Malawi, Malawi",
        "road": "M3",
        "house_number": null,
        "neighbourhood": null,
        "suburb": null,
        "city_district": null,
        "city": "Mangochi",
        "state": "Mangochi",
        "postcode": null,
        "country": "Malawi",
        "country_code": "mw"
      },
      "address": "M3, Mangochi, Southern Region, 82148 Malawi, Malawi"
    },
    {
      "lat": -14.513202004231209,
      "lon": 35.2859717438029,
      "geoinfo": {
        "display_name": "Laini, Chowe, Mangochi, Southern Region, Malawi, Malawi",
        "road": null,
        "house_number": null,
        "neighbourhood": null,
        "suburb": null,
        "city_district": null,
        "city": "Laini",
        "state": "Mangochi",
        "postcode": null,
        "country": "Malawi",
        "country_code": "mw"
      },
      "address": "397, Laini, Chowe, Mangochi, Southern Region, 16710 Malawi, Malawi"
    },
    {
      "lat": -14.460235485243613,
      "lon": 35.289356207517926,
      "geoinfo": {
        "display_name": "Chowe, Mangochi, Southern Region, Malawi, Malawi",
        "road": null,
        "house_number": null,
        "neighbourhood": null,
        "suburb": null,
        "city_district": null,
        "city": null,
        "state": "Mangochi",
        "postcode": null,
        "country": "Malawi",
        "country_code": "mw"
      },
      "address": "697, Chowe, Mangochi, Southern Region, 35051 Malawi, Malawi"
    },
    {
      "lat": -14.478587960418789,
      "lon": 35.30569309871585,
      "geoinfo": {
        "display_name": "Chikowi, Chowe, Mangochi, Southern Region, Malawi, Malawi",
        "road": null,
        "house_number": null,
        "neighbourhood": null,
        "suburb": null,
        "city_district": null,
        "city": "Chikowi",
        "state": "Mangochi",
        "postcode": null,
        "country": "Malawi",
        "country_code": "mw"
      },
      "address": "398, Chikowi, Chowe, Mangochi, Southern Region, 85007 Malawi, Malawi"
    }
  ],
  "updated_at": "2025-10-19T06:03:23.525962+00:00",
  "_kind": "geo_samples"
}