{
  "country_code": "MW",
  "country": "Malawi",
  "city": "Monkey Bay",
  "geonameid": 926308,
  "target_addresses": 5,
  "samples": [
    {
      "lat": -14.090480059296786,
      "lon": 34.94079833890837,
      "geoinfo": {
        "display_name": "Chirombo, Nankumba, Mangochi, Southern Region, Malawi, Malawi",
        "road": null,
        "house_number": null,
        "neighbourhood": null,
        "suburb": null,
        "city_district": null,
        "city": "Chirombo",
        "state": "Mangochi",
        "postcode": null,
        "country": "Malawi",
        "country_code": "mw"
      },
      "address": "Monkey Bay, Mangochi, Malawi"
    },
    {
      "lat": -14.05753294350528,
      "lon": 34.924880647703624,
      "geoinfo": {
        "display_name": "East Thumbi Island, T379, Monkey Bay, Nankumba, Mangochi, Southern Region, Malawi, Malawi",
        "road": "T379",
        "house_number": null,
        "neighbourhood": null,
        "suburb": null,
        "city_district": null,
        "city": "Monkey Bay",
        "state": "Mangochi",
        "postcode": null,
        "country": "Malawi",
        "country_code": "mw"
      },
      "address": "T379, Monkey Bay, Mangochi, Malawi"
    },
    {
      "lat": -14.12316103674526,
      "lon": 34.91442582006588,
      "geoinfo": {
        "display_name": "T378, Nsandu, Nankumba, Mangochi, Southern Region, Malawi, Malawi",
        "road": "T378",
        "house_number": null,
        "neighbourhood": null,
        "suburb": null,
        "city_district": null,
        "city": "Nsandu",
        "state": "Mangochi",
        "postcode": null,
        "country": "Malawi",
        "country_code": "mw"
      },
      "address": "T378, Monkey Bay, Mangochi, Malawi"
    },
    {
      "lat": -14.105122440632723,
      "lon": 34.91278854602697,
      "geoinfo": {
        "display_name": "S128, Nsandu, Nankumba, Mangochi, Southern Region, Malawi, Malawi",
        "road": "S128",
        "house_number": null,
        "neighbourhood": null,
        "suburb": null,
        "city_district": null,
        "city": "Nsandu",
        "state": "Mangochi",
        "postcode": null,
        "country": "Malawi",
        "country_code": "mw"
      },
      "address": "S128, Monkey Bay, Mangochi, Malawi"
    },
    {
      "lat": -14.065320468285694,
      "lon": 34.9078199051199,
      "geoinfo": {
        "display_name": "Mvunguti, Nankumba, Mangochi, Southern Region, Malawi, Malawi",
        "road": null,
        "house_number": null,
        "neighbourhood": null,
        "suburb": null,
        "city_district": null,
        "city": "Mvunguti",
        "state": "Mangochi",
        "postcode": null,
        "country": "Malawi",
        "country_code": "mw"
      },
      "address": "067, Mvunguti, Nankumba, Mangochi, Southern Region, 18933 Malawi, Malawi"
    },
    {
      "lat": -14.057624807894609,
      "lon": 34.91776769706573,
      "geoinfo": {
        "display_name": "Mvunguti, Nankumba, Mangochi, Southern Region, Malawi, Malawi",
        "road": null,
        "house_number": null,
        "neighbourhood": null,
        "suburb": null,
        "city_district": null,
        "city": "Mvunguti",
        "state": "Mangochi",
        "postcode": null,
        "country": "Malawi",
        "country_code": "mw"
      },
      "address": "397, Mvunguti, Nankumba, Mangochi, Southern Region, 72272 Malawi, Malawi"
    },
    {
      "lat": -14.075849189961984,
      "lon": 34.94462127135476,
      "geoinfo": {
        "display_name": "Monkey Bay, Nankumba, Mangochi, Southern Region, Malawi, Malawi",
        "road": null,
        "house_number": null,
        "neighbourhood": null,
        "suburb": null,
        "city_district": null,
        "city": "Monkey Bay",
        "state": "Mangochi",
        "postcode": null,
        "country": "Malawi",
        "country_code": "mw"
      },
      "address": "510, Monkey Bay, Nankumba, Mangochi, Southern Region, 94462 Malawi, Malawi"
    },
    {
      "lat": -14.067383553714174,
      "lon": 34.94202583556101,
      "geoinfo": {
        "display_name": "Monkey Bay, Nankumba, Mangochi, Southern Region, Malawi, Malawi",
        "road": null,
        "house_number": null,
        "neighbourhood": null,
        "suburb": null,
        "city_district": null,
        "city": "Monkey Bay",
        "state": "Mangochi",
        "postcode": null,
        "country": "Malawi",
        "country_code": "mw"
      },
      "address": "209, Monkey Bay, Nankumba, Mangochi, Southern Region, 71742 Malawi, Malawi"
    },
    {
      "lat": -14.073360315978366,
      "lon": 34.96043629210881,
      "geoinfo": {
        "display_name": "Monkey Bay, Nankumba, Mangochi, Southern Region, Malawi, Malawi",
        "road": null,
        "house_number": null,
        "neighbourhood": null,
        "suburb": null,
        "city_district": null,
        "city": "Monkey Bay",
        "state": "Mangochi",
        "postcode": null,
        "country": "Malawi",
        "country_code": "mw"
      },
      "address": "469, Monkey Bay, Nankumba, Mangochi, Southern Region, 06004 Malawi, Malawi"
    }
  ],
  "updated_at": "2025-10-19T05:49:09.038884+00:00",
  "_kind": "geo_samples"
}