{
  "country_code": "MW",
  "country": "Malawi",
  "city": "Mzimba",
  "geonameid": 925498,
  "target_addresses": 5,
  "samples": [
    {
      "lat": -11.85708858935207,
      "lon": 33.59696311376724,
      "geoinfo": {
        "display_name": "Mzimba, Northern Region, Malawi, Malawi",
        "road": null,
        "house_number": null,
        "neighbourhood": null,
        "suburb": null,
        "city_district": null,
        "city": "Mzimba",
        "state": "Mzimba",
        "postcode": null,
        "country": "Malawi",
        "country_code": "mw"
      },
      "address": "Mzimba, Mzimba, Malawi"
    },
    {
      "lat": -11.893322328789628,
      "lon": 33.56937000035526,
      "geoinfo": {
        "display_name": "M9, Kandodo Chisi, Mzimba, Northern Region, Malawi, Malawi",
        "road": "M9",
        "house_number": null,
        "neighbourhood": null,
        "suburb": null,
        "city_district": null,
        "city": "Kandodo Chisi",
        "state": "Mzimba",
        "postcode": null,
        "country": "Malawi",
        "country_code": "mw"
      },
      "address": "M9, Mzimba, Mzimba, Malawi"
    },
    {
      "lat": -11.911783031821566,
      "lon": 33.55689323064168,
      "geoinfo": {
        "display_name": "S111, Kandodo Chisi, Mzimba, Northern Region, Malawi, Malawi",
        "road": "S111",
        "house_number": null,
        "neighbourhood": null,
        "suburb": null,
        "city_district": null,
        "city": "Kandodo Chisi",
        "state": "Mzimba",
        "postcode": null,
        "country": "Malawi",
        "country_code": "mw"
      },
      "address": "S111, Mzimba, Mzimba, Malawi"
    },
    {
      "lat": -11.87556542427233,
      "lon": 33.63505195933412,
      "geoinfo": {
        "display_name": "M22, Mzimba, Northern Region, Malawi, Malawi",
        "road": "M22",
        "house_number": null,
        "neighbourhood": null,
        "suburb": null,
        "city_district": null,
        "city": "Mzimba",
        "state": "Mzimba",
        "postcode": null,
        "country": "Malawi",
        "country_code": "mw"
      },
      "address": "M22, Mzimba, Mzimba, Malawi"
    },
    {
      "lat": -11.93364016248915,
      "lon": 33.57869632869005,
      "geoinfo": {
        "display_name": "Mzimba, Northern Region, Malawi, Malawi",
        "road": null,
        "house_number": null,
        "neighbourhood": null,
        "suburb": null,
        "city_district": null,
        "city": "Mzimba",
        "state": "Mzimba",
        "postcode": null,
        "country": "Malawi",
        "country_code": "mw"
      },
      "address": "601, Mzimba, Northern Region, 85033 Malawi, Malawi"
    },
    {
      "lat": -11.88263561877069,
      "lon": 33.62374953453629,
      "geoinfo": {
        "display_name": "M22, Mzimba, Northern Region, Malawi, Malawi",
        "road": "M22",
        "house_number": null,
        "neighbourhood": null,
        "suburb": null,
        "city_district": null,
        "city": "Mzimba",
        "state": "Mzimba",
        "postcode": null,
        "country": "Malawi",
        "country_code": "mw"
      },
      "address": "M22, Mzimba, Northern Region, 02069 Malawi, Malawi"
    },
    {
      "lat": -11.92975307756125,
      "lon": 33.626658650439175,
      "geoinfo": {
        "display_name": "Mzimba, Northern Region, Malawi, Malawi",
        "road": null,
        "house_number": null,
        "neighbourhood": null,
        "suburb": null,
        "city_district": null,
        "city": null,
        "state": "Mzimba",
        "postcode": null,
        "country": "Malawi",
        "country_code": "mw"
      },
      "address": "377, Mzimba, Northern Region, 89967 Malawi, Malawi"
    },
    {
      "lat": -11.88954268057703,
      "lon": 33.634971985088995,
      "geoinfo": {
        "display_name": "Mzimba, Northern Region, Malawi, Malawi",
        "road": null,
        "house_number": null,
        "neighbourhood": null,
        "suburb": null,
        "city_district": null,
        "city": null,
        "state": "Mzimba",
        "postcode": null,
        "country": "Malawi",
        "country_code": "mw"
      },
      "address": "376, Mzimba, Northern Region, 52059 Malawi, Malawi"
    },
    {
      "lat": -11.897785270233808,
      "lon": 33.597340910495475,
      "geoinfo": {
        "display_name": "Mzimba, Northern Region, Malawi, Malawi",
        "road": null,
        "house_number": null,
        "neighbourhood": null,
        "suburb": null,
        "city_district": null,
        "city": "Mzimba",
        "state": "Mzimba",
        "postcode": null,
        "country": "Malawi",
        "country_code": "mw"
      },
      "address": "922, Mzimba, Northern Region, 84553 Malawi, Malawi"
    }
  ],
  "updated_at": "2025-10-19T05:48:51.057439+00:00",
  "_kind": "geo_samples"
}