{
  "country_code": "MW",
  "country": "Malawi",
  "city": "Salima",
  "geonameid": 924055,
  "target_addresses": 5,
  "samples": [
    {
      "lat": -13.821694444051607,
      "lon": 34.4687558333238,
      "geoinfo": {
        "display_name": "Chikuni, Salima, Central Region, Malawi, Malawi",
        "road": null,
        "house_number": null,
        "neighbourhood": null,
        "suburb": null,
        "city_district": null,
        "city": "Chikuni",
        "state": "Salima",
        "postcode": null,
        "country": "Malawi",
        "country_code": "mw"
      },
      "address": "Salima, Salima, Malawi"
    },
    {
      "lat": -13.793659402578333,
      "lon": 34.43345837045403,
      "geoinfo": {
        "display_name": "M5, Salima, Central Region, Malawi, Malawi",
        "road": "M5",
        "house_number": null,
        "neighbourhood": null,
        "suburb": null,
        "city_district": null,
        "city": "Salima",
        "state": "Salima",
        "postcode": null,
        "country": "Malawi",
        "country_code": "mw"
      },
      "address": "M5, Salima, Salima, Malawi"
    },
    {
      "lat": -13.774978327948917,
      "lon": 34.45602097145437,
      "geoinfo": {
        "display_name": "Salima, Central Region, Malawi, Malawi",
        "road": null,
        "house_number": null,
        "neighbourhood": null,
        "suburb": null,
        "city_district": null,
        "city": "Salima",
        "state": "Salima",
        "postcode": null,
        "country": "Malawi",
        "country_code": "mw"
      },
      "address": "113, Salima, Central Region, 22923 Malawi, Malawi"
    },
    {
      "lat": -13.814886803239983,
      "lon": 34.44831014714574,
      "geoinfo": {
        "display_name": "Ngolomi, Salima, Central Region, Malawi, Malawi",
        "road": null,
        "house_number": null,
        "neighbourhood": null,
        "suburb": null,
        "city_district": null,
        "city": "Ngolomi",
        "state": "Salima",
        "postcode": null,
        "country": "Malawi",
        "country_code": "mw"
      },
      "address": "248, Ngolomi, Salima, Central Region, 28514 Malawi, Malawi"
    },
    {
      "lat": -13.768956786315318,
      "lon": 34.437027761734846,
      "geoinfo": {
        "display_name": "M5, Salima, Central Region, Malawi, Malawi",
        "road": "M5",
        "house_number": null,
        "neighbourhood": null,
        "suburb": null,
        "city_district": null,
        "city": "Salima",
        "state": "Salima",
        "postcode": null,
        "country": "Malawi",
        "country_code": "mw"
      },
      "address": "M5, Salima, Central Region, 88662 Malawi, Malawi"
    },
    {
      "lat": -13.81002443666508,
      "lon": 34.486230384606834,
      "geoinfo": {
        "display_name": "Kachele, Salima, Central Region, Malawi, Malawi",
        "road": null,
        "house_number": null,
        "neighbourhood": null,
        "suburb": null,
        "city_district": null,
        "city": "Kachele",
        "state": "Salima",
        "postcode": null,
        "country": "Malawi",
        "country_code": "mw"
      },
      "address": "584, Kachele, Salima, Central Region, 13926 Malawi, Malawi"
    },
    {
      "lat": -13.767685754192662,
      "lon": 34.43384023585567,
      "geoinfo": {
        "display_name": "Local Road, Salima, Central Region, Malawi, Malawi",
        "road": "Local Road",
        "house_number": null,
        "neighbourhood": null,
        "suburb": null,
        "city_district": null,
        "city": "Salima",
        "state": "Salima",
        "postcode": null,
        "country": "Malawi",
        "country_code": "mw"
      },
      "address": "481, Local Road, Salima, Central Region, 77432 Malawi, Malawi"
    }
  ],
  "updated_at": "2025-10-19T06:07:42.492476+00:00",
  "_kind": "geo_samples"
}