{
  "country_code": "IE",
  "country": "Ireland",
  "city": "Blanchardstown",
  "geonameid": 2966110,
  "target_addresses": 15,
  "samples": [
    {
      "lat": 53.39449177624661,
      "lon": -6.377521460900245,
      "geoinfo": {
        "display_name": "37, Ashling Heights, Blanchardstown-Corduff DED 1986, Blanchardstown, Fingal, County Dublin, Leinster, D15 YA32, Ireland",
        "road": "Ashling Heights",
        "house_number": "37",
        "neighbourhood": null,
        "suburb": null,
        "city_district": "Blanchardstown-Corduff DED 1986",
        "city": "Blanchardstown",
        "state": null,
        "postcode": "D15 YA32",
        "country": "Ireland",
        "country_code": "ie"
      },
      "address": "37 Ashling Heights, Blanchardstown, Ireland"
    },
    {
      "lat": 53.400440388257756,
      "lon": -6.418162621174823,
      "geoinfo": {
        "display_name": "6, Westhaven, Blanchardstown-Blakestown DED 1986, Blanchardstown, Fingal, County Dublin, Leinster, D15 A3A8, Ireland",
        "road": "Westhaven",
        "house_number": "6",
        "neighbourhood": null,
        "suburb": null,
        "city_district": "Blanchardstown-Blakestown DED 1986",
        "city": "Blanchardstown",
        "state": null,
        "postcode": "D15 A3A8",
        "country": "Ireland",
        "country_code": "ie"
      },
      "address": "6 Westhaven, Blanchardstown, Ireland"
    },
    {
      "lat": 53.37468531741008,
      "lon": -6.368287755376751,
      "geoinfo": {
        "display_name": "28, Park Drive Close, Carpenterstown, Castleknock-Knockmaroon DED 1986, Castleknock, Fingal, County Dublin, Leinster, D15 VY32, Ireland",
        "road": "Park Drive Close",
        "house_number": "28",
        "neighbourhood": "Carpenterstown",
        "suburb": null,
        "city_district": "Castleknock-Knockmaroon DED 1986",
        "city": "Castleknock",
        "state": null,
        "postcode": "D15 VY32",
        "country": "Ireland",
        "country_code": "ie"
      },
      "address": "28 Park Drive Close, Blanchardstown, Ireland"
    },
    {
      "lat": 53.39451438673671,
      "lon": -6.423453263891513,
      "geoinfo": {
        "display_name": "32, Cherryfield Park, Cherryfield, Blanchardstown-Blakestown DED 1986, Ongar, Fingal, County Dublin, Leinster, D15 A3A8, Ireland",
        "road": "Cherryfield Park",
        "house_number": "32",
        "neighbourhood": null,
        "suburb": null,
        "city_district": "Blanchardstown-Blakestown DED 1986",
        "city": "Ongar",
        "state": null,
        "postcode": "D15 A3A8",
        "country": "Ireland",
        "country_code": "ie"
      },
      "address": "32 Cherryfield Park, Blanchardstown, Ireland"
    },
    {
      "lat": 53.3770103053143,
      "lon": -6.318037830577636,
      "geoinfo": {
        "display_name": "21, Camden Avenue, Finglas, Ashtown A ED, Dublin, County Dublin, Leinster, D11 HN88, Ireland",
        "road": "Camden Avenue",
        "house_number": "21",
        "neighbourhood": null,
        "suburb": "Finglas",
        "city_district": "Ashtown A ED",
        "city": "Dublin",
        "state": null,
        "postcode": "D11 HN88",
        "country": "Ireland",
        "country_code": "ie"
      },
      "address": "21, Camden Avenue, Finglas, Ashtown A ED, Dublin, County Dublin, Leinster, D11 HN88, Ireland"
    },
    {
      "lat": 53.38862861873772,
      "lon": -6.326322014935634,
      "geoinfo": {
        "display_name": "Blanchardstown-Abbotstown DED 1986, Fingal, Dublin 15, Leinster, D11 HN88, Ireland",
        "road": null,
        "house_number": null,
        "neighbourhood": null,
        "suburb": null,
        "city_district": "Blanchardstown-Abbotstown DED 1986",
        "city": null,
        "state": null,
        "postcode": "D11 HN88",
        "country": "Ireland",
        "country_code": "ie"
      },
      "address": "Blanchardstown-Abbotstown DED 1986, Fingal, Dublin 15, Leinster, D11 HN88, Ireland"
    },
    {
      "lat": 53.36034559392838,
      "lon": -6.3998350052239745,
      "geoinfo": {
        "display_name": "Old Lucan Road, Palmerstown West DED 1986, South Dublin, County Dublin, Leinster, D20 VP26, Ireland",
        "road": "Old Lucan Road",
        "house_number": null,
        "neighbourhood": null,
        "suburb": null,
        "city_district": "Palmerstown West DED 1986",
        "city": null,
        "state": null,
        "postcode": "D20 VP26",
        "country": "Ireland",
        "country_code": "ie"
      },
      "address": "Old Lucan Road, Palmerstown West DED 1986, South Dublin, County Dublin, Leinster, D20 VP26, Ireland"
    },
    {
      "lat": 53.390148061245476,
      "lon": -6.397364914712964,
      "geoinfo": {
        "display_name": "Coolmine Community School, Verdemont, Blanchardstown-Coolmine DED 1986, Blanchardstown, Fingal, County Dublin, Leinster, D15 W638, Ireland",
        "road": "Verdemont",
        "house_number": null,
        "neighbourhood": null,
        "suburb": null,
        "city_district": "Blanchardstown-Coolmine DED 1986",
        "city": "Blanchardstown",
        "state": null,
        "postcode": "D15 W638",
        "country": "Ireland",
        "country_code": "ie"
      },
      "address": "Coolmine Community School, Verdemont, Blanchardstown-Coolmine DED 1986, Blanchardstown, Fingal, County Dublin, Leinster, D15 W638, Ireland"
    },
    {
      "lat": 53.35362340467212,
      "lon": -6.354754462151101,
      "geoinfo": {
        "display_name": "Glenaulin Nursing Home, Glenaulin, Chapelizod, Chapelizod Ward 1986, Dublin, County Dublin, Leinster, D20 DR77, Ireland",
        "road": "Glenaulin",
        "house_number": null,
        "neighbourhood": null,
        "suburb": "Chapelizod",
        "city_district": "Chapelizod Ward 1986",
        "city": "Dublin",
        "state": null,
        "postcode": "D20 DR77",
        "country": "Ireland",
        "country_code": "ie"
      },
      "address": "Glenaulin Nursing Home, Glenaulin, Chapelizod, Chapelizod Ward 1986, Dublin, County Dublin, Leinster, D20 DR77, Ireland"
    },
    {
      "lat": 53.34900849209414,
      "lon": -6.400921405790692,
      "geoinfo": {
        "display_name": "Greenfort Avenue, Greenfort, Palmerstown West DED 1986, South Dublin, County Dublin, Leinster, D22 H7X9, Ireland",
        "road": "Greenfort Avenue",
        "house_number": null,
        "neighbourhood": null,
        "suburb": null,
        "city_district": "Palmerstown West DED 1986",
        "city": null,
        "state": null,
        "postcode": "D22 H7X9",
        "country": "Ireland",
        "country_code": "ie"
      },
      "address": "Greenfort Avenue, Greenfort, Palmerstown West DED 1986, South Dublin, County Dublin, Leinster, D22 H7X9, Ireland"
    },
    {
      "lat": 53.38827577406897,
      "lon": -6.306522078903016,
      "geoinfo": {
        "display_name": "Cappagh Road, Finglas South A Ward 1986, Dublin, County Dublin, Leinster, D11 WF9F, Ireland",
        "road": "Cappagh Road",
        "house_number": null,
        "neighbourhood": null,
        "suburb": null,
        "city_district": "Finglas South A Ward 1986",
        "city": "Dublin",
        "state": null,
        "postcode": "D11 WF9F",
        "country": "Ireland",
        "country_code": "ie"
      },
      "address": "Cappagh Road, Finglas South A Ward 1986, Dublin, County Dublin, Leinster, D11 WF9F, Ireland"
    },
    {
      "lat": 53.417135901246574,
      "lon": -6.41837346587021,
      "geoinfo": {
        "display_name": "Damastown Avenue, Damastown Industrial Park, Blanchardstown-Tyrrelstown DED 1986, Mulhuddart, Fingal, County Dublin, Leinster, D15 X925, Ireland",
        "road": "Damastown Avenue",
        "house_number": null,
        "neighbourhood": null,
        "suburb": null,
        "city_district": "Blanchardstown-Tyrrelstown DED 1986",
        "city": "Mulhuddart",
        "state": null,
        "postcode": "D15 X925",
        "country": "Ireland",
        "country_code": "ie"
      },
      "address": "Damastown Avenue, Damastown Industrial Park, Blanchardstown-Tyrrelstown DED 1986, Mulhuddart, Fingal, County Dublin, Leinster, D15 X925, Ireland"
    },
    {
      "lat": 53.40419373779648,
      "lon": -6.318294983662929,
      "geoinfo": {
        "display_name": "Northern Cross Route, The Ward DED 1986, Fingal, County Dublin, Leinster, D11 YP40, Ireland",
        "road": "Northern Cross Route",
        "house_number": null,
        "neighbourhood": null,
        "suburb": null,
        "city_district": "The Ward DED 1986",
        "city": null,
        "state": null,
        "postcode": "D11 YP40",
        "country": "Ireland",
        "country_code": "ie"
      },
      "address": "Northern Cross Route, The Ward DED 1986, Fingal, County Dublin, Leinster, D11 YP40, Ireland"
    },
    {
      "lat": 53.385297730049466,
      "lon": -6.36022726735614,
      "geoinfo": {
        "display_name": "Northern Cross Route Motorway, Blanchardstown-Abbotstown DED 1986, Blanchardstown, Fingal, County Dublin, Leinster, D15 DE98, Ireland",
        "road": "Northern Cross Route Motorway",
        "house_number": null,
        "neighbourhood": null,
        "suburb": null,
        "city_district": "Blanchardstown-Abbotstown DED 1986",
        "city": "Blanchardstown",
        "state": null,
        "postcode": "D15 DE98",
        "country": "Ireland",
        "country_code": "ie"
      },
      "address": "Northern Cross Route Motorway, Blanchardstown-Abbotstown DED 1986, Blanchardstown, Fingal, County Dublin, Leinster, D15 DE98, Ireland"
    },
    {
      "lat": 53.36181818268325,
      "lon": -6.3391810441333645,
      "geoinfo": {
        "display_name": "Tinkler's Path, Phoenix Park Ward 1986, Dublin, County Dublin, Leinster, D08 F6E4, Ireland",
        "road": "Tinkler's Path",
        "house_number": null,
        "neighbourhood": null,
        "suburb": null,
        "city_district": "Phoenix Park Ward 1986",
        "city": "Dublin",
        "state": null,
        "postcode": "D08 F6E4",
        "country": "Ireland",
        "country_code": "ie"
      },
      "address": "Tinkler's Path, Phoenix Park Ward 1986, Dublin, County Dublin, Leinster, D08 F6E4, Ireland"
    }
  ],
  "updated_at": "2025-10-19T04:50:00.189629+00:00",
  "_kind": "geo_samples"
}