{
  "country_code": "IE",
  "country": "Ireland",
  "city": "Drogheda",
  "geonameid": 2964661,
  "target_addresses": 3,
  "samples": [
    {
      "lat": 53.74534227105729,
      "lon": -6.378279403825546,
      "geoinfo": {
        "display_name": "R132, St. Peter's ED, The Borough District of Drogheda, County Louth, Leinster, A92 NY2V, Ireland",
        "road": "R132",
        "house_number": null,
        "neighbourhood": null,
        "suburb": null,
        "city_district": "St. Peter's ED",
        "city": null,
        "state": null,
        "postcode": "A92 NY2V",
        "country": "Ireland",
        "country_code": "ie"
      },
      "address": "R132, Drogheda, Ireland"
    },
    {
      "lat": 53.693205347107295,
      "lon": -6.3736828845407665,
      "geoinfo": {
        "display_name": "R152, Saint Mary's ED, The Municipal District of Laytown â€” Bettystown, County Meath, Leinster, A92 YW26, Ireland",
        "road": "R152",
        "house_number": null,
        "neighbourhood": null,
        "suburb": null,
        "city_district": "Saint Mary's ED",
        "city": null,
        "state": null,
        "postcode": "A92 YW26",
        "country": "Ireland",
        "country_code": "ie"
      },
      "address": "R152, Drogheda, Ireland"
    },
    {
      "lat": 53.70017877383861,
      "lon": -6.314715838259034,
      "geoinfo": {
        "display_name": "Colpe Crescent, Saint Mary's ED, Drogheda, County Meath, Leinster, A92 EY89, Ireland",
        "road": "Colpe Crescent",
        "house_number": null,
        "neighbourhood": null,
        "suburb": null,
        "city_district": "Saint Mary's ED",
        "city": "Drogheda",
        "state": null,
        "postcode": "A92 EY89",
        "country": "Ireland",
        "country_code": "ie"
      },
      "address": "Colpe Crescent, Drogheda, Ireland"
    }
  ],
  "updated_at": "2025-10-16T15:16:46.351946+00:00",
  "_kind": "geo_samples"
}