{
  "country_code": "IE",
  "country": "Ireland",
  "city": "Finglas",
  "geonameid": 2964303,
  "target_addresses": 3,
  "samples": [
    {
      "lat": 53.39721639278274,
      "lon": -6.315294698563653,
      "geoinfo": {
        "display_name": "Northern Cross Business Park, Finglas West A ED, Dublin, County Dublin, Leinster, D11 A2C7, Ireland",
        "road": "Northern Cross Business Park",
        "house_number": null,
        "neighbourhood": null,
        "suburb": null,
        "city_district": "Finglas West A ED",
        "city": "Dublin",
        "state": null,
        "postcode": "D11 A2C7",
        "country": "Ireland",
        "country_code": "ie"
      },
      "address": "Northern Cross Business Park, Finglas, Ireland"
    },
    {
      "lat": 53.41200239612353,
      "lon": -6.308126673572048,
      "geoinfo": {
        "display_name": "Saint Margaret's Road, Dubber DED 1986, Fingal, County Dublin, Leinster, D11 Y895, Ireland",
        "road": "Saint Margaret's Road",
        "house_number": null,
        "neighbourhood": null,
        "suburb": null,
        "city_district": "Dubber DED 1986",
        "city": null,
        "state": null,
        "postcode": "D11 Y895",
        "country": "Ireland",
        "country_code": "ie"
      },
      "address": "Saint Margaret's Road, Finglas, Ireland"
    },
    {
      "lat": 53.382955662359144,
      "lon": -6.35477882461382,
      "geoinfo": {
        "display_name": "River Road, Castleknock-Park DED 1986, Castleknock, Fingal, County Dublin, Leinster, D15 R7WX, Ireland",
        "road": "River Road",
        "house_number": null,
        "neighbourhood": null,
        "suburb": null,
        "city_district": "Castleknock-Park DED 1986",
        "city": "Castleknock",
        "state": null,
        "postcode": "D15 R7WX",
        "country": "Ireland",
        "country_code": "ie"
      },
      "address": "River Road, Finglas, Ireland"
    },
    {
      "lat": 53.40598701602877,
      "lon": -6.236429831478485,
      "geoinfo": {
        "display_name": "Essentra, Unit 7, Airways Industrial Estate, Santry, Turnapin DED 1986, Dublin, Fingal, County Dublin, Leinster, D17 TH93, Ireland",
        "road": "Airways Industrial Estate",
        "house_number": "Unit 7",
        "neighbourhood": null,
        "suburb": "Santry",
        "city_district": "Turnapin DED 1986",
        "city": "Dublin",
        "state": null,
        "postcode": "D17 TH93",
        "country": "Ireland",
        "country_code": "ie"
      },
      "address": "Essentra, Unit 7, Airways Industrial Estate, Santry, Turnapin DED 1986, Dublin, Fingal, County Dublin, Leinster, D17 TH93, Ireland"
    },
    {
      "lat": 53.41931898900975,
      "lon": -6.275533335892702,
      "geoinfo": {
        "display_name": "South Parallel Road, Dubber DED 1986, Fingal, County Dublin, Leinster, K67 A5W6, Ireland",
        "road": "South Parallel Road",
        "house_number": null,
        "neighbourhood": null,
        "suburb": null,
        "city_district": "Dubber DED 1986",
        "city": null,
        "state": null,
        "postcode": "K67 A5W6",
        "country": "Ireland",
        "country_code": "ie"
      },
      "address": "South Parallel Road, Dubber DED 1986, Fingal, County Dublin, Leinster, K67 A5W6, Ireland"
    },
    {
      "lat": 53.37314155586126,
      "lon": -6.2576103509416665,
      "geoinfo": {
        "display_name": "99, Ferguson Road, Drumcondra South C Ward 1986, Dublin, County Dublin, Leinster, D09 PT78, Ireland",
        "road": "Ferguson Road",
        "house_number": "99",
        "neighbourhood": null,
        "suburb": null,
        "city_district": "Drumcondra South C Ward 1986",
        "city": "Dublin",
        "state": null,
        "postcode": "D09 PT78",
        "country": "Ireland",
        "country_code": "ie"
      },
      "address": "99, Ferguson Road, Drumcondra South C Ward 1986, Dublin, County Dublin, Leinster, D09 PT78, Ireland"
    }
  ],
  "updated_at": "2025-10-19T02:41:33.179231+00:00",
  "_kind": "geo_samples"
}