{
  "country_code": "IE",
  "country": "Ireland",
  "city": "Galway",
  "geonameid": 2964180,
  "target_addresses": 15,
  "samples": [
    {
      "lat": 53.234149576762356,
      "lon": -9.057255978692481,
      "geoinfo": {
        "display_name": "Kilcolgan Point, Ballynacourty ED, Loughrea Municipal District, County Galway, Connacht, H91 T2FD, Ireland",
        "road": null,
        "house_number": null,
        "neighbourhood": null,
        "suburb": null,
        "city_district": "Ballynacourty ED",
        "city": null,
        "state": null,
        "postcode": "H91 T2FD",
        "country": "Ireland",
        "country_code": "ie"
      },
      "address": "Ballynacourty ED, Galway, Ireland"
    },
    {
      "lat": 53.28371038555071,
      "lon": -9.006545972724446,
      "geoinfo": {
        "display_name": "17, Rian Luachra, Ballybane, Ballybaan, Galway, County Galway, Connacht, H91 XW13, Ireland",
        "road": "Rian Luachra",
        "house_number": "17",
        "neighbourhood": null,
        "suburb": "Ballybane",
        "city_district": "Ballybaan",
        "city": "Galway",
        "state": null,
        "postcode": "H91 XW13",
        "country": "Ireland",
        "country_code": "ie"
      },
      "address": "17 Rian Luachra, Galway, Ireland"
    },
    {
      "lat": 53.25704641554288,
      "lon": -9.112525023407136,
      "geoinfo": {
        "display_name": "Blakes Hill, Knocknacarragh, Galway, County Galway, Connacht, H91 K856, Ireland",
        "road": "Blakes Hill",
        "house_number": null,
        "neighbourhood": null,
        "suburb": null,
        "city_district": "Knocknacarragh",
        "city": "Galway",
        "state": null,
        "postcode": "H91 K856",
        "country": "Ireland",
        "country_code": "ie"
      },
      "address": "Blakes Hill, Galway, Ireland"
    },
    {
      "lat": 53.28140487559615,
      "lon": -9.028215693865969,
      "geoinfo": {
        "display_name": "105, Wellpark Grove, Wellpark, Galway, County Galway, Connacht, H91 Y5T3, Ireland",
        "road": "Wellpark Grove",
        "house_number": "105",
        "neighbourhood": null,
        "suburb": "Wellpark",
        "city_district": "Wellpark",
        "city": "Galway",
        "state": null,
        "postcode": "H91 Y5T3",
        "country": "Ireland",
        "country_code": "ie"
      },
      "address": "105 Wellpark Grove, Galway, Ireland"
    },
    {
      "lat": 53.28063897837032,
      "lon": -9.12439974701842,
      "geoinfo": {
        "display_name": "An Bhuaile Bheag, Knocknacarra, Barna, Galway, County Galway, Connacht, H91 V6RP, Ireland",
        "road": "An Bhuaile Bheag",
        "house_number": null,
        "neighbourhood": null,
        "suburb": "Knocknacarra",
        "city_district": "Barna",
        "city": "Galway",
        "state": null,
        "postcode": "H91 V6RP",
        "country": "Ireland",
        "country_code": "ie"
      },
      "address": "An Bhuaile Bheag, Knocknacarra, Barna, Galway, County Galway, Connacht, H91 V6RP, Ireland"
    },
    {
      "lat": 53.2331259682554,
      "lon": -9.046200217861664,
      "geoinfo": {
        "display_name": "Kilcolgan Point, Ballynacourty ED, Loughrea Municipal District, County Galway, Connacht, H91 T2FD, Ireland",
        "road": null,
        "house_number": null,
        "neighbourhood": null,
        "suburb": null,
        "city_district": "Ballynacourty ED",
        "city": null,
        "state": null,
        "postcode": "H91 T2FD",
        "country": "Ireland",
        "country_code": "ie"
      },
      "address": "Kilcolgan Point, Ballynacourty ED, Loughrea Municipal District, County Galway, Connacht, H91 T2FD, Ireland"
    },
    {
      "lat": 53.28782065908429,
      "lon": -9.072553744613998,
      "geoinfo": {
        "display_name": "11, Clifton Avenue, Clifton Park, Newcastle, Dangan, Galway, County Galway, Connacht, H91 A3EF, Ireland",
        "road": "Clifton Avenue",
        "house_number": "11",
        "neighbourhood": null,
        "suburb": "Newcastle",
        "city_district": "Dangan",
        "city": "Galway",
        "state": null,
        "postcode": "H91 A3EF",
        "country": "Ireland",
        "country_code": "ie"
      },
      "address": "11, Clifton Avenue, Clifton Park, Newcastle, Dangan, Galway, County Galway, Connacht, H91 A3EF, Ireland"
    },
    {
      "lat": 53.24008997143617,
      "lon": -9.0031711567643,
      "geoinfo": {
        "display_name": "Rinville Point, Clarinbridge ED, Loughrea Municipal District, County Galway, Connacht, H91 R673, Ireland",
        "road": null,
        "house_number": null,
        "neighbourhood": null,
        "suburb": null,
        "city_district": "Clarinbridge ED",
        "city": null,
        "state": null,
        "postcode": "H91 R673",
        "country": "Ireland",
        "country_code": "ie"
      },
      "address": "Rinville Point, Clarinbridge ED, Loughrea Municipal District, County Galway, Connacht, H91 R673, Ireland"
    },
    {
      "lat": 53.29426485787979,
      "lon": -8.986078333108567,
      "geoinfo": {
        "display_name": "Briarhill Business Park, Doughiska, Ballybrit, Galway, County Galway, Connacht, H91 EA06, Ireland",
        "road": "Briarhill Business Park",
        "house_number": null,
        "neighbourhood": null,
        "suburb": "Doughiska",
        "city_district": "Ballybrit",
        "city": "Galway",
        "state": null,
        "postcode": "H91 EA06",
        "country": "Ireland",
        "country_code": "ie"
      },
      "address": "Briarhill Business Park, Doughiska, Ballybrit, Galway, County Galway, Connacht, H91 EA06, Ireland"
    },
    {
      "lat": 53.240314174164894,
      "lon": -9.058195723678317,
      "geoinfo": {
        "display_name": "Salthill, Galway, County Galway, Connacht, H91 RK5E, Ireland",
        "road": null,
        "house_number": null,
        "neighbourhood": null,
        "suburb": "Salthill",
        "city_district": "Salthill",
        "city": "Galway",
        "state": null,
        "postcode": "H91 RK5E",
        "country": "Ireland",
        "country_code": "ie"
      },
      "address": "Salthill, Galway, County Galway, Connacht, H91 RK5E, Ireland"
    },
    {
      "lat": 53.24652367502055,
      "lon": -9.084389483938363,
      "geoinfo": {
        "display_name": "Blackrock, Knocknacarragh, Galway, County Galway, Connacht, H91 KV9D, Ireland",
        "road": null,
        "house_number": null,
        "neighbourhood": null,
        "suburb": null,
        "city_district": "Knocknacarragh",
        "city": "Galway",
        "state": null,
        "postcode": "H91 KV9D",
        "country": "Ireland",
        "country_code": "ie"
      },
      "address": "Blackrock, Knocknacarragh, Galway, County Galway, Connacht, H91 KV9D, Ireland"
    },
    {
      "lat": 53.285034976501144,
      "lon": -9.049318542221917,
      "geoinfo": {
        "display_name": "Gort na Coiribe, Terryland, Menlough, Galway, County Galway, Connacht, H91 ET6N, Ireland",
        "road": "Gort na Coiribe",
        "house_number": null,
        "neighbourhood": null,
        "suburb": "Terryland",
        "city_district": "Menlough",
        "city": "Galway",
        "state": null,
        "postcode": "H91 ET6N",
        "country": "Ireland",
        "country_code": "ie"
      },
      "address": "Gort na Coiribe, Terryland, Menlough, Galway, County Galway, Connacht, H91 ET6N, Ireland"
    },
    {
      "lat": 53.28607863576873,
      "lon": -9.06547523205602,
      "geoinfo": {
        "display_name": "University Road, Nun's Island, Galway, County Galway, Connacht, H91 TK33, Ireland",
        "road": "University Road",
        "house_number": null,
        "neighbourhood": null,
        "suburb": null,
        "city_district": "Nun's Island",
        "city": "Galway",
        "state": null,
        "postcode": "H91 TK33",
        "country": "Ireland",
        "country_code": "ie"
      },
      "address": "University Road, Nun's Island, Galway, County Galway, Connacht, H91 TK33, Ireland"
    },
    {
      "lat": 53.2658317753447,
      "lon": -9.035725081623422,
      "geoinfo": {
        "display_name": "Mellows Pitch & Putt, Mellows Park, Renmore, Lough Atalia, Galway, County Galway, Connacht, H91 F880, Ireland",
        "road": "Mellows Park",
        "house_number": null,
        "neighbourhood": null,
        "suburb": "Renmore",
        "city_district": "Lough Atalia",
        "city": "Galway",
        "state": null,
        "postcode": "H91 F880",
        "country": "Ireland",
        "country_code": "ie"
      },
      "address": "Mellows Pitch & Putt, Mellows Park, Renmore, Lough Atalia, Galway, County Galway, Connacht, H91 F880, Ireland"
    },
    {
      "lat": 53.26936064478134,
      "lon": -9.100294864870838,
      "geoinfo": {
        "display_name": "81-96, Áltan, Rahoon, Barna, Galway, County Galway, Connacht, H91 TD0F, Ireland",
        "road": "Áltan",
        "house_number": "81-96",
        "neighbourhood": null,
        "suburb": "Rahoon",
        "city_district": "Barna",
        "city": "Galway",
        "state": null,
        "postcode": "H91 TD0F",
        "country": "Ireland",
        "country_code": "ie"
      },
      "address": "81-96, Áltan, Rahoon, Barna, Galway, County Galway, Connacht, H91 TD0F, Ireland"
    }
  ],
  "updated_at": "2025-10-19T04:48:25.235973+00:00",
  "_kind": "geo_samples"
}