{
  "country_code": "IE",
  "country": "Ireland",
  "city": "Greystones",
  "geonameid": 2963848,
  "target_addresses": 3,
  "samples": [
    {
      "lat": 53.15334973819277,
      "lon": -6.0556115887922,
      "geoinfo": {
        "display_name": "The Grey Stones, Greystones, A63 V406, Ireland",
        "road": null,
        "house_number": null,
        "neighbourhood": null,
        "suburb": null,
        "city_district": null,
        "city": "Greystones",
        "state": null,
        "postcode": "A63 V406",
        "country": "Ireland",
        "country_code": "ie"
      },
      "address": "Greystones, Ireland"
    },
    {
      "lat": 53.18329787507248,
      "lon": -6.074155337182872,
      "geoinfo": {
        "display_name": "Bray Greystones Cliff Walk, Delgany ED, The Municipal District of Greystones, County Wicklow, Leinster, A98 C627, Ireland",
        "road": "Bray Greystones Cliff Walk",
        "house_number": null,
        "neighbourhood": null,
        "suburb": null,
        "city_district": "Delgany ED",
        "city": null,
        "state": null,
        "postcode": "A98 C627",
        "country": "Ireland",
        "country_code": "ie"
      },
      "address": "Bray Greystones Cliff Walk, Greystones, Ireland"
    },
    {
      "lat": 53.13081443923199,
      "lon": -6.065027045092784,
      "geoinfo": {
        "display_name": "Éire Óg Greystones GAA Club, Burnaby Mill, Greystones ED, The Municipal District of Greystones, County Wicklow, Leinster, A63 RP29, Ireland",
        "road": "Burnaby Mill",
        "house_number": null,
        "neighbourhood": null,
        "suburb": null,
        "city_district": "Greystones ED",
        "city": null,
        "state": null,
        "postcode": "A63 RP29",
        "country": "Ireland",
        "country_code": "ie"
      },
      "address": "Burnaby Mill, Greystones, Ireland"
    },
    {
      "lat": 53.14748965040551,
      "lon": -5.989747401347941,
      "geoinfo": {
        "display_name": "Greystones, The Municipal District of Greystones, County Wicklow, Leinster, A63 HW80, Ireland",
        "road": null,
        "house_number": null,
        "neighbourhood": null,
        "suburb": null,
        "city_district": null,
        "city": "Greystones",
        "state": null,
        "postcode": "A63 HW80",
        "country": "Ireland",
        "country_code": "ie"
      },
      "address": "Greystones, The Municipal District of Greystones, County Wicklow, Leinster, A63 HW80, Ireland"
    },
    {
      "lat": 53.141413444248116,
      "lon": -6.055171268635675,
      "geoinfo": {
        "display_name": "Greystones United Football Club, Woodlands, Greystones ED, The Municipal District of Greystones, County Wicklow, Leinster, A63 YE86, Ireland",
        "road": "Woodlands",
        "house_number": null,
        "neighbourhood": null,
        "suburb": null,
        "city_district": "Greystones ED",
        "city": null,
        "state": null,
        "postcode": "A63 YE86",
        "country": "Ireland",
        "country_code": "ie"
      },
      "address": "Greystones United Football Club, Woodlands, Greystones ED, The Municipal District of Greystones, County Wicklow, Leinster, A63 YE86, Ireland"
    },
    {
      "lat": 53.11826975083789,
      "lon": -6.036767178052442,
      "geoinfo": {
        "display_name": "Cobblers Bulk, Greystones, A63 E9T0, Ireland",
        "road": null,
        "house_number": null,
        "neighbourhood": null,
        "suburb": null,
        "city_district": null,
        "city": "Greystones",
        "state": null,
        "postcode": "A63 E9T0",
        "country": "Ireland",
        "country_code": "ie"
      },
      "address": "Cobblers Bulk, Greystones, A63 E9T0, Ireland"
    }
  ],
  "updated_at": "2025-10-19T04:23:27.415934+00:00",
  "_kind": "geo_samples"
}