{
  "country_code": "IE",
  "country": "Ireland",
  "city": "Rathfarnham",
  "geonameid": 2961911,
  "target_addresses": 3,
  "samples": [
    {
      "lat": 53.281066309780236,
      "lon": -6.346206523831779,
      "geoinfo": {
        "display_name": "Firhouse Road, Firhouse, Ballycullen, Firhouse Village DED 1986, Tallaght, South Dublin, County Dublin, Leinster, D24 TW35, Ireland",
        "road": "Firhouse Road",
        "house_number": null,
        "neighbourhood": null,
        "suburb": "Firhouse",
        "city_district": "Firhouse Village DED 1986",
        "city": "Tallaght",
        "state": null,
        "postcode": "D24 TW35",
        "country": "Ireland",
        "country_code": "ie"
      },
      "address": "Firhouse Road, Rathfarnham, Ireland"
    },
    {
      "lat": 53.292039490148404,
      "lon": -6.300751828520186,
      "geoinfo": {
        "display_name": "Silverwood Road, Butterfield, Rathfarnham-Ballyroan DED 1986, Rathfarnham, South Dublin, County Dublin, Leinster, D14 VY33, Ireland",
        "road": "Silverwood Road",
        "house_number": null,
        "neighbourhood": null,
        "suburb": "Butterfield",
        "city_district": "Rathfarnham-Ballyroan DED 1986",
        "city": "Rathfarnham",
        "state": null,
        "postcode": "D14 VY33",
        "country": "Ireland",
        "country_code": "ie"
      },
      "address": "Silverwood Road, Rathfarnham, Ireland"
    },
    {
      "lat": 53.28763676643623,
      "lon": -6.291328190989193,
      "geoinfo": {
        "display_name": "Parkside House, 20, Ballyboden Road, Willbrook, Rathfarnham-St. Enda's Electoral Division, Rathfarnham, South Dublin, County Dublin, Leinster, D14 PX24, Ireland",
        "road": "Ballyboden Road",
        "house_number": "20",
        "neighbourhood": null,
        "suburb": "Willbrook",
        "city_district": "Rathfarnham-St. Enda's Electoral Division",
        "city": "Rathfarnham",
        "state": null,
        "postcode": "D14 PX24",
        "country": "Ireland",
        "country_code": "ie"
      },
      "address": "20 Ballyboden Road, Rathfarnham, Ireland"
    }
  ],
  "updated_at": "2025-10-16T15:16:07.144708+00:00",
  "_kind": "geo_samples"
}