{
  "country_code": "IE",
  "country": "Ireland",
  "city": "Sandyford",
  "geonameid": 3315278,
  "target_addresses": 3,
  "samples": [
    {
      "lat": 53.26919948795956,
      "lon": -6.237303843835539,
      "geoinfo": {
        "display_name": "Ticknock Drive, Balally, Dundrum-Sandyford DED 1986, Dundrum, Dún Laoghaire-Rathdown, County Dublin, Leinster, D18 PK64, Ireland",
        "road": "Ticknock Drive",
        "house_number": null,
        "neighbourhood": null,
        "suburb": "Balally",
        "city_district": "Dundrum-Sandyford DED 1986",
        "city": "Dundrum",
        "state": null,
        "postcode": "D18 PK64",
        "country": "Ireland",
        "country_code": "ie"
      },
      "address": "Ticknock Drive, Sandyford, Ireland"
    },
    {
      "lat": 53.292738989300325,
      "lon": -6.20052526778857,
      "geoinfo": {
        "display_name": "Stillorgan Road, Woodland, Stillorgan-Priory DED 1986, Blackrock, Dún Laoghaire-Rathdown, County Dublin, Leinster, A94 NR74, Ireland",
        "road": "Stillorgan Road",
        "house_number": null,
        "neighbourhood": null,
        "suburb": "Woodland",
        "city_district": "Stillorgan-Priory DED 1986",
        "city": "Blackrock",
        "state": null,
        "postcode": "A94 NR74",
        "country": "Ireland",
        "country_code": "ie"
      },
      "address": "Stillorgan Road, Sandyford, Ireland"
    },
    {
      "lat": 53.25702399459642,
      "lon": -6.210612315776655,
      "geoinfo": {
        "display_name": "Kilgobbin, Glencullen Electoral Division, Stepaside, Dún Laoghaire-Rathdown, County Dublin, Leinster, D18 H6F3, Ireland",
        "road": null,
        "house_number": null,
        "neighbourhood": null,
        "suburb": "Kilgobbin",
        "city_district": "Glencullen Electoral Division",
        "city": "Stepaside",
        "state": null,
        "postcode": "D18 H6F3",
        "country": "Ireland",
        "country_code": "ie"
      },
      "address": "Kilgobbin, Sandyford, Ireland"
    },
    {
      "lat": 53.304461771908805,
      "lon": -6.227650421929333,
      "geoinfo": {
        "display_name": "University College Dublin (Belfield Campus), Foster's Avenue, Mountmerrion or Callary, Clonskeagh-Belfield DED 1986, Blackrock, Dún Laoghaire-Rathdown, County Dublin, Leinster, D04 A021, Ireland",
        "road": "Foster's Avenue",
        "house_number": null,
        "neighbourhood": null,
        "suburb": "Mountmerrion or Callary",
        "city_district": "Clonskeagh-Belfield DED 1986",
        "city": "Blackrock",
        "state": null,
        "postcode": "D04 A021",
        "country": "Ireland",
        "country_code": "ie"
      },
      "address": "University College Dublin (Belfield Campus), Foster's Avenue, Mountmerrion or Callary, Clonskeagh-Belfield DED 1986, Blackrock, Dún Laoghaire-Rathdown, County Dublin, Leinster, D04 A021, Ireland"
    },
    {
      "lat": 53.256791933895364,
      "lon": -6.225208923953393,
      "geoinfo": {
        "display_name": "Fernhill Heritage Garden, Enniskerry Road, Newtown Little, Glencullen Electoral Division, Stepaside, Dún Laoghaire-Rathdown, County Dublin, Leinster, D18 V6WR, Ireland",
        "road": "Enniskerry Road",
        "house_number": null,
        "neighbourhood": null,
        "suburb": "Newtown Little",
        "city_district": "Glencullen Electoral Division",
        "city": "Stepaside",
        "state": null,
        "postcode": "D18 V6WR",
        "country": "Ireland",
        "country_code": "ie"
      },
      "address": "Fernhill Heritage Garden, Enniskerry Road, Newtown Little, Glencullen Electoral Division, Stepaside, Dún Laoghaire-Rathdown, County Dublin, Leinster, D18 V6WR, Ireland"
    },
    {
      "lat": 53.239926795417176,
      "lon": -6.254069806544618,
      "geoinfo": {
        "display_name": "Wicklow Way, Tiknock, Glencullen Electoral Division, Dún Laoghaire-Rathdown, County Dublin, Leinster, D18 C8W7, Ireland",
        "road": "Wicklow Way",
        "house_number": null,
        "neighbourhood": null,
        "suburb": "Tiknock",
        "city_district": "Glencullen Electoral Division",
        "city": null,
        "state": null,
        "postcode": "D18 C8W7",
        "country": "Ireland",
        "country_code": "ie"
      },
      "address": "Wicklow Way, Tiknock, Glencullen Electoral Division, Dún Laoghaire-Rathdown, County Dublin, Leinster, D18 C8W7, Ireland"
    }
  ],
  "updated_at": "2025-10-19T04:23:48.307318+00:00",
  "_kind": "geo_samples"
}