{
  "country_code": "IE",
  "country": "Ireland",
  "city": "Swords",
  "geonameid": 2961297,
  "target_addresses": 3,
  "samples": [
    {
      "lat": 53.4396013796907,
      "lon": -6.272448453753617,
      "geoinfo": {
        "display_name": "Barberstown Road, Dubber DED 1986, Fingal, County Dublin, Leinster, K67 A5W6, Ireland",
        "road": "Barberstown Road",
        "house_number": null,
        "neighbourhood": null,
        "suburb": null,
        "city_district": "Dubber DED 1986",
        "city": null,
        "state": null,
        "postcode": "K67 A5W6",
        "country": "Ireland",
        "country_code": "ie"
      },
      "address": "Barberstown Road, Swords, Ireland"
    },
    {
      "lat": 53.457952564621756,
      "lon": -6.209087623472784,
      "geoinfo": {
        "display_name": "North Dublin Corporate Park, Swords-Seatown DED 1986, Swords, Fingal, County Dublin, Leinster, K67 P6D3, Ireland",
        "road": null,
        "house_number": null,
        "neighbourhood": null,
        "suburb": null,
        "city_district": "Swords-Seatown DED 1986",
        "city": "Swords",
        "state": null,
        "postcode": "K67 P6D3",
        "country": "Ireland",
        "country_code": "ie"
      },
      "address": "Swords-Seatown DED 1986, Swords, Ireland"
    },
    {
      "lat": 53.4620767511625,
      "lon": -6.183722191799606,
      "geoinfo": {
        "display_name": "Estuary Road, Swords-Seatown DED 1986, Malahide, Fingal, County Dublin, Leinster, K67 X971, Ireland",
        "road": "Estuary Road",
        "house_number": null,
        "neighbourhood": null,
        "suburb": null,
        "city_district": "Swords-Seatown DED 1986",
        "city": "Malahide",
        "state": null,
        "postcode": "K67 X971",
        "country": "Ireland",
        "country_code": "ie"
      },
      "address": "Estuary Road, Swords, Ireland"
    },
    {
      "lat": 53.442074475936465,
      "lon": -6.158501157267802,
      "geoinfo": {
        "display_name": "Back Road, Kinsaley DED 1986, Malahide, Fingal, County Dublin, Leinster, K36 TW67, Ireland",
        "road": "Back Road",
        "house_number": null,
        "neighbourhood": null,
        "suburb": null,
        "city_district": "Kinsaley DED 1986",
        "city": "Malahide",
        "state": null,
        "postcode": "K36 TW67",
        "country": "Ireland",
        "country_code": "ie"
      },
      "address": "Back Road, Kinsaley DED 1986, Malahide, Fingal, County Dublin, Leinster, K36 TW67, Ireland"
    },
    {
      "lat": 53.4831669782487,
      "lon": -6.202796801176878,
      "geoinfo": {
        "display_name": "Automatic Cars Dublin, Lissenhall Little, Swords-Lissenhall DED 1986, Swords, Fingal, County Dublin, Leinster, K36 DK68, Ireland",
        "road": null,
        "house_number": null,
        "neighbourhood": null,
        "suburb": null,
        "city_district": "Swords-Lissenhall DED 1986",
        "city": "Swords",
        "state": null,
        "postcode": "K36 DK68",
        "country": "Ireland",
        "country_code": "ie"
      },
      "address": "Automatic Cars Dublin, Lissenhall Little, Swords-Lissenhall DED 1986, Swords, Fingal, County Dublin, Leinster, K36 DK68, Ireland"
    },
    {
      "lat": 53.48913223790389,
      "lon": -6.267146407602459,
      "geoinfo": {
        "display_name": "Balheary Avenue, Swords-Lissenhall DED 1986, Fingal, County Dublin, Leinster, K67 C8W2, Ireland",
        "road": "Balheary Avenue",
        "house_number": null,
        "neighbourhood": null,
        "suburb": null,
        "city_district": "Swords-Lissenhall DED 1986",
        "city": null,
        "state": null,
        "postcode": "K67 C8W2",
        "country": "Ireland",
        "country_code": "ie"
      },
      "address": "Balheary Avenue, Swords-Lissenhall DED 1986, Fingal, County Dublin, Leinster, K67 C8W2, Ireland"
    }
  ],
  "updated_at": "2025-10-19T06:00:15.521707+00:00",
  "_kind": "geo_samples"
}