{
  "country_code": "IE",
  "country": "Ireland",
  "city": "Tallaght",
  "geonameid": 2961284,
  "target_addresses": 3,
  "samples": [
    {
      "lat": 53.310867971926115,
      "lon": -6.372519341214568,
      "geoinfo": {
        "display_name": "Dunmore Lawn, Kingswood Castle, Ballymount Great, Clondalkin-Ballymount DED 1986, Tallaght, South Dublin, County Dublin, Leinster, D22 C5P3, Ireland",
        "road": "Dunmore Lawn",
        "house_number": null,
        "neighbourhood": null,
        "suburb": "Ballymount Great",
        "city_district": "Clondalkin-Ballymount DED 1986",
        "city": "Tallaght",
        "state": null,
        "postcode": "D22 C5P3",
        "country": "Ireland",
        "country_code": "ie"
      },
      "address": "Dunmore Lawn, Tallaght, Ireland"
    },
    {
      "lat": 53.26937092114889,
      "lon": -6.334518690376528,
      "geoinfo": {
        "display_name": "Lidl, Oldcourt Road, Firhouse, Ballycullen, Firhouse Village DED 1986, Tallaght, South Dublin, County Dublin, Leinster, D24 H92K, Ireland",
        "road": "Oldcourt Road",
        "house_number": null,
        "neighbourhood": null,
        "suburb": "Firhouse",
        "city_district": "Firhouse Village DED 1986",
        "city": "Tallaght",
        "state": null,
        "postcode": "D24 H92K",
        "country": "Ireland",
        "country_code": "ie"
      },
      "address": "Oldcourt Road, Tallaght, Ireland"
    },
    {
      "lat": 53.30678400444736,
      "lon": -6.410434885587703,
      "geoinfo": {
        "display_name": "Corkagh Park Cycle Track, Naas Road, Tallaght-Belgard DED 1986, Clondalkin, South Dublin, County Dublin, Leinster, D22 F9F4, Ireland",
        "road": "Naas Road",
        "house_number": null,
        "neighbourhood": null,
        "suburb": null,
        "city_district": "Tallaght-Belgard DED 1986",
        "city": "Clondalkin",
        "state": null,
        "postcode": "D22 F9F4",
        "country": "Ireland",
        "country_code": "ie"
      },
      "address": "Naas Road, Tallaght, Ireland"
    },
    {
      "lat": 53.257731204599104,
      "lon": -6.323205858433031,
      "geoinfo": {
        "display_name": "Killakee Road, Bohernabreena DED 1986, South Dublin, County Dublin, Leinster, D24 H92K, Ireland",
        "road": "Killakee Road",
        "house_number": null,
        "neighbourhood": null,
        "suburb": null,
        "city_district": "Bohernabreena DED 1986",
        "city": null,
        "state": null,
        "postcode": "D24 H92K",
        "country": "Ireland",
        "country_code": "ie"
      },
      "address": "Killakee Road, Bohernabreena DED 1986, South Dublin, County Dublin, Leinster, D24 H92K, Ireland"
    },
    {
      "lat": 53.292388568647645,
      "lon": -6.312385616452304,
      "geoinfo": {
        "display_name": "Cheeverstown House, Templeogue Road, Templeogue, Templeogue-Cypress DED 1986, South Dublin, County Dublin, Leinster, D16 AF10, Ireland",
        "road": "Templeogue Road",
        "house_number": null,
        "neighbourhood": null,
        "suburb": "Templeogue",
        "city_district": "Templeogue-Cypress DED 1986",
        "city": null,
        "state": null,
        "postcode": "D16 AF10",
        "country": "Ireland",
        "country_code": "ie"
      },
      "address": "Cheeverstown House, Templeogue Road, Templeogue, Templeogue-Cypress DED 1986, South Dublin, County Dublin, Leinster, D16 AF10, Ireland"
    },
    {
      "lat": 53.295167285917444,
      "lon": -6.30781860538775,
      "geoinfo": {
        "display_name": "Riversdale, Butterfield, Rathfarnham-Ballyroan DED 1986, South Dublin, County Dublin, Leinster, D16 AF10, Ireland",
        "road": "Riversdale",
        "house_number": null,
        "neighbourhood": null,
        "suburb": "Butterfield",
        "city_district": "Rathfarnham-Ballyroan DED 1986",
        "city": null,
        "state": null,
        "postcode": "D16 AF10",
        "country": "Ireland",
        "country_code": "ie"
      },
      "address": "Riversdale, Butterfield, Rathfarnham-Ballyroan DED 1986, South Dublin, County Dublin, Leinster, D16 AF10, Ireland"
    }
  ],
  "updated_at": "2025-10-19T03:03:04.924828+00:00",
  "_kind": "geo_samples"
}