{
  "country_code": "IE",
  "country": "Ireland",
  "city": "Wexford",
  "geonameid": 2960964,
  "target_addresses": 3,
  "samples": [
    {
      "lat": 52.35749173859282,
      "lon": -6.510868855135001,
      "geoinfo": {
        "display_name": "L7012, Kilpatrick ED, The Borough District of Wexford, County Wexford, Leinster, Y35 Y9TA, Ireland",
        "road": "L7012",
        "house_number": null,
        "neighbourhood": null,
        "suburb": null,
        "city_district": "Kilpatrick ED",
        "city": null,
        "state": null,
        "postcode": "Y35 Y9TA",
        "country": "Ireland",
        "country_code": "ie"
      },
      "address": "L7012, Wexford, Ireland"
    },
    {
      "lat": 52.3320593106657,
      "lon": -6.465271404602619,
      "geoinfo": {
        "display_name": "Devereux Villas, Wexford, The Borough District of Wexford, County Wexford, Leinster, Y35 FW6K, Ireland",
        "road": "Devereux Villas",
        "house_number": null,
        "neighbourhood": null,
        "suburb": null,
        "city_district": null,
        "city": "Wexford",
        "state": null,
        "postcode": "Y35 FW6K",
        "country": "Ireland",
        "country_code": "ie"
      },
      "address": "Devereux Villas, Wexford, Ireland"
    },
    {
      "lat": 52.32507339878581,
      "lon": -6.510146280740536,
      "geoinfo": {
        "display_name": "L3025, Carrick ED, The Borough District of Wexford, County Wexford, Leinster, Y35 E8KT, Ireland",
        "road": "L3025",
        "house_number": null,
        "neighbourhood": null,
        "suburb": null,
        "city_district": "Carrick ED",
        "city": null,
        "state": null,
        "postcode": "Y35 E8KT",
        "country": "Ireland",
        "country_code": "ie"
      },
      "address": "L3025, Wexford, Ireland"
    },
    {
      "lat": 52.30512117405158,
      "lon": -6.465987421854148,
      "geoinfo": {
        "display_name": "Sinnottstown Lane, Wexford, County Wexford, Leinster, Y35 DF43, Ireland",
        "road": "Sinnottstown Lane",
        "house_number": null,
        "neighbourhood": null,
        "suburb": null,
        "city_district": null,
        "city": "Wexford",
        "state": null,
        "postcode": "Y35 DF43",
        "country": "Ireland",
        "country_code": "ie"
      },
      "address": "Sinnottstown Lane, Wexford, County Wexford, Leinster, Y35 DF43, Ireland"
    },
    {
      "lat": 52.33640589505579,
      "lon": -6.527368386188602,
      "geoinfo": {
        "display_name": "L3024, Barntown, The Borough District of Wexford, County Wexford, Leinster, Y35 E8KT, Ireland",
        "road": "L3024",
        "house_number": null,
        "neighbourhood": null,
        "suburb": null,
        "city_district": null,
        "city": "Barntown",
        "state": null,
        "postcode": "Y35 E8KT",
        "country": "Ireland",
        "country_code": "ie"
      },
      "address": "L3024, Barntown, The Borough District of Wexford, County Wexford, Leinster, Y35 E8KT, Ireland"
    },
    {
      "lat": 52.3297624453194,
      "lon": -6.518008013053269,
      "geoinfo": {
        "display_name": "L3025, Carrick ED, The Borough District of Wexford, County Wexford, Leinster, Y35 E8KT, Ireland",
        "road": "L3025",
        "house_number": null,
        "neighbourhood": null,
        "suburb": null,
        "city_district": "Carrick ED",
        "city": null,
        "state": null,
        "postcode": "Y35 E8KT",
        "country": "Ireland",
        "country_code": "ie"
      },
      "address": "L3025, Carrick ED, The Borough District of Wexford, County Wexford, Leinster, Y35 E8KT, Ireland"
    }
  ],
  "updated_at": "2025-10-19T03:02:52.986689+00:00",
  "_kind": "geo_samples"
}