{
  "country_code": "LA",
  "country": "Laos",
  "city": "Luang Prabang",
  "geonameid": 1655559,
  "target_addresses": 7,
  "samples": [
    {
      "lat": 19.884240775452998,
      "lon": 102.11411197591612,
      "geoinfo": {
        "display_name": "Chan-Nua, Chomphet District, Luang Prabang, 10554, Laos",
        "road": null,
        "house_number": null,
        "neighbourhood": null,
        "suburb": null,
        "city_district": null,
        "city": "Chan-Nua",
        "state": "Luang Prabang",
        "postcode": "10554",
        "country": "Laos",
        "country_code": "la"
      },
      "address": "Luang Prabang, Luang Prabang, Laos"
    },
    {
      "lat": 19.88499608022104,
      "lon": 102.1352891310767,
      "geoinfo": {
        "display_name": "Jaliya Guesthouse, Pha Mahapatsaman Road, Viangxai, Luang Prabang District, Luang Prabang, 10554, Laos",
        "road": "Pha Mahapatsaman Road",
        "house_number": null,
        "neighbourhood": null,
        "suburb": null,
        "city_district": null,
        "city": "Viangxai",
        "state": "Luang Prabang",
        "postcode": "10554",
        "country": "Laos",
        "country_code": "la"
      },
      "address": "Pha Mahapatsaman Road, Luang Prabang, Luang Prabang, Laos"
    },
    {
      "lat": 19.89722372107516,
      "lon": 102.17182429774849,
      "geoinfo": {
        "display_name": "NamKhan Sunset Trail, 13N, Phonxai, Luang Prabang District, Luang Prabang, Laos",
        "road": "13N",
        "house_number": null,
        "neighbourhood": null,
        "suburb": null,
        "city_district": null,
        "city": "Phonxai",
        "state": "Luang Prabang",
        "postcode": null,
        "country": "Laos",
        "country_code": "la"
      },
      "address": "13N, Luang Prabang, Luang Prabang, Laos"
    },
    {
      "lat": 19.89644230224744,
      "lon": 102.15372600331371,
      "geoinfo": {
        "display_name": "Xangkhong, Phonsa-at, Luang Prabang District, Luang Prabang, 10554, Laos",
        "road": null,
        "house_number": null,
        "neighbourhood": "Xangkhong",
        "suburb": null,
        "city_district": null,
        "city": "Phonsa-at",
        "state": "Luang Prabang",
        "postcode": "10554",
        "country": "Laos",
        "country_code": "la"
      },
      "address": "Xangkhong, Luang Prabang, Luang Prabang, Laos"
    },
    {
      "lat": 19.916334251251232,
      "lon": 102.15088545874652,
      "geoinfo": {
        "display_name": "Wat Nong Sa Keo, bamboo seasonal bridge, Xangkhong, Luang Prabang, Luang Prabang District, Luang Prabang, 10554, Laos",
        "road": "bamboo seasonal bridge",
        "house_number": null,
        "neighbourhood": "Xangkhong",
        "suburb": null,
        "city_district": null,
        "city": "Luang Prabang",
        "state": "Luang Prabang",
        "postcode": "10554",
        "country": "Laos",
        "country_code": "la"
      },
      "address": "bamboo seasonal bridge, Luang Prabang, Luang Prabang, Laos"
    },
    {
      "lat": 19.879257481012438,
      "lon": 102.16402207226615,
      "geoinfo": {
        "display_name": "2502, Phanom, Luang Prabang District, Luang Prabang, Laos",
        "road": "2502",
        "house_number": null,
        "neighbourhood": null,
        "suburb": null,
        "city_district": null,
        "city": "Phanom",
        "state": "Luang Prabang",
        "postcode": null,
        "country": "Laos",
        "country_code": "la"
      },
      "address": "2502, Luang Prabang, Luang Prabang, Laos"
    },
    {
      "lat": 19.876889453863466,
      "lon": 102.1410097231703,
      "geoinfo": {
        "display_name": "Navieng Kham Market, Phommathat Road, Luang Prabang, Luang Prabang District, Luang Prabang, 10554, Laos",
        "road": "Phommathat Road",
        "house_number": null,
        "neighbourhood": null,
        "suburb": null,
        "city_district": null,
        "city": "Luang Prabang",
        "state": "Luang Prabang",
        "postcode": "10554",
        "country": "Laos",
        "country_code": "la"
      },
      "address": "Phommathat Road, Luang Prabang, Luang Prabang, Laos"
    },
    {
      "lat": 19.903665704006627,
      "lon": 102.18628831437303,
      "geoinfo": {
        "display_name": "Luang Prabang, Luang Prabang District, Luang Prabang, Laos",
        "road": null,
        "house_number": null,
        "neighbourhood": null,
        "suburb": null,
        "city_district": null,
        "city": "Luang Prabang",
        "state": "Luang Prabang",
        "postcode": null,
        "country": "Laos",
        "country_code": "la"
      },
      "address": "425, Luang Prabang, Luang Prabang District, 50349 Luang Prabang, Laos"
    },
    {
      "lat": 19.888670512991705,
      "lon": 102.19712841987956,
      "geoinfo": {
        "display_name": "Nounsavath, Luang Prabang District, Luang Prabang, Laos",
        "road": null,
        "house_number": null,
        "neighbourhood": null,
        "suburb": null,
        "city_district": null,
        "city": "Nounsavath",
        "state": "Luang Prabang",
        "postcode": null,
        "country": "Laos",
        "country_code": "la"
      },
      "address": "219, Nounsavath, Luang Prabang District, 88296 Luang Prabang, Laos"
    },
    {
      "lat": 19.89076909330844,
      "lon": 102.16252414829863,
      "geoinfo": {
        "display_name": "Phasouk, Luang Prabang District, Luang Prabang, Laos",
        "road": null,
        "house_number": null,
        "neighbourhood": null,
        "suburb": null,
        "city_district": null,
        "city": "Phasouk",
        "state": "Luang Prabang",
        "postcode": null,
        "country": "Laos",
        "country_code": "la"
      },
      "address": "101, Phasouk, Luang Prabang District, 21736 Luang Prabang, Laos"
    },
    {
      "lat": 19.85321047728931,
      "lon": 102.14092870730437,
      "geoinfo": {
        "display_name": "Khouathineung, Luang Prabang District, Luang Prabang, 10554, Laos",
        "road": null,
        "house_number": null,
        "neighbourhood": null,
        "suburb": null,
        "city_district": null,
        "city": "Khouathineung",
        "state": "Luang Prabang",
        "postcode": "10554",
        "country": "Laos",
        "country_code": "la"
      },
      "address": "810, Khouathineung, Luang Prabang District, Luang Prabang, 10554, Laos"
    },
    {
      "lat": 19.852478063516386,
      "lon": 102.14827254089771,
      "geoinfo": {
        "display_name": "Khouathineung, Luang Prabang District, Luang Prabang, 10554, Laos",
        "road": null,
        "house_number": null,
        "neighbourhood": null,
        "suburb": null,
        "city_district": null,
        "city": "Khouathineung",
        "state": "Luang Prabang",
        "postcode": "10554",
        "country": "Laos",
        "country_code": "la"
      },
      "address": "199, Khouathineung, Luang Prabang District, Luang Prabang, 10554, Laos"
    },
    {
      "lat": 19.930088051685455,
      "lon": 102.16388762841088,
      "geoinfo": {
        "display_name": "Chomphet District, Luang Prabang, Laos",
        "road": null,
        "house_number": null,
        "neighbourhood": null,
        "suburb": null,
        "city_district": null,
        "city": null,
        "state": "Luang Prabang",
        "postcode": null,
        "country": "Laos",
        "country_code": "la"
      },
      "address": "496, Chomphet District, 88457 Luang Prabang, Laos"
    },
    {
      "lat": 19.897509248023866,
      "lon": 102.14814608993768,
      "geoinfo": {
        "display_name": "Xangkhong, Phonsa-at, Luang Prabang District, Luang Prabang, 10554, Laos",
        "road": null,
        "house_number": null,
        "neighbourhood": "Xangkhong",
        "suburb": null,
        "city_district": null,
        "city": "Phonsa-at",
        "state": "Luang Prabang",
        "postcode": "10554",
        "country": "Laos",
        "country_code": "la"
      },
      "address": "686, Xangkhong, Phonsa-at, Luang Prabang District, Luang Prabang, 10554, Laos"
    }
  ],
  "updated_at": "2025-10-19T05:48:47.694176+00:00",
  "_kind": "geo_samples"
}