{
  "country_code": "LA",
  "country": "Laos",
  "city": "Pakse",
  "geonameid": 1654379,
  "target_addresses": 7,
  "samples": [
    {
      "lat": 15.135443833841695,
      "lon": 105.83195750770629,
      "geoinfo": {
        "display_name": "Pakse, Pak Sé District, Champasak Province, 16010, Laos",
        "road": null,
        "house_number": null,
        "neighbourhood": null,
        "suburb": null,
        "city_district": null,
        "city": "Pakse",
        "state": "Champasak Province",
        "postcode": "16010",
        "country": "Laos",
        "country_code": "la"
      },
      "address": "Pakse, Champasak Province, Laos"
    },
    {
      "lat": 15.146852606152677,
      "lon": 105.7735158955075,
      "geoinfo": {
        "display_name": "13S, Phonengaam, Pak Sé District, Champasak Province, 16010, Laos",
        "road": "13S",
        "house_number": null,
        "neighbourhood": null,
        "suburb": null,
        "city_district": null,
        "city": "Phonengaam",
        "state": "Champasak Province",
        "postcode": "16010",
        "country": "Laos",
        "country_code": "la"
      },
      "address": "13S, Pakse, Champasak Province, Laos"
    },
    {
      "lat": 15.110633580133221,
      "lon": 105.78360594096324,
      "geoinfo": {
        "display_name": "Hadmeuangkao, 16, Donlai, Phonthong District, Champasak Province, 16010, Laos",
        "road": "16",
        "house_number": null,
        "neighbourhood": null,
        "suburb": null,
        "city_district": null,
        "city": "Donlai",
        "state": "Champasak Province",
        "postcode": "16010",
        "country": "Laos",
        "country_code": "la"
      },
      "address": "16, Pakse, Champasak Province, Laos"
    },
    {
      "lat": 15.097704208922945,
      "lon": 105.79071584034489,
      "geoinfo": {
        "display_name": "16, Huaphek, Phonthong District, Champasak Province, 16010, Laos",
        "road": "16",
        "house_number": null,
        "neighbourhood": null,
        "suburb": null,
        "city_district": null,
        "city": "Huaphek",
        "state": "Champasak Province",
        "postcode": "16010",
        "country": "Laos",
        "country_code": "la"
      },
      "address": "16, Pakse, 16010 Champasak Province, Laos"
    },
    {
      "lat": 15.089907535860275,
      "lon": 105.79467277489401,
      "geoinfo": {
        "display_name": "Nongsa, Phonthong District, Champasak Province, 16010, Laos",
        "road": null,
        "house_number": null,
        "neighbourhood": null,
        "suburb": null,
        "city_district": null,
        "city": "Nongsa",
        "state": "Champasak Province",
        "postcode": "16010",
        "country": "Laos",
        "country_code": "la"
      },
      "address": "130, Pakse, 16010 Champasak Province, Laos"
    },
    {
      "lat": 15.128078144520236,
      "lon": 105.79734030309191,
      "geoinfo": {
        "display_name": "Pakse, Pak Sé District, Champasak Province, 16010, Laos",
        "road": null,
        "house_number": null,
        "neighbourhood": null,
        "suburb": null,
        "city_district": null,
        "city": "Pakse",
        "state": "Champasak Province",
        "postcode": "16010",
        "country": "Laos",
        "country_code": "la"
      },
      "address": "319, Pakse, Pak Sé District, Champasak Province, 16010, Laos"
    },
    {
      "lat": 15.135493903403393,
      "lon": 105.81087003486053,
      "geoinfo": {
        "display_name": "Pakse, Pak Sé District, Champasak Province, 16010, Laos",
        "road": null,
        "house_number": null,
        "neighbourhood": null,
        "suburb": null,
        "city_district": null,
        "city": "Pakse",
        "state": "Champasak Province",
        "postcode": "16010",
        "country": "Laos",
        "country_code": "la"
      },
      "address": "666, Pakse, Pak Sé District, Champasak Province, 16010, Laos"
    },
    {
      "lat": 15.108767609277574,
      "lon": 105.8062959747372,
      "geoinfo": {
        "display_name": "Th 11, Thasalakham, Pak Sé District, Champasak Province, 16010, Laos",
        "road": "Th 11",
        "house_number": null,
        "neighbourhood": null,
        "suburb": null,
        "city_district": null,
        "city": "Thasalakham",
        "state": "Champasak Province",
        "postcode": "16010",
        "country": "Laos",
        "country_code": "la"
      },
      "address": "Th 11, Thasalakham, Pak Sé District, Champasak Province, 16010, Laos"
    },
    {
      "lat": 15.148586743354425,
      "lon": 105.82708221165784,
      "geoinfo": {
        "display_name": "Pakse, Pak Sé District, Champasak Province, 16010, Laos",
        "road": null,
        "house_number": null,
        "neighbourhood": null,
        "suburb": null,
        "city_district": null,
        "city": "Pakse",
        "state": "Champasak Province",
        "postcode": "16010",
        "country": "Laos",
        "country_code": "la"
      },
      "address": "180, Pakse, Pak Sé District, Champasak Province, 16010, Laos"
    },
    {
      "lat": 15.121989581658465,
      "lon": 105.75488481999002,
      "geoinfo": {
        "display_name": "Samorlieb, Phonthong District, Champasak Province, 16010, Laos",
        "road": null,
        "house_number": null,
        "neighbourhood": null,
        "suburb": null,
        "city_district": null,
        "city": "Samorlieb",
        "state": "Champasak Province",
        "postcode": "16010",
        "country": "Laos",
        "country_code": "la"
      },
      "address": "696, Pakse, 16010 Champasak Province, Laos"
    }
  ],
  "updated_at": "2025-10-19T05:47:48.282859+00:00",
  "_kind": "geo_samples"
}