{
  "country_code": "LA",
  "country": "Laos",
  "city": "Pakxan",
  "geonameid": 1655140,
  "target_addresses": 34,
  "samples": [
    {
      "lat": 18.362866315427777,
      "lon": 103.64675733161876,
      "geoinfo": {
        "display_name": "Bueng Kan, Mueang Bueng Kan, Bueng Kan Province, 38000, Thailand",
        "road": null,
        "house_number": null,
        "neighbourhood": null,
        "suburb": null,
        "city_district": null,
        "city": "Bueng Kan",
        "state": null,
        "postcode": "38000",
        "country": "Thailand",
        "country_code": "th"
      },
      "address": "Pakxan, Laos"
    },
    {
      "lat": 18.391998120485553,
      "lon": 103.65753088329053,
      "geoinfo": {
        "display_name": "Pakxan, Paksane District, Bolikhamsai, Laos",
        "road": null,
        "house_number": null,
        "neighbourhood": null,
        "suburb": null,
        "city_district": null,
        "city": "Pakxan",
        "state": "Bolikhamsai",
        "postcode": null,
        "country": "Laos",
        "country_code": "la"
      },
      "address": "Pakxan, Bolikhamsai, Laos"
    },
    {
      "lat": 18.39849857880064,
      "lon": 103.66284360559563,
      "geoinfo": {
        "display_name": "13S, Pakxan, Paksane District, Bolikhamsai, Laos",
        "road": "13S",
        "house_number": null,
        "neighbourhood": null,
        "suburb": null,
        "city_district": null,
        "city": "Pakxan",
        "state": "Bolikhamsai",
        "postcode": null,
        "country": "Laos",
        "country_code": "la"
      },
      "address": "13S, Pakxan, Bolikhamsai, Laos"
    },
    {
      "lat": 18.42690683381737,
      "lon": 103.65310970309557,
      "geoinfo": {
        "display_name": "5101, ທົ່ງໃຫຍ່, Paksane District, Bolikhamsai, Laos",
        "road": "5101",
        "house_number": null,
        "neighbourhood": null,
        "suburb": null,
        "city_district": null,
        "city": "ທົ່ງໃຫຍ່",
        "state": "Bolikhamsai",
        "postcode": null,
        "country": "Laos",
        "country_code": "la"
      },
      "address": "5101, Pakxan, Bolikhamsai, Laos"
    },
    {
      "lat": 18.40581190435352,
      "lon": 103.61942492933184,
      "geoinfo": {
        "display_name": "13S, Ban Namtek, Houaysiat, Paksane District, Bolikhamsai, Laos",
        "road": "13S",
        "house_number": null,
        "neighbourhood": null,
        "suburb": null,
        "city_district": null,
        "city": "Houaysiat",
        "state": "Bolikhamsai",
        "postcode": null,
        "country": "Laos",
        "country_code": "la"
      },
      "address": "13S, Ban Namtek, Houaysiat, Paksane District, Bolikhamsai, Laos"
    },
    {
      "lat": 18.414957132012276,
      "lon": 103.6544912860507,
      "geoinfo": {
        "display_name": "Pakxan, Paksane District, Bolikhamsai, Laos",
        "road": null,
        "house_number": null,
        "neighbourhood": null,
        "suburb": null,
        "city_district": null,
        "city": "Pakxan",
        "state": "Bolikhamsai",
        "postcode": null,
        "country": "Laos",
        "country_code": "la"
      },
      "address": "Pakxan, Paksane District, 26040 Bolikhamsai, Laos"
    },
    {
      "lat": 18.408026469743884,
      "lon": 103.66191209674476,
      "geoinfo": {
        "display_name": "Pakxan, Paksane District, Bolikhamsai, Laos",
        "road": null,
        "house_number": null,
        "neighbourhood": null,
        "suburb": null,
        "city_district": null,
        "city": "Pakxan",
        "state": "Bolikhamsai",
        "postcode": null,
        "country": "Laos",
        "country_code": "la"
      },
      "address": "Pakxan, Paksane District, 35713 Bolikhamsai, Laos"
    },
    {
      "lat": 18.415166878513446,
      "lon": 103.6958758068817,
      "geoinfo": {
        "display_name": "Phonsa-at, Paksane District, Bolikhamsai, Laos",
        "road": null,
        "house_number": null,
        "neighbourhood": null,
        "suburb": null,
        "city_district": null,
        "city": "Phonsa-at",
        "state": "Bolikhamsai",
        "postcode": null,
        "country": "Laos",
        "country_code": "la"
      },
      "address": "Pakxan, 20428 Bolikhamsai, Laos"
    },
    {
      "lat": 18.425929041214115,
      "lon": 103.63450868156963,
      "geoinfo": {
        "display_name": "Ban Namtek, Seneoudom, Paksane District, Bolikhamsai, Laos",
        "road": null,
        "house_number": null,
        "neighbourhood": null,
        "suburb": null,
        "city_district": null,
        "city": "Seneoudom",
        "state": "Bolikhamsai",
        "postcode": null,
        "country": "Laos",
        "country_code": "la"
      },
      "address": "081, Ban Namtek, Seneoudom, Paksane District, 07430 Bolikhamsai, Laos"
    },
    {
      "lat": 18.397520184520044,
      "lon": 103.64665251903965,
      "geoinfo": {
        "display_name": "Pakxan, Paksane District, Bolikhamsai, Laos",
        "road": null,
        "house_number": null,
        "neighbourhood": null,
        "suburb": null,
        "city_district": null,
        "city": "Pakxan",
        "state": "Bolikhamsai",
        "postcode": null,
        "country": "Laos",
        "country_code": "la"
      },
      "address": "911, Pakxan, Paksane District, 37203 Bolikhamsai, Laos"
    },
    {
      "lat": 18.430994318329386,
      "lon": 103.64405567655542,
      "geoinfo": {
        "display_name": "Ban Thong Yai, Paksane District, Bolikhamsai, Laos",
        "road": null,
        "house_number": null,
        "neighbourhood": null,
        "suburb": null,
        "city_district": null,
        "city": "Ban Thong Yai",
        "state": "Bolikhamsai",
        "postcode": null,
        "country": "Laos",
        "country_code": "la"
      },
      "address": "514, Ban Thong Yai, Paksane District, 00695 Bolikhamsai, Laos"
    },
    {
      "lat": 18.408320929939357,
      "lon": 103.70591329615189,
      "geoinfo": {
        "display_name": "Pakxan, Paksane District, Bolikhamsai, Laos",
        "road": null,
        "house_number": null,
        "neighbourhood": null,
        "suburb": null,
        "city_district": null,
        "city": "Pakxan",
        "state": "Bolikhamsai",
        "postcode": null,
        "country": "Laos",
        "country_code": "la"
      },
      "address": "191, Pakxan, Paksane District, 16620 Bolikhamsai, Laos"
    },
    {
      "lat": 18.391262671911996,
      "lon": 103.64016645297674,
      "geoinfo": {
        "display_name": "13S, Pakxan, Paksane District, Bolikhamsai, Laos",
        "road": "13S",
        "house_number": null,
        "neighbourhood": null,
        "suburb": null,
        "city_district": null,
        "city": "Pakxan",
        "state": "Bolikhamsai",
        "postcode": null,
        "country": "Laos",
        "country_code": "la"
      },
      "address": "13S, Pakxan, Paksane District, 82459 Bolikhamsai, Laos"
    },
    {
      "lat": 18.412141773434556,
      "lon": 103.61829898368246,
      "geoinfo": {
        "display_name": "13S, Ban Namtek, Houaysiat, Paksane District, Bolikhamsai, Laos",
        "road": "13S",
        "house_number": null,
        "neighbourhood": null,
        "suburb": null,
        "city_district": null,
        "city": "Houaysiat",
        "state": "Bolikhamsai",
        "postcode": null,
        "country": "Laos",
        "country_code": "la"
      },
      "address": "13S, Ban Namtek, Houaysiat, Paksane District, 04858 Bolikhamsai, Laos"
    },
    {
      "lat": 18.39948292932534,
      "lon": 103.69099966500941,
      "geoinfo": {
        "display_name": "13S, Pakxan, Paksane District, Bolikhamsai, Laos",
        "road": "13S",
        "house_number": null,
        "neighbourhood": null,
        "suburb": null,
        "city_district": null,
        "city": "Pakxan",
        "state": "Bolikhamsai",
        "postcode": null,
        "country": "Laos",
        "country_code": "la"
      },
      "address": "13S, Pakxan, Paksane District, 02859 Bolikhamsai, Laos"
    },
    {
      "lat": 18.367239354594798,
      "lon": 103.67036818028068,
      "geoinfo": {
        "display_name": "Pakxan, Paksane District, Bolikhamsai, Laos",
        "road": null,
        "house_number": null,
        "neighbourhood": null,
        "suburb": null,
        "city_district": null,
        "city": "Pakxan",
        "state": "Bolikhamsai",
        "postcode": null,
        "country": "Laos",
        "country_code": "la"
      },
      "address": "028, Pakxan, Paksane District, 37080 Bolikhamsai, Laos"
    },
    {
      "lat": 18.411502824636724,
      "lon": 103.6315846310287,
      "geoinfo": {
        "display_name": "Ban Phousy, Pakxan, Paksane District, Bolikhamsai, Laos",
        "road": null,
        "house_number": null,
        "neighbourhood": null,
        "suburb": null,
        "city_district": null,
        "city": "Pakxan",
        "state": "Bolikhamsai",
        "postcode": null,
        "country": "Laos",
        "country_code": "la"
      },
      "address": "783, Ban Phousy, Pakxan, Paksane District, 85268 Bolikhamsai, Laos"
    },
    {
      "lat": 18.42508102019069,
      "lon": 103.68260355002401,
      "geoinfo": {
        "display_name": "Pakxan, Paksane District, Bolikhamsai, Laos",
        "road": null,
        "house_number": null,
        "neighbourhood": null,
        "suburb": null,
        "city_district": null,
        "city": "Pakxan",
        "state": "Bolikhamsai",
        "postcode": null,
        "country": "Laos",
        "country_code": "la"
      },
      "address": "154, Pakxan, Paksane District, 64497 Bolikhamsai, Laos"
    },
    {
      "lat": 18.37551991333013,
      "lon": 103.68257465474413,
      "geoinfo": {
        "display_name": "Phonsa-at, Paksane District, Bolikhamsai, Laos",
        "road": null,
        "house_number": null,
        "neighbourhood": null,
        "suburb": null,
        "city_district": null,
        "city": "Phonsa-at",
        "state": "Bolikhamsai",
        "postcode": null,
        "country": "Laos",
        "country_code": "la"
      },
      "address": "010, Pakxan, 95622 Bolikhamsai, Laos"
    },
    {
      "lat": 18.39951478733282,
      "lon": 103.64665795494759,
      "geoinfo": {
        "display_name": "Pakxan, Paksane District, Bolikhamsai, Laos",
        "road": null,
        "house_number": null,
        "neighbourhood": null,
        "suburb": null,
        "city_district": null,
        "city": "Pakxan",
        "state": "Bolikhamsai",
        "postcode": null,
        "country": "Laos",
        "country_code": "la"
      },
      "address": "089, Pakxan, Paksane District, 34705 Bolikhamsai, Laos"
    },
    {
      "lat": 18.404925401972555,
      "lon": 103.67502888298526,
      "geoinfo": {
        "display_name": "Pakxan, Paksane District, Bolikhamsai, Laos",
        "road": null,
        "house_number": null,
        "neighbourhood": null,
        "suburb": null,
        "city_district": null,
        "city": "Pakxan",
        "state": "Bolikhamsai",
        "postcode": null,
        "country": "Laos",
        "country_code": "la"
      },
      "address": "908, Pakxan, Paksane District, 58755 Bolikhamsai, Laos"
    },
    {
      "lat": 18.420897569133928,
      "lon": 103.6437331930483,
      "geoinfo": {
        "display_name": "5101, ທົ່ງໃຫຍ່, Paksane District, Bolikhamsai, Laos",
        "road": "5101",
        "house_number": null,
        "neighbourhood": null,
        "suburb": null,
        "city_district": null,
        "city": "ທົ່ງໃຫຍ່",
        "state": "Bolikhamsai",
        "postcode": null,
        "country": "Laos",
        "country_code": "la"
      },
      "address": "5101, Pakxan, 53455 Bolikhamsai, Laos"
    },
    {
      "lat": 18.390025563129104,
      "lon": 103.6414838757768,
      "geoinfo": {
        "display_name": "Ferry ramp, Pakxan, Paksane District, Bolikhamsai, Laos",
        "road": "Ferry ramp",
        "house_number": null,
        "neighbourhood": null,
        "suburb": null,
        "city_district": null,
        "city": "Pakxan",
        "state": "Bolikhamsai",
        "postcode": null,
        "country": "Laos",
        "country_code": "la"
      },
      "address": "198, Ferry ramp, Pakxan, Paksane District, 42396 Bolikhamsai, Laos"
    },
    {
      "lat": 18.390484213064354,
      "lon": 103.68953279769964,
      "geoinfo": {
        "display_name": "Pakxan, Paksane District, Bolikhamsai, Laos",
        "road": null,
        "house_number": null,
        "neighbourhood": null,
        "suburb": null,
        "city_district": null,
        "city": "Pakxan",
        "state": "Bolikhamsai",
        "postcode": null,
        "country": "Laos",
        "country_code": "la"
      },
      "address": "095, Pakxan, Paksane District, 53480 Bolikhamsai, Laos"
    },
    {
      "lat": 18.39702731257076,
      "lon": 103.70742045111577,
      "geoinfo": {
        "display_name": "Phonsa-at, Paksane District, Bolikhamsai, Laos",
        "road": null,
        "house_number": null,
        "neighbourhood": null,
        "suburb": null,
        "city_district": null,
        "city": "Phonsa-at",
        "state": "Bolikhamsai",
        "postcode": null,
        "country": "Laos",
        "country_code": "la"
      },
      "address": "030, Pakxan, 82489 Bolikhamsai, Laos"
    },
    {
      "lat": 18.43521339213747,
      "lon": 103.66583295146395,
      "geoinfo": {
        "display_name": "ທົ່ງໃຫຍ່, Paksane District, Bolikhamsai, Laos",
        "road": null,
        "house_number": null,
        "neighbourhood": null,
        "suburb": null,
        "city_district": null,
        "city": "ທົ່ງໃຫຍ່",
        "state": "Bolikhamsai",
        "postcode": null,
        "country": "Laos",
        "country_code": "la"
      },
      "address": "213, Pakxan, 32686 Bolikhamsai, Laos"
    },
    {
      "lat": 18.424349268115698,
      "lon": 103.67670480847748,
      "geoinfo": {
        "display_name": "Pakxan, Paksane District, Bolikhamsai, Laos",
        "road": null,
        "house_number": null,
        "neighbourhood": null,
        "suburb": null,
        "city_district": null,
        "city": "Pakxan",
        "state": "Bolikhamsai",
        "postcode": null,
        "country": "Laos",
        "country_code": "la"
      },
      "address": "069, Pakxan, Paksane District, 05527 Bolikhamsai, Laos"
    },
    {
      "lat": 18.414547433574498,
      "lon": 103.6376202114025,
      "geoinfo": {
        "display_name": "Pakxan, Paksane District, Bolikhamsai, Laos",
        "road": null,
        "house_number": null,
        "neighbourhood": null,
        "suburb": null,
        "city_district": null,
        "city": "Pakxan",
        "state": "Bolikhamsai",
        "postcode": null,
        "country": "Laos",
        "country_code": "la"
      },
      "address": "400, Pakxan, Paksane District, 68724 Bolikhamsai, Laos"
    },
    {
      "lat": 18.40200842632498,
      "lon": 103.69329127987753,
      "geoinfo": {
        "display_name": "13S, Pakxan, Paksane District, Bolikhamsai, Laos",
        "road": "13S",
        "house_number": null,
        "neighbourhood": null,
        "suburb": null,
        "city_district": null,
        "city": "Pakxan",
        "state": "Bolikhamsai",
        "postcode": null,
        "country": "Laos",
        "country_code": "la"
      },
      "address": "13S, Pakxan, Paksane District, 96948 Bolikhamsai, Laos"
    },
    {
      "lat": 18.40553534388005,
      "lon": 103.63470442216276,
      "geoinfo": {
        "display_name": "Pakxan, Paksane District, Bolikhamsai, Laos",
        "road": null,
        "house_number": null,
        "neighbourhood": null,
        "suburb": null,
        "city_district": null,
        "city": "Pakxan",
        "state": "Bolikhamsai",
        "postcode": null,
        "country": "Laos",
        "country_code": "la"
      },
      "address": "874, Pakxan, Paksane District, 07968 Bolikhamsai, Laos"
    },
    {
      "lat": 18.399060373881163,
      "lon": 103.63747147376681,
      "geoinfo": {
        "display_name": "Pakxan, Paksane District, Bolikhamsai, Laos",
        "road": null,
        "house_number": null,
        "neighbourhood": null,
        "suburb": null,
        "city_district": null,
        "city": "Pakxan",
        "state": "Bolikhamsai",
        "postcode": null,
        "country": "Laos",
        "country_code": "la"
      },
      "address": "995, Pakxan, Paksane District, 46343 Bolikhamsai, Laos"
    },
    {
      "lat": 18.397467890513568,
      "lon": 103.62284196912898,
      "geoinfo": {
        "display_name": "13S, Ban Namtek, Houaysiat, Paksane District, Bolikhamsai, Laos",
        "road": "13S",
        "house_number": null,
        "neighbourhood": null,
        "suburb": null,
        "city_district": null,
        "city": "Houaysiat",
        "state": "Bolikhamsai",
        "postcode": null,
        "country": "Laos",
        "country_code": "la"
      },
      "address": "13S, Ban Namtek, Houaysiat, Paksane District, 67680 Bolikhamsai, Laos"
    }
  ],
  "updated_at": "2025-10-19T05:26:23.671468+00:00",
  "_kind": "geo_samples"
}