{
  "country_code": "LA",
  "country": "Laos",
  "city": "Sekong",
  "geonameid": 9948272,
  "target_addresses": 7,
  "samples": [
    {
      "lat": 15.32560322363908,
      "lon": 106.75475972063329,
      "geoinfo": {
        "display_name": "Phonkham, Lam Mam District, Sekong Province, Laos",
        "road": null,
        "house_number": null,
        "neighbourhood": null,
        "suburb": null,
        "city_district": null,
        "city": "Phonkham",
        "state": "Sekong Province",
        "postcode": null,
        "country": "Laos",
        "country_code": "la"
      },
      "address": "073, Phonkham, Lam Mam District, 69888 Sekong Province, Laos"
    },
    {
      "lat": 15.320691943897618,
      "lon": 106.75064493224178,
      "geoinfo": {
        "display_name": "Phonkham, Lam Mam District, Sekong Province, Laos",
        "road": null,
        "house_number": null,
        "neighbourhood": null,
        "suburb": null,
        "city_district": null,
        "city": "Phonkham",
        "state": "Sekong Province",
        "postcode": null,
        "country": "Laos",
        "country_code": "la"
      },
      "address": "891, Phonkham, Lam Mam District, 91397 Sekong Province, Laos"
    },
    {
      "lat": 15.316934453019607,
      "lon": 106.74539682714719,
      "geoinfo": {
        "display_name": "Pakthon-Tai, Lam Mam District, Sekong Province, Laos",
        "road": null,
        "house_number": null,
        "neighbourhood": null,
        "suburb": null,
        "city_district": null,
        "city": "Pakthon-Tai",
        "state": "Sekong Province",
        "postcode": null,
        "country": "Laos",
        "country_code": "la"
      },
      "address": "289, Pakthon-Tai, Lam Mam District, 56811 Sekong Province, Laos"
    },
    {
      "lat": 15.331988256010357,
      "lon": 106.7249511683545,
      "geoinfo": {
        "display_name": "Xekong, Lam Mam District, Sekong Province, Laos",
        "road": null,
        "house_number": null,
        "neighbourhood": null,
        "suburb": null,
        "city_district": null,
        "city": "Xekong",
        "state": "Sekong Province",
        "postcode": null,
        "country": "Laos",
        "country_code": "la"
      },
      "address": "585, Xekong, Lam Mam District, 70388 Sekong Province, Laos"
    },
    {
      "lat": 15.367754600079166,
      "lon": 106.74997998231525,
      "geoinfo": {
        "display_name": "Navasen, Lam Mam District, Sekong Province, Laos",
        "road": null,
        "house_number": null,
        "neighbourhood": null,
        "suburb": null,
        "city_district": null,
        "city": "Navasen",
        "state": "Sekong Province",
        "postcode": null,
        "country": "Laos",
        "country_code": "la"
      },
      "address": "445, Navasen, Lam Mam District, 91929 Sekong Province, Laos"
    },
    {
      "lat": 15.378865673690198,
      "lon": 106.74228300658976,
      "geoinfo": {
        "display_name": "Honglai, Lam Mam District, Sekong Province, Laos",
        "road": null,
        "house_number": null,
        "neighbourhood": null,
        "suburb": null,
        "city_district": null,
        "city": "Honglai",
        "state": "Sekong Province",
        "postcode": null,
        "country": "Laos",
        "country_code": "la"
      },
      "address": "094, Honglai, Lam Mam District, 02144 Sekong Province, Laos"
    },
    {
      "lat": 15.334400542005477,
      "lon": 106.7477171054861,
      "geoinfo": {
        "display_name": "Phonkham, Lam Mam District, Sekong Province, Laos",
        "road": null,
        "house_number": null,
        "neighbourhood": null,
        "suburb": null,
        "city_district": null,
        "city": "Phonkham",
        "state": "Sekong Province",
        "postcode": null,
        "country": "Laos",
        "country_code": "la"
      },
      "address": "928, Phonkham, Lam Mam District, 47693 Sekong Province, Laos"
    }
  ],
  "updated_at": "2025-10-19T05:07:21.772261+00:00",
  "_kind": "geo_samples"
}