{
  "country_code": "LA",
  "country": "Laos",
  "city": "Xam Nua",
  "geonameid": 1652203,
  "target_addresses": 7,
  "samples": [
    {
      "lat": 20.4021164029979,
      "lon": 104.00696197007129,
      "geoinfo": {
        "display_name": "Hindam, Xam Neua District, Houaphanh, 07000, Laos",
        "road": null,
        "house_number": null,
        "neighbourhood": null,
        "suburb": null,
        "city_district": null,
        "city": "Hindam",
        "state": "Houaphanh",
        "postcode": "07000",
        "country": "Laos",
        "country_code": "la"
      },
      "address": "Xam Nua, Houaphanh, Laos"
    },
    {
      "lat": 20.42887782090695,
      "lon": 104.0839159587731,
      "geoinfo": {
        "display_name": "6, Phonkham, Xam Neua District, Houaphanh, 07000, Laos",
        "road": "6",
        "house_number": null,
        "neighbourhood": null,
        "suburb": null,
        "city_district": null,
        "city": "Phonkham",
        "state": "Houaphanh",
        "postcode": "07000",
        "country": "Laos",
        "country_code": "la"
      },
      "address": "6, Xam Nua, Houaphanh, Laos"
    },
    {
      "lat": 20.395630412940964,
      "lon": 104.02548621816881,
      "geoinfo": {
        "display_name": "6, Hindam, Xam Neua District, Houaphanh, Laos",
        "road": "6",
        "house_number": null,
        "neighbourhood": null,
        "suburb": null,
        "city_district": null,
        "city": "Hindam",
        "state": "Houaphanh",
        "postcode": null,
        "country": "Laos",
        "country_code": "la"
      },
      "address": "6, Hindam, Xam Neua District, 07072 Houaphanh, Laos"
    },
    {
      "lat": 20.41467899354025,
      "lon": 104.04674810289619,
      "geoinfo": {
        "display_name": "Phetmeuangsam Hotel, N6, Xam Neua, Xam Neua District, Houaphanh, 07000, Laos",
        "road": "N6",
        "house_number": null,
        "neighbourhood": null,
        "suburb": null,
        "city_district": null,
        "city": "Xam Neua",
        "state": "Houaphanh",
        "postcode": "07000",
        "country": "Laos",
        "country_code": "la"
      },
      "address": "Phetmeuangsam Hotel, N6, Xam Neua, Xam Neua District, Houaphanh, 07000, Laos"
    },
    {
      "lat": 20.402575802354754,
      "lon": 104.06297096092938,
      "geoinfo": {
        "display_name": "Naviang, Xam Neua District, Houaphanh, 07000, Laos",
        "road": null,
        "house_number": null,
        "neighbourhood": null,
        "suburb": null,
        "city_district": null,
        "city": "Naviang",
        "state": "Houaphanh",
        "postcode": "07000",
        "country": "Laos",
        "country_code": "la"
      },
      "address": "829, Naviang, Xam Neua District, Houaphanh, 07000, Laos"
    },
    {
      "lat": 20.429764720744988,
      "lon": 104.07848697954842,
      "geoinfo": {
        "display_name": "6, Phonkham, Xam Neua District, Houaphanh, 07000, Laos",
        "road": "6",
        "house_number": null,
        "neighbourhood": null,
        "suburb": null,
        "city_district": null,
        "city": "Phonkham",
        "state": "Houaphanh",
        "postcode": "07000",
        "country": "Laos",
        "country_code": "la"
      },
      "address": "6, Phonkham, Xam Neua District, Houaphanh, 07000, Laos"
    },
    {
      "lat": 20.41515274623578,
      "lon": 104.04602749207307,
      "geoinfo": {
        "display_name": "Phanxai, Xam Neua District, Houaphanh, 07000, Laos",
        "road": null,
        "house_number": null,
        "neighbourhood": null,
        "suburb": null,
        "city_district": null,
        "city": "Phanxai",
        "state": "Houaphanh",
        "postcode": "07000",
        "country": "Laos",
        "country_code": "la"
      },
      "address": "832, Phanxai, Xam Neua District, Houaphanh, 07000, Laos"
    },
    {
      "lat": 20.38082054998753,
      "lon": 104.06249939070936,
      "geoinfo": {
        "display_name": "Houaxiang, Xam Neua District, Houaphanh, 07000, Laos",
        "road": null,
        "house_number": null,
        "neighbourhood": null,
        "suburb": null,
        "city_district": null,
        "city": "Houaxiang",
        "state": "Houaphanh",
        "postcode": "07000",
        "country": "Laos",
        "country_code": "la"
      },
      "address": "762, Houaxiang, Xam Neua District, Houaphanh, 07000, Laos"
    },
    {
      "lat": 20.424640633684298,
      "lon": 104.04029279194478,
      "geoinfo": {
        "display_name": "Keonongvay, Xam Neua District, Houaphanh, 07000, Laos",
        "road": null,
        "house_number": null,
        "neighbourhood": null,
        "suburb": null,
        "city_district": null,
        "city": "Keonongvay",
        "state": "Houaphanh",
        "postcode": "07000",
        "country": "Laos",
        "country_code": "la"
      },
      "address": "783, Keonongvay, Xam Neua District, Houaphanh, 07000, Laos"
    }
  ],
  "updated_at": "2025-10-19T03:41:01.745854+00:00",
  "_kind": "geo_samples"
}