{
  "country_code": "ER",
  "country": "Eritrea",
  "city": "Assab",
  "geonameid": 343386,
  "target_addresses": 15,
  "samples": [
    {
      "lat": 13.03093994439442,
      "lon": 42.74512722981093,
      "geoinfo": {
        "display_name": "Assab as-Saghira, Assab, Southern Red Sea Region, Eritrea",
        "road": null,
        "house_number": null,
        "neighbourhood": "Assab as-Saghira",
        "suburb": "Assab",
        "city_district": null,
        "city": null,
        "state": "Southern Red Sea Region",
        "postcode": null,
        "country": "Eritrea",
        "country_code": "er"
      },
      "address": "Assab as-Saghira, Assab, Southern Red Sea Region, Eritrea"
    },
    {
      "lat": 13.01038801750594,
      "lon": 42.77902118855077,
      "geoinfo": {
        "display_name": "Southern Red Sea Region, Eritrea",
        "road": null,
        "house_number": null,
        "neighbourhood": null,
        "suburb": null,
        "city_district": null,
        "city": null,
        "state": "Southern Red Sea Region",
        "postcode": null,
        "country": "Eritrea",
        "country_code": "er"
      },
      "address": "Assab, Southern Red Sea Region, Eritrea"
    },
    {
      "lat": 13.041131061893049,
      "lon": 42.716615474789045,
      "geoinfo": {
        "display_name": "Massawa - Asseb Highway, Assab, Southern Red Sea Region, Eritrea",
        "road": "Massawa - Asseb Highway",
        "house_number": null,
        "neighbourhood": null,
        "suburb": "Assab",
        "city_district": null,
        "city": null,
        "state": "Southern Red Sea Region",
        "postcode": null,
        "country": "Eritrea",
        "country_code": "er"
      },
      "address": "Massawa - Asseb Highway, Assab, Southern Red Sea Region, Eritrea"
    },
    {
      "lat": 13.021318734213624,
      "lon": 42.75221976835995,
      "geoinfo": {
        "display_name": "ملعب عصب, P-6, Assab al-Kabira, Assab, Southern Red Sea Region, Eritrea",
        "road": "P-6",
        "house_number": null,
        "neighbourhood": "Assab al-Kabira",
        "suburb": "Assab",
        "city_district": null,
        "city": null,
        "state": "Southern Red Sea Region",
        "postcode": null,
        "country": "Eritrea",
        "country_code": "er"
      },
      "address": "P-6, Assab, Southern Red Sea Region, Eritrea"
    },
    {
      "lat": 13.005984657964367,
      "lon": 42.73587598084532,
      "geoinfo": {
        "display_name": "Assab al-Kabira, Assab, Southern Red Sea Region, Eritrea",
        "road": null,
        "house_number": null,
        "neighbourhood": "Assab al-Kabira",
        "suburb": "Assab",
        "city_district": null,
        "city": null,
        "state": "Southern Red Sea Region",
        "postcode": null,
        "country": "Eritrea",
        "country_code": "er"
      },
      "address": "Assab al-Kabira, Assab, Southern Red Sea Region, Eritrea"
    },
    {
      "lat": 13.023863525686155,
      "lon": 42.732418546869575,
      "geoinfo": {
        "display_name": "Assab Bypass, Assab, Southern Red Sea Region, Eritrea",
        "road": "Assab Bypass",
        "house_number": null,
        "neighbourhood": null,
        "suburb": "Assab",
        "city_district": null,
        "city": null,
        "state": "Southern Red Sea Region",
        "postcode": null,
        "country": "Eritrea",
        "country_code": "er"
      },
      "address": "Assab Bypass, Assab, Southern Red Sea Region, Eritrea"
    },
    {
      "lat": 13.014969686957727,
      "lon": 42.7352459089346,
      "geoinfo": {
        "display_name": "kampo sudan, Assab, Southern Red Sea Region, Eritrea",
        "road": null,
        "house_number": null,
        "neighbourhood": "kampo sudan",
        "suburb": "Assab",
        "city_district": null,
        "city": null,
        "state": "Southern Red Sea Region",
        "postcode": null,
        "country": "Eritrea",
        "country_code": "er"
      },
      "address": "kampo sudan, Assab, Southern Red Sea Region, Eritrea"
    },
    {
      "lat": 13.002387069756297,
      "lon": 42.74127820012653,
      "geoinfo": {
        "display_name": "Assab Road, Assab al-Kabira, Assab, Southern Red Sea Region, Eritrea",
        "road": "Assab Road",
        "house_number": null,
        "neighbourhood": "Assab al-Kabira",
        "suburb": "Assab",
        "city_district": null,
        "city": null,
        "state": "Southern Red Sea Region",
        "postcode": null,
        "country": "Eritrea",
        "country_code": "er"
      },
      "address": "Assab Road, Assab, Southern Red Sea Region, Eritrea"
    },
    {
      "lat": 13.009740272834327,
      "lon": 42.7250055132111,
      "geoinfo": {
        "display_name": "Assab, Southern Red Sea Region, Eritrea",
        "road": null,
        "house_number": null,
        "neighbourhood": null,
        "suburb": "Assab",
        "city_district": null,
        "city": null,
        "state": "Southern Red Sea Region",
        "postcode": null,
        "country": "Eritrea",
        "country_code": "er"
      },
      "address": "Assab, Assab, Southern Red Sea Region, Eritrea"
    },
    {
      "lat": 13.045285855644897,
      "lon": 42.746619784781714,
      "geoinfo": {
        "display_name": "Assab as-Saghira, Assab, Southern Red Sea Region, Eritrea",
        "road": null,
        "house_number": null,
        "neighbourhood": "Assab as-Saghira",
        "suburb": "Assab",
        "city_district": null,
        "city": null,
        "state": "Southern Red Sea Region",
        "postcode": null,
        "country": "Eritrea",
        "country_code": "er"
      },
      "address": "617, Assab as-Saghira, Assab, 25658 Southern Red Sea Region, Eritrea"
    },
    {
      "lat": 13.003908974332568,
      "lon": 42.73197128526445,
      "geoinfo": {
        "display_name": "Southern Red Sea Region, Eritrea",
        "road": null,
        "house_number": null,
        "neighbourhood": null,
        "suburb": null,
        "city_district": null,
        "city": null,
        "state": "Southern Red Sea Region",
        "postcode": null,
        "country": "Eritrea",
        "country_code": "er"
      },
      "address": "846, Assab, 38841 Southern Red Sea Region, Eritrea"
    },
    {
      "lat": 12.982630629349623,
      "lon": 42.77256004687514,
      "geoinfo": {
        "display_name": "Southern Red Sea Region, Eritrea",
        "road": null,
        "house_number": null,
        "neighbourhood": null,
        "suburb": null,
        "city_district": null,
        "city": null,
        "state": "Southern Red Sea Region",
        "postcode": null,
        "country": "Eritrea",
        "country_code": "er"
      },
      "address": "170, Assab, 57017 Southern Red Sea Region, Eritrea"
    },
    {
      "lat": 13.003971473007663,
      "lon": 42.73875634738768,
      "geoinfo": {
        "display_name": "Assab al-Kabira, Assab, Southern Red Sea Region, Eritrea",
        "road": null,
        "house_number": null,
        "neighbourhood": "Assab al-Kabira",
        "suburb": "Assab",
        "city_district": null,
        "city": null,
        "state": "Southern Red Sea Region",
        "postcode": null,
        "country": "Eritrea",
        "country_code": "er"
      },
      "address": "007, Assab al-Kabira, Assab, 41644 Southern Red Sea Region, Eritrea"
    },
    {
      "lat": 13.005536235415999,
      "lon": 42.727192687435135,
      "geoinfo": {
        "display_name": "Southern Red Sea Region, Eritrea",
        "road": null,
        "house_number": null,
        "neighbourhood": null,
        "suburb": null,
        "city_district": null,
        "city": null,
        "state": "Southern Red Sea Region",
        "postcode": null,
        "country": "Eritrea",
        "country_code": "er"
      },
      "address": "219, Assab, 33324 Southern Red Sea Region, Eritrea"
    },
    {
      "lat": 12.974275853898085,
      "lon": 42.71597852598182,
      "geoinfo": {
        "display_name": "Southern Red Sea Region, Eritrea",
        "road": null,
        "house_number": null,
        "neighbourhood": null,
        "suburb": null,
        "city_district": null,
        "city": null,
        "state": "Southern Red Sea Region",
        "postcode": null,
        "country": "Eritrea",
        "country_code": "er"
      },
      "address": "061, Assab, 08903 Southern Red Sea Region, Eritrea"
    },
    {
      "lat": 13.006266197809834,
      "lon": 42.77725230033921,
      "geoinfo": {
        "display_name": "Southern Red Sea Region, Eritrea",
        "road": null,
        "house_number": null,
        "neighbourhood": null,
        "suburb": null,
        "city_district": null,
        "city": null,
        "state": "Southern Red Sea Region",
        "postcode": null,
        "country": "Eritrea",
        "country_code": "er"
      },
      "address": "792, Assab, 83756 Southern Red Sea Region, Eritrea"
    },
    {
      "lat": 13.03657532754702,
      "lon": 42.73764824049377,
      "geoinfo": {
        "display_name": "Assab as-Saghira, Assab, Southern Red Sea Region, Eritrea",
        "road": null,
        "house_number": null,
        "neighbourhood": "Assab as-Saghira",
        "suburb": "Assab",
        "city_district": null,
        "city": null,
        "state": "Southern Red Sea Region",
        "postcode": null,
        "country": "Eritrea",
        "country_code": "er"
      },
      "address": "013, Assab as-Saghira, Assab, 04529 Southern Red Sea Region, Eritrea"
    },
    {
      "lat": 12.969744944547651,
      "lon": 42.751295224738634,
      "geoinfo": {
        "display_name": "Southern Red Sea Region, Eritrea",
        "road": null,
        "house_number": null,
        "neighbourhood": null,
        "suburb": null,
        "city_district": null,
        "city": null,
        "state": "Southern Red Sea Region",
        "postcode": null,
        "country": "Eritrea",
        "country_code": "er"
      },
      "address": "078, Assab, 62316 Southern Red Sea Region, Eritrea"
    },
    {
      "lat": 13.00064868351732,
      "lon": 42.72741934589026,
      "geoinfo": {
        "display_name": "Southern Red Sea Region, Eritrea",
        "road": null,
        "house_number": null,
        "neighbourhood": null,
        "suburb": null,
        "city_district": null,
        "city": null,
        "state": "Southern Red Sea Region",
        "postcode": null,
        "country": "Eritrea",
        "country_code": "er"
      },
      "address": "305, Assab, 67620 Southern Red Sea Region, Eritrea"
    },
    {
      "lat": 12.998669916878859,
      "lon": 42.76953180656396,
      "geoinfo": {
        "display_name": "Southern Red Sea Region, Eritrea",
        "road": null,
        "house_number": null,
        "neighbourhood": null,
        "suburb": null,
        "city_district": null,
        "city": null,
        "state": "Southern Red Sea Region",
        "postcode": null,
        "country": "Eritrea",
        "country_code": "er"
      },
      "address": "243, Assab, 08890 Southern Red Sea Region, Eritrea"
    },
    {
      "lat": 13.043787619746178,
      "lon": 42.753582727316974,
      "geoinfo": {
        "display_name": "Assab as-Saghira, Assab, Southern Red Sea Region, Eritrea",
        "road": null,
        "house_number": null,
        "neighbourhood": "Assab as-Saghira",
        "suburb": "Assab",
        "city_district": null,
        "city": null,
        "state": "Southern Red Sea Region",
        "postcode": null,
        "country": "Eritrea",
        "country_code": "er"
      },
      "address": "478, Assab as-Saghira, Assab, 40348 Southern Red Sea Region, Eritrea"
    },
    {
      "lat": 12.989851486754207,
      "lon": 42.77193806865042,
      "geoinfo": {
        "display_name": "Southern Red Sea Region, Eritrea",
        "road": null,
        "house_number": null,
        "neighbourhood": null,
        "suburb": null,
        "city_district": null,
        "city": null,
        "state": "Southern Red Sea Region",
        "postcode": null,
        "country": "Eritrea",
        "country_code": "er"
      },
      "address": "615, Assab, 10110 Southern Red Sea Region, Eritrea"
    },
    {
      "lat": 13.006489756028781,
      "lon": 42.76406507362549,
      "geoinfo": {
        "display_name": "Southern Red Sea Region, Eritrea",
        "road": null,
        "house_number": null,
        "neighbourhood": null,
        "suburb": null,
        "city_district": null,
        "city": null,
        "state": "Southern Red Sea Region",
        "postcode": null,
        "country": "Eritrea",
        "country_code": "er"
      },
      "address": "342, Assab, 57055 Southern Red Sea Region, Eritrea"
    },
    {
      "lat": 12.99326876539916,
      "lon": 42.77629625618582,
      "geoinfo": {
        "display_name": "Southern Red Sea Region, Eritrea",
        "road": null,
        "house_number": null,
        "neighbourhood": null,
        "suburb": null,
        "city_district": null,
        "city": null,
        "state": "Southern Red Sea Region",
        "postcode": null,
        "country": "Eritrea",
        "country_code": "er"
      },
      "address": "022, Assab, 46309 Southern Red Sea Region, Eritrea"
    }
  ],
  "updated_at": "2025-10-19T03:52:37.393654+00:00",
  "_kind": "geo_samples"
}