{
  "country_code": "ER",
  "country": "Eritrea",
  "city": "Keren",
  "geonameid": 333287,
  "target_addresses": 15,
  "samples": [
    {
      "lat": 15.736117233788981,
      "lon": 38.46417415421423,
      "geoinfo": {
        "display_name": "ዝላሌ Zelalē, Eritrea",
        "road": null,
        "house_number": null,
        "neighbourhood": null,
        "suburb": null,
        "city_district": null,
        "city": "ዝላሌ Zelalē",
        "state": null,
        "postcode": null,
        "country": "Eritrea",
        "country_code": "er"
      },
      "address": "Keren, Eritrea"
    },
    {
      "lat": 15.782382982383458,
      "lon": 38.49720138631716,
      "geoinfo": {
        "display_name": "Keren, Anseba, Eritrea",
        "road": null,
        "house_number": null,
        "neighbourhood": null,
        "suburb": null,
        "city_district": null,
        "city": "Keren",
        "state": "Anseba",
        "postcode": null,
        "country": "Eritrea",
        "country_code": "er"
      },
      "address": "Keren, Anseba, Eritrea"
    },
    {
      "lat": 15.781931137613793,
      "lon": 38.417197953116634,
      "geoinfo": {
        "display_name": "Ak'ordat - Keren Road, Keren, Anseba, Eritrea",
        "road": "Ak'ordat - Keren Road",
        "house_number": null,
        "neighbourhood": null,
        "suburb": null,
        "city_district": null,
        "city": "Keren",
        "state": "Anseba",
        "postcode": null,
        "country": "Eritrea",
        "country_code": "er"
      },
      "address": "Ak'ordat - Keren Road, Keren, Anseba, Eritrea"
    },
    {
      "lat": 15.80426022275164,
      "lon": 38.4653283623429,
      "geoinfo": {
        "display_name": "S-1, Keren, Eritrea",
        "road": "S-1",
        "house_number": null,
        "neighbourhood": null,
        "suburb": null,
        "city_district": null,
        "city": "Keren",
        "state": null,
        "postcode": null,
        "country": "Eritrea",
        "country_code": "er"
      },
      "address": "S-1, Keren, Anseba, Eritrea"
    },
    {
      "lat": 15.762979724902669,
      "lon": 38.462012974815316,
      "geoinfo": {
        "display_name": "Asmara - Keren Road, Keren, Anseba, Eritrea",
        "road": "Asmara - Keren Road",
        "house_number": null,
        "neighbourhood": null,
        "suburb": null,
        "city_district": null,
        "city": "Keren",
        "state": "Anseba",
        "postcode": null,
        "country": "Eritrea",
        "country_code": "er"
      },
      "address": "Asmara - Keren Road, Keren, Anseba, Eritrea"
    },
    {
      "lat": 15.805647291401849,
      "lon": 38.44619661200959,
      "geoinfo": {
        "display_name": "Ad Hashhel, Keren, Ad Hashhel, Keren, Eritrea",
        "road": null,
        "house_number": null,
        "neighbourhood": null,
        "suburb": null,
        "city_district": "Ad Hashhel",
        "city": "Keren",
        "state": null,
        "postcode": null,
        "country": "Eritrea",
        "country_code": "er"
      },
      "address": "502, Ad Hashhel, Keren, Ad Hashhel, 80940 Keren, Eritrea"
    },
    {
      "lat": 15.767926629803425,
      "lon": 38.427503992076204,
      "geoinfo": {
        "display_name": "Ak'ordat - Keren Road, Keren, Anseba, Eritrea",
        "road": "Ak'ordat - Keren Road",
        "house_number": null,
        "neighbourhood": null,
        "suburb": null,
        "city_district": null,
        "city": "Keren",
        "state": "Anseba",
        "postcode": null,
        "country": "Eritrea",
        "country_code": "er"
      },
      "address": "403, Ak'ordat - Keren Road, Keren, 07233 Anseba, Eritrea"
    },
    {
      "lat": 15.754926388110894,
      "lon": 38.42424649316332,
      "geoinfo": {
        "display_name": "Ancien fort italien de Dologorodok, Ak'ordat - Keren Road, Keren, Anseba, Eritrea",
        "road": "Ak'ordat - Keren Road",
        "house_number": null,
        "neighbourhood": null,
        "suburb": null,
        "city_district": null,
        "city": "Keren",
        "state": "Anseba",
        "postcode": null,
        "country": "Eritrea",
        "country_code": "er"
      },
      "address": "317, Ak'ordat - Keren Road, Keren, 44879 Anseba, Eritrea"
    }
  ],
  "updated_at": "2025-10-19T04:47:33.420405+00:00",
  "_kind": "geo_samples"
}