{
  "country_code": "ER",
  "country": "Eritrea",
  "city": "Massawa",
  "geonameid": 330546,
  "target_addresses": 15,
  "samples": [
    {
      "lat": 15.590853900615327,
      "lon": 39.43584944917224,
      "geoinfo": {
        "display_name": "Massawa Assab road, Massawa, Northern Red Sea Region, Eritrea",
        "road": "Massawa Assab road",
        "house_number": null,
        "neighbourhood": null,
        "suburb": null,
        "city_district": null,
        "city": "Massawa",
        "state": "Northern Red Sea Region",
        "postcode": null,
        "country": "Eritrea",
        "country_code": "er"
      },
      "address": "Massawa Assab road, Massawa, Northern Red Sea Region, Eritrea"
    },
    {
      "lat": 15.575332432346167,
      "lon": 39.469327676439804,
      "geoinfo": {
        "display_name": "Massawa, Northern Red Sea Region, Eritrea",
        "road": null,
        "house_number": null,
        "neighbourhood": null,
        "suburb": null,
        "city_district": null,
        "city": "Massawa",
        "state": "Northern Red Sea Region",
        "postcode": null,
        "country": "Eritrea",
        "country_code": "er"
      },
      "address": "Massawa, Northern Red Sea Region, Eritrea"
    },
    {
      "lat": 15.59832638758223,
      "lon": 39.47820540333252,
      "geoinfo": {
        "display_name": "المسجد القديم, Viale di Circonvallazione, Old Town, Massawa, Northern Red Sea Region, Eritrea",
        "road": "Viale di Circonvallazione",
        "house_number": null,
        "neighbourhood": null,
        "suburb": null,
        "city_district": null,
        "city": "Massawa",
        "state": "Northern Red Sea Region",
        "postcode": null,
        "country": "Eritrea",
        "country_code": "er"
      },
      "address": "Viale di Circonvallazione, Massawa, Northern Red Sea Region, Eritrea"
    },
    {
      "lat": 15.636366671658063,
      "lon": 39.48030891199765,
      "geoinfo": {
        "display_name": "Corso Umberto I, Old Town, Massawa, Northern Red Sea Region, Eritrea",
        "road": "Corso Umberto I",
        "house_number": null,
        "neighbourhood": null,
        "suburb": null,
        "city_district": null,
        "city": "Massawa",
        "state": "Northern Red Sea Region",
        "postcode": null,
        "country": "Eritrea",
        "country_code": "er"
      },
      "address": "Corso Umberto I, Massawa, Northern Red Sea Region, Eritrea"
    },
    {
      "lat": 15.606946251519618,
      "lon": 39.46090397252266,
      "geoinfo": {
        "display_name": "Asmara - Massawa Road, Tewalet, Massawa, Northern Red Sea Region, Eritrea",
        "road": "Asmara - Massawa Road",
        "house_number": null,
        "neighbourhood": null,
        "suburb": null,
        "city_district": null,
        "city": "Massawa",
        "state": "Northern Red Sea Region",
        "postcode": null,
        "country": "Eritrea",
        "country_code": "er"
      },
      "address": "Asmara - Massawa Road, Massawa, Northern Red Sea Region, Eritrea"
    },
    {
      "lat": 15.599661143435421,
      "lon": 39.45601188848344,
      "geoinfo": {
        "display_name": "Asmara-Massawa Road, Massawa, Northern Red Sea Region, Eritrea",
        "road": "Asmara-Massawa Road",
        "house_number": null,
        "neighbourhood": null,
        "suburb": null,
        "city_district": null,
        "city": "Massawa",
        "state": "Northern Red Sea Region",
        "postcode": null,
        "country": "Eritrea",
        "country_code": "er"
      },
      "address": "Asmara-Massawa Road, Massawa, Northern Red Sea Region, Eritrea"
    },
    {
      "lat": 15.604664799226322,
      "lon": 39.45187262916149,
      "geoinfo": {
        "display_name": "Northern Red Sea Regional Administration, طريق أسمرة - مصوع, Massawa, Northern Red Sea Region, Eritrea",
        "road": "طريق أسمرة - مصوع",
        "house_number": null,
        "neighbourhood": null,
        "suburb": null,
        "city_district": null,
        "city": "Massawa",
        "state": "Northern Red Sea Region",
        "postcode": null,
        "country": "Eritrea",
        "country_code": "er"
      },
      "address": "601, طريق أسمرة - مصوع, Massawa, 94885 Northern Red Sea Region, Eritrea"
    },
    {
      "lat": 15.623868985807556,
      "lon": 39.50265569122545,
      "geoinfo": {
        "display_name": "Massawa, Northern Red Sea Region, Eritrea",
        "road": null,
        "house_number": null,
        "neighbourhood": null,
        "suburb": null,
        "city_district": null,
        "city": "Massawa",
        "state": "Northern Red Sea Region",
        "postcode": null,
        "country": "Eritrea",
        "country_code": "er"
      },
      "address": "070, Massawa, 17798 Northern Red Sea Region, Eritrea"
    },
    {
      "lat": 15.567655559407035,
      "lon": 39.46115141999047,
      "geoinfo": {
        "display_name": "Arkiko, Northern Red Sea Region, Eritrea",
        "road": null,
        "house_number": null,
        "neighbourhood": null,
        "suburb": null,
        "city_district": null,
        "city": "Arkiko",
        "state": "Northern Red Sea Region",
        "postcode": null,
        "country": "Eritrea",
        "country_code": "er"
      },
      "address": "970, Massawa, 66370 Northern Red Sea Region, Eritrea"
    },
    {
      "lat": 15.609085101536635,
      "lon": 39.44045132993054,
      "geoinfo": {
        "display_name": "Massawa, Northern Red Sea Region, Eritrea",
        "road": null,
        "house_number": null,
        "neighbourhood": null,
        "suburb": null,
        "city_district": null,
        "city": "Massawa",
        "state": "Northern Red Sea Region",
        "postcode": null,
        "country": "Eritrea",
        "country_code": "er"
      },
      "address": "580, Massawa, 76093 Northern Red Sea Region, Eritrea"
    },
    {
      "lat": 15.589087417996746,
      "lon": 39.474030717984164,
      "geoinfo": {
        "display_name": "المسجد القديم, Viale di Circonvallazione, Old Town, Massawa, Northern Red Sea Region, Eritrea",
        "road": "Viale di Circonvallazione",
        "house_number": null,
        "neighbourhood": null,
        "suburb": null,
        "city_district": null,
        "city": "Massawa",
        "state": "Northern Red Sea Region",
        "postcode": null,
        "country": "Eritrea",
        "country_code": "er"
      },
      "address": "517, Viale di Circonvallazione, Massawa, 43561 Northern Red Sea Region, Eritrea"
    },
    {
      "lat": 15.581856190226711,
      "lon": 39.45321154418313,
      "geoinfo": {
        "display_name": "Massawa, Northern Red Sea Region, Eritrea",
        "road": null,
        "house_number": null,
        "neighbourhood": null,
        "suburb": null,
        "city_district": null,
        "city": "Massawa",
        "state": "Northern Red Sea Region",
        "postcode": null,
        "country": "Eritrea",
        "country_code": "er"
      },
      "address": "632, Massawa, 12250 Northern Red Sea Region, Eritrea"
    },
    {
      "lat": 15.612862965766656,
      "lon": 39.48211219068281,
      "geoinfo": {
        "display_name": "Sahaba Shrine, Via Palermo, Old Town, Massawa, Northern Red Sea Region, Eritrea",
        "road": "Via Palermo",
        "house_number": null,
        "neighbourhood": null,
        "suburb": null,
        "city_district": null,
        "city": "Massawa",
        "state": "Northern Red Sea Region",
        "postcode": null,
        "country": "Eritrea",
        "country_code": "er"
      },
      "address": "208, Via Palermo, Massawa, 69105 Northern Red Sea Region, Eritrea"
    },
    {
      "lat": 15.619682472161596,
      "lon": 39.44345554897145,
      "geoinfo": {
        "display_name": "Massawa, Northern Red Sea Region, Eritrea",
        "road": null,
        "house_number": null,
        "neighbourhood": null,
        "suburb": null,
        "city_district": null,
        "city": "Massawa",
        "state": "Northern Red Sea Region",
        "postcode": null,
        "country": "Eritrea",
        "country_code": "er"
      },
      "address": "613, Massawa, 07424 Northern Red Sea Region, Eritrea"
    },
    {
      "lat": 15.60877888441311,
      "lon": 39.45702975568823,
      "geoinfo": {
        "display_name": "Asmara - Massawa Road, Tewalet, Massawa, Northern Red Sea Region, Eritrea",
        "road": "Asmara - Massawa Road",
        "house_number": null,
        "neighbourhood": null,
        "suburb": null,
        "city_district": null,
        "city": "Massawa",
        "state": "Northern Red Sea Region",
        "postcode": null,
        "country": "Eritrea",
        "country_code": "er"
      },
      "address": "200, Asmara - Massawa Road, Tewalet, Massawa, 82405 Northern Red Sea Region, Eritrea"
    },
    {
      "lat": 15.60339232446696,
      "lon": 39.448316504756335,
      "geoinfo": {
        "display_name": "Massawa, Northern Red Sea Region, Eritrea",
        "road": null,
        "house_number": null,
        "neighbourhood": null,
        "suburb": null,
        "city_district": null,
        "city": "Massawa",
        "state": "Northern Red Sea Region",
        "postcode": null,
        "country": "Eritrea",
        "country_code": "er"
      },
      "address": "485, Massawa, 24026 Northern Red Sea Region, Eritrea"
    },
    {
      "lat": 15.592295095409824,
      "lon": 39.45459706036293,
      "geoinfo": {
        "display_name": "Housing Complex, Massawa, Northern Red Sea Region, Eritrea",
        "road": null,
        "house_number": null,
        "neighbourhood": null,
        "suburb": null,
        "city_district": null,
        "city": "Massawa",
        "state": "Northern Red Sea Region",
        "postcode": null,
        "country": "Eritrea",
        "country_code": "er"
      },
      "address": "895, Housing Complex, Massawa, 27821 Northern Red Sea Region, Eritrea"
    },
    {
      "lat": 15.615855112425901,
      "lon": 39.47154616810141,
      "geoinfo": {
        "display_name": "Gherar, Massawa, Northern Red Sea Region, Eritrea",
        "road": null,
        "house_number": null,
        "neighbourhood": null,
        "suburb": null,
        "city_district": null,
        "city": "Massawa",
        "state": "Northern Red Sea Region",
        "postcode": null,
        "country": "Eritrea",
        "country_code": "er"
      },
      "address": "380, Gherar, Massawa, 69719 Northern Red Sea Region, Eritrea"
    },
    {
      "lat": 15.57638339861104,
      "lon": 39.45602682799073,
      "geoinfo": {
        "display_name": "Arkiko, Northern Red Sea Region, Eritrea",
        "road": null,
        "house_number": null,
        "neighbourhood": null,
        "suburb": null,
        "city_district": null,
        "city": "Arkiko",
        "state": "Northern Red Sea Region",
        "postcode": null,
        "country": "Eritrea",
        "country_code": "er"
      },
      "address": "904, Massawa, 08189 Northern Red Sea Region, Eritrea"
    },
    {
      "lat": 15.612000812950802,
      "lon": 39.45528289640535,
      "geoinfo": {
        "display_name": "Massawa, Northern Red Sea Region, Eritrea",
        "road": null,
        "house_number": null,
        "neighbourhood": null,
        "suburb": null,
        "city_district": null,
        "city": "Massawa",
        "state": "Northern Red Sea Region",
        "postcode": null,
        "country": "Eritrea",
        "country_code": "er"
      },
      "address": "954, Massawa, 61274 Northern Red Sea Region, Eritrea"
    },
    {
      "lat": 15.621359653829199,
      "lon": 39.49850789156406,
      "geoinfo": {
        "display_name": "Massawa, Northern Red Sea Region, Eritrea",
        "road": null,
        "house_number": null,
        "neighbourhood": null,
        "suburb": null,
        "city_district": null,
        "city": "Massawa",
        "state": "Northern Red Sea Region",
        "postcode": null,
        "country": "Eritrea",
        "country_code": "er"
      },
      "address": "779, Massawa, 59919 Northern Red Sea Region, Eritrea"
    }
  ],
  "updated_at": "2025-10-19T03:51:49.544993+00:00",
  "_kind": "geo_samples"
}