{
  "country_code": "PY",
  "country": "Paraguay",
  "city": "Asunción",
  "geonameid": 3439389,
  "target_addresses": 4,
  "samples": [
    {
      "lat": -25.258496165890314,
      "lon": -57.65356177694251,
      "geoinfo": {
        "display_name": "Chaco-i, Nueva Asunción, Presidente Hayes, Región Occidental, 001011, Paraguay",
        "road": null,
        "house_number": null,
        "neighbourhood": null,
        "suburb": null,
        "city_district": null,
        "city": "Nueva Asunción",
        "state": "Presidente Hayes",
        "postcode": "001011",
        "country": "Paraguay",
        "country_code": "py"
      },
      "address": "Asunción, Presidente Hayes, Paraguay"
    },
    {
      "lat": -25.25781863076594,
      "lon": -57.64399209442529,
      "geoinfo": {
        "display_name": "Iglesia la Inmaculada Concepción, Ruta Nacional Vicepresidente Sánchez, Chaco-i, Nueva Asunción, Presidente Hayes, Región Occidental, 001011, Paraguay",
        "road": "Ruta Nacional Vicepresidente Sánchez",
        "house_number": null,
        "neighbourhood": null,
        "suburb": null,
        "city_district": null,
        "city": "Nueva Asunción",
        "state": "Presidente Hayes",
        "postcode": "001011",
        "country": "Paraguay",
        "country_code": "py"
      },
      "address": "Ruta Nacional Vicepresidente Sánchez, Asunción, Presidente Hayes, Paraguay"
    },
    {
      "lat": -25.2492813356204,
      "lon": -57.63861368276607,
      "geoinfo": {
        "display_name": "Avenida Héroes del Chaco, Vivienda antigua, Chaco-i, Nueva Asunción, Presidente Hayes, Región Occidental, 001202, Paraguay",
        "road": "Avenida Héroes del Chaco",
        "house_number": null,
        "neighbourhood": null,
        "suburb": null,
        "city_district": null,
        "city": "Nueva Asunción",
        "state": "Presidente Hayes",
        "postcode": "001202",
        "country": "Paraguay",
        "country_code": "py"
      },
      "address": "Avenida Héroes del Chaco, Asunción, Presidente Hayes, Paraguay"
    },
    {
      "lat": -25.266935515853138,
      "lon": -57.68460933896124,
      "geoinfo": {
        "display_name": "Ruta a Nanawa, Nueva Asunción, Presidente Hayes, Región Occidental, 001009, Paraguay",
        "road": "Ruta a Nanawa",
        "house_number": null,
        "neighbourhood": null,
        "suburb": null,
        "city_district": null,
        "city": "Nueva Asunción",
        "state": "Presidente Hayes",
        "postcode": "001009",
        "country": "Paraguay",
        "country_code": "py"
      },
      "address": "Ruta a Nanawa, Asunción, Presidente Hayes, Paraguay"
    },
    {
      "lat": -25.31645056980741,
      "lon": -57.669661497633406,
      "geoinfo": {
        "display_name": "Mar del Plata, Santa Ana, Asuncion, Distrito Capital, Región Oriental, 001018, Paraguay",
        "road": "Mar del Plata",
        "house_number": null,
        "neighbourhood": "Santa Ana",
        "suburb": null,
        "city_district": null,
        "city": "Asuncion",
        "state": null,
        "postcode": "001018",
        "country": "Paraguay",
        "country_code": "py"
      },
      "address": "070, Mar del Plata, Santa Ana, Asuncion, Distrito Capital, Región Oriental, 001018, Paraguay"
    },
    {
      "lat": -25.279997833991562,
      "lon": -57.68582437018839,
      "geoinfo": {
        "display_name": "Independiente, Nanawa, Presidente Hayes, Región Occidental, 001018, Paraguay",
        "road": null,
        "house_number": null,
        "neighbourhood": "Independiente",
        "suburb": null,
        "city_district": null,
        "city": "Nanawa",
        "state": "Presidente Hayes",
        "postcode": "001018",
        "country": "Paraguay",
        "country_code": "py"
      },
      "address": "925, Independiente, Nanawa, Presidente Hayes, Región Occidental, 001018, Paraguay"
    },
    {
      "lat": -25.29202237239202,
      "lon": -57.60371585586461,
      "geoinfo": {
        "display_name": "Avenida Brasilia, Mariscal López, Asuncion, Distrito Capital, Región Oriental, 001228, Paraguay",
        "road": "Avenida Brasilia",
        "house_number": null,
        "neighbourhood": "Mariscal López",
        "suburb": null,
        "city_district": null,
        "city": "Asuncion",
        "state": null,
        "postcode": "001228",
        "country": "Paraguay",
        "country_code": "py"
      },
      "address": "274, Avenida Brasilia, 001228 Asunción, Paraguay"
    },
    {
      "lat": -25.27120227182771,
      "lon": -57.619179412071816,
      "geoinfo": {
        "display_name": "Costanera José Asunción Flores, Las Mercedes, Asuncion, Distrito Capital, Región Oriental, 001211, Paraguay",
        "road": "Costanera José Asunción Flores",
        "house_number": null,
        "neighbourhood": "Las Mercedes",
        "suburb": null,
        "city_district": null,
        "city": "Asuncion",
        "state": null,
        "postcode": "001211",
        "country": "Paraguay",
        "country_code": "py"
      },
      "address": "140, Costanera José Asunción Flores, Las Mercedes, Asuncion, Distrito Capital, Región Oriental, 001211, Paraguay"
    }
  ],
  "updated_at": "2025-10-19T06:46:03.645636+00:00",
  "_kind": "geo_samples"
}