{
  "country_code": "PY",
  "country": "Paraguay",
  "city": "Capiatá",
  "geonameid": 3439214,
  "target_addresses": 4,
  "samples": [
    {
      "lat": -25.378181953054675,
      "lon": -57.41932194888156,
      "geoinfo": {
        "display_name": "Capiatá, Central Department, Región Oriental, 110215, Paraguay",
        "road": null,
        "house_number": null,
        "neighbourhood": null,
        "suburb": null,
        "city_district": null,
        "city": "Capiatá",
        "state": "Central Department",
        "postcode": "110215",
        "country": "Paraguay",
        "country_code": "py"
      },
      "address": "Capiatá, Central Department, Paraguay"
    },
    {
      "lat": -25.346906846374242,
      "lon": -57.46285570134971,
      "geoinfo": {
        "display_name": "Sgto 1° Octaviano Maidana, Capiatá, Central Department, Región Oriental, 110215, Paraguay",
        "road": "Sgto 1° Octaviano Maidana",
        "house_number": null,
        "neighbourhood": null,
        "suburb": null,
        "city_district": null,
        "city": "Capiatá",
        "state": "Central Department",
        "postcode": "110215",
        "country": "Paraguay",
        "country_code": "py"
      },
      "address": "Sgto 1° Octaviano Maidana, Capiatá, Central Department, Paraguay"
    },
    {
      "lat": -25.36604408152767,
      "lon": -57.409122963746775,
      "geoinfo": {
        "display_name": "Carumbe Cuá, Capiatá, Central Department, Región Oriental, 110215, Paraguay",
        "road": null,
        "house_number": null,
        "neighbourhood": "Carumbe Cuá",
        "suburb": null,
        "city_district": null,
        "city": "Capiatá",
        "state": "Central Department",
        "postcode": "110215",
        "country": "Paraguay",
        "country_code": "py"
      },
      "address": "Carumbe Cuá, Capiatá, Central Department, Paraguay"
    },
    {
      "lat": -25.351782358029986,
      "lon": -57.42687049945625,
      "geoinfo": {
        "display_name": "Ruta Departamental D070, Villa Militar, Capiatá, Central Department, Región Oriental, 110215, Paraguay",
        "road": "Ruta Departamental D070",
        "house_number": null,
        "neighbourhood": "Villa Militar",
        "suburb": null,
        "city_district": null,
        "city": "Capiatá",
        "state": "Central Department",
        "postcode": "110215",
        "country": "Paraguay",
        "country_code": "py"
      },
      "address": "Ruta Departamental D070, Capiatá, Central Department, Paraguay"
    },
    {
      "lat": -25.323622610011395,
      "lon": -57.42819189936309,
      "geoinfo": {
        "display_name": "Costa Fleitas, Yukuty, Valle Pucú, Areguá, Central Department, Región Oriental, 110215, Paraguay",
        "road": "Costa Fleitas",
        "house_number": null,
        "neighbourhood": "Yukuty",
        "suburb": "Valle Pucú",
        "city_district": null,
        "city": "Areguá",
        "state": "Central Department",
        "postcode": "110215",
        "country": "Paraguay",
        "country_code": "py"
      },
      "address": "579, Costa Fleitas, Capiatá, 110215 Central Department, Paraguay"
    },
    {
      "lat": -25.39213430596741,
      "lon": -57.4550896118297,
      "geoinfo": {
        "display_name": "FRACCION DON LUIS I Y II, Capiatá, Central Department, Región Oriental, 110236, Paraguay",
        "road": null,
        "house_number": null,
        "neighbourhood": "FRACCION DON LUIS I Y II",
        "suburb": null,
        "city_district": null,
        "city": "Capiatá",
        "state": "Central Department",
        "postcode": "110236",
        "country": "Paraguay",
        "country_code": "py"
      },
      "address": "852, FRACCION DON LUIS I Y II, Capiatá, Central Department, Región Oriental, 110236, Paraguay"
    },
    {
      "lat": -25.335649894766366,
      "lon": -57.44917414301099,
      "geoinfo": {
        "display_name": "Capiatá, Central Department, Región Oriental, 110215, Paraguay",
        "road": null,
        "house_number": null,
        "neighbourhood": null,
        "suburb": null,
        "city_district": null,
        "city": "Capiatá",
        "state": "Central Department",
        "postcode": "110215",
        "country": "Paraguay",
        "country_code": "py"
      },
      "address": "941, Capiatá, Central Department, Región Oriental, 110215, Paraguay"
    },
    {
      "lat": -25.340679793244412,
      "lon": -57.47860262356385,
      "geoinfo": {
        "display_name": "ARATIRI, General Eugenio A. Garay, Capiatá, Central Department, Región Oriental, 111427, Paraguay",
        "road": "General Eugenio A. Garay",
        "house_number": null,
        "neighbourhood": null,
        "suburb": null,
        "city_district": null,
        "city": "Capiatá",
        "state": "Central Department",
        "postcode": "111427",
        "country": "Paraguay",
        "country_code": "py"
      },
      "address": "260, General Eugenio A. Garay, Capiatá, 111427 Central Department, Paraguay"
    }
  ],
  "updated_at": "2025-10-19T05:17:52.925647+00:00",
  "_kind": "geo_samples"
}