{
  "country_code": "PY",
  "country": "Paraguay",
  "city": "Fernando de la Mora",
  "geonameid": 3438115,
  "target_addresses": 4,
  "samples": [
    {
      "lat": -25.358411950123955,
      "lon": -57.515640567359455,
      "geoinfo": {
        "display_name": "12 de Noviembre, San Antonio, San Lorenzo, Central Department, Región Oriental, 111439, Paraguay",
        "road": "12 de Noviembre",
        "house_number": null,
        "neighbourhood": "San Antonio",
        "suburb": null,
        "city_district": null,
        "city": "San Lorenzo",
        "state": "Central Department",
        "postcode": "111439",
        "country": "Paraguay",
        "country_code": "py"
      },
      "address": "12 de Noviembre, Fernando de la Mora, Central Department, Paraguay"
    },
    {
      "lat": -25.306754228328607,
      "lon": -57.5492987581479,
      "geoinfo": {
        "display_name": "Leocadio Jara, Estanzuela, Fernando de la Mora, Central Department, Región Oriental, 001405, Paraguay",
        "road": "Leocadio Jara",
        "house_number": null,
        "neighbourhood": null,
        "suburb": null,
        "city_district": null,
        "city": "Fernando de la Mora",
        "state": "Central Department",
        "postcode": "001405",
        "country": "Paraguay",
        "country_code": "py"
      },
      "address": "Leocadio Jara, Fernando de la Mora, Central Department, Paraguay"
    },
    {
      "lat": -25.31578654881889,
      "lon": -57.54003935470781,
      "geoinfo": {
        "display_name": "Campo Aceva, Laguna Satí, Fernando de la Mora, Central Department, Región Oriental, 110304, Paraguay",
        "road": "Campo Aceva",
        "house_number": null,
        "neighbourhood": null,
        "suburb": null,
        "city_district": null,
        "city": "Fernando de la Mora",
        "state": "Central Department",
        "postcode": "110304",
        "country": "Paraguay",
        "country_code": "py"
      },
      "address": "Campo Aceva, Fernando de la Mora, Central Department, Paraguay"
    },
    {
      "lat": -25.339231508210762,
      "lon": -57.569869786988534,
      "geoinfo": {
        "display_name": "Calle Muro, Kokue Guasú, Fernando de la Mora, Central Department, Región Oriental, 001430, Paraguay",
        "road": "Calle Muro",
        "house_number": null,
        "neighbourhood": null,
        "suburb": null,
        "city_district": null,
        "city": "Fernando de la Mora",
        "state": "Central Department",
        "postcode": "001430",
        "country": "Paraguay",
        "country_code": "py"
      },
      "address": "Calle Muro, Fernando de la Mora, Central Department, Paraguay"
    },
    {
      "lat": -25.34174611716548,
      "lon": -57.55164404641565,
      "geoinfo": {
        "display_name": "Jonatan, Calle 11 de Setiembre, Kokue Guasú, Fernando de la Mora, Central Department, Región Oriental, 001428, Paraguay",
        "road": "Calle 11 de Setiembre",
        "house_number": null,
        "neighbourhood": null,
        "suburb": null,
        "city_district": null,
        "city": "Fernando de la Mora",
        "state": "Central Department",
        "postcode": "001428",
        "country": "Paraguay",
        "country_code": "py"
      },
      "address": "Jonatan, Calle 11 de Setiembre, Kokue Guasú, Fernando de la Mora, Central Department, Región Oriental, 001428, Paraguay"
    },
    {
      "lat": -25.310340101464007,
      "lon": -57.53632223880657,
      "geoinfo": {
        "display_name": "Irala Camperchol, Villa Ofelia, Fernando de la Mora, Central Department, Región Oriental, 110304, Paraguay",
        "road": "Irala Camperchol",
        "house_number": null,
        "neighbourhood": null,
        "suburb": null,
        "city_district": null,
        "city": "Fernando de la Mora",
        "state": "Central Department",
        "postcode": "110304",
        "country": "Paraguay",
        "country_code": "py"
      },
      "address": "082, Irala Camperchol, Villa Ofelia, Fernando de la Mora, Central Department, Región Oriental, 110304, Paraguay"
    },
    {
      "lat": -25.32025746427234,
      "lon": -57.47961709285028,
      "geoinfo": {
        "display_name": "Los Laureles, San Lorenzo, Central Department, Región Oriental, 111427, Paraguay",
        "road": null,
        "house_number": null,
        "neighbourhood": "Los Laureles",
        "suburb": null,
        "city_district": null,
        "city": "San Lorenzo",
        "state": "Central Department",
        "postcode": "111427",
        "country": "Paraguay",
        "country_code": "py"
      },
      "address": "296, Los Laureles, San Lorenzo, Central Department, Región Oriental, 111427, Paraguay"
    },
    {
      "lat": -25.33744044376103,
      "lon": -57.54551872560069,
      "geoinfo": {
        "display_name": "Santa Cruz, Pitiantuta, Zona Sur, Fernando de la Mora, Central Department, Región Oriental, 110319, Paraguay",
        "road": "Santa Cruz",
        "house_number": null,
        "neighbourhood": null,
        "suburb": "Zona Sur",
        "city_district": null,
        "city": "Fernando de la Mora",
        "state": "Central Department",
        "postcode": "110319",
        "country": "Paraguay",
        "country_code": "py"
      },
      "address": "499, Santa Cruz, Pitiantuta, Zona Sur, Fernando de la Mora, Central Department, Región Oriental, 110319, Paraguay"
    }
  ],
  "updated_at": "2025-10-19T06:41:51.546468+00:00",
  "_kind": "geo_samples"
}