{
  "country_code": "PY",
  "country": "Paraguay",
  "city": "Itá",
  "geonameid": 3437954,
  "target_addresses": 4,
  "samples": [
    {
      "lat": -25.520587421439675,
      "lon": -57.40915724160553,
      "geoinfo": {
        "display_name": "Ita District, Central Department, Región Oriental, Paraguay",
        "road": null,
        "house_number": null,
        "neighbourhood": null,
        "suburb": null,
        "city_district": null,
        "city": "Ita District",
        "state": "Central Department",
        "postcode": null,
        "country": "Paraguay",
        "country_code": "py"
      },
      "address": "Itá, Central Department, Paraguay"
    },
    {
      "lat": -25.478360479176033,
      "lon": -57.36310966670598,
      "geoinfo": {
        "display_name": "General Marcial Samaniego, Ñu Poí, Ita District, Central Department, Región Oriental, 110510, Paraguay",
        "road": "General Marcial Samaniego",
        "house_number": null,
        "neighbourhood": null,
        "suburb": null,
        "city_district": null,
        "city": "Ita District",
        "state": "Central Department",
        "postcode": "110510",
        "country": "Paraguay",
        "country_code": "py"
      },
      "address": "General Marcial Samaniego, Itá, Central Department, Paraguay"
    },
    {
      "lat": -25.512935535928893,
      "lon": -57.34936808252468,
      "geoinfo": {
        "display_name": "Mariscal Estigarribia, Ita District, Central Department, Región Oriental, Paraguay",
        "road": "Mariscal Estigarribia",
        "house_number": null,
        "neighbourhood": null,
        "suburb": null,
        "city_district": null,
        "city": "Ita District",
        "state": "Central Department",
        "postcode": null,
        "country": "Paraguay",
        "country_code": "py"
      },
      "address": "Mariscal Estigarribia, Itá, Central Department, Paraguay"
    },
    {
      "lat": -25.516455222999152,
      "lon": -57.40347471482772,
      "geoinfo": {
        "display_name": "Acceso Sur, Ita District, Central Department, Región Oriental, 110510, Paraguay",
        "road": "Acceso Sur",
        "house_number": null,
        "neighbourhood": null,
        "suburb": null,
        "city_district": null,
        "city": "Ita District",
        "state": "Central Department",
        "postcode": "110510",
        "country": "Paraguay",
        "country_code": "py"
      },
      "address": "839, Acceso Sur, Ita District, Central Department, Región Oriental, 110510, Paraguay"
    },
    {
      "lat": -25.464559790167826,
      "lon": -57.37311669497385,
      "geoinfo": {
        "display_name": "Ita District, Central Department, Región Oriental, 110510, Paraguay",
        "road": null,
        "house_number": null,
        "neighbourhood": null,
        "suburb": null,
        "city_district": null,
        "city": "Ita District",
        "state": "Central Department",
        "postcode": "110510",
        "country": "Paraguay",
        "country_code": "py"
      },
      "address": "755, Ita District, Central Department, Región Oriental, 110510, Paraguay"
    },
    {
      "lat": -25.533428691037468,
      "lon": -57.38106534518405,
      "geoinfo": {
        "display_name": "Ita District, Central Department, Región Oriental, Paraguay",
        "road": null,
        "house_number": null,
        "neighbourhood": null,
        "suburb": null,
        "city_district": null,
        "city": "Ita District",
        "state": "Central Department",
        "postcode": null,
        "country": "Paraguay",
        "country_code": "py"
      },
      "address": "571, Ita District, Central Department, 39311 Región Oriental, Paraguay"
    },
    {
      "lat": -25.53166386433626,
      "lon": -57.351053124103885,
      "geoinfo": {
        "display_name": "Ita District, Central Department, Región Oriental, Paraguay",
        "road": null,
        "house_number": null,
        "neighbourhood": null,
        "suburb": null,
        "city_district": null,
        "city": "Ita District",
        "state": "Central Department",
        "postcode": null,
        "country": "Paraguay",
        "country_code": "py"
      },
      "address": "345, Ita District, Central Department, 14731 Región Oriental, Paraguay"
    }
  ],
  "updated_at": "2025-10-19T05:17:21.902392+00:00",
  "_kind": "geo_samples"
}