{
  "country_code": "PY",
  "country": "Paraguay",
  "city": "Pedro Juan Caballero",
  "geonameid": 3437547,
  "target_addresses": 4,
  "samples": [
    {
      "lat": -22.538113829540492,
      "lon": -55.7701388460134,
      "geoinfo": {
        "display_name": "Spence, Pedro Juan Caballero, Amambay, Región Oriental, 130108, Paraguay",
        "road": null,
        "house_number": null,
        "neighbourhood": null,
        "suburb": null,
        "city_district": null,
        "city": "Pedro Juan Caballero",
        "state": "Amambay",
        "postcode": "130108",
        "country": "Paraguay",
        "country_code": "py"
      },
      "address": "Pedro Juan Caballero, Amambay, Paraguay"
    },
    {
      "lat": -22.554734877954417,
      "lon": -55.73010213955593,
      "geoinfo": {
        "display_name": "Rubio Ñu, San Gerardo, Pedro Juan Caballero, Amambay, Región Oriental, 130122, Paraguay",
        "road": "Rubio Ñu",
        "house_number": null,
        "neighbourhood": null,
        "suburb": "San Gerardo",
        "city_district": null,
        "city": "Pedro Juan Caballero",
        "state": "Amambay",
        "postcode": "130122",
        "country": "Paraguay",
        "country_code": "py"
      },
      "address": "Rubio Ñu, Pedro Juan Caballero, Amambay, Paraguay"
    },
    {
      "lat": -22.56471715834767,
      "lon": -55.72392287878809,
      "geoinfo": {
        "display_name": "Jorge Casaccia, San Blas, Pedro Juan Caballero, Amambay, Región Oriental, 130122, Paraguay",
        "road": "Jorge Casaccia",
        "house_number": null,
        "neighbourhood": null,
        "suburb": "San Blas",
        "city_district": null,
        "city": "Pedro Juan Caballero",
        "state": "Amambay",
        "postcode": "130122",
        "country": "Paraguay",
        "country_code": "py"
      },
      "address": "Jorge Casaccia, Pedro Juan Caballero, Amambay, Paraguay"
    },
    {
      "lat": -22.54053324836797,
      "lon": -55.75346092742475,
      "geoinfo": {
        "display_name": "Cedro, General Genes, Pedro Juan Caballero, Amambay, Región Oriental, 130107, Paraguay",
        "road": "Cedro",
        "house_number": null,
        "neighbourhood": null,
        "suburb": "General Genes",
        "city_district": null,
        "city": "Pedro Juan Caballero",
        "state": "Amambay",
        "postcode": "130107",
        "country": "Paraguay",
        "country_code": "py"
      },
      "address": "Cedro, Pedro Juan Caballero, Amambay, Paraguay"
    },
    {
      "lat": -22.54060277490619,
      "lon": -55.7410115505401,
      "geoinfo": {
        "display_name": "Julia Cuéto de Estigarribia, Guaraní, Pedro Juan Caballero, Amambay, Región Oriental, 130106, Paraguay",
        "road": "Julia Cuéto de Estigarribia",
        "house_number": null,
        "neighbourhood": null,
        "suburb": "Guaraní",
        "city_district": null,
        "city": "Pedro Juan Caballero",
        "state": "Amambay",
        "postcode": "130106",
        "country": "Paraguay",
        "country_code": "py"
      },
      "address": "126, Julia Cuéto de Estigarribia, Guaraní, Pedro Juan Caballero, Amambay, Región Oriental, 130106, Paraguay"
    },
    {
      "lat": -22.564174052882123,
      "lon": -55.753661343583154,
      "geoinfo": {
        "display_name": "San Juan Neuman, Pedro Juan Caballero, Amambay, Región Oriental, 130115, Paraguay",
        "road": null,
        "house_number": null,
        "neighbourhood": null,
        "suburb": "San Juan Neuman",
        "city_district": null,
        "city": "Pedro Juan Caballero",
        "state": "Amambay",
        "postcode": "130115",
        "country": "Paraguay",
        "country_code": "py"
      },
      "address": "111, San Juan Neuman, Pedro Juan Caballero, Amambay, Región Oriental, 130115, Paraguay"
    },
    {
      "lat": -22.55478245520247,
      "lon": -55.73013921938942,
      "geoinfo": {
        "display_name": "Rubio Ñu, San Gerardo, Pedro Juan Caballero, Amambay, Región Oriental, 130122, Paraguay",
        "road": "Rubio Ñu",
        "house_number": null,
        "neighbourhood": null,
        "suburb": "San Gerardo",
        "city_district": null,
        "city": "Pedro Juan Caballero",
        "state": "Amambay",
        "postcode": "130122",
        "country": "Paraguay",
        "country_code": "py"
      },
      "address": "667, Rubio Ñu, San Gerardo, Pedro Juan Caballero, Amambay, Región Oriental, 130122, Paraguay"
    },
    {
      "lat": -22.520805967453686,
      "lon": -55.76848193261259,
      "geoinfo": {
        "display_name": "Libertad, Pedro Juan Caballero, Amambay, Región Oriental, 130129, Paraguay",
        "road": null,
        "house_number": null,
        "neighbourhood": null,
        "suburb": "Libertad",
        "city_district": null,
        "city": "Pedro Juan Caballero",
        "state": "Amambay",
        "postcode": "130129",
        "country": "Paraguay",
        "country_code": "py"
      },
      "address": "384, Libertad, Pedro Juan Caballero, Amambay, Región Oriental, 130129, Paraguay"
    }
  ],
  "updated_at": "2025-10-19T09:21:25.328529+00:00",
  "_kind": "geo_samples"
}