{
  "country_code": "PY",
  "country": "Paraguay",
  "city": "San Lorenzo",
  "geonameid": 3437056,
  "target_addresses": 4,
  "samples": [
    {
      "lat": -25.333838831810006,
      "lon": -57.491608952876994,
      "geoinfo": {
        "display_name": "Ruta Departamental 069 - PORVENIR NORTE, San José, San Lorenzo, Central Department, Región Oriental, 111425, Paraguay",
        "road": "Ruta Departamental 069 - PORVENIR NORTE",
        "house_number": null,
        "neighbourhood": "San José",
        "suburb": null,
        "city_district": null,
        "city": "San Lorenzo",
        "state": "Central Department",
        "postcode": "111425",
        "country": "Paraguay",
        "country_code": "py"
      },
      "address": "Ruta Departamental 069 - PORVENIR NORTE, San Lorenzo, Central Department, Paraguay"
    },
    {
      "lat": -25.328042345048193,
      "lon": -57.5046832236924,
      "geoinfo": {
        "display_name": "Doctor Gabriel Pellon, San Isidro, San Lorenzo, Central Department, Región Oriental, 111425, Paraguay",
        "road": "Doctor Gabriel Pellon",
        "house_number": null,
        "neighbourhood": "San Isidro",
        "suburb": null,
        "city_district": null,
        "city": "San Lorenzo",
        "state": "Central Department",
        "postcode": "111425",
        "country": "Paraguay",
        "country_code": "py"
      },
      "address": "Doctor Gabriel Pellon, San Lorenzo, Central Department, Paraguay"
    },
    {
      "lat": -25.361229733289743,
      "lon": -57.506697942650234,
      "geoinfo": {
        "display_name": "601 Rita Surroca de Benitez, Teniente Molas, Lucerito, San Lorenzo, Central Department, Región Oriental, 111466, Paraguay",
        "road": "Teniente Molas",
        "house_number": null,
        "neighbourhood": "Lucerito",
        "suburb": null,
        "city_district": null,
        "city": "San Lorenzo",
        "state": "Central Department",
        "postcode": "111466",
        "country": "Paraguay",
        "country_code": "py"
      },
      "address": "Teniente Molas, San Lorenzo, Central Department, Paraguay"
    },
    {
      "lat": -25.30697732601768,
      "lon": -57.52277134032606,
      "geoinfo": {
        "display_name": "Cecilio Baez, San Miguel, San Lorenzo, Central Department, Región Oriental, 111420, Paraguay",
        "road": "Cecilio Baez",
        "house_number": null,
        "neighbourhood": "San Miguel",
        "suburb": null,
        "city_district": null,
        "city": "San Lorenzo",
        "state": "Central Department",
        "postcode": "111420",
        "country": "Paraguay",
        "country_code": "py"
      },
      "address": "Cecilio Baez, San Lorenzo, Central Department, Paraguay"
    },
    {
      "lat": -25.310314101027494,
      "lon": -57.53842068271296,
      "geoinfo": {
        "display_name": "Guayaybi, San António, Fernando de la Mora, Central Department, Región Oriental, 110304, Paraguay",
        "road": "Guayaybi",
        "house_number": null,
        "neighbourhood": null,
        "suburb": null,
        "city_district": null,
        "city": "Fernando de la Mora",
        "state": "Central Department",
        "postcode": "110304",
        "country": "Paraguay",
        "country_code": "py"
      },
      "address": "732, Guayaybi, San António, Fernando de la Mora, Central Department, Región Oriental, 110304, Paraguay"
    },
    {
      "lat": -25.344178655145225,
      "lon": -57.491182758075766,
      "geoinfo": {
        "display_name": "Virgen de Fatima, San Lorenzo, Central Department, Región Oriental, 111427, Paraguay",
        "road": null,
        "house_number": null,
        "neighbourhood": "Virgen de Fatima",
        "suburb": null,
        "city_district": null,
        "city": "San Lorenzo",
        "state": "Central Department",
        "postcode": "111427",
        "country": "Paraguay",
        "country_code": "py"
      },
      "address": "395, Virgen de Fatima, San Lorenzo, Central Department, Región Oriental, 111427, Paraguay"
    },
    {
      "lat": -25.322056736850513,
      "lon": -57.536574461224546,
      "geoinfo": {
        "display_name": "Saavedra, Laguna Satí, Fernando de la Mora, Central Department, Región Oriental, 110304, Paraguay",
        "road": "Saavedra",
        "house_number": null,
        "neighbourhood": null,
        "suburb": null,
        "city_district": null,
        "city": "Fernando de la Mora",
        "state": "Central Department",
        "postcode": "110304",
        "country": "Paraguay",
        "country_code": "py"
      },
      "address": "580, Saavedra, Laguna Satí, Fernando de la Mora, Central Department, Región Oriental, 110304, Paraguay"
    },
    {
      "lat": -25.32485639544003,
      "lon": -57.52177848906448,
      "geoinfo": {
        "display_name": "Campo Experimental de San Lorenzo - Facultad de Ciencias Agrarias, Lucero, Villa Universitaria, San Lorenzo, Central Department, Región Oriental, 111420, Paraguay",
        "road": "Lucero",
        "house_number": null,
        "neighbourhood": "Villa Universitaria",
        "suburb": null,
        "city_district": null,
        "city": "San Lorenzo",
        "state": "Central Department",
        "postcode": "111420",
        "country": "Paraguay",
        "country_code": "py"
      },
      "address": "856, Lucero, San Lorenzo, 111420 Central Department, Paraguay"
    }
  ],
  "updated_at": "2025-10-19T06:39:59.343875+00:00",
  "_kind": "geo_samples"
}