{
  "country_code": "PY",
  "country": "Paraguay",
  "city": "Villa Elisa",
  "geonameid": 3436728,
  "target_addresses": 4,
  "samples": [
    {
      "lat": -25.37409668614457,
      "lon": -57.58838630484689,
      "geoinfo": {
        "display_name": "Hungría, Centro, Villa Elisa, Central Department, Región Oriental, 111507, Paraguay",
        "road": "Hungría",
        "house_number": null,
        "neighbourhood": "Centro",
        "suburb": null,
        "city_district": null,
        "city": "Villa Elisa",
        "state": "Central Department",
        "postcode": "111507",
        "country": "Paraguay",
        "country_code": "py"
      },
      "address": "Hungría, Villa Elisa, Central Department, Paraguay"
    },
    {
      "lat": -25.366651706169222,
      "lon": -57.617945474600255,
      "geoinfo": {
        "display_name": "San Roque González, Lambaré, Central Department, Región Oriental, 110719, Paraguay",
        "road": null,
        "house_number": null,
        "neighbourhood": null,
        "suburb": null,
        "city_district": null,
        "city": "Lambaré",
        "state": "Central Department",
        "postcode": "110719",
        "country": "Paraguay",
        "country_code": "py"
      },
      "address": "Villa Elisa, Central Department, Paraguay"
    },
    {
      "lat": -25.35227764048123,
      "lon": -57.60862435650901,
      "geoinfo": {
        "display_name": "San Ignacio, Valle Apu´a I, Lambaré, Central Department, Región Oriental, 110719, Paraguay",
        "road": "San Ignacio",
        "house_number": null,
        "neighbourhood": null,
        "suburb": null,
        "city_district": null,
        "city": "Lambaré",
        "state": "Central Department",
        "postcode": "110719",
        "country": "Paraguay",
        "country_code": "py"
      },
      "address": "San Ignacio, Villa Elisa, Central Department, Paraguay"
    },
    {
      "lat": -25.39056853473213,
      "lon": -57.61078481045471,
      "geoinfo": {
        "display_name": "Villa Hermosa, Villa Elisa, Central Department, Región Oriental, 111507, Paraguay",
        "road": null,
        "house_number": null,
        "neighbourhood": null,
        "suburb": null,
        "city_district": "Villa Hermosa",
        "city": "Villa Elisa",
        "state": "Central Department",
        "postcode": "111507",
        "country": "Paraguay",
        "country_code": "py"
      },
      "address": "Villa Hermosa, Villa Elisa, Central Department, Paraguay"
    },
    {
      "lat": -25.380138698769503,
      "lon": -57.59505764886655,
      "geoinfo": {
        "display_name": "Villa Bonita, Villa Elisa, Central Department, Región Oriental, 111507, Paraguay",
        "road": null,
        "house_number": null,
        "neighbourhood": null,
        "suburb": "Villa Bonita",
        "city_district": null,
        "city": "Villa Elisa",
        "state": "Central Department",
        "postcode": "111507",
        "country": "Paraguay",
        "country_code": "py"
      },
      "address": "239, Villa Bonita, Villa Elisa, Central Department, Región Oriental, 111507, Paraguay"
    },
    {
      "lat": -25.33531142250094,
      "lon": -57.59201325243834,
      "geoinfo": {
        "display_name": "2786, Ecuador, Cuatro Mojones, Lambaré, Central Department, Región Oriental, 110715, Paraguay",
        "road": "Ecuador",
        "house_number": "2786",
        "neighbourhood": null,
        "suburb": null,
        "city_district": null,
        "city": "Lambaré",
        "state": "Central Department",
        "postcode": "110715",
        "country": "Paraguay",
        "country_code": "py"
      },
      "address": "2786, Ecuador, Cuatro Mojones, Lambaré, Central Department, Región Oriental, 110715, Paraguay"
    },
    {
      "lat": -25.33141302267341,
      "lon": -57.60099382531864,
      "geoinfo": {
        "display_name": "Del Pueblo, Santa Lucía, Lambaré, Central Department, Región Oriental, 110712, Paraguay",
        "road": "Del Pueblo",
        "house_number": null,
        "neighbourhood": null,
        "suburb": null,
        "city_district": null,
        "city": "Lambaré",
        "state": "Central Department",
        "postcode": "110712",
        "country": "Paraguay",
        "country_code": "py"
      },
      "address": "320, Del Pueblo, Santa Lucía, Lambaré, Central Department, Región Oriental, 110712, Paraguay"
    },
    {
      "lat": -25.35053825394897,
      "lon": -57.62712914356881,
      "geoinfo": {
        "display_name": "Ytororó, Centro, Lambaré, Central Department, Región Oriental, 110725, Paraguay",
        "road": "Ytororó",
        "house_number": null,
        "neighbourhood": null,
        "suburb": null,
        "city_district": null,
        "city": "Lambaré",
        "state": "Central Department",
        "postcode": "110725",
        "country": "Paraguay",
        "country_code": "py"
      },
      "address": "772, Ytororó, Centro, Lambaré, Central Department, Región Oriental, 110725, Paraguay"
    }
  ],
  "updated_at": "2025-10-19T06:16:36.132638+00:00",
  "_kind": "geo_samples"
}