{
  "country_code": "HN",
  "country": "Honduras",
  "city": "Choloma",
  "geonameid": 3613533,
  "target_addresses": 5,
  "samples": [
    {
      "lat": 15.609141920982875,
      "lon": -87.92107291181546,
      "geoinfo": {
        "display_name": "Choloma, Cortés, 21112, Honduras",
        "road": null,
        "house_number": null,
        "neighbourhood": null,
        "suburb": null,
        "city_district": null,
        "city": "Choloma",
        "state": "Cortés",
        "postcode": "21112",
        "country": "Honduras",
        "country_code": "hn"
      },
      "address": "Choloma, Cortés, Honduras"
    },
    {
      "lat": 15.59477385801514,
      "lon": -87.93239133528317,
      "geoinfo": {
        "display_name": "Carretera San Pedro Sula - Choloma, Choloma, Cortés, 21112, Honduras",
        "road": "Carretera San Pedro Sula - Choloma",
        "house_number": null,
        "neighbourhood": null,
        "suburb": null,
        "city_district": null,
        "city": "Choloma",
        "state": "Cortés",
        "postcode": "21112",
        "country": "Honduras",
        "country_code": "hn"
      },
      "address": "Carretera San Pedro Sula - Choloma, Choloma, Cortés, Honduras"
    },
    {
      "lat": 15.628548935994532,
      "lon": -87.99615803438762,
      "geoinfo": {
        "display_name": "Villas San Juan, La Jutosa, Choloma, Cortés, 21112, Honduras",
        "road": null,
        "house_number": null,
        "neighbourhood": "Villas San Juan",
        "suburb": null,
        "city_district": null,
        "city": "Choloma",
        "state": "Cortés",
        "postcode": "21112",
        "country": "Honduras",
        "country_code": "hn"
      },
      "address": "Villas San Juan, Choloma, Cortés, Honduras"
    },
    {
      "lat": 15.630643229671643,
      "lon": -87.9370403546428,
      "geoinfo": {
        "display_name": "Choloma, Cortés, 21112, Honduras",
        "road": null,
        "house_number": null,
        "neighbourhood": null,
        "suburb": null,
        "city_district": null,
        "city": "Choloma",
        "state": "Cortés",
        "postcode": "21112",
        "country": "Honduras",
        "country_code": "hn"
      },
      "address": "113, Choloma, Cortés, 21112, Honduras"
    },
    {
      "lat": 15.651277780426268,
      "lon": -87.97433852159223,
      "geoinfo": {
        "display_name": "La Jutosa, Choloma, Cortés, Honduras",
        "road": null,
        "house_number": null,
        "neighbourhood": null,
        "suburb": null,
        "city_district": null,
        "city": "Choloma",
        "state": "Cortés",
        "postcode": null,
        "country": "Honduras",
        "country_code": "hn"
      },
      "address": "452, La Jutosa, Choloma, 97682 Cortés, Honduras"
    },
    {
      "lat": 15.612633412227973,
      "lon": -87.93919895987544,
      "geoinfo": {
        "display_name": "Choloma, Cortés, 21112, Honduras",
        "road": null,
        "house_number": null,
        "neighbourhood": null,
        "suburb": null,
        "city_district": null,
        "city": "Choloma",
        "state": "Cortés",
        "postcode": "21112",
        "country": "Honduras",
        "country_code": "hn"
      },
      "address": "856, Choloma, Cortés, 21112, Honduras"
    },
    {
      "lat": 15.628875251507283,
      "lon": -87.91478082022864,
      "geoinfo": {
        "display_name": "Choloma, Cortés, 21112, Honduras",
        "road": null,
        "house_number": null,
        "neighbourhood": null,
        "suburb": null,
        "city_district": null,
        "city": "Choloma",
        "state": "Cortés",
        "postcode": "21112",
        "country": "Honduras",
        "country_code": "hn"
      },
      "address": "267, Choloma, Cortés, 21112, Honduras"
    },
    {
      "lat": 15.615720080815693,
      "lon": -87.9986308408367,
      "geoinfo": {
        "display_name": "La Jutosa, Choloma, Cortés, Honduras",
        "road": null,
        "house_number": null,
        "neighbourhood": null,
        "suburb": null,
        "city_district": null,
        "city": "Choloma",
        "state": "Cortés",
        "postcode": null,
        "country": "Honduras",
        "country_code": "hn"
      },
      "address": "311, La Jutosa, Choloma, 49332 Cortés, Honduras"
    }
  ],
  "updated_at": "2025-10-19T02:35:51.030737+00:00",
  "_kind": "geo_samples"
}