{
  "country_code": "HN",
  "country": "Honduras",
  "city": "Cofradía",
  "geonameid": 3613394,
  "target_addresses": 5,
  "samples": [
    {
      "lat": 15.405546625017356,
      "lon": -88.1909395739592,
      "geoinfo": {
        "display_name": "Naco, San Pedro Sula, Cortés, Honduras",
        "road": null,
        "house_number": null,
        "neighbourhood": null,
        "suburb": null,
        "city_district": null,
        "city": "San Pedro Sula",
        "state": "Cortés",
        "postcode": null,
        "country": "Honduras",
        "country_code": "hn"
      },
      "address": "Cofradía, Cortés, Honduras"
    },
    {
      "lat": 15.397390966671814,
      "lon": -88.14545254552124,
      "geoinfo": {
        "display_name": "RV-831, Barrio El Centro, Col. Gracias a Dios, San Pedro Sula, Cortés, Honduras",
        "road": "RV-831",
        "house_number": null,
        "neighbourhood": "Barrio El Centro",
        "suburb": null,
        "city_district": null,
        "city": "San Pedro Sula",
        "state": "Cortés",
        "postcode": null,
        "country": "Honduras",
        "country_code": "hn"
      },
      "address": "RV-831, Cofradía, Cortés, Honduras"
    },
    {
      "lat": 15.406930234547186,
      "lon": -88.14139389015685,
      "geoinfo": {
        "display_name": "Carretera de Occidente, Barrio Guadalupe, Naco, San Pedro Sula, Cortés, Honduras",
        "road": "Carretera de Occidente",
        "house_number": null,
        "neighbourhood": "Barrio Guadalupe",
        "suburb": null,
        "city_district": null,
        "city": "San Pedro Sula",
        "state": "Cortés",
        "postcode": null,
        "country": "Honduras",
        "country_code": "hn"
      },
      "address": "Carretera de Occidente, Cofradía, Cortés, Honduras"
    },
    {
      "lat": 15.411900769438859,
      "lon": -88.15809094035029,
      "geoinfo": {
        "display_name": "Barrio El Centro, San Pedro Sula, Cortés, Honduras",
        "road": null,
        "house_number": null,
        "neighbourhood": "Barrio El Centro",
        "suburb": null,
        "city_district": null,
        "city": "San Pedro Sula",
        "state": "Cortés",
        "postcode": null,
        "country": "Honduras",
        "country_code": "hn"
      },
      "address": "Barrio El Centro, Cofradía, Cortés, Honduras"
    },
    {
      "lat": 15.443807161626422,
      "lon": -88.15734639035021,
      "geoinfo": {
        "display_name": "Barrio Guadalupe, San Pedro Sula, Cortés, Honduras",
        "road": null,
        "house_number": null,
        "neighbourhood": "Barrio Guadalupe",
        "suburb": null,
        "city_district": null,
        "city": "San Pedro Sula",
        "state": "Cortés",
        "postcode": null,
        "country": "Honduras",
        "country_code": "hn"
      },
      "address": "910, Barrio Guadalupe, San Pedro Sula, 90062 Cortés, Honduras"
    },
    {
      "lat": 15.407777971899106,
      "lon": -88.18472152907478,
      "geoinfo": {
        "display_name": "San Pedro Sula, Cortés, Honduras",
        "road": null,
        "house_number": null,
        "neighbourhood": null,
        "suburb": null,
        "city_district": null,
        "city": "San Pedro Sula",
        "state": "Cortés",
        "postcode": null,
        "country": "Honduras",
        "country_code": "hn"
      },
      "address": "255, San Pedro Sula, 25041 Cortés, Honduras"
    },
    {
      "lat": 15.418421466770964,
      "lon": -88.1283279801259,
      "geoinfo": {
        "display_name": "San Pedro Sula, Cortés, Honduras",
        "road": null,
        "house_number": null,
        "neighbourhood": null,
        "suburb": null,
        "city_district": null,
        "city": "San Pedro Sula",
        "state": "Cortés",
        "postcode": null,
        "country": "Honduras",
        "country_code": "hn"
      },
      "address": "269, San Pedro Sula, 17169 Cortés, Honduras"
    },
    {
      "lat": 15.42547494747202,
      "lon": -88.13559323683205,
      "geoinfo": {
        "display_name": "Barrio Guadalupe, San Pedro Sula, Cortés, Honduras",
        "road": null,
        "house_number": null,
        "neighbourhood": "Barrio Guadalupe",
        "suburb": null,
        "city_district": null,
        "city": "San Pedro Sula",
        "state": "Cortés",
        "postcode": null,
        "country": "Honduras",
        "country_code": "hn"
      },
      "address": "456, Barrio Guadalupe, San Pedro Sula, 02798 Cortés, Honduras"
    },
    {
      "lat": 15.429361832088016,
      "lon": -88.18181037866917,
      "geoinfo": {
        "display_name": "San Pedro Sula, Cortés, Honduras",
        "road": null,
        "house_number": null,
        "neighbourhood": null,
        "suburb": null,
        "city_district": null,
        "city": "San Pedro Sula",
        "state": "Cortés",
        "postcode": null,
        "country": "Honduras",
        "country_code": "hn"
      },
      "address": "591, San Pedro Sula, 38612 Cortés, Honduras"
    }
  ],
  "updated_at": "2025-10-19T02:56:46.889712+00:00",
  "_kind": "geo_samples"
}