{
  "country_code": "HN",
  "country": "Honduras",
  "city": "Comayagua",
  "geonameid": 3613321,
  "target_addresses": 5,
  "samples": [
    {
      "lat": 14.486415013739308,
      "lon": -87.6395903311893,
      "geoinfo": {
        "display_name": "Colonia Concepción, Comayagua, Honduras",
        "road": null,
        "house_number": null,
        "neighbourhood": "Colonia Concepción",
        "suburb": null,
        "city_district": null,
        "city": "Comayagua",
        "state": "Comayagua",
        "postcode": null,
        "country": "Honduras",
        "country_code": "hn"
      },
      "address": "Colonia Concepción, Comayagua, Comayagua, Honduras"
    },
    {
      "lat": 14.444582250902231,
      "lon": -87.68285892435294,
      "geoinfo": {
        "display_name": "Asentamiento Islas del Triunfo, Comayagua, Honduras",
        "road": null,
        "house_number": null,
        "neighbourhood": "Asentamiento Islas del Triunfo",
        "suburb": null,
        "city_district": null,
        "city": "Comayagua",
        "state": "Comayagua",
        "postcode": null,
        "country": "Honduras",
        "country_code": "hn"
      },
      "address": "Asentamiento Islas del Triunfo, Comayagua, Comayagua, Honduras"
    },
    {
      "lat": 14.488942965910487,
      "lon": -87.61215307084017,
      "geoinfo": {
        "display_name": "El Sitio, Comayagua, Honduras",
        "road": null,
        "house_number": null,
        "neighbourhood": null,
        "suburb": null,
        "city_district": null,
        "city": "Comayagua",
        "state": "Comayagua",
        "postcode": null,
        "country": "Honduras",
        "country_code": "hn"
      },
      "address": "Comayagua, Comayagua, Honduras"
    },
    {
      "lat": 14.45337851340732,
      "lon": -87.67530000462159,
      "geoinfo": {
        "display_name": "Colonia Humuya Oeste, Villa Erna, Comayagua, Honduras",
        "road": null,
        "house_number": null,
        "neighbourhood": "Colonia Humuya Oeste",
        "suburb": null,
        "city_district": null,
        "city": "Comayagua",
        "state": "Comayagua",
        "postcode": null,
        "country": "Honduras",
        "country_code": "hn"
      },
      "address": "Colonia Humuya Oeste, Comayagua, Comayagua, Honduras"
    },
    {
      "lat": 14.484806852316261,
      "lon": -87.65060739510092,
      "geoinfo": {
        "display_name": "Colonia Rotaria, Comayagua, Honduras",
        "road": null,
        "house_number": null,
        "neighbourhood": "Colonia Rotaria",
        "suburb": null,
        "city_district": null,
        "city": "Comayagua",
        "state": "Comayagua",
        "postcode": null,
        "country": "Honduras",
        "country_code": "hn"
      },
      "address": "Colonia Rotaria, Comayagua, Comayagua, Honduras"
    }
  ],
  "updated_at": "2025-10-16T15:07:51.649004+00:00",
  "_kind": "geo_samples"
}