{
  "country_code": "HN",
  "country": "Honduras",
  "city": "La Ceiba",
  "geonameid": 3608248,
  "target_addresses": 5,
  "samples": [
    {
      "lat": 15.74773709429889,
      "lon": -86.80747382948249,
      "geoinfo": {
        "display_name": "Colonia Las Delicias del Sur, Dantillo, La Ceiba, Atlántida, Honduras",
        "road": null,
        "house_number": null,
        "neighbourhood": "Colonia Las Delicias del Sur",
        "suburb": null,
        "city_district": null,
        "city": "La Ceiba",
        "state": "Atlántida",
        "postcode": null,
        "country": "Honduras",
        "country_code": "hn"
      },
      "address": "Colonia Las Delicias del Sur, La Ceiba, Atlántida, Honduras"
    },
    {
      "lat": 15.753717639238307,
      "lon": -86.7422633271495,
      "geoinfo": {
        "display_name": "La Herradura, La Ceiba, Atlántida, 31101, Honduras",
        "road": null,
        "house_number": null,
        "neighbourhood": "La Herradura",
        "suburb": null,
        "city_district": null,
        "city": "La Ceiba",
        "state": "Atlántida",
        "postcode": "31101",
        "country": "Honduras",
        "country_code": "hn"
      },
      "address": "La Herradura, La Ceiba, Atlántida, Honduras"
    },
    {
      "lat": 15.778554867545337,
      "lon": -86.78376049995634,
      "geoinfo": {
        "display_name": "Hospital La Fe, Avenida El Naranjal, Resid. El Naranjal, La Ceiba, Atlántida, 31101, Honduras",
        "road": "Avenida El Naranjal",
        "house_number": null,
        "neighbourhood": null,
        "suburb": null,
        "city_district": null,
        "city": "La Ceiba",
        "state": "Atlántida",
        "postcode": "31101",
        "country": "Honduras",
        "country_code": "hn"
      },
      "address": "Avenida El Naranjal, La Ceiba, Atlántida, Honduras"
    },
    {
      "lat": 15.79179379920402,
      "lon": -86.78164274826732,
      "geoinfo": {
        "display_name": "5a Calle, Barrio La Isla, La Ceiba, Atlántida, 31101, Honduras",
        "road": "5a Calle",
        "house_number": null,
        "neighbourhood": "Barrio La Isla",
        "suburb": null,
        "city_district": null,
        "city": "La Ceiba",
        "state": "Atlántida",
        "postcode": "31101",
        "country": "Honduras",
        "country_code": "hn"
      },
      "address": "5a Calle, La Ceiba, Atlántida, Honduras"
    },
    {
      "lat": 15.735572116328951,
      "lon": -86.79383817854041,
      "geoinfo": {
        "display_name": "La Presa, La Ceiba, Atlántida, Honduras",
        "road": null,
        "house_number": null,
        "neighbourhood": "La Presa",
        "suburb": null,
        "city_district": null,
        "city": "La Ceiba",
        "state": "Atlántida",
        "postcode": null,
        "country": "Honduras",
        "country_code": "hn"
      },
      "address": "La Presa, La Ceiba, Atlántida, Honduras"
    },
    {
      "lat": 15.78855427115436,
      "lon": -86.81353425828985,
      "geoinfo": {
        "display_name": "Colonia Esquipulas, Colonia Hondutel, La Ceiba, Atlántida, Honduras",
        "road": null,
        "house_number": null,
        "neighbourhood": "Colonia Esquipulas",
        "suburb": null,
        "city_district": null,
        "city": "La Ceiba",
        "state": "Atlántida",
        "postcode": null,
        "country": "Honduras",
        "country_code": "hn"
      },
      "address": "070, Colonia Esquipulas, Colonia Hondutel, La Ceiba, 61234 Atlántida, Honduras"
    },
    {
      "lat": 15.749303238941053,
      "lon": -86.80522639980283,
      "geoinfo": {
        "display_name": "Colonia Las Delicias del Sur, Dantillo, La Ceiba, Atlántida, Honduras",
        "road": null,
        "house_number": null,
        "neighbourhood": "Colonia Las Delicias del Sur",
        "suburb": null,
        "city_district": null,
        "city": "La Ceiba",
        "state": "Atlántida",
        "postcode": null,
        "country": "Honduras",
        "country_code": "hn"
      },
      "address": "602, Colonia Las Delicias del Sur, Dantillo, La Ceiba, 90035 Atlántida, Honduras"
    },
    {
      "lat": 15.768659421815014,
      "lon": -86.80252207481396,
      "geoinfo": {
        "display_name": "Groupo Q, Boulevard La Amistad, Colonia Piñansa, Barrio Buenos Aires, La Ceiba, Atlántida, 31101, Honduras",
        "road": "Boulevard La Amistad",
        "house_number": null,
        "neighbourhood": "Colonia Piñansa",
        "suburb": null,
        "city_district": null,
        "city": "La Ceiba",
        "state": "Atlántida",
        "postcode": "31101",
        "country": "Honduras",
        "country_code": "hn"
      },
      "address": "667, Boulevard La Amistad, La Ceiba, 31101 Atlántida, Honduras"
    },
    {
      "lat": 15.778230443311662,
      "lon": -86.78366502149808,
      "geoinfo": {
        "display_name": "Barrio Solares Nuevos, La Ceiba, Atlántida, 31101, Honduras",
        "road": null,
        "house_number": null,
        "neighbourhood": "Barrio Solares Nuevos",
        "suburb": null,
        "city_district": null,
        "city": "La Ceiba",
        "state": "Atlántida",
        "postcode": "31101",
        "country": "Honduras",
        "country_code": "hn"
      },
      "address": "689, Barrio Solares Nuevos, La Ceiba, Atlántida, 31101, Honduras"
    },
    {
      "lat": 15.765592765141566,
      "lon": -86.78286974408708,
      "geoinfo": {
        "display_name": "Avenida La Borda, Barrio Bella Vista, La Ceiba, Atlántida, 31101, Honduras",
        "road": "Avenida La Borda",
        "house_number": null,
        "neighbourhood": "Barrio Bella Vista",
        "suburb": null,
        "city_district": null,
        "city": "La Ceiba",
        "state": "Atlántida",
        "postcode": "31101",
        "country": "Honduras",
        "country_code": "hn"
      },
      "address": "055, Avenida La Borda, Barrio Bella Vista, La Ceiba, Atlántida, 31101, Honduras"
    }
  ],
  "updated_at": "2025-10-19T04:16:51.060180+00:00",
  "_kind": "geo_samples"
}