{
  "country_code": "HN",
  "country": "Honduras",
  "city": "La Paz",
  "geonameid": 3607254,
  "target_addresses": 5,
  "samples": [
    {
      "lat": 14.36566071096438,
      "lon": -87.68043360690527,
      "geoinfo": {
        "display_name": "La Algodonera, Lejamaní, Comayagua, Honduras",
        "road": null,
        "house_number": null,
        "neighbourhood": null,
        "suburb": null,
        "city_district": null,
        "city": "Lejamaní",
        "state": "Comayagua",
        "postcode": null,
        "country": "Honduras",
        "country_code": "hn"
      },
      "address": "La Paz, Comayagua, Honduras"
    },
    {
      "lat": 14.34313605139862,
      "lon": -87.6544043821884,
      "geoinfo": {
        "display_name": "Yarumela, La Paz, Honduras",
        "road": null,
        "house_number": null,
        "neighbourhood": null,
        "suburb": null,
        "city_district": null,
        "city": "La Paz",
        "state": "La Paz",
        "postcode": null,
        "country": "Honduras",
        "country_code": "hn"
      },
      "address": "La Paz, La Paz, Honduras"
    },
    {
      "lat": 14.32054493977094,
      "lon": -87.6494616563143,
      "geoinfo": {
        "display_name": "Barrio La Granja, La Paz, Honduras",
        "road": null,
        "house_number": null,
        "neighbourhood": "Barrio La Granja",
        "suburb": null,
        "city_district": null,
        "city": "La Paz",
        "state": "La Paz",
        "postcode": null,
        "country": "Honduras",
        "country_code": "hn"
      },
      "address": "Barrio La Granja, La Paz, La Paz, Honduras"
    },
    {
      "lat": 14.315361731620547,
      "lon": -87.69076991563018,
      "geoinfo": {
        "display_name": "Barrio Villa Luisa, La Paz, Honduras",
        "road": null,
        "house_number": null,
        "neighbourhood": "Barrio Villa Luisa",
        "suburb": null,
        "city_district": null,
        "city": "La Paz",
        "state": "La Paz",
        "postcode": null,
        "country": "Honduras",
        "country_code": "hn"
      },
      "address": "Barrio Villa Luisa, La Paz, La Paz, Honduras"
    },
    {
      "lat": 14.313012483889565,
      "lon": -87.68540894586252,
      "geoinfo": {
        "display_name": "18 Calle SO, Colonia Julián Suazo, La Paz, Honduras",
        "road": "18 Calle SO",
        "house_number": null,
        "neighbourhood": "Colonia Julián Suazo",
        "suburb": null,
        "city_district": null,
        "city": "La Paz",
        "state": "La Paz",
        "postcode": null,
        "country": "Honduras",
        "country_code": "hn"
      },
      "address": "18 Calle SO, La Paz, La Paz, Honduras"
    },
    {
      "lat": 14.348965920126737,
      "lon": -87.68736471856406,
      "geoinfo": {
        "display_name": "RV-260, La Algodonera, La Paz, Honduras",
        "road": "RV-260",
        "house_number": null,
        "neighbourhood": null,
        "suburb": null,
        "city_district": null,
        "city": "La Paz",
        "state": "La Paz",
        "postcode": null,
        "country": "Honduras",
        "country_code": "hn"
      },
      "address": "RV-260, La Algodonera, 06905 La Paz, Honduras"
    },
    {
      "lat": 14.318268151037069,
      "lon": -87.65923469429792,
      "geoinfo": {
        "display_name": "3a Calle SE, Barrio La Granja, La Paz, Honduras",
        "road": "3a Calle SE",
        "house_number": null,
        "neighbourhood": "Barrio La Granja",
        "suburb": null,
        "city_district": null,
        "city": "La Paz",
        "state": "La Paz",
        "postcode": null,
        "country": "Honduras",
        "country_code": "hn"
      },
      "address": "3a Calle SE, Barrio La Granja, 02356 La Paz, Honduras"
    },
    {
      "lat": 14.296376607222415,
      "lon": -87.64708734151739,
      "geoinfo": {
        "display_name": "La Colonia, Cane, La Paz, Honduras",
        "road": null,
        "house_number": null,
        "neighbourhood": "La Colonia",
        "suburb": null,
        "city_district": null,
        "city": "Cane",
        "state": "La Paz",
        "postcode": null,
        "country": "Honduras",
        "country_code": "hn"
      },
      "address": "562, La Colonia, Cane, 15791 La Paz, Honduras"
    },
    {
      "lat": 14.285197562157862,
      "lon": -87.67677636763713,
      "geoinfo": {
        "display_name": "Carretera La Paz - Marcala, Cane, La Paz, Honduras",
        "road": "Carretera La Paz - Marcala",
        "house_number": null,
        "neighbourhood": null,
        "suburb": null,
        "city_district": null,
        "city": "Cane",
        "state": "La Paz",
        "postcode": null,
        "country": "Honduras",
        "country_code": "hn"
      },
      "address": "780, Carretera La Paz - Marcala, Cane, 01240 La Paz, Honduras"
    },
    {
      "lat": 14.340910769406312,
      "lon": -87.68220892434422,
      "geoinfo": {
        "display_name": "RV-258, Colonia Alicia de Elvir, La Paz, Honduras",
        "road": "RV-258",
        "house_number": null,
        "neighbourhood": "Colonia Alicia de Elvir",
        "suburb": null,
        "city_district": null,
        "city": "La Paz",
        "state": "La Paz",
        "postcode": null,
        "country": "Honduras",
        "country_code": "hn"
      },
      "address": "RV-258, Colonia Alicia de Elvir, 18618 La Paz, Honduras"
    }
  ],
  "updated_at": "2025-10-19T02:56:29.345261+00:00",
  "_kind": "geo_samples"
}