{
  "country_code": "HN",
  "country": "Honduras",
  "city": "Puerto Cortez",
  "geonameid": 3600026,
  "target_addresses": 5,
  "samples": [
    {
      "lat": 15.854149134313959,
      "lon": -87.92012641043512,
      "geoinfo": {
        "display_name": "Buenos Aires, El Copen, Puerto Cortés, Cortés, 21301, Honduras",
        "road": null,
        "house_number": null,
        "neighbourhood": "Buenos Aires",
        "suburb": "El Copen",
        "city_district": null,
        "city": "Puerto Cortés",
        "state": "Cortés",
        "postcode": "21301",
        "country": "Honduras",
        "country_code": "hn"
      },
      "address": "159, Buenos Aires, El Copen, Puerto Cortés, Cortés, 21301, Honduras"
    },
    {
      "lat": 15.787855664459476,
      "lon": -87.95351811190622,
      "geoinfo": {
        "display_name": "Colonia Rosibel Alexis Gutiérrez, Cieneguita, Puerto Cortés, Cortés, Honduras",
        "road": null,
        "house_number": null,
        "neighbourhood": "Colonia Rosibel Alexis Gutiérrez",
        "suburb": null,
        "city_district": null,
        "city": "Puerto Cortés",
        "state": "Cortés",
        "postcode": null,
        "country": "Honduras",
        "country_code": "hn"
      },
      "address": "961, Colonia Rosibel Alexis Gutiérrez, Cieneguita, Puerto Cortés, 69271 Cortés, Honduras"
    },
    {
      "lat": 15.826341625702918,
      "lon": -87.88715662527007,
      "geoinfo": {
        "display_name": "Bulevar San Pedro Sula - Puerto Cortés, El Chile, Puerto Cortés, Cortés, Honduras",
        "road": "Bulevar San Pedro Sula - Puerto Cortés",
        "house_number": null,
        "neighbourhood": null,
        "suburb": null,
        "city_district": null,
        "city": "Puerto Cortés",
        "state": "Cortés",
        "postcode": null,
        "country": "Honduras",
        "country_code": "hn"
      },
      "address": "093, Bulevar San Pedro Sula - Puerto Cortés, El Chile, Puerto Cortés, 59403 Cortés, Honduras"
    },
    {
      "lat": 15.797954897203448,
      "lon": -87.94494756081716,
      "geoinfo": {
        "display_name": "Colonia Rosibel Alexis Gutiérrez, Puerto Cortés, Cortés, Honduras",
        "road": null,
        "house_number": null,
        "neighbourhood": "Colonia Rosibel Alexis Gutiérrez",
        "suburb": null,
        "city_district": null,
        "city": "Puerto Cortés",
        "state": "Cortés",
        "postcode": null,
        "country": "Honduras",
        "country_code": "hn"
      },
      "address": "855, Colonia Rosibel Alexis Gutiérrez, Puerto Cortés, 59660 Cortés, Honduras"
    },
    {
      "lat": 15.85066500643444,
      "lon": -87.94741428271203,
      "geoinfo": {
        "display_name": "7a Avenida, San Martín, El Copen, Puerto Cortés, Cortés, 21301, Honduras",
        "road": "7a Avenida",
        "house_number": null,
        "neighbourhood": "San Martín",
        "suburb": "El Copen",
        "city_district": null,
        "city": "Puerto Cortés",
        "state": "Cortés",
        "postcode": "21301",
        "country": "Honduras",
        "country_code": "hn"
      },
      "address": "7a Avenida, San Martín, El Copen, Puerto Cortés, Cortés, 21301, Honduras"
    }
  ],
  "updated_at": "2025-10-19T04:37:18.384667+00:00",
  "_kind": "geo_samples"
}