{
  "country_code": "HN",
  "country": "Honduras",
  "city": "Villanueva",
  "geonameid": 3600327,
  "target_addresses": 5,
  "samples": [
    {
      "lat": 15.32746900351946,
      "lon": -87.98948017701424,
      "geoinfo": {
        "display_name": "Carretera CA-5, Residencial Buena Vista, El Milagro, Villanueva, Cortés, Honduras",
        "road": "Carretera CA-5",
        "house_number": null,
        "neighbourhood": "Residencial Buena Vista",
        "suburb": null,
        "city_district": null,
        "city": "Villanueva",
        "state": "Cortés",
        "postcode": null,
        "country": "Honduras",
        "country_code": "hn"
      },
      "address": "Carretera CA-5, Villanueva, Cortés, Honduras"
    },
    {
      "lat": 15.305616109787897,
      "lon": -87.99540737722438,
      "geoinfo": {
        "display_name": "Carretera Villanueva - Concepción del Norte, Villanueva, Cortés, Honduras",
        "road": "Carretera Villanueva - Concepción del Norte",
        "house_number": null,
        "neighbourhood": null,
        "suburb": null,
        "city_district": null,
        "city": "Villanueva",
        "state": "Cortés",
        "postcode": null,
        "country": "Honduras",
        "country_code": "hn"
      },
      "address": "Carretera Villanueva - Concepción del Norte, Villanueva, Cortés, Honduras"
    },
    {
      "lat": 15.344639059012085,
      "lon": -87.98039958605528,
      "geoinfo": {
        "display_name": "Residencial Buena Vista, Villanueva, Cortés, Honduras",
        "road": null,
        "house_number": null,
        "neighbourhood": "Residencial Buena Vista",
        "suburb": null,
        "city_district": null,
        "city": "Villanueva",
        "state": "Cortés",
        "postcode": null,
        "country": "Honduras",
        "country_code": "hn"
      },
      "address": "Residencial Buena Vista, Villanueva, Cortés, Honduras"
    },
    {
      "lat": 15.330666134747235,
      "lon": -88.02203795226161,
      "geoinfo": {
        "display_name": "La Colonia El Sauce, Villanueva, Cortés, Honduras",
        "road": null,
        "house_number": null,
        "neighbourhood": null,
        "suburb": null,
        "city_district": null,
        "city": "Villanueva",
        "state": "Cortés",
        "postcode": null,
        "country": "Honduras",
        "country_code": "hn"
      },
      "address": "Villanueva, Cortés, Honduras"
    },
    {
      "lat": 15.318947299773008,
      "lon": -87.98062134867726,
      "geoinfo": {
        "display_name": "4a Calle NE, La Victoria, Villanueva, Cortés, Honduras",
        "road": "4a Calle NE",
        "house_number": null,
        "neighbourhood": "La Victoria",
        "suburb": null,
        "city_district": null,
        "city": "Villanueva",
        "state": "Cortés",
        "postcode": null,
        "country": "Honduras",
        "country_code": "hn"
      },
      "address": "4a Calle NE, Villanueva, Cortés, Honduras"
    },
    {
      "lat": 15.327587810826122,
      "lon": -87.9515501153305,
      "geoinfo": {
        "display_name": "Principal Guadalupe, Colonia Villa Esther, San Manuel, Cortés, Honduras",
        "road": "Principal Guadalupe",
        "house_number": null,
        "neighbourhood": "Colonia Villa Esther",
        "suburb": null,
        "city_district": null,
        "city": "San Manuel",
        "state": "Cortés",
        "postcode": null,
        "country": "Honduras",
        "country_code": "hn"
      },
      "address": "059, Principal Guadalupe, Colonia Villa Esther, San Manuel, 89940 Cortés, Honduras"
    },
    {
      "lat": 15.351336199686793,
      "lon": -87.98569351208415,
      "geoinfo": {
        "display_name": "Carretera CA-5, Residencial Buena Vista, El Milagro, Villanueva, Cortés, Honduras",
        "road": "Carretera CA-5",
        "house_number": null,
        "neighbourhood": "Residencial Buena Vista",
        "suburb": null,
        "city_district": null,
        "city": "Villanueva",
        "state": "Cortés",
        "postcode": null,
        "country": "Honduras",
        "country_code": "hn"
      },
      "address": "Carretera CA-5, Residencial Buena Vista, El Milagro, Villanueva, 66074 Cortés, Honduras"
    },
    {
      "lat": 15.355364160548827,
      "lon": -87.99472862358233,
      "geoinfo": {
        "display_name": "Villanueva, Cortés, Honduras",
        "road": null,
        "house_number": null,
        "neighbourhood": null,
        "suburb": null,
        "city_district": null,
        "city": "Villanueva",
        "state": "Cortés",
        "postcode": null,
        "country": "Honduras",
        "country_code": "hn"
      },
      "address": "154, Villanueva, 60908 Cortés, Honduras"
    },
    {
      "lat": 15.313859840548893,
      "lon": -88.03457816662605,
      "geoinfo": {
        "display_name": "La Colonia El Sauce, Villanueva, Cortés, Honduras",
        "road": null,
        "house_number": null,
        "neighbourhood": null,
        "suburb": null,
        "city_district": null,
        "city": "Villanueva",
        "state": "Cortés",
        "postcode": null,
        "country": "Honduras",
        "country_code": "hn"
      },
      "address": "847, La Colonia El Sauce, Villanueva, 26054 Cortés, Honduras"
    },
    {
      "lat": 15.300777783395825,
      "lon": -87.97068448035073,
      "geoinfo": {
        "display_name": "Villanueva, Cortés, Honduras",
        "road": null,
        "house_number": null,
        "neighbourhood": null,
        "suburb": null,
        "city_district": null,
        "city": "Villanueva",
        "state": "Cortés",
        "postcode": null,
        "country": "Honduras",
        "country_code": "hn"
      },
      "address": "971, Villanueva, 92207 Cortés, Honduras"
    }
  ],
  "updated_at": "2025-10-19T05:51:36.461480+00:00",
  "_kind": "geo_samples"
}