{
  "country_code": "RE",
  "country": "Reunion",
  "city": "Le Port",
  "geonameid": 935616,
  "target_addresses": 8,
  "samples": [
    {
      "lat": -20.92436536630458,
      "lon": 55.29668936790386,
      "geoinfo": {
        "display_name": "Avenue Ivan Hoareau, Le Port, Saint-Paul, Réunion, 97420, France",
        "road": "Avenue Ivan Hoareau",
        "house_number": null,
        "neighbourhood": null,
        "suburb": null,
        "city_district": null,
        "city": "Le Port",
        "state": "Réunion",
        "postcode": "97420",
        "country": "France",
        "country_code": "fr"
      },
      "address": "Avenue Ivan Hoareau, Le Port, Réunion, Reunion"
    },
    {
      "lat": -20.93927883475178,
      "lon": 55.32392169594547,
      "geoinfo": {
        "display_name": "Rue du Canal du Mozambique, Le Port, Saint-Paul, Réunion, 97420, France",
        "road": "Rue du Canal du Mozambique",
        "house_number": null,
        "neighbourhood": null,
        "suburb": null,
        "city_district": null,
        "city": "Le Port",
        "state": "Réunion",
        "postcode": "97420",
        "country": "France",
        "country_code": "fr"
      },
      "address": "Rue du Canal du Mozambique, Le Port, Réunion, Reunion"
    },
    {
      "lat": -20.922199276177686,
      "lon": 55.274993374344994,
      "geoinfo": {
        "display_name": "Réunion, France",
        "road": null,
        "house_number": null,
        "neighbourhood": null,
        "suburb": null,
        "city_district": null,
        "city": null,
        "state": "Réunion",
        "postcode": null,
        "country": "France",
        "country_code": "fr"
      },
      "address": "Le Port, Réunion, Reunion"
    },
    {
      "lat": -20.942310310976975,
      "lon": 55.305803518977825,
      "geoinfo": {
        "display_name": "27, Rue Léo Frankel, Le Port, Saint-Paul, Réunion, 97420, France",
        "road": "Rue Léo Frankel",
        "house_number": "27",
        "neighbourhood": null,
        "suburb": null,
        "city_district": null,
        "city": "Le Port",
        "state": "Réunion",
        "postcode": "97420",
        "country": "France",
        "country_code": "fr"
      },
      "address": "27 Rue Léo Frankel, Le Port, Réunion, Reunion"
    },
    {
      "lat": -20.963724321380784,
      "lon": 55.315651438528384,
      "geoinfo": {
        "display_name": "Ruelle de la Source Blanche, La Rivière des Galets, Le Port, Saint-Paul, Réunion, 97420, France",
        "road": "Ruelle de la Source Blanche",
        "house_number": null,
        "neighbourhood": null,
        "suburb": null,
        "city_district": null,
        "city": "Le Port",
        "state": "Réunion",
        "postcode": "97420",
        "country": "France",
        "country_code": "fr"
      },
      "address": "Ruelle de la Source Blanche, Le Port, Réunion, Reunion"
    },
    {
      "lat": -20.92507645349197,
      "lon": 55.31380654021012,
      "geoinfo": {
        "display_name": "Parking TGC - PIF - GPMDLR, Livraison - Réception Conteneur, Port Réunion Est, Le Port, Saint-Paul, Réunion, 97420, France",
        "road": "Livraison - Réception Conteneur",
        "house_number": null,
        "neighbourhood": null,
        "suburb": null,
        "city_district": null,
        "city": "Le Port",
        "state": "Réunion",
        "postcode": "97420",
        "country": "France",
        "country_code": "fr"
      },
      "address": "Livraison - Réception Conteneur, Le Port, Réunion, Reunion"
    },
    {
      "lat": -20.932339637704448,
      "lon": 55.29811603516538,
      "geoinfo": {
        "display_name": "6, Rue André Suarez, Le Port, Saint-Paul, Réunion, 97420, France",
        "road": "Rue André Suarez",
        "house_number": "6",
        "neighbourhood": null,
        "suburb": null,
        "city_district": null,
        "city": "Le Port",
        "state": "Réunion",
        "postcode": "97420",
        "country": "France",
        "country_code": "fr"
      },
      "address": "6 Rue André Suarez, Le Port, Réunion, Reunion"
    },
    {
      "lat": -20.94223342780363,
      "lon": 55.27694876182244,
      "geoinfo": {
        "display_name": "Rue Berthier, Port Réunion Ouest, Le Port, Saint-Paul, Réunion, 97420, France",
        "road": "Rue Berthier",
        "house_number": null,
        "neighbourhood": null,
        "suburb": null,
        "city_district": null,
        "city": "Le Port",
        "state": "Réunion",
        "postcode": "97420",
        "country": "France",
        "country_code": "fr"
      },
      "address": "Rue Berthier, Le Port, Réunion, Reunion"
    },
    {
      "lat": -20.913855115060354,
      "lon": 55.29454263575342,
      "geoinfo": {
        "display_name": "Réunion, France",
        "road": null,
        "house_number": null,
        "neighbourhood": null,
        "suburb": null,
        "city_district": null,
        "city": null,
        "state": "Réunion",
        "postcode": null,
        "country": "France",
        "country_code": "fr"
      },
      "address": "722, Le Port, 15810 Réunion, Reunion"
    },
    {
      "lat": -20.952590728456883,
      "lon": 55.2639175361971,
      "geoinfo": {
        "display_name": "La Plaine Chabrier, Saint-Paul, Réunion, 97863, France",
        "road": null,
        "house_number": null,
        "neighbourhood": null,
        "suburb": null,
        "city_district": null,
        "city": "Saint-Paul",
        "state": "Réunion",
        "postcode": "97863",
        "country": "France",
        "country_code": "fr"
      },
      "address": "904, Le Port, 97863 Réunion, Reunion"
    },
    {
      "lat": -20.93310022952042,
      "lon": 55.32848320906573,
      "geoinfo": {
        "display_name": "Route du Cimetière, Bœuf Mort, Le Port, Saint-Paul, Réunion, 97419, France",
        "road": "Route du Cimetière",
        "house_number": null,
        "neighbourhood": null,
        "suburb": "Bœuf Mort",
        "city_district": null,
        "city": "Le Port",
        "state": "Réunion",
        "postcode": "97419",
        "country": "France",
        "country_code": "fr"
      },
      "address": "426, Route du Cimetière, Le Port, 97419 Réunion, Reunion"
    },
    {
      "lat": -20.96677043187731,
      "lon": 55.27514181582719,
      "geoinfo": {
        "display_name": "La Plaine Chabrier, Saint-Paul, Réunion, 97863, France",
        "road": null,
        "house_number": null,
        "neighbourhood": null,
        "suburb": null,
        "city_district": null,
        "city": "Saint-Paul",
        "state": "Réunion",
        "postcode": "97863",
        "country": "France",
        "country_code": "fr"
      },
      "address": "973, Le Port, 97863 Réunion, Reunion"
    },
    {
      "lat": -20.940999491756376,
      "lon": 55.27700432125804,
      "geoinfo": {
        "display_name": "Rue Berthier, Port Réunion Ouest, Le Port, Saint-Paul, Réunion, 97420, France",
        "road": "Rue Berthier",
        "house_number": null,
        "neighbourhood": null,
        "suburb": null,
        "city_district": null,
        "city": "Le Port",
        "state": "Réunion",
        "postcode": "97420",
        "country": "France",
        "country_code": "fr"
      },
      "address": "553, Rue Berthier, Le Port, 97420 Réunion, Reunion"
    },
    {
      "lat": -20.898547565695484,
      "lon": 55.303092888512516,
      "geoinfo": {
        "display_name": "Réunion, France",
        "road": null,
        "house_number": null,
        "neighbourhood": null,
        "suburb": null,
        "city_district": null,
        "city": null,
        "state": "Réunion",
        "postcode": null,
        "country": "France",
        "country_code": "fr"
      },
      "address": "736, Le Port, 45275 Réunion, Reunion"
    },
    {
      "lat": -20.916536323565115,
      "lon": 55.32704062935341,
      "geoinfo": {
        "display_name": "la Corniche, La Possession, Saint-Paul, Réunion, 97419, France",
        "road": null,
        "house_number": null,
        "neighbourhood": null,
        "suburb": null,
        "city_district": null,
        "city": "La Possession",
        "state": "Réunion",
        "postcode": "97419",
        "country": "France",
        "country_code": "fr"
      },
      "address": "213, Le Port, 97419 Réunion, Reunion"
    },
    {
      "lat": -20.92735964081699,
      "lon": 55.30620940419224,
      "geoinfo": {
        "display_name": "Avenue Ivan Hoareau, Le Port, Saint-Paul, Réunion, 97420, France",
        "road": "Avenue Ivan Hoareau",
        "house_number": null,
        "neighbourhood": null,
        "suburb": null,
        "city_district": null,
        "city": "Le Port",
        "state": "Réunion",
        "postcode": "97420",
        "country": "France",
        "country_code": "fr"
      },
      "address": "260, Avenue Ivan Hoareau, Le Port, 97420 Réunion, Reunion"
    }
  ],
  "updated_at": "2025-10-19T06:41:19.920730+00:00",
  "_kind": "geo_samples"
}