{
  "country_code": "RE",
  "country": "Reunion",
  "city": "Le Tampon",
  "geonameid": 935582,
  "target_addresses": 8,
  "samples": [
    {
      "lat": -21.272055958878546,
      "lon": 55.564576614286345,
      "geoinfo": {
        "display_name": "108, Chemin de la Bergerie, Le Tampon, Saint-Pierre, Réunion, 97418, France",
        "road": "Chemin de la Bergerie",
        "house_number": "108",
        "neighbourhood": null,
        "suburb": null,
        "city_district": null,
        "city": "Le Tampon",
        "state": "Réunion",
        "postcode": "97418",
        "country": "France",
        "country_code": "fr"
      },
      "address": "108, Chemin de la Bergerie, Le Tampon, 97418 Réunion, Reunion"
    },
    {
      "lat": -21.29747328126718,
      "lon": 55.509989669580335,
      "geoinfo": {
        "display_name": "Chemin de la Pointe, Saint-Pierre, Réunion, 97430, France",
        "road": "Chemin de la Pointe",
        "house_number": null,
        "neighbourhood": null,
        "suburb": null,
        "city_district": null,
        "city": "Saint-Pierre",
        "state": "Réunion",
        "postcode": "97430",
        "country": "France",
        "country_code": "fr"
      },
      "address": "580, Chemin de la Pointe, Le Tampon, 97430 Réunion, Reunion"
    },
    {
      "lat": -21.270028439028327,
      "lon": 55.492413383106296,
      "geoinfo": {
        "display_name": "Chemin Stéphane, Les Quatre Cents, Saint-Pierre, Réunion, 97430, France",
        "road": "Chemin Stéphane",
        "house_number": null,
        "neighbourhood": null,
        "suburb": null,
        "city_district": null,
        "city": "Saint-Pierre",
        "state": "Réunion",
        "postcode": "97430",
        "country": "France",
        "country_code": "fr"
      },
      "address": "956, Chemin Stéphane, Le Tampon, 97430 Réunion, Reunion"
    },
    {
      "lat": -21.250621690238237,
      "lon": 55.48401164395768,
      "geoinfo": {
        "display_name": "Rue Émile Zola, Bras de Pontho, Le Tampon, Saint-Pierre, Réunion, 97414, France",
        "road": "Rue Émile Zola",
        "house_number": null,
        "neighbourhood": null,
        "suburb": null,
        "city_district": null,
        "city": "Le Tampon",
        "state": "Réunion",
        "postcode": "97414",
        "country": "France",
        "country_code": "fr"
      },
      "address": "210, Rue Émile Zola, Le Tampon, 97414 Réunion, Reunion"
    },
    {
      "lat": -21.248631473084902,
      "lon": 55.51655527774207,
      "geoinfo": {
        "display_name": "Chemin du Fargeau, Le Dix-Septième, Le Tampon, Saint-Pierre, Réunion, 97834, France",
        "road": "Chemin du Fargeau",
        "house_number": null,
        "neighbourhood": null,
        "suburb": null,
        "city_district": null,
        "city": "Le Tampon",
        "state": "Réunion",
        "postcode": "97834",
        "country": "France",
        "country_code": "fr"
      },
      "address": "900, Chemin du Fargeau, Le Tampon, 97834 Réunion, Reunion"
    },
    {
      "lat": -21.25449152752895,
      "lon": 55.51268724375906,
      "geoinfo": {
        "display_name": "Le Quatorzième, Le Tampon, Saint-Pierre, Réunion, 97834, France",
        "road": null,
        "house_number": null,
        "neighbourhood": null,
        "suburb": null,
        "city_district": null,
        "city": "Le Tampon",
        "state": "Réunion",
        "postcode": "97834",
        "country": "France",
        "country_code": "fr"
      },
      "address": "334, Le Tampon, 97834 Réunion, Reunion"
    },
    {
      "lat": -21.2645444280806,
      "lon": 55.493910621050205,
      "geoinfo": {
        "display_name": "Rue Montaigne, Bras de Pontho, Le Tampon, Saint-Pierre, Réunion, 97403, France",
        "road": "Rue Montaigne",
        "house_number": null,
        "neighbourhood": null,
        "suburb": null,
        "city_district": null,
        "city": "Le Tampon",
        "state": "Réunion",
        "postcode": "97403",
        "country": "France",
        "country_code": "fr"
      },
      "address": "610, Rue Montaigne, Le Tampon, 97403 Réunion, Reunion"
    },
    {
      "lat": -21.263976207815226,
      "lon": 55.50480833476308,
      "geoinfo": {
        "display_name": "Rue Edmond Rostand, Le Tampon, Saint-Pierre, Réunion, 97834, France",
        "road": "Rue Edmond Rostand",
        "house_number": null,
        "neighbourhood": null,
        "suburb": null,
        "city_district": null,
        "city": "Le Tampon",
        "state": "Réunion",
        "postcode": "97834",
        "country": "France",
        "country_code": "fr"
      },
      "address": "763, Rue Edmond Rostand, Le Tampon, 97834 Réunion, Reunion"
    }
  ],
  "updated_at": "2025-10-19T05:42:20.539322+00:00",
  "_kind": "geo_samples"
}