{
  "country_code": "RE",
  "country": "Reunion",
  "city": "Piton Saint-Leu",
  "geonameid": 7932385,
  "target_addresses": 8,
  "samples": [
    {
      "lat": -21.21264409568043,
      "lon": 55.2693762966117,
      "geoinfo": {
        "display_name": "Les Quatre Robinets, Saint-Leu, Saint-Paul, Réunion, 98230, France",
        "road": null,
        "house_number": null,
        "neighbourhood": null,
        "suburb": null,
        "city_district": null,
        "city": "Saint-Leu",
        "state": "Réunion",
        "postcode": "98230",
        "country": "France",
        "country_code": "fr"
      },
      "address": "Piton Saint-Leu, Réunion, Reunion"
    },
    {
      "lat": -21.219211465364218,
      "lon": 55.28629234145376,
      "geoinfo": {
        "display_name": "Route des Plages, Le Bois de Nèfles Piton, Les Quatre Robinets, Saint-Leu, Saint-Paul, Réunion, 98230, France",
        "road": "Route des Plages",
        "house_number": null,
        "neighbourhood": null,
        "suburb": null,
        "city_district": null,
        "city": "Saint-Leu",
        "state": "Réunion",
        "postcode": "98230",
        "country": "France",
        "country_code": "fr"
      },
      "address": "Route des Plages, Piton Saint-Leu, Réunion, Reunion"
    },
    {
      "lat": -21.220020749762455,
      "lon": 55.31469677197071,
      "geoinfo": {
        "display_name": "Rue des Babas Figues, Le Piton Saint-Leu, Saint-Leu, Saint-Paul, Réunion, 98230, France",
        "road": "Rue des Babas Figues",
        "house_number": null,
        "neighbourhood": null,
        "suburb": null,
        "city_district": null,
        "city": "Saint-Leu",
        "state": "Réunion",
        "postcode": "98230",
        "country": "France",
        "country_code": "fr"
      },
      "address": "Rue des Babas Figues, Piton Saint-Leu, Réunion, Reunion"
    },
    {
      "lat": -21.199073369364505,
      "lon": 55.31347794481056,
      "geoinfo": {
        "display_name": "D 13, Le Piton Saint-Leu, Saint-Leu, Saint-Paul, Réunion, 98230, France",
        "road": "D 13",
        "house_number": null,
        "neighbourhood": null,
        "suburb": null,
        "city_district": null,
        "city": "Saint-Leu",
        "state": "Réunion",
        "postcode": "98230",
        "country": "France",
        "country_code": "fr"
      },
      "address": "D 13, Piton Saint-Leu, Réunion, Reunion"
    },
    {
      "lat": -21.19448486425424,
      "lon": 55.302547051350864,
      "geoinfo": {
        "display_name": "Chemin Mazeau, Le Cap Saint-Leu, Les Quatre Robinets, Saint-Leu, Saint-Paul, Réunion, 98230, France",
        "road": "Chemin Mazeau",
        "house_number": null,
        "neighbourhood": null,
        "suburb": "Le Cap Saint-Leu",
        "city_district": null,
        "city": "Saint-Leu",
        "state": "Réunion",
        "postcode": "98230",
        "country": "France",
        "country_code": "fr"
      },
      "address": "Chemin Mazeau, Piton Saint-Leu, Réunion, Reunion"
    },
    {
      "lat": -21.230835507665354,
      "lon": 55.29932648525466,
      "geoinfo": {
        "display_name": "Chemin Bois des Néfles, Le Bois de Nèfles Piton, Saint-Leu, Saint-Paul, Réunion, 98230, France",
        "road": "Chemin Bois des Néfles",
        "house_number": null,
        "neighbourhood": null,
        "suburb": null,
        "city_district": null,
        "city": "Saint-Leu",
        "state": "Réunion",
        "postcode": "98230",
        "country": "France",
        "country_code": "fr"
      },
      "address": "Chemin Bois des Néfles, Piton Saint-Leu, Réunion, Reunion"
    },
    {
      "lat": -21.212185294233873,
      "lon": 55.30104561932412,
      "geoinfo": {
        "display_name": "Chemin Mosse Candassamy, Le Portail, Saint-Leu, Saint-Paul, Réunion, 98230, France",
        "road": "Chemin Mosse Candassamy",
        "house_number": null,
        "neighbourhood": null,
        "suburb": null,
        "city_district": null,
        "city": "Saint-Leu",
        "state": "Réunion",
        "postcode": "98230",
        "country": "France",
        "country_code": "fr"
      },
      "address": "Chemin Mosse Candassamy, Piton Saint-Leu, Réunion, Reunion"
    },
    {
      "lat": -21.226451616836663,
      "lon": 55.296951866020876,
      "geoinfo": {
        "display_name": "Chemin Saint-Paul, Le Bois de Nèfles Piton, Saint-Leu, Saint-Paul, Réunion, 98230, France",
        "road": "Chemin Saint-Paul",
        "house_number": null,
        "neighbourhood": null,
        "suburb": null,
        "city_district": null,
        "city": "Saint-Leu",
        "state": "Réunion",
        "postcode": "98230",
        "country": "France",
        "country_code": "fr"
      },
      "address": "Chemin Saint-Paul, Piton Saint-Leu, Réunion, Reunion"
    },
    {
      "lat": -21.232455084603448,
      "lon": 55.30204534856049,
      "geoinfo": {
        "display_name": "Saint-Leu, Saint-Paul, Réunion, 98230, France",
        "road": null,
        "house_number": null,
        "neighbourhood": null,
        "suburb": null,
        "city_district": null,
        "city": "Saint-Leu",
        "state": "Réunion",
        "postcode": "98230",
        "country": "France",
        "country_code": "fr"
      },
      "address": "133, Piton Saint-Leu, 98230 Réunion, Reunion"
    },
    {
      "lat": -21.24064457901392,
      "lon": 55.29227427733721,
      "geoinfo": {
        "display_name": "Le Bois de Nèfles Piton, Saint-Leu, Saint-Paul, Réunion, 98230, France",
        "road": null,
        "house_number": null,
        "neighbourhood": null,
        "suburb": null,
        "city_district": null,
        "city": "Saint-Leu",
        "state": "Réunion",
        "postcode": "98230",
        "country": "France",
        "country_code": "fr"
      },
      "address": "988, Piton Saint-Leu, 98230 Réunion, Reunion"
    },
    {
      "lat": -21.192054388340352,
      "lon": 55.319860315936204,
      "geoinfo": {
        "display_name": "Les Quatre Robinets, Saint-Leu, Saint-Paul, Réunion, 98230, France",
        "road": null,
        "house_number": null,
        "neighbourhood": null,
        "suburb": null,
        "city_district": null,
        "city": "Saint-Leu",
        "state": "Réunion",
        "postcode": "98230",
        "country": "France",
        "country_code": "fr"
      },
      "address": "401, Piton Saint-Leu, 98230 Réunion, Reunion"
    },
    {
      "lat": -21.18562410661625,
      "lon": 55.317438989588375,
      "geoinfo": {
        "display_name": "Le Cap-Camélias, Saint-Leu, Saint-Paul, Réunion, 97416, France",
        "road": null,
        "house_number": null,
        "neighbourhood": null,
        "suburb": null,
        "city_district": null,
        "city": "Saint-Leu",
        "state": "Réunion",
        "postcode": "97416",
        "country": "France",
        "country_code": "fr"
      },
      "address": "107, Piton Saint-Leu, 97416 Réunion, Reunion"
    },
    {
      "lat": -21.258271296424216,
      "lon": 55.30980967363306,
      "geoinfo": {
        "display_name": "L'Étang-Salé les Bains, L'Étang-Salé, Saint-Pierre, Réunion, 97427, France",
        "road": null,
        "house_number": null,
        "neighbourhood": null,
        "suburb": null,
        "city_district": null,
        "city": "L'Étang-Salé",
        "state": "Réunion",
        "postcode": "97427",
        "country": "France",
        "country_code": "fr"
      },
      "address": "566, Piton Saint-Leu, 97427 Réunion, Reunion"
    },
    {
      "lat": -21.230843546987543,
      "lon": 55.36051525807407,
      "geoinfo": {
        "display_name": "L'Étang-Salé, Saint-Pierre, Réunion, 97427, France",
        "road": null,
        "house_number": null,
        "neighbourhood": null,
        "suburb": null,
        "city_district": null,
        "city": "L'Étang-Salé",
        "state": "Réunion",
        "postcode": "97427",
        "country": "France",
        "country_code": "fr"
      },
      "address": "501, Piton Saint-Leu, 97427 Réunion, Reunion"
    },
    {
      "lat": -21.21845750054626,
      "lon": 55.33266998488295,
      "geoinfo": {
        "display_name": "La Grande Terre, Saint-Leu, Saint-Paul, Réunion, 97425, France",
        "road": null,
        "house_number": null,
        "neighbourhood": null,
        "suburb": null,
        "city_district": null,
        "city": "Saint-Leu",
        "state": "Réunion",
        "postcode": "97425",
        "country": "France",
        "country_code": "fr"
      },
      "address": "506, Piton Saint-Leu, 97425 Réunion, Reunion"
    },
    {
      "lat": -21.19370310733319,
      "lon": 55.31366336896443,
      "geoinfo": {
        "display_name": "Saint-Leu, Saint-Paul, Réunion, 98230, France",
        "road": null,
        "house_number": null,
        "neighbourhood": null,
        "suburb": null,
        "city_district": null,
        "city": "Saint-Leu",
        "state": "Réunion",
        "postcode": "98230",
        "country": "France",
        "country_code": "fr"
      },
      "address": "874, Piton Saint-Leu, 98230 Réunion, Reunion"
    }
  ],
  "updated_at": "2025-10-19T06:45:14.948532+00:00",
  "_kind": "geo_samples"
}