{
  "country_code": "RE",
  "country": "Reunion",
  "city": "Saint-Joseph",
  "geonameid": 935227,
  "target_addresses": 8,
  "samples": [
    {
      "lat": -21.38272760997691,
      "lon": 55.58641715617949,
      "geoinfo": {
        "display_name": "Manapany, Saint-Joseph, Saint-Pierre, Réunion, 97480, France",
        "road": null,
        "house_number": null,
        "neighbourhood": null,
        "suburb": null,
        "city_district": null,
        "city": "Saint-Joseph",
        "state": "Réunion",
        "postcode": "97480",
        "country": "France",
        "country_code": "fr"
      },
      "address": "Saint-Joseph, Réunion, Reunion"
    },
    {
      "lat": -21.367865686922162,
      "lon": 55.61678660578139,
      "geoinfo": {
        "display_name": "Rue des Cent Marches, Saint-Joseph, Saint-Pierre, Réunion, 97480, France",
        "road": "Rue des Cent Marches",
        "house_number": null,
        "neighbourhood": null,
        "suburb": null,
        "city_district": null,
        "city": "Saint-Joseph",
        "state": "Réunion",
        "postcode": "97480",
        "country": "France",
        "country_code": "fr"
      },
      "address": "Rue des Cent Marches, Saint-Joseph, Réunion, Reunion"
    },
    {
      "lat": -21.366461861044144,
      "lon": 55.60646572933121,
      "geoinfo": {
        "display_name": "Rue du Sagoutier, Saint-Joseph, Saint-Pierre, Réunion, 97480, France",
        "road": "Rue du Sagoutier",
        "house_number": null,
        "neighbourhood": null,
        "suburb": null,
        "city_district": null,
        "city": "Saint-Joseph",
        "state": "Réunion",
        "postcode": "97480",
        "country": "France",
        "country_code": "fr"
      },
      "address": "Rue du Sagoutier, Saint-Joseph, Réunion, Reunion"
    },
    {
      "lat": -21.345501476620367,
      "lon": 55.62191855733006,
      "geoinfo": {
        "display_name": "Sentier de la Rivière des Remparts, Jean-Petit, Saint-Joseph, Saint-Pierre, Réunion, 97480, France",
        "road": "Sentier de la Rivière des Remparts",
        "house_number": null,
        "neighbourhood": null,
        "suburb": null,
        "city_district": null,
        "city": "Saint-Joseph",
        "state": "Réunion",
        "postcode": "97480",
        "country": "France",
        "country_code": "fr"
      },
      "address": "Sentier de la Rivière des Remparts, Saint-Joseph, Réunion, Reunion"
    },
    {
      "lat": -21.357947599960056,
      "lon": 55.59082968704184,
      "geoinfo": {
        "display_name": "19, Chemin des Figuiers, Les Lianes, Saint-Joseph, Saint-Pierre, Réunion, 97480, France",
        "road": "Chemin des Figuiers",
        "house_number": "19",
        "neighbourhood": null,
        "suburb": null,
        "city_district": null,
        "city": "Saint-Joseph",
        "state": "Réunion",
        "postcode": "97480",
        "country": "France",
        "country_code": "fr"
      },
      "address": "19 Chemin des Figuiers, Saint-Joseph, Réunion, Reunion"
    },
    {
      "lat": -21.345887342154697,
      "lon": 55.607275930262276,
      "geoinfo": {
        "display_name": "Rue Lesquelin, Les Lianes, Saint-Joseph, Saint-Pierre, Réunion, 97480, France",
        "road": "Rue Lesquelin",
        "house_number": null,
        "neighbourhood": null,
        "suburb": null,
        "city_district": null,
        "city": "Saint-Joseph",
        "state": "Réunion",
        "postcode": "97480",
        "country": "France",
        "country_code": "fr"
      },
      "address": "Rue Lesquelin, Saint-Joseph, Réunion, Reunion"
    },
    {
      "lat": -21.38617373308338,
      "lon": 55.62181674347035,
      "geoinfo": {
        "display_name": "Rue Amiral Lacaze, Les Quais, Saint-Joseph, Saint-Pierre, Réunion, 97480, France",
        "road": "Rue Amiral Lacaze",
        "house_number": null,
        "neighbourhood": null,
        "suburb": null,
        "city_district": null,
        "city": "Saint-Joseph",
        "state": "Réunion",
        "postcode": "97480",
        "country": "France",
        "country_code": "fr"
      },
      "address": "Rue Amiral Lacaze, Saint-Joseph, Réunion, Reunion"
    },
    {
      "lat": -21.38107085901853,
      "lon": 55.660283334284195,
      "geoinfo": {
        "display_name": "Rue Damour, Vincendo, Saint-Joseph, Saint-Pierre, Réunion, 97480, France",
        "road": "Rue Damour",
        "house_number": null,
        "neighbourhood": null,
        "suburb": null,
        "city_district": null,
        "city": "Saint-Joseph",
        "state": "Réunion",
        "postcode": "97480",
        "country": "France",
        "country_code": "fr"
      },
      "address": "Rue Damour, Saint-Joseph, Réunion, Reunion"
    },
    {
      "lat": -21.41277880265769,
      "lon": 55.61613114797466,
      "geoinfo": {
        "display_name": "Réunion, France",
        "road": null,
        "house_number": null,
        "neighbourhood": null,
        "suburb": null,
        "city_district": null,
        "city": null,
        "state": "Réunion",
        "postcode": null,
        "country": "France",
        "country_code": "fr"
      },
      "address": "973, Saint-Joseph, 82561 Réunion, Reunion"
    },
    {
      "lat": -21.40771066123085,
      "lon": 55.62249830733374,
      "geoinfo": {
        "display_name": "Réunion, France",
        "road": null,
        "house_number": null,
        "neighbourhood": null,
        "suburb": null,
        "city_district": null,
        "city": null,
        "state": "Réunion",
        "postcode": null,
        "country": "France",
        "country_code": "fr"
      },
      "address": "208, Saint-Joseph, 83902 Réunion, Reunion"
    },
    {
      "lat": -21.351576641076235,
      "lon": 55.601877705183014,
      "geoinfo": {
        "display_name": "Rue de la Chapelle, Les Lianes, Saint-Joseph, Saint-Pierre, Réunion, 97480, France",
        "road": "Rue de la Chapelle",
        "house_number": null,
        "neighbourhood": null,
        "suburb": null,
        "city_district": null,
        "city": "Saint-Joseph",
        "state": "Réunion",
        "postcode": "97480",
        "country": "France",
        "country_code": "fr"
      },
      "address": "773, Rue de la Chapelle, Saint-Joseph, 97480 Réunion, Reunion"
    },
    {
      "lat": -21.3541610082764,
      "lon": 55.599108567429994,
      "geoinfo": {
        "display_name": "76, Rue de la Chapelle, Les Lianes, Saint-Joseph, Saint-Pierre, Réunion, 97480, France",
        "road": "Rue de la Chapelle",
        "house_number": "76",
        "neighbourhood": null,
        "suburb": null,
        "city_district": null,
        "city": "Saint-Joseph",
        "state": "Réunion",
        "postcode": "97480",
        "country": "France",
        "country_code": "fr"
      },
      "address": "76, Rue de la Chapelle, Saint-Joseph, 97480 Réunion, Reunion"
    },
    {
      "lat": -21.386613983515566,
      "lon": 55.58136794971325,
      "geoinfo": {
        "display_name": "Manapany, Saint-Joseph, Saint-Pierre, Réunion, 97480, France",
        "road": null,
        "house_number": null,
        "neighbourhood": null,
        "suburb": null,
        "city_district": null,
        "city": "Saint-Joseph",
        "state": "Réunion",
        "postcode": "97480",
        "country": "France",
        "country_code": "fr"
      },
      "address": "248, Saint-Joseph, 97480 Réunion, Reunion"
    },
    {
      "lat": -21.38561471144535,
      "lon": 55.60461463339373,
      "geoinfo": {
        "display_name": "Sentier Ti-Sable, La Cayenne, Saint-Joseph, Saint-Pierre, Réunion, 97480, France",
        "road": "Sentier Ti-Sable",
        "house_number": null,
        "neighbourhood": null,
        "suburb": null,
        "city_district": null,
        "city": "Saint-Joseph",
        "state": "Réunion",
        "postcode": "97480",
        "country": "France",
        "country_code": "fr"
      },
      "address": "695, Sentier Ti-Sable, Saint-Joseph, 97480 Réunion, Reunion"
    },
    {
      "lat": -21.393354874483904,
      "lon": 55.610241750979476,
      "geoinfo": {
        "display_name": "La Cayenne, Saint-Joseph, Saint-Pierre, Réunion, 97480, France",
        "road": null,
        "house_number": null,
        "neighbourhood": null,
        "suburb": null,
        "city_district": null,
        "city": "Saint-Joseph",
        "state": "Réunion",
        "postcode": "97480",
        "country": "France",
        "country_code": "fr"
      },
      "address": "298, Saint-Joseph, 97480 Réunion, Reunion"
    },
    {
      "lat": -21.35176217305779,
      "lon": 55.614533593504554,
      "geoinfo": {
        "display_name": "29, Chemin des Baobabs, Les Lianes, Saint-Joseph, Saint-Pierre, Réunion, 97480, France",
        "road": "Chemin des Baobabs",
        "house_number": "29",
        "neighbourhood": null,
        "suburb": null,
        "city_district": null,
        "city": "Saint-Joseph",
        "state": "Réunion",
        "postcode": "97480",
        "country": "France",
        "country_code": "fr"
      },
      "address": "29, Chemin des Baobabs, Saint-Joseph, 97480 Réunion, Reunion"
    }
  ],
  "updated_at": "2025-10-19T09:23:02.487739+00:00",
  "_kind": "geo_samples"
}