{
  "country_code": "RE",
  "country": "Reunion",
  "city": "Sainte-Suzanne",
  "geonameid": 935248,
  "target_addresses": 8,
  "samples": [
    {
      "lat": -20.893450053016018,
      "lon": 55.59774603769147,
      "geoinfo": {
        "display_name": "Sentier Littoral Nord, Bel Air, Sainte-Suzanne, Saint-Denis, Réunion, 97441, France",
        "road": "Sentier Littoral Nord",
        "house_number": null,
        "neighbourhood": null,
        "suburb": null,
        "city_district": null,
        "city": "Sainte-Suzanne",
        "state": "Réunion",
        "postcode": "97441",
        "country": "France",
        "country_code": "fr"
      },
      "address": "Sentier Littoral Nord, Sainte-Suzanne, Réunion, Reunion"
    },
    {
      "lat": -20.904530916934224,
      "lon": 55.60189861555771,
      "geoinfo": {
        "display_name": "Rue du Lycée, Bel Air, Sainte-Suzanne, Saint-Denis, Réunion, 97441, France",
        "road": "Rue du Lycée",
        "house_number": null,
        "neighbourhood": null,
        "suburb": null,
        "city_district": null,
        "city": "Sainte-Suzanne",
        "state": "Réunion",
        "postcode": "97441",
        "country": "France",
        "country_code": "fr"
      },
      "address": "Rue du Lycée, Sainte-Suzanne, Réunion, Reunion"
    },
    {
      "lat": -20.890844721815522,
      "lon": 55.612597173266785,
      "geoinfo": {
        "display_name": "Village Desprez, Sainte-Suzanne, Saint-Denis, Réunion, 97441, France",
        "road": null,
        "house_number": null,
        "neighbourhood": null,
        "suburb": null,
        "city_district": null,
        "city": "Sainte-Suzanne",
        "state": "Réunion",
        "postcode": "97441",
        "country": "France",
        "country_code": "fr"
      },
      "address": "Sainte-Suzanne, Réunion, Reunion"
    },
    {
      "lat": -20.923103606470075,
      "lon": 55.57818421792963,
      "geoinfo": {
        "display_name": "Chemin Martin Luther King, Bagatelle, Sainte-Suzanne, Saint-Denis, Réunion, 97441, France",
        "road": "Chemin Martin Luther King",
        "house_number": null,
        "neighbourhood": null,
        "suburb": null,
        "city_district": null,
        "city": "Sainte-Suzanne",
        "state": "Réunion",
        "postcode": "97441",
        "country": "France",
        "country_code": "fr"
      },
      "address": "Chemin Martin Luther King, Sainte-Suzanne, Réunion, Reunion"
    },
    {
      "lat": -20.934568695414654,
      "lon": 55.61704293221435,
      "geoinfo": {
        "display_name": "Chemin Commune Carron, Commune Carron, Délices, Quartier Français, Sainte-Suzanne, Saint-Denis, Réunion, 97441, France",
        "road": "Chemin Commune Carron",
        "house_number": null,
        "neighbourhood": null,
        "suburb": null,
        "city_district": null,
        "city": "Sainte-Suzanne",
        "state": "Réunion",
        "postcode": "97441",
        "country": "France",
        "country_code": "fr"
      },
      "address": "Chemin Commune Carron, Sainte-Suzanne, Réunion, Reunion"
    },
    {
      "lat": -20.944322068976955,
      "lon": 55.583468312304014,
      "geoinfo": {
        "display_name": "Rue Madriers, Niagara, Sainte-Suzanne, Saint-Denis, Réunion, 97441, France",
        "road": "Rue Madriers",
        "house_number": null,
        "neighbourhood": null,
        "suburb": null,
        "city_district": null,
        "city": "Sainte-Suzanne",
        "state": "Réunion",
        "postcode": "97441",
        "country": "France",
        "country_code": "fr"
      },
      "address": "Rue Madriers, Sainte-Suzanne, Réunion, Reunion"
    },
    {
      "lat": -20.907793838411337,
      "lon": 55.5966580223166,
      "geoinfo": {
        "display_name": "Rue Parmentier, Les Jacques Bel-Air, Sainte-Suzanne, Saint-Denis, Réunion, 97441, France",
        "road": "Rue Parmentier",
        "house_number": null,
        "neighbourhood": null,
        "suburb": null,
        "city_district": null,
        "city": "Sainte-Suzanne",
        "state": "Réunion",
        "postcode": "97441",
        "country": "France",
        "country_code": "fr"
      },
      "address": "Rue Parmentier, Sainte-Suzanne, Réunion, Reunion"
    },
    {
      "lat": -20.906067218774133,
      "lon": 55.636111230909314,
      "geoinfo": {
        "display_name": "La Marine, Lotissement la Source, La Marine, Sainte-Suzanne, Saint-Denis, Réunion, 97441, France",
        "road": null,
        "house_number": null,
        "neighbourhood": "Lotissement la Source",
        "suburb": null,
        "city_district": null,
        "city": "Sainte-Suzanne",
        "state": "Réunion",
        "postcode": "97441",
        "country": "France",
        "country_code": "fr"
      },
      "address": "Lotissement la Source, Sainte-Suzanne, Réunion, Reunion"
    },
    {
      "lat": -20.89444460152453,
      "lon": 55.57441132510841,
      "geoinfo": {
        "display_name": "Sentier Littoral Nord, Ravine des Chèvres les Bas, Sainte-Marie, Saint-Denis, Réunion, 97438, France",
        "road": "Sentier Littoral Nord",
        "house_number": null,
        "neighbourhood": null,
        "suburb": null,
        "city_district": null,
        "city": "Sainte-Marie",
        "state": "Réunion",
        "postcode": "97438",
        "country": "France",
        "country_code": "fr"
      },
      "address": "175, Sentier Littoral Nord, Sainte-Suzanne, 97438 Réunion, Reunion"
    },
    {
      "lat": -20.948636996186842,
      "lon": 55.5932883095711,
      "geoinfo": {
        "display_name": "Chemin Safer Renaissance, Sainte-Suzanne, Saint-Denis, Réunion, 97441, France",
        "road": "Chemin Safer Renaissance",
        "house_number": null,
        "neighbourhood": null,
        "suburb": null,
        "city_district": null,
        "city": "Sainte-Suzanne",
        "state": "Réunion",
        "postcode": "97441",
        "country": "France",
        "country_code": "fr"
      },
      "address": "085, Chemin Safer Renaissance, Sainte-Suzanne, 97441 Réunion, Reunion"
    },
    {
      "lat": -20.891641872948455,
      "lon": 55.60232414645394,
      "geoinfo": {
        "display_name": "Bel Air, Sainte-Suzanne, Saint-Denis, Réunion, 97441, France",
        "road": null,
        "house_number": null,
        "neighbourhood": null,
        "suburb": null,
        "city_district": null,
        "city": "Sainte-Suzanne",
        "state": "Réunion",
        "postcode": "97441",
        "country": "France",
        "country_code": "fr"
      },
      "address": "771, Sainte-Suzanne, 97441 Réunion, Reunion"
    },
    {
      "lat": -20.92796730797177,
      "lon": 55.63399246794216,
      "geoinfo": {
        "display_name": "Centre Commercial Grand Est, 4, Avenue Mahatma Gandhi, Quartier Français, Sainte-Suzanne, Saint-Denis, Réunion, 97441, France",
        "road": "Avenue Mahatma Gandhi",
        "house_number": "4",
        "neighbourhood": null,
        "suburb": null,
        "city_district": null,
        "city": "Sainte-Suzanne",
        "state": "Réunion",
        "postcode": "97441",
        "country": "France",
        "country_code": "fr"
      },
      "address": "4, Avenue Mahatma Gandhi, Sainte-Suzanne, 97441 Réunion, Reunion"
    },
    {
      "lat": -20.901040941982213,
      "lon": 55.591806190444686,
      "geoinfo": {
        "display_name": "piste cyclable Sainte-Suzanne - Franche Terre, Le Grand Hazier, Franche-Terre, Sainte-Suzanne, Saint-Denis, Réunion, 97441, France",
        "road": "piste cyclable Sainte-Suzanne - Franche Terre",
        "house_number": null,
        "neighbourhood": null,
        "suburb": null,
        "city_district": null,
        "city": "Sainte-Suzanne",
        "state": "Réunion",
        "postcode": "97441",
        "country": "France",
        "country_code": "fr"
      },
      "address": "586, piste cyclable Sainte-Suzanne - Franche Terre, Sainte-Suzanne, 97441 Réunion, Reunion"
    },
    {
      "lat": -20.89170892965528,
      "lon": 55.621067015095406,
      "geoinfo": {
        "display_name": "Village Desprez, Sainte-Suzanne, Saint-Denis, Réunion, 97441, France",
        "road": null,
        "house_number": null,
        "neighbourhood": null,
        "suburb": null,
        "city_district": null,
        "city": "Sainte-Suzanne",
        "state": "Réunion",
        "postcode": "97441",
        "country": "France",
        "country_code": "fr"
      },
      "address": "530, Sainte-Suzanne, 97441 Réunion, Reunion"
    },
    {
      "lat": -20.915562442278347,
      "lon": 55.602478924831715,
      "geoinfo": {
        "display_name": "Chemin de la Croix, Sainte-Suzanne, Saint-Denis, Réunion, 97441, France",
        "road": "Chemin de la Croix",
        "house_number": null,
        "neighbourhood": null,
        "suburb": null,
        "city_district": null,
        "city": "Sainte-Suzanne",
        "state": "Réunion",
        "postcode": "97441",
        "country": "France",
        "country_code": "fr"
      },
      "address": "019, Chemin de la Croix, Sainte-Suzanne, 97441 Réunion, Reunion"
    },
    {
      "lat": -20.889408928705603,
      "lon": 55.591635200226115,
      "geoinfo": {
        "display_name": "Bel Air, Sainte-Suzanne, Saint-Denis, Réunion, 97441, France",
        "road": null,
        "house_number": null,
        "neighbourhood": null,
        "suburb": null,
        "city_district": null,
        "city": "Sainte-Suzanne",
        "state": "Réunion",
        "postcode": "97441",
        "country": "France",
        "country_code": "fr"
      },
      "address": "097, Sainte-Suzanne, 97441 Réunion, Reunion"
    }
  ],
  "updated_at": "2025-10-19T06:18:41.655959+00:00",
  "_kind": "geo_samples"
}