{
  "country_code": "RE",
  "country": "Reunion",
  "city": "Saint-Leu",
  "geonameid": 935225,
  "target_addresses": 8,
  "samples": [
    {
      "lat": -21.184536992195074,
      "lon": 55.28745333191186,
      "geoinfo": {
        "display_name": "Rue du Général Lambert, Le Cap Saint-Leu, Les Quatre Robinets, Saint-Leu, Saint-Paul, Réunion, 97436, France",
        "road": "Rue du Général Lambert",
        "house_number": null,
        "neighbourhood": null,
        "suburb": "Le Cap Saint-Leu",
        "city_district": null,
        "city": "Saint-Leu",
        "state": "Réunion",
        "postcode": "97436",
        "country": "France",
        "country_code": "fr"
      },
      "address": "Rue du Général Lambert, Saint-Leu, Réunion, Reunion"
    },
    {
      "lat": -21.177249703138717,
      "lon": 55.29416284346459,
      "geoinfo": {
        "display_name": "Le Cap Saint-Leu, Saint-Leu, Saint-Paul, Réunion, 97436, France",
        "road": null,
        "house_number": null,
        "neighbourhood": null,
        "suburb": "Le Cap Saint-Leu",
        "city_district": null,
        "city": "Saint-Leu",
        "state": "Réunion",
        "postcode": "97436",
        "country": "France",
        "country_code": "fr"
      },
      "address": "Le Cap Saint-Leu, Saint-Leu, Réunion, Reunion"
    },
    {
      "lat": -21.150144861649782,
      "lon": 55.29036586912489,
      "geoinfo": {
        "display_name": "Route des Tamarins, Saint-Leu, Saint-Paul, Réunion, 97436, France",
        "road": "Route des Tamarins",
        "house_number": null,
        "neighbourhood": null,
        "suburb": null,
        "city_district": null,
        "city": "Saint-Leu",
        "state": "Réunion",
        "postcode": "97436",
        "country": "France",
        "country_code": "fr"
      },
      "address": "Route des Tamarins, Saint-Leu, Réunion, Reunion"
    },
    {
      "lat": -21.15948861700809,
      "lon": 55.24536041739224,
      "geoinfo": {
        "display_name": "Réunion, France",
        "road": null,
        "house_number": null,
        "neighbourhood": null,
        "suburb": null,
        "city_district": null,
        "city": null,
        "state": "Réunion",
        "postcode": null,
        "country": "France",
        "country_code": "fr"
      },
      "address": "Saint-Leu, Réunion, Reunion"
    },
    {
      "lat": -21.15819770615223,
      "lon": 55.32568865384695,
      "geoinfo": {
        "display_name": "Chemin des Orchidées, Le Cap-Camélias, Saint-Leu, Saint-Paul, Réunion, 97416, France",
        "road": "Chemin des Orchidées",
        "house_number": null,
        "neighbourhood": null,
        "suburb": null,
        "city_district": null,
        "city": "Saint-Leu",
        "state": "Réunion",
        "postcode": "97416",
        "country": "France",
        "country_code": "fr"
      },
      "address": "Chemin des Orchidées, Saint-Leu, Réunion, Reunion"
    },
    {
      "lat": -21.178628512509192,
      "lon": 55.30126725085199,
      "geoinfo": {
        "display_name": "Chemin Lelievre, Le Cap Saint-Leu, Les Quatre Robinets, Saint-Leu, Saint-Paul, Réunion, 97436, France",
        "road": "Chemin Lelievre",
        "house_number": null,
        "neighbourhood": null,
        "suburb": "Le Cap Saint-Leu",
        "city_district": null,
        "city": "Saint-Leu",
        "state": "Réunion",
        "postcode": "97436",
        "country": "France",
        "country_code": "fr"
      },
      "address": "Chemin Lelievre, Saint-Leu, Réunion, Reunion"
    },
    {
      "lat": -21.177478206820282,
      "lon": 55.304544428494005,
      "geoinfo": {
        "display_name": "Chemin des Pêches, Saint-Leu, Saint-Paul, Réunion, 97436, France",
        "road": "Chemin des Pêches",
        "house_number": null,
        "neighbourhood": null,
        "suburb": null,
        "city_district": null,
        "city": "Saint-Leu",
        "state": "Réunion",
        "postcode": "97436",
        "country": "France",
        "country_code": "fr"
      },
      "address": "Chemin des Pêches, Saint-Leu, Réunion, Reunion"
    },
    {
      "lat": -21.158208292117052,
      "lon": 55.31644624063892,
      "geoinfo": {
        "display_name": "Chemin des Jacquiers, Le Cap-Camélias, Saint-Leu, Saint-Paul, Réunion, 97516, France",
        "road": "Chemin des Jacquiers",
        "house_number": null,
        "neighbourhood": null,
        "suburb": null,
        "city_district": null,
        "city": "Saint-Leu",
        "state": "Réunion",
        "postcode": "97516",
        "country": "France",
        "country_code": "fr"
      },
      "address": "Chemin des Jacquiers, Saint-Leu, Réunion, Reunion"
    },
    {
      "lat": -21.19817821281702,
      "lon": 55.294130989237345,
      "geoinfo": {
        "display_name": "Rue de l'Amitié, Stella, Les Quatre Robinets, Saint-Leu, Saint-Paul, Réunion, 98230, France",
        "road": "Rue de l'Amitié",
        "house_number": null,
        "neighbourhood": null,
        "suburb": null,
        "city_district": null,
        "city": "Saint-Leu",
        "state": "Réunion",
        "postcode": "98230",
        "country": "France",
        "country_code": "fr"
      },
      "address": "288, Rue de l'Amitié, Saint-Leu, 98230 Réunion, Reunion"
    },
    {
      "lat": -21.137190672679605,
      "lon": 55.29512253443402,
      "geoinfo": {
        "display_name": "Mascarin, Jardin Botanique de la Réunion, Rue du Père Georges, Les Colimaçons, Saint-Leu, Saint-Paul, Réunion, 97516, France",
        "road": "Rue du Père Georges",
        "house_number": null,
        "neighbourhood": null,
        "suburb": null,
        "city_district": null,
        "city": "Saint-Leu",
        "state": "Réunion",
        "postcode": "97516",
        "country": "France",
        "country_code": "fr"
      },
      "address": "588, Rue du Père Georges, Saint-Leu, 97516 Réunion, Reunion"
    },
    {
      "lat": -21.188425373895946,
      "lon": 55.24774523944836,
      "geoinfo": {
        "display_name": "Réunion, France",
        "road": null,
        "house_number": null,
        "neighbourhood": null,
        "suburb": null,
        "city_district": null,
        "city": null,
        "state": "Réunion",
        "postcode": null,
        "country": "France",
        "country_code": "fr"
      },
      "address": "824, Saint-Leu, 57000 Réunion, Reunion"
    },
    {
      "lat": -21.16018777173164,
      "lon": 55.27706928733922,
      "geoinfo": {
        "display_name": "Le Cap Saint-Leu, Saint-Leu, Saint-Paul, Réunion, 97436, France",
        "road": null,
        "house_number": null,
        "neighbourhood": null,
        "suburb": "Le Cap Saint-Leu",
        "city_district": null,
        "city": "Saint-Leu",
        "state": "Réunion",
        "postcode": "97436",
        "country": "France",
        "country_code": "fr"
      },
      "address": "498, Le Cap Saint-Leu, Saint-Leu, 97436 Réunion, Reunion"
    },
    {
      "lat": -21.188718610072037,
      "lon": 55.30202006524872,
      "geoinfo": {
        "display_name": "Chemin Mascotte, Le Cap Saint-Leu, Les Quatre Robinets, Saint-Leu, Saint-Paul, Réunion, 97436, France",
        "road": "Chemin Mascotte",
        "house_number": null,
        "neighbourhood": null,
        "suburb": "Le Cap Saint-Leu",
        "city_district": null,
        "city": "Saint-Leu",
        "state": "Réunion",
        "postcode": "97436",
        "country": "France",
        "country_code": "fr"
      },
      "address": "240, Chemin Mascotte, Saint-Leu, 97436 Réunion, Reunion"
    },
    {
      "lat": -21.202444061988597,
      "lon": 55.30000707490741,
      "geoinfo": {
        "display_name": "Rue Émile Hugo, Stella, Les Quatre Robinets, Saint-Leu, Saint-Paul, Réunion, 98230, France",
        "road": "Rue Émile Hugo",
        "house_number": null,
        "neighbourhood": null,
        "suburb": null,
        "city_district": null,
        "city": "Saint-Leu",
        "state": "Réunion",
        "postcode": "98230",
        "country": "France",
        "country_code": "fr"
      },
      "address": "587, Rue Émile Hugo, Saint-Leu, 98230 Réunion, Reunion"
    },
    {
      "lat": -21.17355371334865,
      "lon": 55.287053904435226,
      "geoinfo": {
        "display_name": "Chap'tit Lagon, 39, Boulevard Bonnier, Le Cap Saint-Leu, Saint-Leu, Saint-Paul, Réunion, 97416, France",
        "road": "Boulevard Bonnier",
        "house_number": "39",
        "neighbourhood": null,
        "suburb": "Le Cap Saint-Leu",
        "city_district": null,
        "city": "Saint-Leu",
        "state": "Réunion",
        "postcode": "97416",
        "country": "France",
        "country_code": "fr"
      },
      "address": "39, Boulevard Bonnier, Saint-Leu, 97416 Réunion, Reunion"
    },
    {
      "lat": -21.180166222837666,
      "lon": 55.30743836200619,
      "geoinfo": {
        "display_name": "Chemin CD13 Le Cap, Saint-Leu, Saint-Paul, Réunion, 97436, France",
        "road": "Chemin CD13 Le Cap",
        "house_number": null,
        "neighbourhood": null,
        "suburb": null,
        "city_district": null,
        "city": "Saint-Leu",
        "state": "Réunion",
        "postcode": "97436",
        "country": "France",
        "country_code": "fr"
      },
      "address": "Chemin CD13 Le Cap, Saint-Leu, 97436 Réunion, Reunion"
    }
  ],
  "updated_at": "2025-10-19T06:44:02.259680+00:00",
  "_kind": "geo_samples"
}