{
  "country_code": "RE",
  "country": "Reunion",
  "city": "Saint-Denis",
  "geonameid": 935264,
  "target_addresses": 8,
  "samples": [
    {
      "lat": -20.88334097336192,
      "lon": 55.43223437067729,
      "geoinfo": {
        "display_name": "Chemin de la Vigie, La Montagne, Saint-Denis, Réunion, 97400, France",
        "road": "Chemin de la Vigie",
        "house_number": null,
        "neighbourhood": null,
        "suburb": null,
        "city_district": null,
        "city": "Saint-Denis",
        "state": "Réunion",
        "postcode": "97400",
        "country": "France",
        "country_code": "fr"
      },
      "address": "Chemin de la Vigie, Saint-Denis, Réunion, Reunion"
    },
    {
      "lat": -20.877287824458328,
      "lon": 55.42267922285301,
      "geoinfo": {
        "display_name": "Allée du Golf, La Montagne, Saint-Denis, Réunion, 97417, France",
        "road": "Allée du Golf",
        "house_number": null,
        "neighbourhood": null,
        "suburb": null,
        "city_district": null,
        "city": "Saint-Denis",
        "state": "Réunion",
        "postcode": "97417",
        "country": "France",
        "country_code": "fr"
      },
      "address": "Allée du Golf, Saint-Denis, Réunion, Reunion"
    },
    {
      "lat": -20.8652866087041,
      "lon": 55.48833907825082,
      "geoinfo": {
        "display_name": "Le Butor, Saint-Denis, Réunion, 97490, France",
        "road": null,
        "house_number": null,
        "neighbourhood": null,
        "suburb": "Le Butor",
        "city_district": null,
        "city": "Saint-Denis",
        "state": "Réunion",
        "postcode": "97490",
        "country": "France",
        "country_code": "fr"
      },
      "address": "Le Butor, Saint-Denis, Réunion, Reunion"
    },
    {
      "lat": -20.9016888615457,
      "lon": 55.46096314393361,
      "geoinfo": {
        "display_name": "Rue des Pailles en Queue, Saint-François, Saint-Denis, Réunion, 97488, France",
        "road": "Rue des Pailles en Queue",
        "house_number": null,
        "neighbourhood": null,
        "suburb": "Saint-François",
        "city_district": null,
        "city": "Saint-Denis",
        "state": "Réunion",
        "postcode": "97488",
        "country": "France",
        "country_code": "fr"
      },
      "address": "Rue des Pailles en Queue, Saint-Denis, Réunion, Reunion"
    },
    {
      "lat": -20.90643888089759,
      "lon": 55.44724703416082,
      "geoinfo": {
        "display_name": "Allée des Tourmalines, Bellepierre, Saint-Denis, Réunion, 97488, France",
        "road": "Allée des Tourmalines",
        "house_number": null,
        "neighbourhood": null,
        "suburb": "Bellepierre",
        "city_district": null,
        "city": "Saint-Denis",
        "state": "Réunion",
        "postcode": "97488",
        "country": "France",
        "country_code": "fr"
      },
      "address": "Allée des Tourmalines, Saint-Denis, Réunion, Reunion"
    },
    {
      "lat": -20.842973462639275,
      "lon": 55.43333140793599,
      "geoinfo": {
        "display_name": "Réunion, France",
        "road": null,
        "house_number": null,
        "neighbourhood": null,
        "suburb": null,
        "city_district": null,
        "city": null,
        "state": "Réunion",
        "postcode": null,
        "country": "France",
        "country_code": "fr"
      },
      "address": "Saint-Denis, Réunion, Reunion"
    },
    {
      "lat": -20.904253853885177,
      "lon": 55.44010553861194,
      "geoinfo": {
        "display_name": "Allée des Hemetites, Bellepierre, Saint-Denis, Réunion, 97400, France",
        "road": "Allée des Hemetites",
        "house_number": null,
        "neighbourhood": null,
        "suburb": "Bellepierre",
        "city_district": null,
        "city": "Saint-Denis",
        "state": "Réunion",
        "postcode": "97400",
        "country": "France",
        "country_code": "fr"
      },
      "address": "Allée des Hemetites, Saint-Denis, Réunion, Reunion"
    },
    {
      "lat": -20.90980464443365,
      "lon": 55.429689657706014,
      "geoinfo": {
        "display_name": "Le Bassin du Diable, Bellepierre, Saint-Denis, Réunion, 97417, France",
        "road": "Le Bassin du Diable",
        "house_number": null,
        "neighbourhood": null,
        "suburb": "Bellepierre",
        "city_district": null,
        "city": "Saint-Denis",
        "state": "Réunion",
        "postcode": "97417",
        "country": "France",
        "country_code": "fr"
      },
      "address": "Le Bassin du Diable, Saint-Denis, Réunion, Reunion"
    },
    {
      "lat": -20.863922246237415,
      "lon": 55.490624690368676,
      "geoinfo": {
        "display_name": "Le Butor, Saint-Denis, Réunion, 97490, France",
        "road": null,
        "house_number": null,
        "neighbourhood": null,
        "suburb": "Le Butor",
        "city_district": null,
        "city": "Saint-Denis",
        "state": "Réunion",
        "postcode": "97490",
        "country": "France",
        "country_code": "fr"
      },
      "address": "889, Le Butor, Saint-Denis, 97490 Réunion, Reunion"
    },
    {
      "lat": -20.917745276886567,
      "lon": 55.47025235325105,
      "geoinfo": {
        "display_name": "Allée des Violettes, Bois de Nèfles, Saint-Denis, Réunion, 97490, France",
        "road": "Allée des Violettes",
        "house_number": null,
        "neighbourhood": null,
        "suburb": null,
        "city_district": null,
        "city": "Saint-Denis",
        "state": "Réunion",
        "postcode": "97490",
        "country": "France",
        "country_code": "fr"
      },
      "address": "789, Allée des Violettes, Saint-Denis, 97490 Réunion, Reunion"
    },
    {
      "lat": -20.91023620216778,
      "lon": 55.45257271241013,
      "geoinfo": {
        "display_name": "Chemin de la glaciere, Saint-François, Saint-Denis, Réunion, 97488, France",
        "road": "Chemin de la glaciere",
        "house_number": null,
        "neighbourhood": null,
        "suburb": "Saint-François",
        "city_district": null,
        "city": "Saint-Denis",
        "state": "Réunion",
        "postcode": "97488",
        "country": "France",
        "country_code": "fr"
      },
      "address": "899, Chemin de la glaciere, Saint-Denis, 97488 Réunion, Reunion"
    },
    {
      "lat": -20.845102093816532,
      "lon": 55.46584145105059,
      "geoinfo": {
        "display_name": "Réunion, France",
        "road": null,
        "house_number": null,
        "neighbourhood": null,
        "suburb": null,
        "city_district": null,
        "city": null,
        "state": "Réunion",
        "postcode": null,
        "country": "France",
        "country_code": "fr"
      },
      "address": "143, Saint-Denis, 39668 Réunion, Reunion"
    },
    {
      "lat": -20.902662374687203,
      "lon": 55.469763155106406,
      "geoinfo": {
        "display_name": "Impasse des Girimbelles, Montgaillard, Saint-Denis, Réunion, 97488, France",
        "road": "Impasse des Girimbelles",
        "house_number": null,
        "neighbourhood": null,
        "suburb": "Montgaillard",
        "city_district": null,
        "city": "Saint-Denis",
        "state": "Réunion",
        "postcode": "97488",
        "country": "France",
        "country_code": "fr"
      },
      "address": "389, Impasse des Girimbelles, Saint-Denis, 97488 Réunion, Reunion"
    },
    {
      "lat": -20.864657847122253,
      "lon": 55.433941802959865,
      "geoinfo": {
        "display_name": "Place du 20 Décembre 1848, Saint-Jacques, Saint-Denis, Réunion, 97462, France",
        "road": null,
        "house_number": null,
        "neighbourhood": null,
        "suburb": "Saint-Jacques",
        "city_district": null,
        "city": "Saint-Denis",
        "state": "Réunion",
        "postcode": "97462",
        "country": "France",
        "country_code": "fr"
      },
      "address": "914, Saint-Jacques, Saint-Denis, 97462 Réunion, Reunion"
    },
    {
      "lat": -20.874485804039377,
      "lon": 55.471303653456715,
      "geoinfo": {
        "display_name": "Square Capagory, Saint-Jacques, Saint-Denis, Réunion, 97400, France",
        "road": null,
        "house_number": null,
        "neighbourhood": null,
        "suburb": "Saint-Jacques",
        "city_district": null,
        "city": "Saint-Denis",
        "state": "Réunion",
        "postcode": "97400",
        "country": "France",
        "country_code": "fr"
      },
      "address": "116, Saint-Jacques, Saint-Denis, 97400 Réunion, Reunion"
    },
    {
      "lat": -20.90064854390464,
      "lon": 55.43399352735252,
      "geoinfo": {
        "display_name": "Sentier du Colorado, Petite Île, La Montagne, Saint-Denis, Réunion, 97400, France",
        "road": "Sentier du Colorado",
        "house_number": null,
        "neighbourhood": null,
        "suburb": null,
        "city_district": null,
        "city": "Saint-Denis",
        "state": "Réunion",
        "postcode": "97400",
        "country": "France",
        "country_code": "fr"
      },
      "address": "934, Sentier du Colorado, Saint-Denis, 97400 Réunion, Reunion"
    }
  ],
  "updated_at": "2025-10-19T05:19:21.038396+00:00",
  "_kind": "geo_samples"
}