{
  "country_code": "RE",
  "country": "Reunion",
  "city": "Saint-Paul",
  "geonameid": 935221,
  "target_addresses": 8,
  "samples": [
    {
      "lat": -21.035645690950144,
      "lon": 55.238839494193826,
      "geoinfo": {
        "display_name": "Chemin de la Vanille, Nausicaa, Domaine D'Anjou, Boucan-Canot, Saint-Paul, Réunion, 97434, France",
        "road": "Chemin de la Vanille",
        "house_number": null,
        "neighbourhood": "Nausicaa",
        "suburb": "Domaine D'Anjou",
        "city_district": null,
        "city": "Saint-Paul",
        "state": "Réunion",
        "postcode": "97434",
        "country": "France",
        "country_code": "fr"
      },
      "address": "Chemin de la Vanille, Saint-Paul, Réunion, Reunion"
    },
    {
      "lat": -21.017747706943435,
      "lon": 55.24270223875405,
      "geoinfo": {
        "display_name": "Route des Plages, Boucan-Canot, Saint-Paul, Réunion, 97862, France",
        "road": "Route des Plages",
        "house_number": null,
        "neighbourhood": null,
        "suburb": null,
        "city_district": null,
        "city": "Saint-Paul",
        "state": "Réunion",
        "postcode": "97862",
        "country": "France",
        "country_code": "fr"
      },
      "address": "Route des Plages, Saint-Paul, Réunion, Reunion"
    },
    {
      "lat": -21.028994355870324,
      "lon": 55.25930763365806,
      "geoinfo": {
        "display_name": "Plateau Caillou, Saint-Paul, Réunion, 97460, France",
        "road": null,
        "house_number": null,
        "neighbourhood": null,
        "suburb": null,
        "city_district": null,
        "city": "Saint-Paul",
        "state": "Réunion",
        "postcode": "97460",
        "country": "France",
        "country_code": "fr"
      },
      "address": "Saint-Paul, Réunion, Reunion"
    },
    {
      "lat": -21.015860690177764,
      "lon": 55.27699997677432,
      "geoinfo": {
        "display_name": "Chemin de la Poudrière, La Grande Fontaine, Bois Rouge, Saint-Paul, Réunion, 97460, France",
        "road": "Chemin de la Poudrière",
        "house_number": null,
        "neighbourhood": null,
        "suburb": null,
        "city_district": null,
        "city": "Saint-Paul",
        "state": "Réunion",
        "postcode": "97460",
        "country": "France",
        "country_code": "fr"
      },
      "address": "Chemin de la Poudrière, Saint-Paul, Réunion, Reunion"
    },
    {
      "lat": -21.01209298104912,
      "lon": 55.29835848568282,
      "geoinfo": {
        "display_name": "Chemin Morel, Bellemène, Saint-Paul, Réunion, 97415, France",
        "road": "Chemin Morel",
        "house_number": null,
        "neighbourhood": null,
        "suburb": null,
        "city_district": null,
        "city": "Saint-Paul",
        "state": "Réunion",
        "postcode": "97415",
        "country": "France",
        "country_code": "fr"
      },
      "address": "Chemin Morel, Saint-Paul, Réunion, Reunion"
    },
    {
      "lat": -21.03581309425996,
      "lon": 55.289169693234726,
      "geoinfo": {
        "display_name": "Lycée privé Maison Blanche, Chemin Summer n°3, Bois Rouge, Saint-Paul, Réunion, 97415, France",
        "road": "Chemin Summer n°3",
        "house_number": null,
        "neighbourhood": null,
        "suburb": null,
        "city_district": null,
        "city": "Saint-Paul",
        "state": "Réunion",
        "postcode": "97415",
        "country": "France",
        "country_code": "fr"
      },
      "address": "Chemin Summer n°3, Saint-Paul, Réunion, Reunion"
    },
    {
      "lat": -21.038984942043015,
      "lon": 55.25994676757964,
      "geoinfo": {
        "display_name": "Chemin des Rameaux, L'Éperon, Village de l'Éperon, L'Éperon, Saint-Paul, Réunion, 97435, France",
        "road": "Chemin des Rameaux",
        "house_number": null,
        "neighbourhood": null,
        "suburb": null,
        "city_district": null,
        "city": "Saint-Paul",
        "state": "Réunion",
        "postcode": "97435",
        "country": "France",
        "country_code": "fr"
      },
      "address": "Chemin des Rameaux, Saint-Paul, Réunion, Reunion"
    },
    {
      "lat": -21.047182564652477,
      "lon": 55.26009922669675,
      "geoinfo": {
        "display_name": "2, Rue Jacques Aubert, Tamatave, Village de l'Éperon, Saint-Gilles-les-Hauts, Saint-Paul, Réunion, 97435, France",
        "road": "Rue Jacques Aubert",
        "house_number": "2",
        "neighbourhood": null,
        "suburb": null,
        "city_district": null,
        "city": "Saint-Paul",
        "state": "Réunion",
        "postcode": "97435",
        "country": "France",
        "country_code": "fr"
      },
      "address": "2 Rue Jacques Aubert, Saint-Paul, Réunion, Reunion"
    }
  ],
  "updated_at": "2025-10-16T21:46:29.491533+00:00",
  "_kind": "geo_samples"
}