{
  "country_code": "RE",
  "country": "Reunion",
  "city": "Saint-Louis",
  "geonameid": 935223,
  "target_addresses": 8,
  "samples": [
    {
      "lat": -21.29037188908262,
      "lon": 55.37071639095153,
      "geoinfo": {
        "display_name": "Le Lambert, L'Étang-Salé, Saint-Pierre, Réunion, 97427, France",
        "road": null,
        "house_number": null,
        "neighbourhood": null,
        "suburb": null,
        "city_district": null,
        "city": "L'Étang-Salé",
        "state": "Réunion",
        "postcode": "97427",
        "country": "France",
        "country_code": "fr"
      },
      "address": "Saint-Louis, Réunion, Reunion"
    },
    {
      "lat": -21.312982013709377,
      "lon": 55.42323852056462,
      "geoinfo": {
        "display_name": "Chemin Moulin, Saint-Pierre, Réunion, 97451, France",
        "road": "Chemin Moulin",
        "house_number": null,
        "neighbourhood": null,
        "suburb": null,
        "city_district": null,
        "city": "Saint-Pierre",
        "state": "Réunion",
        "postcode": "97451",
        "country": "France",
        "country_code": "fr"
      },
      "address": "Chemin Moulin, Saint-Louis, Réunion, Reunion"
    },
    {
      "lat": -21.266680863518314,
      "lon": 55.382541108084766,
      "geoinfo": {
        "display_name": "Chemin Maniron, Le Maniron, L'Étang-Salé, Saint-Pierre, Réunion, 97427, France",
        "road": "Chemin Maniron",
        "house_number": null,
        "neighbourhood": null,
        "suburb": null,
        "city_district": null,
        "city": "L'Étang-Salé",
        "state": "Réunion",
        "postcode": "97427",
        "country": "France",
        "country_code": "fr"
      },
      "address": "Chemin Maniron, Saint-Louis, Réunion, Reunion"
    },
    {
      "lat": -21.267607518648074,
      "lon": 55.37834125647242,
      "geoinfo": {
        "display_name": "Chemin du Cap, Le Lambert, L'Étang-Salé, Saint-Pierre, Réunion, 97427, France",
        "road": "Chemin du Cap",
        "house_number": null,
        "neighbourhood": null,
        "suburb": null,
        "city_district": null,
        "city": "L'Étang-Salé",
        "state": "Réunion",
        "postcode": "97427",
        "country": "France",
        "country_code": "fr"
      },
      "address": "Chemin du Cap, Saint-Louis, Réunion, Reunion"
    },
    {
      "lat": -21.271311095629315,
      "lon": 55.41650587453858,
      "geoinfo": {
        "display_name": "Rue Jean XXII, Plateau Goyaves, Saint-Louis, Saint-Pierre, Réunion, 97450, France",
        "road": "Rue Jean XXII",
        "house_number": null,
        "neighbourhood": null,
        "suburb": null,
        "city_district": null,
        "city": "Saint-Louis",
        "state": "Réunion",
        "postcode": "97450",
        "country": "France",
        "country_code": "fr"
      },
      "address": "Rue Jean XXII, Saint-Louis, Réunion, Reunion"
    },
    {
      "lat": -21.30323847550984,
      "lon": 55.4231957593781,
      "geoinfo": {
        "display_name": "Rue de Saint-Louis, Saint-Pierre, Réunion, 97451, France",
        "road": "Rue de Saint-Louis",
        "house_number": null,
        "neighbourhood": null,
        "suburb": null,
        "city_district": null,
        "city": "Saint-Pierre",
        "state": "Réunion",
        "postcode": "97451",
        "country": "France",
        "country_code": "fr"
      },
      "address": "Rue de Saint-Louis, Saint-Louis, Réunion, Reunion"
    },
    {
      "lat": -21.266716350394503,
      "lon": 55.43450759042766,
      "geoinfo": {
        "display_name": "Chemin de la Citrouille, La Rivière, Saint-Louis, Saint-Pierre, Réunion, 97421, France",
        "road": "Chemin de la Citrouille",
        "house_number": null,
        "neighbourhood": null,
        "suburb": null,
        "city_district": null,
        "city": "La Rivière",
        "state": "Réunion",
        "postcode": "97421",
        "country": "France",
        "country_code": "fr"
      },
      "address": "Chemin de la Citrouille, Saint-Louis, Réunion, Reunion"
    },
    {
      "lat": -21.274585181584296,
      "lon": 55.420762967957025,
      "geoinfo": {
        "display_name": "Rue Albertine Benard, Plateau Goyaves, Saint-Louis, Saint-Pierre, Réunion, 97450, France",
        "road": "Rue Albertine Benard",
        "house_number": null,
        "neighbourhood": null,
        "suburb": null,
        "city_district": null,
        "city": "Saint-Louis",
        "state": "Réunion",
        "postcode": "97450",
        "country": "France",
        "country_code": "fr"
      },
      "address": "Rue Albertine Benard, Saint-Louis, Réunion, Reunion"
    },
    {
      "lat": -21.251180246468316,
      "lon": 55.43367609251272,
      "geoinfo": {
        "display_name": "Allée de Parny, La Rivière, Saint-Louis, Saint-Pierre, Réunion, 97421, France",
        "road": "Allée de Parny",
        "house_number": null,
        "neighbourhood": null,
        "suburb": null,
        "city_district": null,
        "city": "La Rivière",
        "state": "Réunion",
        "postcode": "97421",
        "country": "France",
        "country_code": "fr"
      },
      "address": "119, Allée de Parny, Saint-Louis, 97421 Réunion, Reunion"
    },
    {
      "lat": -21.302219148292302,
      "lon": 55.40321795486533,
      "geoinfo": {
        "display_name": "Plateau Goyaves, Saint-Louis, Saint-Pierre, Réunion, 97450, France",
        "road": null,
        "house_number": null,
        "neighbourhood": null,
        "suburb": null,
        "city_district": null,
        "city": "Saint-Louis",
        "state": "Réunion",
        "postcode": "97450",
        "country": "France",
        "country_code": "fr"
      },
      "address": "260, Saint-Louis, 97450 Réunion, Reunion"
    },
    {
      "lat": -21.253631984281398,
      "lon": 55.41806647863795,
      "geoinfo": {
        "display_name": "Église Sainte-Thérèse, Impasse des Galaberts, La Rivière, Saint-Louis, Saint-Pierre, Réunion, 97421, France",
        "road": "Impasse des Galaberts",
        "house_number": null,
        "neighbourhood": null,
        "suburb": null,
        "city_district": null,
        "city": "La Rivière",
        "state": "Réunion",
        "postcode": "97421",
        "country": "France",
        "country_code": "fr"
      },
      "address": "139, Impasse des Galaberts, Saint-Louis, 97421 Réunion, Reunion"
    },
    {
      "lat": -21.292224108121026,
      "lon": 55.41028190898248,
      "geoinfo": {
        "display_name": "N 1, Saint-Louis, Saint-Pierre, Réunion, 97450, France",
        "road": "N 1",
        "house_number": null,
        "neighbourhood": null,
        "suburb": null,
        "city_district": null,
        "city": "Saint-Louis",
        "state": "Réunion",
        "postcode": "97450",
        "country": "France",
        "country_code": "fr"
      },
      "address": "N 1, Saint-Louis, 97450 Réunion, Reunion"
    },
    {
      "lat": -21.288190340765723,
      "lon": 55.40704063672215,
      "geoinfo": {
        "display_name": "Rue Joseph Bédier, Plateau Goyaves, Saint-Louis, Saint-Pierre, Réunion, 97450, France",
        "road": "Rue Joseph Bédier",
        "house_number": null,
        "neighbourhood": null,
        "suburb": null,
        "city_district": null,
        "city": "Saint-Louis",
        "state": "Réunion",
        "postcode": "97450",
        "country": "France",
        "country_code": "fr"
      },
      "address": "404, Rue Joseph Bédier, Saint-Louis, 97450 Réunion, Reunion"
    },
    {
      "lat": -21.264336129571934,
      "lon": 55.414380915469415,
      "geoinfo": {
        "display_name": "Chemin Adam, La Rivière, Saint-Louis, Saint-Pierre, Réunion, 97450, France",
        "road": "Chemin Adam",
        "house_number": null,
        "neighbourhood": null,
        "suburb": null,
        "city_district": null,
        "city": "La Rivière",
        "state": "Réunion",
        "postcode": "97450",
        "country": "France",
        "country_code": "fr"
      },
      "address": "261, Chemin Adam, Saint-Louis, 97450 Réunion, Reunion"
    },
    {
      "lat": -21.272664185399965,
      "lon": 55.41946174735763,
      "geoinfo": {
        "display_name": "Plateau Goyaves, Saint-Louis, Saint-Pierre, Réunion, 97450, France",
        "road": null,
        "house_number": null,
        "neighbourhood": null,
        "suburb": null,
        "city_district": null,
        "city": "Saint-Louis",
        "state": "Réunion",
        "postcode": "97450",
        "country": "France",
        "country_code": "fr"
      },
      "address": "513, Saint-Louis, 97450 Réunion, Reunion"
    },
    {
      "lat": -21.30106305540075,
      "lon": 55.38295248556615,
      "geoinfo": {
        "display_name": "La Rivière, Saint-Louis, Saint-Pierre, Réunion, 97421, France",
        "road": null,
        "house_number": null,
        "neighbourhood": null,
        "suburb": null,
        "city_district": null,
        "city": "La Rivière",
        "state": "Réunion",
        "postcode": "97421",
        "country": "France",
        "country_code": "fr"
      },
      "address": "708, Saint-Louis, 97421 Réunion, Reunion"
    }
  ],
  "updated_at": "2025-10-19T04:29:09.275146+00:00",
  "_kind": "geo_samples"
}