{
  "country_code": "CG",
  "country": "Republic of the Congo",
  "city": "Nkayi",
  "geonameid": 8521334,
  "target_addresses": 5,
  "samples": [
    {
      "lat": -4.19877090283214,
      "lon": 13.253553919811669,
      "geoinfo": {
        "display_name": "Avenue Blandine Mpembe, Quartier Capable, Nkayi, Bouenza Department, Congo-Brazzaville",
        "road": "Avenue Blandine Mpembe",
        "house_number": null,
        "neighbourhood": null,
        "suburb": null,
        "city_district": null,
        "city": "Nkayi",
        "state": "Bouenza Department",
        "postcode": null,
        "country": "Congo-Brazzaville",
        "country_code": "cg"
      },
      "address": "Avenue Blandine Mpembe, Nkayi, Bouenza Department, Republic of the Congo"
    },
    {
      "lat": -4.200901802069011,
      "lon": 13.324166338286306,
      "geoinfo": {
        "display_name": "Dakar, Nkayi, Bouenza Department, Congo-Brazzaville",
        "road": null,
        "house_number": null,
        "neighbourhood": null,
        "suburb": null,
        "city_district": null,
        "city": "Nkayi",
        "state": "Bouenza Department",
        "postcode": null,
        "country": "Congo-Brazzaville",
        "country_code": "cg"
      },
      "address": "Nkayi, Bouenza Department, Republic of the Congo"
    },
    {
      "lat": -4.191959751208093,
      "lon": 13.292950689489192,
      "geoinfo": {
        "display_name": "Rue Nsémi Benjamin, Nkayi, Bouenza Department, Congo-Brazzaville",
        "road": "Rue Nsémi Benjamin",
        "house_number": null,
        "neighbourhood": null,
        "suburb": null,
        "city_district": null,
        "city": "Nkayi",
        "state": "Bouenza Department",
        "postcode": null,
        "country": "Congo-Brazzaville",
        "country_code": "cg"
      },
      "address": "Rue Nsémi Benjamin, Nkayi, Bouenza Department, Republic of the Congo"
    },
    {
      "lat": -4.171319316389409,
      "lon": 13.28911659201798,
      "geoinfo": {
        "display_name": "RN 1, Kayes, Nkayi, Bouenza Department, Congo-Brazzaville",
        "road": "RN 1",
        "house_number": null,
        "neighbourhood": null,
        "suburb": null,
        "city_district": null,
        "city": "Kayes",
        "state": "Bouenza Department",
        "postcode": null,
        "country": "Congo-Brazzaville",
        "country_code": "cg"
      },
      "address": "RN 1, Nkayi, Bouenza Department, Republic of the Congo"
    },
    {
      "lat": -4.182473868313879,
      "lon": 13.293833978908038,
      "geoinfo": {
        "display_name": "Avenue du 31 Juillet, Nkayi, Bouenza Department, Congo-Brazzaville",
        "road": "Avenue du 31 Juillet",
        "house_number": null,
        "neighbourhood": null,
        "suburb": null,
        "city_district": null,
        "city": "Nkayi",
        "state": "Bouenza Department",
        "postcode": null,
        "country": "Congo-Brazzaville",
        "country_code": "cg"
      },
      "address": "Avenue du 31 Juillet, Nkayi, Bouenza Department, Republic of the Congo"
    },
    {
      "lat": -4.1878264705310935,
      "lon": 13.273084685789827,
      "geoinfo": {
        "display_name": "Nkayi, Bouenza Department, Congo-Brazzaville",
        "road": null,
        "house_number": null,
        "neighbourhood": null,
        "suburb": null,
        "city_district": null,
        "city": "Nkayi",
        "state": "Bouenza Department",
        "postcode": null,
        "country": "Congo-Brazzaville",
        "country_code": "cg"
      },
      "address": "048, Nkayi, 73249 Bouenza Department, Republic of the Congo"
    },
    {
      "lat": -4.21533119774018,
      "lon": 13.295584988148283,
      "geoinfo": {
        "display_name": "Nkayi, Bouenza Department, Congo-Brazzaville",
        "road": null,
        "house_number": null,
        "neighbourhood": null,
        "suburb": null,
        "city_district": null,
        "city": "Nkayi",
        "state": "Bouenza Department",
        "postcode": null,
        "country": "Congo-Brazzaville",
        "country_code": "cg"
      },
      "address": "036, Nkayi, 62205 Bouenza Department, Republic of the Congo"
    },
    {
      "lat": -4.141097119764313,
      "lon": 13.291140332406483,
      "geoinfo": {
        "display_name": "Kayes, Nkayi, Bouenza Department, Congo-Brazzaville",
        "road": null,
        "house_number": null,
        "neighbourhood": null,
        "suburb": null,
        "city_district": null,
        "city": "Kayes",
        "state": "Bouenza Department",
        "postcode": null,
        "country": "Congo-Brazzaville",
        "country_code": "cg"
      },
      "address": "959, Nkayi, 02489 Bouenza Department, Republic of the Congo"
    },
    {
      "lat": -4.193890009176171,
      "lon": 13.303800826110928,
      "geoinfo": {
        "display_name": "Rue Boueni Mboungou, Nkayi, Bouenza Department, Congo-Brazzaville",
        "road": "Rue Boueni Mboungou",
        "house_number": null,
        "neighbourhood": null,
        "suburb": null,
        "city_district": null,
        "city": "Nkayi",
        "state": "Bouenza Department",
        "postcode": null,
        "country": "Congo-Brazzaville",
        "country_code": "cg"
      },
      "address": "124, Rue Boueni Mboungou, Nkayi, 75142 Bouenza Department, Republic of the Congo"
    },
    {
      "lat": -4.180475893958048,
      "lon": 13.244337319789373,
      "geoinfo": {
        "display_name": "Nkayi, Bouenza Department, Congo-Brazzaville",
        "road": null,
        "house_number": null,
        "neighbourhood": null,
        "suburb": null,
        "city_district": null,
        "city": "Nkayi",
        "state": "Bouenza Department",
        "postcode": null,
        "country": "Congo-Brazzaville",
        "country_code": "cg"
      },
      "address": "493, Nkayi, 09919 Bouenza Department, Republic of the Congo"
    }
  ],
  "updated_at": "2025-10-19T01:43:17.966825+00:00",
  "_kind": "geo_samples"
}