{
  "country_code": "CG",
  "country": "Republic of the Congo",
  "city": "Oyo",
  "geonameid": 2569660,
  "target_addresses": 29,
  "samples": [
    {
      "lat": -1.1415839443488756,
      "lon": 15.97397983319251,
      "geoinfo": {
        "display_name": "Hôpital Général Edith Lucie Bongo Ondimba, RN 2, Olenga, Obouya, Owando, Cuvette Department, Congo-Brazzaville",
        "road": "RN 2",
        "house_number": null,
        "neighbourhood": null,
        "suburb": null,
        "city_district": null,
        "city": "Obouya",
        "state": "Cuvette Department",
        "postcode": null,
        "country": "Congo-Brazzaville",
        "country_code": "cg"
      },
      "address": "RN 2, Oyo, Cuvette Department, Republic of the Congo"
    },
    {
      "lat": -1.1302092351026731,
      "lon": 15.968280330562964,
      "geoinfo": {
        "display_name": "Edou, Owando, Cuvette Department, Congo-Brazzaville",
        "road": null,
        "house_number": null,
        "neighbourhood": null,
        "suburb": null,
        "city_district": null,
        "city": "Edou",
        "state": "Cuvette Department",
        "postcode": null,
        "country": "Congo-Brazzaville",
        "country_code": "cg"
      },
      "address": "Oyo, Cuvette Department, Republic of the Congo"
    },
    {
      "lat": -1.1359231322782484,
      "lon": 15.951350886383484,
      "geoinfo": {
        "display_name": "Edou, Owando, Cuvette Department, Congo-Brazzaville",
        "road": null,
        "house_number": null,
        "neighbourhood": null,
        "suburb": null,
        "city_district": null,
        "city": "Edou",
        "state": "Cuvette Department",
        "postcode": null,
        "country": "Congo-Brazzaville",
        "country_code": "cg"
      },
      "address": "Oyo, 82201 Cuvette Department, Republic of the Congo"
    },
    {
      "lat": -1.1522597020637886,
      "lon": 15.98315023485395,
      "geoinfo": {
        "display_name": "Oyo, Owando, Cuvette Department, Congo-Brazzaville",
        "road": null,
        "house_number": null,
        "neighbourhood": null,
        "suburb": null,
        "city_district": null,
        "city": "Oyo",
        "state": "Cuvette Department",
        "postcode": null,
        "country": "Congo-Brazzaville",
        "country_code": "cg"
      },
      "address": "Oyo, 00033 Cuvette Department, Republic of the Congo"
    },
    {
      "lat": -1.1774627725863964,
      "lon": 15.976539227157016,
      "geoinfo": {
        "display_name": "Oyo, Owando, Cuvette Department, Congo-Brazzaville",
        "road": null,
        "house_number": null,
        "neighbourhood": null,
        "suburb": null,
        "city_district": null,
        "city": "Oyo",
        "state": "Cuvette Department",
        "postcode": null,
        "country": "Congo-Brazzaville",
        "country_code": "cg"
      },
      "address": "Oyo, 41155 Cuvette Department, Republic of the Congo"
    },
    {
      "lat": -1.1547868251600508,
      "lon": 15.998663005380875,
      "geoinfo": {
        "display_name": "Edou, Owando, Cuvette Department, Congo-Brazzaville",
        "road": null,
        "house_number": null,
        "neighbourhood": null,
        "suburb": null,
        "city_district": null,
        "city": "Edou",
        "state": "Cuvette Department",
        "postcode": null,
        "country": "Congo-Brazzaville",
        "country_code": "cg"
      },
      "address": "Oyo, 91127 Cuvette Department, Republic of the Congo"
    },
    {
      "lat": -1.1963387000648162,
      "lon": 15.983207911851308,
      "geoinfo": {
        "display_name": "Oyo, Owando, Cuvette Department, Congo-Brazzaville",
        "road": null,
        "house_number": null,
        "neighbourhood": null,
        "suburb": null,
        "city_district": null,
        "city": "Oyo",
        "state": "Cuvette Department",
        "postcode": null,
        "country": "Congo-Brazzaville",
        "country_code": "cg"
      },
      "address": "Oyo, 71661 Cuvette Department, Republic of the Congo"
    },
    {
      "lat": -1.1648369734170263,
      "lon": 15.974713178306818,
      "geoinfo": {
        "display_name": "Oyo, Owando, Cuvette Department, Congo-Brazzaville",
        "road": null,
        "house_number": null,
        "neighbourhood": null,
        "suburb": null,
        "city_district": null,
        "city": "Oyo",
        "state": "Cuvette Department",
        "postcode": null,
        "country": "Congo-Brazzaville",
        "country_code": "cg"
      },
      "address": "Oyo, 84706 Cuvette Department, Republic of the Congo"
    },
    {
      "lat": -1.1794005871790039,
      "lon": 15.982102192053109,
      "geoinfo": {
        "display_name": "Oyo, Owando, Cuvette Department, Congo-Brazzaville",
        "road": null,
        "house_number": null,
        "neighbourhood": null,
        "suburb": null,
        "city_district": null,
        "city": "Oyo",
        "state": "Cuvette Department",
        "postcode": null,
        "country": "Congo-Brazzaville",
        "country_code": "cg"
      },
      "address": "Oyo, 49286 Cuvette Department, Republic of the Congo"
    },
    {
      "lat": -1.1551147755094902,
      "lon": 15.972974685007069,
      "geoinfo": {
        "display_name": "RN 2, Olenga, Obouya, Owando, Cuvette Department, Congo-Brazzaville",
        "road": "RN 2",
        "house_number": null,
        "neighbourhood": null,
        "suburb": null,
        "city_district": null,
        "city": "Obouya",
        "state": "Cuvette Department",
        "postcode": null,
        "country": "Congo-Brazzaville",
        "country_code": "cg"
      },
      "address": "RN 2, Oyo, 47000 Cuvette Department, Republic of the Congo"
    },
    {
      "lat": -1.1662100907153565,
      "lon": 15.968415988466248,
      "geoinfo": {
        "display_name": "Oyo, Owando, Cuvette Department, Congo-Brazzaville",
        "road": null,
        "house_number": null,
        "neighbourhood": null,
        "suburb": null,
        "city_district": null,
        "city": "Oyo",
        "state": "Cuvette Department",
        "postcode": null,
        "country": "Congo-Brazzaville",
        "country_code": "cg"
      },
      "address": "771, Oyo, 99732 Cuvette Department, Republic of the Congo"
    },
    {
      "lat": -1.1711880736930995,
      "lon": 15.975954860689333,
      "geoinfo": {
        "display_name": "Oyo, Owando, Cuvette Department, Congo-Brazzaville",
        "road": null,
        "house_number": null,
        "neighbourhood": null,
        "suburb": null,
        "city_district": null,
        "city": "Oyo",
        "state": "Cuvette Department",
        "postcode": null,
        "country": "Congo-Brazzaville",
        "country_code": "cg"
      },
      "address": "197, Oyo, 84075 Cuvette Department, Republic of the Congo"
    },
    {
      "lat": -1.1284413322257276,
      "lon": 15.977777128848933,
      "geoinfo": {
        "display_name": "RN 2, Olenga, Obouya, Owando, Cuvette Department, Congo-Brazzaville",
        "road": "RN 2",
        "house_number": null,
        "neighbourhood": null,
        "suburb": null,
        "city_district": null,
        "city": "Obouya",
        "state": "Cuvette Department",
        "postcode": null,
        "country": "Congo-Brazzaville",
        "country_code": "cg"
      },
      "address": "RN 2, Oyo, 14697 Cuvette Department, Republic of the Congo"
    },
    {
      "lat": -1.1424880771779131,
      "lon": 15.956264965363395,
      "geoinfo": {
        "display_name": "Oyo, Owando, Cuvette Department, Congo-Brazzaville",
        "road": null,
        "house_number": null,
        "neighbourhood": null,
        "suburb": null,
        "city_district": null,
        "city": "Oyo",
        "state": "Cuvette Department",
        "postcode": null,
        "country": "Congo-Brazzaville",
        "country_code": "cg"
      },
      "address": "810, Oyo, 88063 Cuvette Department, Republic of the Congo"
    },
    {
      "lat": -1.170687925028124,
      "lon": 16.003277183958026,
      "geoinfo": {
        "display_name": "Owando, Cuvette Department, Congo-Brazzaville",
        "road": null,
        "house_number": null,
        "neighbourhood": null,
        "suburb": null,
        "city_district": null,
        "city": null,
        "state": "Cuvette Department",
        "postcode": null,
        "country": "Congo-Brazzaville",
        "country_code": "cg"
      },
      "address": "650, Oyo, 24455 Cuvette Department, Republic of the Congo"
    },
    {
      "lat": -1.1259901326601673,
      "lon": 15.979740112068505,
      "geoinfo": {
        "display_name": "Edou, Owando, Cuvette Department, Congo-Brazzaville",
        "road": null,
        "house_number": null,
        "neighbourhood": null,
        "suburb": null,
        "city_district": null,
        "city": "Edou",
        "state": "Cuvette Department",
        "postcode": null,
        "country": "Congo-Brazzaville",
        "country_code": "cg"
      },
      "address": "151, Oyo, 19529 Cuvette Department, Republic of the Congo"
    },
    {
      "lat": -1.1319803725912305,
      "lon": 15.94421894460003,
      "geoinfo": {
        "display_name": "Edou, Owando, Cuvette Department, Congo-Brazzaville",
        "road": null,
        "house_number": null,
        "neighbourhood": null,
        "suburb": null,
        "city_district": null,
        "city": "Edou",
        "state": "Cuvette Department",
        "postcode": null,
        "country": "Congo-Brazzaville",
        "country_code": "cg"
      },
      "address": "250, Oyo, 75034 Cuvette Department, Republic of the Congo"
    },
    {
      "lat": -1.1282289679503594,
      "lon": 15.968176366461478,
      "geoinfo": {
        "display_name": "Lycée d'Excellence de Oyo, RN 2, Olenga, Obouya, Owando, Cuvette Department, Congo-Brazzaville",
        "road": "RN 2",
        "house_number": null,
        "neighbourhood": null,
        "suburb": null,
        "city_district": null,
        "city": "Obouya",
        "state": "Cuvette Department",
        "postcode": null,
        "country": "Congo-Brazzaville",
        "country_code": "cg"
      },
      "address": "RN 2, Oyo, 41383 Cuvette Department, Republic of the Congo"
    },
    {
      "lat": -1.1500061221038809,
      "lon": 15.968942003477324,
      "geoinfo": {
        "display_name": "Oyo, Owando, Cuvette Department, Congo-Brazzaville",
        "road": null,
        "house_number": null,
        "neighbourhood": null,
        "suburb": null,
        "city_district": null,
        "city": "Oyo",
        "state": "Cuvette Department",
        "postcode": null,
        "country": "Congo-Brazzaville",
        "country_code": "cg"
      },
      "address": "386, Oyo, 82875 Cuvette Department, Republic of the Congo"
    },
    {
      "lat": -1.1294164811454392,
      "lon": 15.96176997874394,
      "geoinfo": {
        "display_name": "RN 2, Olenga, Obouya, Owando, Cuvette Department, Congo-Brazzaville",
        "road": "RN 2",
        "house_number": null,
        "neighbourhood": null,
        "suburb": null,
        "city_district": null,
        "city": "Obouya",
        "state": "Cuvette Department",
        "postcode": null,
        "country": "Congo-Brazzaville",
        "country_code": "cg"
      },
      "address": "RN 2, Oyo, 76107 Cuvette Department, Republic of the Congo"
    },
    {
      "lat": -1.1548310966723823,
      "lon": 15.995382676187853,
      "geoinfo": {
        "display_name": "Oyo, Owando, Cuvette Department, Congo-Brazzaville",
        "road": null,
        "house_number": null,
        "neighbourhood": null,
        "suburb": null,
        "city_district": null,
        "city": "Oyo",
        "state": "Cuvette Department",
        "postcode": null,
        "country": "Congo-Brazzaville",
        "country_code": "cg"
      },
      "address": "154, Oyo, 68084 Cuvette Department, Republic of the Congo"
    },
    {
      "lat": -1.1873726010754069,
      "lon": 15.972442860931446,
      "geoinfo": {
        "display_name": "Oyo, Owando, Cuvette Department, Congo-Brazzaville",
        "road": null,
        "house_number": null,
        "neighbourhood": null,
        "suburb": null,
        "city_district": null,
        "city": "Oyo",
        "state": "Cuvette Department",
        "postcode": null,
        "country": "Congo-Brazzaville",
        "country_code": "cg"
      },
      "address": "547, Oyo, 44907 Cuvette Department, Republic of the Congo"
    },
    {
      "lat": -1.1653107388450692,
      "lon": 16.00246632784746,
      "geoinfo": {
        "display_name": "Edou, Owando, Cuvette Department, Congo-Brazzaville",
        "road": null,
        "house_number": null,
        "neighbourhood": null,
        "suburb": null,
        "city_district": null,
        "city": "Edou",
        "state": "Cuvette Department",
        "postcode": null,
        "country": "Congo-Brazzaville",
        "country_code": "cg"
      },
      "address": "061, Oyo, 31853 Cuvette Department, Republic of the Congo"
    },
    {
      "lat": -1.1369624685352921,
      "lon": 15.93801084727209,
      "geoinfo": {
        "display_name": "Edou, Owando, Cuvette Department, Congo-Brazzaville",
        "road": null,
        "house_number": null,
        "neighbourhood": null,
        "suburb": null,
        "city_district": null,
        "city": "Edou",
        "state": "Cuvette Department",
        "postcode": null,
        "country": "Congo-Brazzaville",
        "country_code": "cg"
      },
      "address": "607, Oyo, 39274 Cuvette Department, Republic of the Congo"
    },
    {
      "lat": -1.129580543966848,
      "lon": 15.967416417268632,
      "geoinfo": {
        "display_name": "Edou, Owando, Cuvette Department, Congo-Brazzaville",
        "road": null,
        "house_number": null,
        "neighbourhood": null,
        "suburb": null,
        "city_district": null,
        "city": "Edou",
        "state": "Cuvette Department",
        "postcode": null,
        "country": "Congo-Brazzaville",
        "country_code": "cg"
      },
      "address": "888, Oyo, 60351 Cuvette Department, Republic of the Congo"
    },
    {
      "lat": -1.133377467885089,
      "lon": 15.979461606420426,
      "geoinfo": {
        "display_name": "Edou, Owando, Cuvette Department, Congo-Brazzaville",
        "road": null,
        "house_number": null,
        "neighbourhood": null,
        "suburb": null,
        "city_district": null,
        "city": "Edou",
        "state": "Cuvette Department",
        "postcode": null,
        "country": "Congo-Brazzaville",
        "country_code": "cg"
      },
      "address": "341, Oyo, 67969 Cuvette Department, Republic of the Congo"
    },
    {
      "lat": -1.1627196276736338,
      "lon": 15.975505419910691,
      "geoinfo": {
        "display_name": "Oyo, Owando, Cuvette Department, Congo-Brazzaville",
        "road": null,
        "house_number": null,
        "neighbourhood": null,
        "suburb": null,
        "city_district": null,
        "city": "Oyo",
        "state": "Cuvette Department",
        "postcode": null,
        "country": "Congo-Brazzaville",
        "country_code": "cg"
      },
      "address": "840, Oyo, 72191 Cuvette Department, Republic of the Congo"
    },
    {
      "lat": -1.1612624242849678,
      "lon": 16.00212201218192,
      "geoinfo": {
        "display_name": "Edou, Owando, Cuvette Department, Congo-Brazzaville",
        "road": null,
        "house_number": null,
        "neighbourhood": null,
        "suburb": null,
        "city_district": null,
        "city": "Edou",
        "state": "Cuvette Department",
        "postcode": null,
        "country": "Congo-Brazzaville",
        "country_code": "cg"
      },
      "address": "562, Oyo, 02169 Cuvette Department, Republic of the Congo"
    },
    {
      "lat": -1.1465892077941133,
      "lon": 15.985512874235669,
      "geoinfo": {
        "display_name": "Oyo, Owando, Cuvette Department, Congo-Brazzaville",
        "road": null,
        "house_number": null,
        "neighbourhood": null,
        "suburb": null,
        "city_district": null,
        "city": "Oyo",
        "state": "Cuvette Department",
        "postcode": null,
        "country": "Congo-Brazzaville",
        "country_code": "cg"
      },
      "address": "958, Oyo, 36590 Cuvette Department, Republic of the Congo"
    }
  ],
  "updated_at": "2025-10-19T03:43:21.605469+00:00",
  "_kind": "geo_samples"
}