{
  "country_code": "CG",
  "country": "Republic of the Congo",
  "city": "Pointe-Noire",
  "geonameid": 2255414,
  "target_addresses": 5,
  "samples": [
    {
      "lat": -4.791042605684585,
      "lon": 11.881742872984054,
      "geoinfo": {
        "display_name": "Camp SIC Tié-Ttié, Tié-Tié (arrondissement 3), Pointe-Noire (commune), Pointe-Noire (département), Congo-Brazzaville",
        "road": null,
        "house_number": null,
        "neighbourhood": null,
        "suburb": "Camp SIC Tié-Ttié",
        "city_district": null,
        "city": null,
        "state": "Pointe-Noire (département)",
        "postcode": null,
        "country": "Congo-Brazzaville",
        "country_code": "cg"
      },
      "address": "Camp SIC Tié-Ttié, Pointe-Noire, Pointe-Noire (département), Republic of the Congo"
    },
    {
      "lat": -4.744193002281708,
      "lon": 11.875101609412097,
      "geoinfo": {
        "display_name": "Rue Bouar, Tchiali, Mongo-Mpoukou (arrondissement 5), Pointe-Noire (commune), Pointe-Noire (département), Congo-Brazzaville",
        "road": "Rue Bouar",
        "house_number": null,
        "neighbourhood": null,
        "suburb": "Tchiali",
        "city_district": null,
        "city": null,
        "state": "Pointe-Noire (département)",
        "postcode": null,
        "country": "Congo-Brazzaville",
        "country_code": "cg"
      },
      "address": "Rue Bouar, Pointe-Noire, Pointe-Noire (département), Republic of the Congo"
    },
    {
      "lat": -4.774921081067404,
      "lon": 11.855881619941483,
      "geoinfo": {
        "display_name": "Avenue du Havre, Mvou-Mvou (arrondissement 2), Pointe-Noire (commune), Pointe-Noire (département), Congo-Brazzaville",
        "road": "Avenue du Havre",
        "house_number": null,
        "neighbourhood": null,
        "suburb": null,
        "city_district": null,
        "city": null,
        "state": "Pointe-Noire (département)",
        "postcode": null,
        "country": "Congo-Brazzaville",
        "country_code": "cg"
      },
      "address": "Avenue du Havre, Pointe-Noire, Pointe-Noire (département), Republic of the Congo"
    },
    {
      "lat": -4.755436560638583,
      "lon": 11.867811701993544,
      "geoinfo": {
        "display_name": "Tchinimina, Mongo-Mpoukou (arrondissement 5), Pointe-Noire (commune), Pointe-Noire (département), Congo-Brazzaville",
        "road": null,
        "house_number": null,
        "neighbourhood": null,
        "suburb": "Tchinimina",
        "city_district": null,
        "city": null,
        "state": "Pointe-Noire (département)",
        "postcode": null,
        "country": "Congo-Brazzaville",
        "country_code": "cg"
      },
      "address": "Tchinimina, Pointe-Noire, Pointe-Noire (département), Republic of the Congo"
    },
    {
      "lat": -4.763542780811292,
      "lon": 11.90600157973888,
      "geoinfo": {
        "display_name": "Rue Mpombo, Mbota, Loandjili (arrondissement 4), Pointe-Noire (commune), Pointe-Noire (département), Congo-Brazzaville",
        "road": "Rue Mpombo",
        "house_number": null,
        "neighbourhood": null,
        "suburb": "Mbota",
        "city_district": null,
        "city": null,
        "state": "Pointe-Noire (département)",
        "postcode": null,
        "country": "Congo-Brazzaville",
        "country_code": "cg"
      },
      "address": "Rue Mpombo, Pointe-Noire, Pointe-Noire (département), Republic of the Congo"
    },
    {
      "lat": -4.7493374878320695,
      "lon": 11.841463657361105,
      "geoinfo": {
        "display_name": "Songolo, Mongo-Mpoukou (arrondissement 5), Pointe-Noire (commune), Pointe-Noire (département), Congo-Brazzaville",
        "road": null,
        "house_number": null,
        "neighbourhood": null,
        "suburb": "Songolo",
        "city_district": null,
        "city": null,
        "state": "Pointe-Noire (département)",
        "postcode": null,
        "country": "Congo-Brazzaville",
        "country_code": "cg"
      },
      "address": "400, Songolo, Pointe-Noire, 08634 Pointe-Noire (département), Republic of the Congo"
    },
    {
      "lat": -4.7620162522688,
      "lon": 11.89067577957807,
      "geoinfo": {
        "display_name": "Nkouikou, Mongo-Mpoukou (arrondissement 5), Pointe-Noire (commune), Pointe-Noire (département), Congo-Brazzaville",
        "road": null,
        "house_number": null,
        "neighbourhood": null,
        "suburb": "Nkouikou",
        "city_district": null,
        "city": null,
        "state": "Pointe-Noire (département)",
        "postcode": null,
        "country": "Congo-Brazzaville",
        "country_code": "cg"
      },
      "address": "350, Nkouikou, Pointe-Noire, 86387 Pointe-Noire (département), Republic of the Congo"
    },
    {
      "lat": -4.782168025268616,
      "lon": 11.89853045885042,
      "geoinfo": {
        "display_name": "Mbota, Loandjili (arrondissement 4), Pointe-Noire (commune), Pointe-Noire (département), Congo-Brazzaville",
        "road": null,
        "house_number": null,
        "neighbourhood": null,
        "suburb": "Mbota",
        "city_district": null,
        "city": null,
        "state": "Pointe-Noire (département)",
        "postcode": null,
        "country": "Congo-Brazzaville",
        "country_code": "cg"
      },
      "address": "713, Mbota, Pointe-Noire, 13705 Pointe-Noire (département), Republic of the Congo"
    },
    {
      "lat": -4.7755953058655,
      "lon": 11.823323218053543,
      "geoinfo": {
        "display_name": "Avenue Félix Eboué, Djinji, Pointe-Noire, Lumumba (arrondissement 1), Pointe-Noire (commune), Pointe-Noire (département), Congo-Brazzaville",
        "road": "Avenue Félix Eboué",
        "house_number": null,
        "neighbourhood": null,
        "suburb": "Djinji",
        "city_district": null,
        "city": "Pointe-Noire",
        "state": "Pointe-Noire (département)",
        "postcode": null,
        "country": "Congo-Brazzaville",
        "country_code": "cg"
      },
      "address": "581, Avenue Félix Eboué, Pointe-Noire, 85491 Pointe-Noire (département), Republic of the Congo"
    },
    {
      "lat": -4.775931107334537,
      "lon": 11.860890064472214,
      "geoinfo": {
        "display_name": "Mvou-Mvou (arrondissement 2), Pointe-Noire (commune), Pointe-Noire (département), Congo-Brazzaville",
        "road": null,
        "house_number": null,
        "neighbourhood": null,
        "suburb": null,
        "city_district": null,
        "city": null,
        "state": "Pointe-Noire (département)",
        "postcode": null,
        "country": "Congo-Brazzaville",
        "country_code": "cg"
      },
      "address": "080, Pointe-Noire, 16149 Pointe-Noire (département), Republic of the Congo"
    }
  ],
  "updated_at": "2025-10-19T01:41:31.425801+00:00",
  "_kind": "geo_samples"
}