{
  "country_code": "CG",
  "country": "Republic of the Congo",
  "city": "Pokola",
  "geonameid": 2565574,
  "target_addresses": 5,
  "samples": [
    {
      "lat": 1.4305488729585623,
      "lon": 16.333904443094173,
      "geoinfo": {
        "display_name": "Pokola, District de Kabo, Sangha, Congo-Brazzaville",
        "road": null,
        "house_number": null,
        "neighbourhood": null,
        "suburb": null,
        "city_district": null,
        "city": "Pokola",
        "state": "Sangha",
        "postcode": null,
        "country": "Congo-Brazzaville",
        "country_code": "cg"
      },
      "address": "Pokola, Sangha, Republic of the Congo"
    },
    {
      "lat": 1.391592920917677,
      "lon": 16.346590855514723,
      "geoinfo": {
        "display_name": "Pokola, District de Kabo, Sangha, Congo-Brazzaville",
        "road": null,
        "house_number": null,
        "neighbourhood": null,
        "suburb": null,
        "city_district": null,
        "city": "Pokola",
        "state": "Sangha",
        "postcode": null,
        "country": "Congo-Brazzaville",
        "country_code": "cg"
      },
      "address": "981, Pokola, 22821 Sangha, Republic of the Congo"
    },
    {
      "lat": 1.3730978138765677,
      "lon": 16.341115845839145,
      "geoinfo": {
        "display_name": "Pokola, District de Kabo, Sangha, Congo-Brazzaville",
        "road": null,
        "house_number": null,
        "neighbourhood": null,
        "suburb": null,
        "city_district": null,
        "city": "Pokola",
        "state": "Sangha",
        "postcode": null,
        "country": "Congo-Brazzaville",
        "country_code": "cg"
      },
      "address": "298, Pokola, 03580 Sangha, Republic of the Congo"
    },
    {
      "lat": 1.373383014115994,
      "lon": 16.286464112146263,
      "geoinfo": {
        "display_name": "District de Mokeko, Sangha, Congo-Brazzaville",
        "road": null,
        "house_number": null,
        "neighbourhood": null,
        "suburb": null,
        "city_district": null,
        "city": null,
        "state": "Sangha",
        "postcode": null,
        "country": "Congo-Brazzaville",
        "country_code": "cg"
      },
      "address": "126, Pokola, 22298 Sangha, Republic of the Congo"
    },
    {
      "lat": 1.3791333597227118,
      "lon": 16.325387507397743,
      "geoinfo": {
        "display_name": "District de Mokeko, Sangha, Congo-Brazzaville",
        "road": null,
        "house_number": null,
        "neighbourhood": null,
        "suburb": null,
        "city_district": null,
        "city": null,
        "state": "Sangha",
        "postcode": null,
        "country": "Congo-Brazzaville",
        "country_code": "cg"
      },
      "address": "555, Pokola, 90805 Sangha, Republic of the Congo"
    },
    {
      "lat": 1.419781645769207,
      "lon": 16.29876683063321,
      "geoinfo": {
        "display_name": "Pokola, District de Kabo, Sangha, Congo-Brazzaville",
        "road": null,
        "house_number": null,
        "neighbourhood": null,
        "suburb": null,
        "city_district": null,
        "city": "Pokola",
        "state": "Sangha",
        "postcode": null,
        "country": "Congo-Brazzaville",
        "country_code": "cg"
      },
      "address": "749, Pokola, 13380 Sangha, Republic of the Congo"
    }
  ],
  "updated_at": "2025-10-19T01:43:00.243132+00:00",
  "_kind": "geo_samples"
}