{
  "country_code": "CG",
  "country": "Republic of the Congo",
  "city": "Sibiti",
  "geonameid": 2255285,
  "target_addresses": 5,
  "samples": [
    {
      "lat": -3.7125214702089817,
      "lon": 13.361623748226986,
      "geoinfo": {
        "display_name": "Indo, Sibiti, Lékoumou Department, Congo-Brazzaville",
        "road": null,
        "house_number": null,
        "neighbourhood": null,
        "suburb": null,
        "city_district": null,
        "city": null,
        "state": "Lékoumou Department",
        "postcode": null,
        "country": "Congo-Brazzaville",
        "country_code": "cg"
      },
      "address": "Sibiti, Lékoumou Department, Republic of the Congo"
    },
    {
      "lat": -3.659386019177806,
      "lon": 13.341038727907149,
      "geoinfo": {
        "display_name": "P5, Mongo, Sibiti, Lékoumou Department, Congo-Brazzaville",
        "road": "P5",
        "house_number": null,
        "neighbourhood": null,
        "suburb": null,
        "city_district": null,
        "city": "Sibiti",
        "state": "Lékoumou Department",
        "postcode": null,
        "country": "Congo-Brazzaville",
        "country_code": "cg"
      },
      "address": "P5, Sibiti, Lékoumou Department, Republic of the Congo"
    },
    {
      "lat": -3.7099615621313147,
      "lon": 13.377275279935336,
      "geoinfo": {
        "display_name": "P8, Grand bois, Sibiti, Lékoumou Department, Congo-Brazzaville",
        "road": "P8",
        "house_number": null,
        "neighbourhood": null,
        "suburb": null,
        "city_district": null,
        "city": "Sibiti",
        "state": "Lékoumou Department",
        "postcode": null,
        "country": "Congo-Brazzaville",
        "country_code": "cg"
      },
      "address": "P8, Sibiti, Lékoumou Department, Republic of the Congo"
    },
    {
      "lat": -3.7028683558667885,
      "lon": 13.338911178782274,
      "geoinfo": {
        "display_name": "Piste Baker, Sibiti, Lékoumou Department, Congo-Brazzaville",
        "road": "Piste Baker",
        "house_number": null,
        "neighbourhood": null,
        "suburb": null,
        "city_district": null,
        "city": "Sibiti",
        "state": "Lékoumou Department",
        "postcode": null,
        "country": "Congo-Brazzaville",
        "country_code": "cg"
      },
      "address": "Piste Baker, Sibiti, Lékoumou Department, Republic of the Congo"
    },
    {
      "lat": -3.6772653856447857,
      "lon": 13.365971814158426,
      "geoinfo": {
        "display_name": "Sibiti, Lékoumou Department, Congo-Brazzaville",
        "road": null,
        "house_number": null,
        "neighbourhood": null,
        "suburb": null,
        "city_district": null,
        "city": "Sibiti",
        "state": "Lékoumou Department",
        "postcode": null,
        "country": "Congo-Brazzaville",
        "country_code": "cg"
      },
      "address": "278, Sibiti, 21688 Lékoumou Department, Republic of the Congo"
    },
    {
      "lat": -3.662276715078427,
      "lon": 13.38287052151515,
      "geoinfo": {
        "display_name": "Panda, Sibiti, Lékoumou Department, Congo-Brazzaville",
        "road": null,
        "house_number": null,
        "neighbourhood": null,
        "suburb": null,
        "city_district": null,
        "city": "Sibiti",
        "state": "Lékoumou Department",
        "postcode": null,
        "country": "Congo-Brazzaville",
        "country_code": "cg"
      },
      "address": "646, Sibiti, 87701 Lékoumou Department, Republic of the Congo"
    },
    {
      "lat": -3.689587150895843,
      "lon": 13.386121895544699,
      "geoinfo": {
        "display_name": "Sibiti, Lékoumou Department, Congo-Brazzaville",
        "road": null,
        "house_number": null,
        "neighbourhood": null,
        "suburb": null,
        "city_district": null,
        "city": "Sibiti",
        "state": "Lékoumou Department",
        "postcode": null,
        "country": "Congo-Brazzaville",
        "country_code": "cg"
      },
      "address": "140, Sibiti, 00021 Lékoumou Department, Republic of the Congo"
    },
    {
      "lat": -3.694475537685936,
      "lon": 13.325173336562422,
      "geoinfo": {
        "display_name": "Sibiti, Lékoumou Department, Congo-Brazzaville",
        "road": null,
        "house_number": null,
        "neighbourhood": null,
        "suburb": null,
        "city_district": null,
        "city": "Sibiti",
        "state": "Lékoumou Department",
        "postcode": null,
        "country": "Congo-Brazzaville",
        "country_code": "cg"
      },
      "address": "174, Sibiti, 44760 Lékoumou Department, Republic of the Congo"
    },
    {
      "lat": -3.7051694606114234,
      "lon": 13.353704834984491,
      "geoinfo": {
        "display_name": "Sibiti, Lékoumou Department, Congo-Brazzaville",
        "road": null,
        "house_number": null,
        "neighbourhood": null,
        "suburb": null,
        "city_district": null,
        "city": "Sibiti",
        "state": "Lékoumou Department",
        "postcode": null,
        "country": "Congo-Brazzaville",
        "country_code": "cg"
      },
      "address": "306, Sibiti, 16784 Lékoumou Department, Republic of the Congo"
    }
  ],
  "updated_at": "2025-10-19T03:06:44.682673+00:00",
  "_kind": "geo_samples"
}