{
  "country_code": "AT",
  "country": "Austria",
  "city": "Amstetten",
  "geonameid": 2782555,
  "target_addresses": 2,
  "samples": [
    {
      "lat": 48.12013589366017,
      "lon": 14.8259942089328,
      "geoinfo": {
        "display_name": "L6080, Kleinhaaberg, Katastralgemeinde Edla, Greinsfurth, Amstetten, Bezirk Amstetten, Lower Austria, 3300, Austria",
        "road": "L6080",
        "house_number": null,
        "neighbourhood": null,
        "suburb": "Katastralgemeinde Edla",
        "city_district": null,
        "city": "Amstetten",
        "state": "Lower Austria",
        "postcode": "3300",
        "country": "Austria",
        "country_code": "at"
      },
      "address": "L6080, Amstetten, Lower Austria, Austria"
    },
    {
      "lat": 48.12992916186234,
      "lon": 14.915168048972793,
      "geoinfo": {
        "display_name": "Atzelsdorf, Katastralgemeinde Seisenegg, Viehdorf, Bezirk Amstetten, Lower Austria, 3322, Austria",
        "road": null,
        "house_number": null,
        "neighbourhood": null,
        "suburb": "Katastralgemeinde Seisenegg",
        "city_district": null,
        "city": "Viehdorf",
        "state": "Lower Austria",
        "postcode": "3322",
        "country": "Austria",
        "country_code": "at"
      },
      "address": "Katastralgemeinde Seisenegg, Amstetten, Lower Austria, Austria"
    },
    {
      "lat": 48.09190528351961,
      "lon": 14.894143822497083,
      "geoinfo": {
        "display_name": "L6128, Katastralgemeinde Schönbichl, Amstetten, Bezirk Amstetten, Lower Austria, 3300, Austria",
        "road": "L6128",
        "house_number": null,
        "neighbourhood": null,
        "suburb": "Katastralgemeinde Schönbichl",
        "city_district": null,
        "city": "Amstetten",
        "state": "Lower Austria",
        "postcode": "3300",
        "country": "Austria",
        "country_code": "at"
      },
      "address": "L6128, Katastralgemeinde Schönbichl, Amstetten, Bezirk Amstetten, Lower Austria, 3300, Austria"
    },
    {
      "lat": 48.11939004717885,
      "lon": 14.925396750203415,
      "geoinfo": {
        "display_name": "5, Schmiedstraße, Dingfurt, Katastralgemeinde Leutzmannsdorf, Hart, Sankt Georgen am Ybbsfelde, Bezirk Amstetten, Lower Austria, 3304, Austria",
        "road": "Schmiedstraße",
        "house_number": "5",
        "neighbourhood": null,
        "suburb": "Katastralgemeinde Leutzmannsdorf",
        "city_district": null,
        "city": "Sankt Georgen am Ybbsfelde",
        "state": "Lower Austria",
        "postcode": "3304",
        "country": "Austria",
        "country_code": "at"
      },
      "address": "5, Schmiedstraße, Dingfurt, Katastralgemeinde Leutzmannsdorf, Hart, Sankt Georgen am Ybbsfelde, Bezirk Amstetten, Lower Austria, 3304, Austria"
    }
  ],
  "updated_at": "2025-10-19T02:29:22.313335+00:00",
  "_kind": "geo_samples"
}