{
  "country_code": "AT",
  "country": "Austria",
  "city": "Fünfhaus",
  "geonameid": 2779139,
  "target_addresses": 2,
  "samples": [
    {
      "lat": 48.20358801906758,
      "lon": 16.32820381335845,
      "geoinfo": {
        "display_name": "Billa, 11, Giselhergasse, Nibelungenviertel, KG Fünfhaus, Rudolfsheim-Fünfhaus, Vienna, 1150, Austria",
        "road": "Giselhergasse",
        "house_number": "11",
        "neighbourhood": "Nibelungenviertel",
        "suburb": "KG Fünfhaus",
        "city_district": "Rudolfsheim-Fünfhaus",
        "city": "Vienna",
        "state": null,
        "postcode": "1150",
        "country": "Austria",
        "country_code": "at"
      },
      "address": "11 Giselhergasse, Fünfhaus, Austria"
    },
    {
      "lat": 48.1850753836747,
      "lon": 16.326299102926033,
      "geoinfo": {
        "display_name": "35, Rauchfangkehrergasse, Neu-Gaudenzdorf, KG Sechshaus, Rudolfsheim-Fünfhaus, Vienna, 1150, Austria",
        "road": "Rauchfangkehrergasse",
        "house_number": "35",
        "neighbourhood": "Neu-Gaudenzdorf",
        "suburb": "KG Sechshaus",
        "city_district": "Rudolfsheim-Fünfhaus",
        "city": "Vienna",
        "state": null,
        "postcode": "1150",
        "country": "Austria",
        "country_code": "at"
      },
      "address": "35 Rauchfangkehrergasse, Fünfhaus, Austria"
    },
    {
      "lat": 48.16986389665866,
      "lon": 16.339202081083744,
      "geoinfo": {
        "display_name": "Billa Plus, 27, Wienerbergstraße, KG Inzersdorf Stadt, Favoriten, Vienna, 1100, Austria",
        "road": "Wienerbergstraße",
        "house_number": "27",
        "neighbourhood": null,
        "suburb": "KG Inzersdorf Stadt",
        "city_district": "Favoriten",
        "city": "Vienna",
        "state": null,
        "postcode": "1100",
        "country": "Austria",
        "country_code": "at"
      },
      "address": "Billa Plus, 27, Wienerbergstraße, KG Inzersdorf Stadt, Favoriten, Vienna, 1100, Austria"
    },
    {
      "lat": 48.22909426620631,
      "lon": 16.288936102173086,
      "geoinfo": {
        "display_name": "8, Nachreihengasse, KG Dornbach, Hernals, Vienna, 1170, Austria",
        "road": "Nachreihengasse",
        "house_number": "8",
        "neighbourhood": null,
        "suburb": "KG Dornbach",
        "city_district": "Hernals",
        "city": "Vienna",
        "state": null,
        "postcode": "1170",
        "country": "Austria",
        "country_code": "at"
      },
      "address": "8, Nachreihengasse, KG Dornbach, Hernals, Vienna, 1170, Austria"
    }
  ],
  "updated_at": "2025-10-19T02:46:57.089860+00:00",
  "_kind": "geo_samples"
}