{
  "country_code": "AT",
  "country": "Austria",
  "city": "Geidorf",
  "geonameid": 11903639,
  "target_addresses": 2,
  "samples": [
    {
      "lat": 47.08535269020604,
      "lon": 15.4436267312957,
      "geoinfo": {
        "display_name": "72, Körblergasse, Charlottendorf, Geidorf, Graz, Styria, 8010, Austria",
        "road": "Körblergasse",
        "house_number": "72",
        "neighbourhood": "Charlottendorf",
        "suburb": "Geidorf",
        "city_district": null,
        "city": "Graz",
        "state": "Styria",
        "postcode": "8010",
        "country": "Austria",
        "country_code": "at"
      },
      "address": "72 Körblergasse, Geidorf, Styria, Austria"
    },
    {
      "lat": 47.08622481365355,
      "lon": 15.439149589674397,
      "geoinfo": {
        "display_name": "Wirtschaftskammer Steiermark, WKO, WIFI und Campus 02, Hochsteingasse, Charlottendorf, Geidorf, Graz, Styria, 8010, Austria",
        "road": "Hochsteingasse",
        "house_number": null,
        "neighbourhood": "Charlottendorf",
        "suburb": "Geidorf",
        "city_district": null,
        "city": "Graz",
        "state": "Styria",
        "postcode": "8010",
        "country": "Austria",
        "country_code": "at"
      },
      "address": "Hochsteingasse, Geidorf, Styria, Austria"
    },
    {
      "lat": 47.06391163565857,
      "lon": 15.435318412150371,
      "geoinfo": {
        "display_name": "17, Roseggerkai, Jakominivorstadt, Jakomini, Graz, Styria, 8010, Austria",
        "road": "Roseggerkai",
        "house_number": "17",
        "neighbourhood": "Jakominivorstadt",
        "suburb": "Jakomini",
        "city_district": null,
        "city": "Graz",
        "state": "Styria",
        "postcode": "8010",
        "country": "Austria",
        "country_code": "at"
      },
      "address": "17, Roseggerkai, Jakominivorstadt, Jakomini, Graz, Styria, 8010, Austria"
    },
    {
      "lat": 47.04695395830415,
      "lon": 15.465170875791149,
      "geoinfo": {
        "display_name": "182, Scheigergasse, Sankt Peter, Graz, Styria, 8042, Austria",
        "road": "Scheigergasse",
        "house_number": "182",
        "neighbourhood": null,
        "suburb": "Sankt Peter",
        "city_district": null,
        "city": "Graz",
        "state": "Styria",
        "postcode": "8042",
        "country": "Austria",
        "country_code": "at"
      },
      "address": "182, Scheigergasse, Sankt Peter, Graz, Styria, 8042, Austria"
    }
  ],
  "updated_at": "2025-10-19T02:47:12.299346+00:00",
  "_kind": "geo_samples"
}