{
  "country_code": "AT",
  "country": "Austria",
  "city": "Innere Stadt",
  "geonameid": 2775260,
  "target_addresses": 8,
  "samples": [
    {
      "lat": 48.191020612005346,
      "lon": 16.378778913168752,
      "geoinfo": {
        "display_name": "5, Karolinengasse, Wieden, Vienna, 1040, Austria",
        "road": "Karolinengasse",
        "house_number": "5",
        "neighbourhood": null,
        "suburb": "Wieden",
        "city_district": "Wieden",
        "city": "Vienna",
        "state": null,
        "postcode": "1040",
        "country": "Austria",
        "country_code": "at"
      },
      "address": "5 Karolinengasse, Innere Stadt, Austria"
    },
    {
      "lat": 48.19279333950864,
      "lon": 16.314252248319427,
      "geoinfo": {
        "display_name": "51, Linzer Straße, KG Penzing, Penzing, Vienna, 1140, Austria",
        "road": "Linzer Straße",
        "house_number": "51",
        "neighbourhood": null,
        "suburb": "KG Penzing",
        "city_district": "Penzing",
        "city": "Vienna",
        "state": null,
        "postcode": "1140",
        "country": "Austria",
        "country_code": "at"
      },
      "address": "51 Linzer Straße, Innere Stadt, Austria"
    },
    {
      "lat": 48.168394946664876,
      "lon": 16.34332133197276,
      "geoinfo": {
        "display_name": "6, Maria-Kuhn-Gasse, Biotope-City, KG Inzersdorf Stadt, Favoriten, Vienna, 1100, Austria",
        "road": "Maria-Kuhn-Gasse",
        "house_number": "6",
        "neighbourhood": "Biotope-City",
        "suburb": "KG Inzersdorf Stadt",
        "city_district": "Favoriten",
        "city": "Vienna",
        "state": null,
        "postcode": "1100",
        "country": "Austria",
        "country_code": "at"
      },
      "address": "6, Maria-Kuhn-Gasse, Biotope-City, KG Inzersdorf Stadt, Favoriten, Vienna, 1100, Austria"
    },
    {
      "lat": 48.22712693475309,
      "lon": 16.423562801367858,
      "geoinfo": {
        "display_name": "Sinagasse, KG Kaisermühlen, Donaustadt, Vienna, 1220, Austria",
        "road": "Sinagasse",
        "house_number": null,
        "neighbourhood": null,
        "suburb": "KG Kaisermühlen",
        "city_district": "Donaustadt",
        "city": "Vienna",
        "state": null,
        "postcode": "1220",
        "country": "Austria",
        "country_code": "at"
      },
      "address": "618, Sinagasse, KG Kaisermühlen, Donaustadt, Vienna, 1220, Austria"
    },
    {
      "lat": 48.195778461122494,
      "lon": 16.43447758995106,
      "geoinfo": {
        "display_name": "Hauptallee, KG Leopoldstadt, Leopoldstadt, Vienna, 1020, Austria",
        "road": "Hauptallee",
        "house_number": null,
        "neighbourhood": null,
        "suburb": "KG Leopoldstadt",
        "city_district": "Leopoldstadt",
        "city": "Vienna",
        "state": null,
        "postcode": "1020",
        "country": "Austria",
        "country_code": "at"
      },
      "address": "706, Hauptallee, KG Leopoldstadt, Leopoldstadt, Vienna, 1020, Austria"
    },
    {
      "lat": 48.169612671637736,
      "lon": 16.364091873655905,
      "geoinfo": {
        "display_name": "72, Neilreichgasse, KG Inzersdorf Stadt, Favoriten, Vienna, 1100, Austria",
        "road": "Neilreichgasse",
        "house_number": "72",
        "neighbourhood": null,
        "suburb": "KG Inzersdorf Stadt",
        "city_district": "Favoriten",
        "city": "Vienna",
        "state": null,
        "postcode": "1100",
        "country": "Austria",
        "country_code": "at"
      },
      "address": "72, Neilreichgasse, KG Inzersdorf Stadt, Favoriten, Vienna, 1100, Austria"
    },
    {
      "lat": 48.20549489839422,
      "lon": 16.318134329960362,
      "geoinfo": {
        "display_name": "Auf der Schmelz, Schmelz, KG Fünfhaus, Rudolfsheim-Fünfhaus, Vienna, 1150, Austria",
        "road": "Auf der Schmelz",
        "house_number": null,
        "neighbourhood": "Schmelz",
        "suburb": "KG Fünfhaus",
        "city_district": "Rudolfsheim-Fünfhaus",
        "city": "Vienna",
        "state": null,
        "postcode": "1150",
        "country": "Austria",
        "country_code": "at"
      },
      "address": "421, Auf der Schmelz, Schmelz, KG Fünfhaus, Rudolfsheim-Fünfhaus, Vienna, 1150, Austria"
    },
    {
      "lat": 48.23262845682913,
      "lon": 16.353239111399382,
      "geoinfo": {
        "display_name": "Döblinger Hauptstraße, Upper Döbling, Döbling, Vienna, 1190, Austria",
        "road": "Döblinger Hauptstraße",
        "house_number": null,
        "neighbourhood": null,
        "suburb": "Upper Döbling",
        "city_district": "Döbling",
        "city": "Vienna",
        "state": null,
        "postcode": "1190",
        "country": "Austria",
        "country_code": "at"
      },
      "address": "305, Döblinger Hauptstraße, Upper Döbling, Döbling, Vienna, 1190, Austria"
    }
  ],
  "updated_at": "2025-10-19T03:15:24.401791+00:00",
  "_kind": "geo_samples"
}