{
  "country_code": "AT",
  "country": "Austria",
  "city": "Lustenau",
  "geonameid": 2772173,
  "target_addresses": 2,
  "samples": [
    {
      "lat": 47.428394807867036,
      "lon": 9.666633706943726,
      "geoinfo": {
        "display_name": "15, Teilenstraße, Lustenau, Bezirk Dornbirn, Vorarlberg, 6890, Austria",
        "road": "Teilenstraße",
        "house_number": "15",
        "neighbourhood": null,
        "suburb": null,
        "city_district": null,
        "city": "Lustenau",
        "state": "Vorarlberg",
        "postcode": "6890",
        "country": "Austria",
        "country_code": "at"
      },
      "address": "15 Teilenstraße, Lustenau, Vorarlberg, Austria"
    },
    {
      "lat": 47.39773241469044,
      "lon": 9.673684592630849,
      "geoinfo": {
        "display_name": "L45, Lustenau, Bezirk Dornbirn, Vorarlberg, 6890, Austria",
        "road": "L45",
        "house_number": null,
        "neighbourhood": null,
        "suburb": null,
        "city_district": null,
        "city": "Lustenau",
        "state": "Vorarlberg",
        "postcode": "6890",
        "country": "Austria",
        "country_code": "at"
      },
      "address": "L45, Lustenau, Vorarlberg, Austria"
    },
    {
      "lat": 47.40820605922274,
      "lon": 9.683834274133881,
      "geoinfo": {
        "display_name": "Alberriedstraße, Lustenau, Bezirk Dornbirn, Vorarlberg, 6890, Austria",
        "road": "Alberriedstraße",
        "house_number": null,
        "neighbourhood": null,
        "suburb": null,
        "city_district": null,
        "city": "Lustenau",
        "state": "Vorarlberg",
        "postcode": "6890",
        "country": "Austria",
        "country_code": "at"
      },
      "address": "998, Alberriedstraße, Lustenau, Bezirk Dornbirn, Vorarlberg, 6890, Austria"
    },
    {
      "lat": 47.44285578253551,
      "lon": 9.70403798809913,
      "geoinfo": {
        "display_name": "Höchsterstraße, Rohrbach, Dornbirn, Bezirk Dornbirn, Vorarlberg, 6850, Austria",
        "road": "Höchsterstraße",
        "house_number": null,
        "neighbourhood": null,
        "suburb": "Rohrbach",
        "city_district": null,
        "city": "Dornbirn",
        "state": "Vorarlberg",
        "postcode": "6850",
        "country": "Austria",
        "country_code": "at"
      },
      "address": "783, Höchsterstraße, Rohrbach, Dornbirn, Bezirk Dornbirn, Vorarlberg, 6850, Austria"
    }
  ],
  "updated_at": "2025-10-19T00:54:23.254560+00:00",
  "_kind": "geo_samples"
}