{
  "country_code": "AT",
  "country": "Austria",
  "city": "Ottakring",
  "geonameid": 2769359,
  "target_addresses": 2,
  "samples": [
    {
      "lat": 48.21978353286661,
      "lon": 16.275189748257613,
      "geoinfo": {
        "display_name": "Johann-Staud-Straße, KG Ottakring, Ottakring, Vienna, 1160, Austria",
        "road": "Johann-Staud-Straße",
        "house_number": null,
        "neighbourhood": null,
        "suburb": "KG Ottakring",
        "city_district": "Ottakring",
        "city": "Vienna",
        "state": null,
        "postcode": "1160",
        "country": "Austria",
        "country_code": "at"
      },
      "address": "Johann-Staud-Straße, Ottakring, Austria"
    },
    {
      "lat": 48.215259445478445,
      "lon": 16.326563657220042,
      "geoinfo": {
        "display_name": "1, Lorenz-Bayer-Platz, KG Hernals, Hernals, Vienna, 1170, Austria",
        "road": "Lorenz-Bayer-Platz",
        "house_number": "1",
        "neighbourhood": null,
        "suburb": "KG Hernals",
        "city_district": "Hernals",
        "city": "Vienna",
        "state": null,
        "postcode": "1170",
        "country": "Austria",
        "country_code": "at"
      },
      "address": "1 Lorenz-Bayer-Platz, Ottakring, Austria"
    },
    {
      "lat": 48.233096370842965,
      "lon": 16.28056509503947,
      "geoinfo": {
        "display_name": "Hochweg, KG Dornbach, Hernals, Vienna, 1170, Austria",
        "road": "Hochweg",
        "house_number": null,
        "neighbourhood": null,
        "suburb": "KG Dornbach",
        "city_district": "Hernals",
        "city": "Vienna",
        "state": null,
        "postcode": "1170",
        "country": "Austria",
        "country_code": "at"
      },
      "address": "563, Hochweg, KG Dornbach, Hernals, Vienna, 1170, Austria"
    },
    {
      "lat": 48.18615499511386,
      "lon": 16.327498458790057,
      "geoinfo": {
        "display_name": "4, Heinickegasse, KG Sechshaus, Rudolfsheim-Fünfhaus, Vienna, 1150, Austria",
        "road": "Heinickegasse",
        "house_number": "4",
        "neighbourhood": null,
        "suburb": "KG Sechshaus",
        "city_district": "Rudolfsheim-Fünfhaus",
        "city": "Vienna",
        "state": null,
        "postcode": "1150",
        "country": "Austria",
        "country_code": "at"
      },
      "address": "4, Heinickegasse, KG Sechshaus, Rudolfsheim-Fünfhaus, Vienna, 1150, Austria"
    }
  ],
  "updated_at": "2025-10-19T02:46:38.058911+00:00",
  "_kind": "geo_samples"
}