{
  "country_code": "AT",
  "country": "Austria",
  "city": "Perchtoldsdorf",
  "geonameid": 2769110,
  "target_addresses": 10,
  "samples": [
    {
      "lat": 48.11167437923813,
      "lon": 16.216781287334687,
      "geoinfo": {
        "display_name": "Liechtenstein-Höhenstraße, Kaltenleutgeben, Bezirk Mödling, Lower Austria, 2391, Austria",
        "road": "Liechtenstein-Höhenstraße",
        "house_number": null,
        "neighbourhood": null,
        "suburb": null,
        "city_district": null,
        "city": "Kaltenleutgeben",
        "state": "Lower Austria",
        "postcode": "2391",
        "country": "Austria",
        "country_code": "at"
      },
      "address": "Liechtenstein-Höhenstraße, Perchtoldsdorf, Lower Austria, Austria"
    },
    {
      "lat": 48.12840401835987,
      "lon": 16.280431475357364,
      "geoinfo": {
        "display_name": "35, Römerfeldgasse, Perchtoldsdorf, Bezirk Mödling, Lower Austria, 2380, Austria",
        "road": "Römerfeldgasse",
        "house_number": "35",
        "neighbourhood": null,
        "suburb": null,
        "city_district": null,
        "city": "Perchtoldsdorf",
        "state": "Lower Austria",
        "postcode": "2380",
        "country": "Austria",
        "country_code": "at"
      },
      "address": "35 Römerfeldgasse, Perchtoldsdorf, Lower Austria, Austria"
    },
    {
      "lat": 48.087779462129944,
      "lon": 16.282145521582486,
      "geoinfo": {
        "display_name": "7, Mozartgasse, Klausen, Schöffelstadt, Mödling, Bezirk Mödling, Lower Austria, 2340, Austria",
        "road": "Mozartgasse",
        "house_number": "7",
        "neighbourhood": "Klausen",
        "suburb": "Schöffelstadt",
        "city_district": null,
        "city": "Mödling",
        "state": "Lower Austria",
        "postcode": "2340",
        "country": "Austria",
        "country_code": "at"
      },
      "address": "7 Mozartgasse, Perchtoldsdorf, 10313 Lower Austria, Austria"
    },
    {
      "lat": 48.12380287722303,
      "lon": 16.24335986248192,
      "geoinfo": {
        "display_name": "Bierhäuslberggraben, Perchtoldsdorf, Bezirk Mödling, Lower Austria, 2380, Austria",
        "road": "Bierhäuslberggraben",
        "house_number": null,
        "neighbourhood": null,
        "suburb": null,
        "city_district": null,
        "city": "Perchtoldsdorf",
        "state": "Lower Austria",
        "postcode": "2380",
        "country": "Austria",
        "country_code": "at"
      },
      "address": "Bierhäuslberggraben, Perchtoldsdorf, 10351 Lower Austria, Austria"
    },
    {
      "lat": 48.13673452542543,
      "lon": 16.229040861682908,
      "geoinfo": {
        "display_name": "44, Zangerlestraße, KG Kalksburg, Liesing, Vienna, 1230, Austria",
        "road": "Zangerlestraße",
        "house_number": "44",
        "neighbourhood": null,
        "suburb": "KG Kalksburg",
        "city_district": "Liesing",
        "city": "Vienna",
        "state": null,
        "postcode": "1230",
        "country": "Austria",
        "country_code": "at"
      },
      "address": "44, Zangerlestraße, KG Kalksburg, Liesing, Vienna, 1230, Austria"
    },
    {
      "lat": 48.147977439258426,
      "lon": 16.305621301496284,
      "geoinfo": {
        "display_name": "55-63, Erlaaer Straße, KG Erlaa, Liesing, Vienna, 1230, Austria",
        "road": "Erlaaer Straße",
        "house_number": "55-63",
        "neighbourhood": null,
        "suburb": "KG Erlaa",
        "city_district": "Liesing",
        "city": "Vienna",
        "state": null,
        "postcode": "1230",
        "country": "Austria",
        "country_code": "at"
      },
      "address": "55-63, Erlaaer Straße, KG Erlaa, Liesing, Vienna, 1230, Austria"
    },
    {
      "lat": 48.10225307014882,
      "lon": 16.311228643695127,
      "geoinfo": {
        "display_name": "Bundessport- und Freizeitzentrum Südstadt, 1, Liese Prokop-Platz, Südstadt, Maria Enzersdorf, Bezirk Mödling, Lower Austria, 2344, Austria",
        "road": "Liese Prokop-Platz",
        "house_number": "1",
        "neighbourhood": null,
        "suburb": null,
        "city_district": null,
        "city": "Südstadt",
        "state": "Lower Austria",
        "postcode": "2344",
        "country": "Austria",
        "country_code": "at"
      },
      "address": "Bundessport- und Freizeitzentrum Südstadt, 1, Liese Prokop-Platz, Südstadt, Maria Enzersdorf, Bezirk Mödling, Lower Austria, 2344, Austria"
    },
    {
      "lat": 48.10489746651615,
      "lon": 16.248124010944785,
      "geoinfo": {
        "display_name": "242, Herzogbergstraße, Tirolerhofsiedlung, Perchtoldsdorf, Bezirk Mödling, Lower Austria, 2380, Austria",
        "road": "Herzogbergstraße",
        "house_number": "242",
        "neighbourhood": "Tirolerhofsiedlung",
        "suburb": null,
        "city_district": null,
        "city": "Perchtoldsdorf",
        "state": "Lower Austria",
        "postcode": "2380",
        "country": "Austria",
        "country_code": "at"
      },
      "address": "242, Herzogbergstraße, Tirolerhofsiedlung, Perchtoldsdorf, Bezirk Mödling, Lower Austria, 2380, Austria"
    },
    {
      "lat": 48.092530541131474,
      "lon": 16.288568199678696,
      "geoinfo": {
        "display_name": "5-7, Winzergasse, Schöffelstadt, Mödling, Bezirk Mödling, Lower Austria, 2340, Austria",
        "road": "Winzergasse",
        "house_number": "5-7",
        "neighbourhood": null,
        "suburb": "Schöffelstadt",
        "city_district": null,
        "city": "Mödling",
        "state": "Lower Austria",
        "postcode": "2340",
        "country": "Austria",
        "country_code": "at"
      },
      "address": "5-7, Winzergasse, Schöffelstadt, Mödling, Bezirk Mödling, Lower Austria, 2340, Austria"
    },
    {
      "lat": 48.15074697128676,
      "lon": 16.25501367029922,
      "geoinfo": {
        "display_name": "136, Maurer Lange Gasse, KG Mauer, Liesing, Vienna, 1230, Austria",
        "road": "Maurer Lange Gasse",
        "house_number": "136",
        "neighbourhood": null,
        "suburb": "KG Mauer",
        "city_district": "Liesing",
        "city": "Vienna",
        "state": null,
        "postcode": "1230",
        "country": "Austria",
        "country_code": "at"
      },
      "address": "136, Maurer Lange Gasse, KG Mauer, Liesing, Vienna, 1230, Austria"
    }
  ],
  "updated_at": "2025-10-19T03:14:28.913449+00:00",
  "_kind": "geo_samples"
}