{
  "country_code": "AT",
  "country": "Austria",
  "city": "Sankt Peter",
  "geonameid": 2766447,
  "target_addresses": 2,
  "samples": [
    {
      "lat": 46.64836000220397,
      "lon": 14.386730802473883,
      "geoinfo": {
        "display_name": "Portendorf, Magdalensberg, Bezirk Klagenfurt-Land, Carinthia, 9020, Austria",
        "road": null,
        "house_number": null,
        "neighbourhood": null,
        "suburb": null,
        "city_district": null,
        "city": "Magdalensberg",
        "state": "Carinthia",
        "postcode": "9020",
        "country": "Austria",
        "country_code": "at"
      },
      "address": "Sankt Peter, Carinthia, Austria"
    },
    {
      "lat": 46.6160426442497,
      "lon": 14.332585434986182,
      "geoinfo": {
        "display_name": "11, Flatschacher Straße, St. Ruprecht, Klagenfurt, Carinthia, 9020, Austria",
        "road": "Flatschacher Straße",
        "house_number": "11",
        "neighbourhood": null,
        "suburb": "St. Ruprecht",
        "city_district": null,
        "city": "Klagenfurt",
        "state": "Carinthia",
        "postcode": "9020",
        "country": "Austria",
        "country_code": "at"
      },
      "address": "11 Flatschacher Straße, Sankt Peter, Carinthia, Austria"
    },
    {
      "lat": 46.66697617138106,
      "lon": 14.33109506904109,
      "geoinfo": {
        "display_name": "Maria Saaler-Weg, Marolla, Annabichl, St.Georgen am Sandhof, Klagenfurt, Carinthia, 9020, Austria",
        "road": "Maria Saaler-Weg",
        "house_number": null,
        "neighbourhood": null,
        "suburb": "Annabichl",
        "city_district": null,
        "city": "Klagenfurt",
        "state": "Carinthia",
        "postcode": "9020",
        "country": "Austria",
        "country_code": "at"
      },
      "address": "611, Maria Saaler-Weg, Marolla, Annabichl, St.Georgen am Sandhof, Klagenfurt, Carinthia, 9020, Austria"
    },
    {
      "lat": 46.593024051771685,
      "lon": 14.336993755035445,
      "geoinfo": {
        "display_name": "Badstraße, Viktring, Ebenthal, Ebenthal in Kärnten, Bezirk Klagenfurt-Land, Carinthia, 9020, Austria",
        "road": "Badstraße",
        "house_number": null,
        "neighbourhood": null,
        "suburb": "Viktring",
        "city_district": null,
        "city": "Ebenthal in Kärnten",
        "state": "Carinthia",
        "postcode": "9020",
        "country": "Austria",
        "country_code": "at"
      },
      "address": "764, Badstraße, Viktring, Ebenthal, Ebenthal in Kärnten, Bezirk Klagenfurt-Land, Carinthia, 9020, Austria"
    }
  ],
  "updated_at": "2025-10-19T02:30:15.197116+00:00",
  "_kind": "geo_samples"
}