{
  "country_code": "AT",
  "country": "Austria",
  "city": "Sankt Leonhard",
  "geonameid": 11903640,
  "target_addresses": 9,
  "samples": [
    {
      "lat": 47.09799687635537,
      "lon": 15.500752296668008,
      "geoinfo": {
        "display_name": "303, Stiftingtalstraße, Ries, Graz, Styria, 8010, Austria",
        "road": "Stiftingtalstraße",
        "house_number": "303",
        "neighbourhood": null,
        "suburb": "Ries",
        "city_district": null,
        "city": "Graz",
        "state": "Styria",
        "postcode": "8010",
        "country": "Austria",
        "country_code": "at"
      },
      "address": "303 Stiftingtalstraße, Sankt Leonhard, Styria, Austria"
    },
    {
      "lat": 47.057680205871804,
      "lon": 15.461023067775052,
      "geoinfo": {
        "display_name": "Graz University of Technology, Petersgasse, Gartenstadt, Sankt Peter, Graz, Styria, 8042, Austria",
        "road": "Petersgasse",
        "house_number": null,
        "neighbourhood": "Gartenstadt",
        "suburb": "Sankt Peter",
        "city_district": null,
        "city": "Graz",
        "state": "Styria",
        "postcode": "8042",
        "country": "Austria",
        "country_code": "at"
      },
      "address": "Petersgasse, Sankt Leonhard, 40938 Styria, Austria"
    },
    {
      "lat": 47.07276113911182,
      "lon": 15.4566129303667,
      "geoinfo": {
        "display_name": "36, Leonhardgürtel, Herz-Jesu-Viertel, Sankt Leonhard, Graz, Styria, 8010, Austria",
        "road": "Leonhardgürtel",
        "house_number": "36",
        "neighbourhood": "Herz-Jesu-Viertel",
        "suburb": "Sankt Leonhard",
        "city_district": null,
        "city": "Graz",
        "state": "Styria",
        "postcode": "8010",
        "country": "Austria",
        "country_code": "at"
      },
      "address": "36 Leonhardgürtel, Sankt Leonhard, 91143 Styria, Austria"
    },
    {
      "lat": 47.0501952491018,
      "lon": 15.463353539201705,
      "geoinfo": {
        "display_name": "37, Gerhart-Hauptmann-Gasse, Gartenstadt, Sankt Peter, Graz, Styria, 8042, Austria",
        "road": "Gerhart-Hauptmann-Gasse",
        "house_number": "37",
        "neighbourhood": "Gartenstadt",
        "suburb": "Sankt Peter",
        "city_district": null,
        "city": "Graz",
        "state": "Styria",
        "postcode": "8042",
        "country": "Austria",
        "country_code": "at"
      },
      "address": "37, Gerhart-Hauptmann-Gasse, Gartenstadt, Sankt Peter, Graz, Styria, 8042, Austria"
    },
    {
      "lat": 47.069155113162594,
      "lon": 15.411146579354046,
      "geoinfo": {
        "display_name": "Siemens AG Österreich, 31, Eggenberger Straße, Lend, Graz, Styria, 8020, Austria",
        "road": "Eggenberger Straße",
        "house_number": "31",
        "neighbourhood": null,
        "suburb": "Lend",
        "city_district": null,
        "city": "Graz",
        "state": "Styria",
        "postcode": "8020",
        "country": "Austria",
        "country_code": "at"
      },
      "address": "Siemens AG Österreich, 31, Eggenberger Straße, Lend, Graz, Styria, 8020, Austria"
    },
    {
      "lat": 47.10818313070119,
      "lon": 15.481436353334335,
      "geoinfo": {
        "display_name": "53, Himmelreichweg, Mariatrost, Graz, Styria, 8044, Austria",
        "road": "Himmelreichweg",
        "house_number": "53",
        "neighbourhood": null,
        "suburb": "Mariatrost",
        "city_district": null,
        "city": "Graz",
        "state": "Styria",
        "postcode": "8044",
        "country": "Austria",
        "country_code": "at"
      },
      "address": "53, Himmelreichweg, Mariatrost, Graz, Styria, 8044, Austria"
    },
    {
      "lat": 47.04558296867591,
      "lon": 15.494643392207085,
      "geoinfo": {
        "display_name": "Messendorfberg, Sankt Peter, Graz, Styria, 8042, Austria",
        "road": "Messendorfberg",
        "house_number": null,
        "neighbourhood": "Messendorfberg",
        "suburb": "Sankt Peter",
        "city_district": null,
        "city": "Graz",
        "state": "Styria",
        "postcode": "8042",
        "country": "Austria",
        "country_code": "at"
      },
      "address": "740, Messendorfberg, Sankt Peter, Graz, Styria, 8042, Austria"
    },
    {
      "lat": 47.056331615519504,
      "lon": 15.477707143178424,
      "geoinfo": {
        "display_name": "Petersbergenstraße, Sankt Peter, Graz, Styria, 8042, Austria",
        "road": "Petersbergenstraße",
        "house_number": null,
        "neighbourhood": null,
        "suburb": "Sankt Peter",
        "city_district": null,
        "city": "Graz",
        "state": "Styria",
        "postcode": "8042",
        "country": "Austria",
        "country_code": "at"
      },
      "address": "552, Petersbergenstraße, Sankt Peter, Graz, Styria, 8042, Austria"
    },
    {
      "lat": 47.09480680259287,
      "lon": 15.430872102288442,
      "geoinfo": {
        "display_name": "46b, Weg zum Reinerkogel, Geidorf, Graz, Styria, 8010, Austria",
        "road": "Weg zum Reinerkogel",
        "house_number": "46b",
        "neighbourhood": null,
        "suburb": "Geidorf",
        "city_district": null,
        "city": "Graz",
        "state": "Styria",
        "postcode": "8010",
        "country": "Austria",
        "country_code": "at"
      },
      "address": "46b, Weg zum Reinerkogel, Geidorf, Graz, Styria, 8010, Austria"
    }
  ],
  "updated_at": "2025-10-19T03:15:40.207462+00:00",
  "_kind": "geo_samples"
}