{
  "country_code": "AT",
  "country": "Austria",
  "city": "Telfs",
  "geonameid": 2763810,
  "target_addresses": 9,
  "samples": [
    {
      "lat": 47.28403936041101,
      "lon": 11.044448029793402,
      "geoinfo": {
        "display_name": "6, Bichl, Rietz, Bezirk Imst, Tyrol, 6421, Austria",
        "road": "Bichl",
        "house_number": "6",
        "neighbourhood": null,
        "suburb": null,
        "city_district": null,
        "city": "Rietz",
        "state": "Tyrol",
        "postcode": "6421",
        "country": "Austria",
        "country_code": "at"
      },
      "address": "6 Bichl, Telfs, Tyrol, Austria"
    },
    {
      "lat": 47.3029477579363,
      "lon": 11.003596503361615,
      "geoinfo": {
        "display_name": "Mieming, Fiecht, Untermieming, Mieming, Bezirk Imst, Tyrol, 6414, Austria",
        "road": null,
        "house_number": null,
        "neighbourhood": "Mieming",
        "suburb": null,
        "city_district": null,
        "city": "Mieming",
        "state": "Tyrol",
        "postcode": "6414",
        "country": "Austria",
        "country_code": "at"
      },
      "address": "Mieming, Telfs, Tyrol, Austria"
    },
    {
      "lat": 47.30579232143402,
      "lon": 11.116439109612676,
      "geoinfo": {
        "display_name": "Inntalradweg, Oberhofen im Inntal, Bezirk Innsbruck-Land, Tyrol, 6406, Austria",
        "road": "Inntalradweg",
        "house_number": null,
        "neighbourhood": null,
        "suburb": null,
        "city_district": null,
        "city": "Oberhofen im Inntal",
        "state": "Tyrol",
        "postcode": "6406",
        "country": "Austria",
        "country_code": "at"
      },
      "address": "Inntalradweg, Telfs, 97629 Tyrol, Austria"
    },
    {
      "lat": 47.30692231898583,
      "lon": 11.131814028897354,
      "geoinfo": {
        "display_name": "Platten, Mösern, Telfs, Bezirk Innsbruck-Land, Tyrol, 6410, Austria",
        "road": "Platten",
        "house_number": null,
        "neighbourhood": null,
        "suburb": null,
        "city_district": null,
        "city": "Telfs",
        "state": "Tyrol",
        "postcode": "6410",
        "country": "Austria",
        "country_code": "at"
      },
      "address": "Platten, Telfs, 17054 Tyrol, Austria"
    },
    {
      "lat": 47.33220020118276,
      "lon": 11.097576290577086,
      "geoinfo": {
        "display_name": "Kochental, Brand, Telfs, Bezirk Innsbruck-Land, Tyrol, 6410, Austria",
        "road": "Kochental",
        "house_number": null,
        "neighbourhood": null,
        "suburb": null,
        "city_district": null,
        "city": "Telfs",
        "state": "Tyrol",
        "postcode": "6410",
        "country": "Austria",
        "country_code": "at"
      },
      "address": "150, Kochental, Brand, Telfs, Bezirk Innsbruck-Land, Tyrol, 6410, Austria"
    },
    {
      "lat": 47.30104635129198,
      "lon": 11.095469176407171,
      "geoinfo": {
        "display_name": "8, Gasse, Oberhofen im Inntal, Bezirk Innsbruck-Land, Tyrol, 6406, Austria",
        "road": "Gasse",
        "house_number": "8",
        "neighbourhood": null,
        "suburb": null,
        "city_district": null,
        "city": "Oberhofen im Inntal",
        "state": "Tyrol",
        "postcode": "6406",
        "country": "Austria",
        "country_code": "at"
      },
      "address": "8, Gasse, Oberhofen im Inntal, Bezirk Innsbruck-Land, Tyrol, 6406, Austria"
    },
    {
      "lat": 47.26578240341484,
      "lon": 11.094048130630053,
      "geoinfo": {
        "display_name": "Bettler-Steig, Oberhofen im Inntal, Bezirk Innsbruck-Land, Tyrol, 6406, Austria",
        "road": "Bettler-Steig",
        "house_number": null,
        "neighbourhood": null,
        "suburb": null,
        "city_district": null,
        "city": "Oberhofen im Inntal",
        "state": "Tyrol",
        "postcode": "6406",
        "country": "Austria",
        "country_code": "at"
      },
      "address": "059, Bettler-Steig, Oberhofen im Inntal, Bezirk Innsbruck-Land, Tyrol, 6406, Austria"
    },
    {
      "lat": 47.32327404267592,
      "lon": 11.03165239346488,
      "geoinfo": {
        "display_name": "Oberer Zimmerbergweg, Affenhausen, Wildermieming, Bezirk Innsbruck-Land, Tyrol, 6413, Austria",
        "road": "Oberer Zimmerbergweg",
        "house_number": null,
        "neighbourhood": null,
        "suburb": null,
        "city_district": null,
        "city": "Affenhausen",
        "state": "Tyrol",
        "postcode": "6413",
        "country": "Austria",
        "country_code": "at"
      },
      "address": "195, Oberer Zimmerbergweg, Telfs, 6413 Tyrol, Austria"
    },
    {
      "lat": 47.33061286072914,
      "lon": 11.107174862300752,
      "geoinfo": {
        "display_name": "Buchener Landesstraße, Bairbach, Telfs, Bezirk Innsbruck-Land, Tyrol, 6410, Austria",
        "road": "Buchener Landesstraße",
        "house_number": null,
        "neighbourhood": null,
        "suburb": null,
        "city_district": null,
        "city": "Telfs",
        "state": "Tyrol",
        "postcode": "6410",
        "country": "Austria",
        "country_code": "at"
      },
      "address": "960, Buchener Landesstraße, Bairbach, Telfs, Bezirk Innsbruck-Land, Tyrol, 6410, Austria"
    },
    {
      "lat": 47.295964891224806,
      "lon": 11.017820828391956,
      "geoinfo": {
        "display_name": "Inntal Autobahn, Stams, Bezirk Imst, Tyrol, 6422, Austria",
        "road": "Inntal Autobahn",
        "house_number": null,
        "neighbourhood": null,
        "suburb": null,
        "city_district": null,
        "city": "Stams",
        "state": "Tyrol",
        "postcode": "6422",
        "country": "Austria",
        "country_code": "at"
      },
      "address": "403, Inntal Autobahn, Telfs, 6422 Tyrol, Austria"
    }
  ],
  "updated_at": "2025-10-19T03:14:12.670790+00:00",
  "_kind": "geo_samples"
}