{
  "country_code": "AT",
  "country": "Austria",
  "city": "Wetzelsdorf",
  "geonameid": 2761436,
  "target_addresses": 2,
  "samples": [
    {
      "lat": 47.05363454906772,
      "lon": 15.3665089518167,
      "geoinfo": {
        "display_name": "Am Fichtengrund, Eggenberg, Graz, Bezirk Graz-Umgebung, Styria, 8052, Austria",
        "road": "Am Fichtengrund",
        "house_number": null,
        "neighbourhood": null,
        "suburb": "Eggenberg",
        "city_district": null,
        "city": "Graz",
        "state": "Styria",
        "postcode": "8052",
        "country": "Austria",
        "country_code": "at"
      },
      "address": "Am Fichtengrund, Wetzelsdorf, Styria, Austria"
    },
    {
      "lat": 47.04829857292174,
      "lon": 15.39124722529266,
      "geoinfo": {
        "display_name": "Straßganger Straße, Krottendorf, Wetzelsdorf, Graz, Styria, 8052, Austria",
        "road": "Straßganger Straße",
        "house_number": null,
        "neighbourhood": "Krottendorf",
        "suburb": "Wetzelsdorf",
        "city_district": null,
        "city": "Graz",
        "state": "Styria",
        "postcode": "8052",
        "country": "Austria",
        "country_code": "at"
      },
      "address": "Straßganger Straße, Wetzelsdorf, Styria, Austria"
    },
    {
      "lat": 47.08643966636369,
      "lon": 15.435388946854713,
      "geoinfo": {
        "display_name": "22, Heinrich-Casper-Gasse, Graben, Geidorf, Graz, Styria, 8010, Austria",
        "road": "Heinrich-Casper-Gasse",
        "house_number": "22",
        "neighbourhood": "Graben",
        "suburb": "Geidorf",
        "city_district": null,
        "city": "Graz",
        "state": "Styria",
        "postcode": "8010",
        "country": "Austria",
        "country_code": "at"
      },
      "address": "22, Heinrich-Casper-Gasse, Graben, Geidorf, Graz, Styria, 8010, Austria"
    },
    {
      "lat": 47.060254906980646,
      "lon": 15.40834507542981,
      "geoinfo": {
        "display_name": "26a, Kratkystraße, Reininghaus, Eggenberg, Graz, Styria, 8020, Austria",
        "road": "Kratkystraße",
        "house_number": "26a",
        "neighbourhood": "Reininghaus",
        "suburb": "Eggenberg",
        "city_district": null,
        "city": "Graz",
        "state": "Styria",
        "postcode": "8020",
        "country": "Austria",
        "country_code": "at"
      },
      "address": "26a, Kratkystraße, Reininghaus, Eggenberg, Graz, Styria, 8020, Austria"
    }
  ],
  "updated_at": "2025-10-19T02:33:00.749560+00:00",
  "_kind": "geo_samples"
}