{
  "country_code": "RS",
  "country": "Serbia",
  "city": "Inđija",
  "geonameid": 790015,
  "target_addresses": 2,
  "samples": [
    {
      "lat": 45.07745066769885,
      "lon": 20.08293390706167,
      "geoinfo": {
        "display_name": "Инђија Пустара, Indjija, Indjija Municipality, Srem Administrative District, Vojvodina, 22320, Serbia",
        "road": null,
        "house_number": null,
        "neighbourhood": null,
        "suburb": null,
        "city_district": null,
        "city": "Indjija Municipality",
        "state": "Vojvodina",
        "postcode": "22320",
        "country": "Serbia",
        "country_code": "rs"
      },
      "address": "Inđija, Vojvodina, Serbia"
    },
    {
      "lat": 45.06021392080673,
      "lon": 20.104645624791644,
      "geoinfo": {
        "display_name": "Agro Letač, 29, Војводе Путника, Indjija, Indjija Municipality, Srem Administrative District, Vojvodina, 22320, Serbia",
        "road": "Војводе Путника",
        "house_number": "29",
        "neighbourhood": null,
        "suburb": null,
        "city_district": null,
        "city": "Indjija Municipality",
        "state": "Vojvodina",
        "postcode": "22320",
        "country": "Serbia",
        "country_code": "rs"
      },
      "address": "29 Војводе Путника, Inđija, Vojvodina, Serbia"
    },
    {
      "lat": 45.06697369662443,
      "lon": 20.063807076312873,
      "geoinfo": {
        "display_name": "25, Voćarska, Indjija, Indjija Municipality, Srem Administrative District, Vojvodina, 22320, Serbia",
        "road": "Voćarska",
        "house_number": "25",
        "neighbourhood": null,
        "suburb": null,
        "city_district": null,
        "city": "Indjija Municipality",
        "state": "Vojvodina",
        "postcode": "22320",
        "country": "Serbia",
        "country_code": "rs"
      },
      "address": "25, Voćarska, Indjija, Indjija Municipality, Srem Administrative District, Vojvodina, 22320, Serbia"
    },
    {
      "lat": 45.04027100176385,
      "lon": 20.106993262204988,
      "geoinfo": {
        "display_name": "Indjija, Indjija Municipality, Srem Administrative District, Vojvodina, 22320, Serbia",
        "road": null,
        "house_number": null,
        "neighbourhood": null,
        "suburb": null,
        "city_district": null,
        "city": "Indjija Municipality",
        "state": "Vojvodina",
        "postcode": "22320",
        "country": "Serbia",
        "country_code": "rs"
      },
      "address": "049, Indjija, Indjija Municipality, Srem Administrative District, Vojvodina, 22320, Serbia"
    }
  ],
  "updated_at": "2025-10-19T06:47:00.718357+00:00",
  "_kind": "geo_samples"
}