{
  "country_code": "RS",
  "country": "Serbia",
  "city": "Novi Sad",
  "geonameid": 3194360,
  "target_addresses": 11,
  "samples": [
    {
      "lat": 45.21611942935103,
      "lon": 19.843997856142767,
      "geoinfo": {
        "display_name": "83, Седме војвођанске бригаде, МЗ Сремска Каменица, Sremska Kamenica, City of Novi Sad, South Backa Administrative District, Vojvodina, 21208, Serbia",
        "road": "Седме војвођанске бригаде",
        "house_number": "83",
        "neighbourhood": null,
        "suburb": "МЗ Сремска Каменица",
        "city_district": null,
        "city": "Sremska Kamenica",
        "state": "Vojvodina",
        "postcode": "21208",
        "country": "Serbia",
        "country_code": "rs"
      },
      "address": "83 Седме војвођанске бригаде, Novi Sad, Vojvodina, Serbia"
    },
    {
      "lat": 45.237079150139394,
      "lon": 19.827560384225027,
      "geoinfo": {
        "display_name": "Ive Andrica, МЗ Острво, Liman, Novi Sad, City of Novi Sad, South Backa Administrative District, Vojvodina, 21102, Serbia",
        "road": "Ive Andrica",
        "house_number": null,
        "neighbourhood": "МЗ Острво",
        "suburb": "Liman",
        "city_district": null,
        "city": "Novi Sad",
        "state": "Vojvodina",
        "postcode": "21102",
        "country": "Serbia",
        "country_code": "rs"
      },
      "address": "Ive Andrica, Novi Sad, Vojvodina, Serbia"
    },
    {
      "lat": 45.25598383786244,
      "lon": 19.780988273984253,
      "geoinfo": {
        "display_name": "МЗ Ветерник, Veternik, Novi Sad, City of Novi Sad, South Backa Administrative District, Vojvodina, 21203, Serbia",
        "road": null,
        "house_number": null,
        "neighbourhood": "МЗ Ветерник",
        "suburb": "Veternik",
        "city_district": null,
        "city": "Novi Sad",
        "state": "Vojvodina",
        "postcode": "21203",
        "country": "Serbia",
        "country_code": "rs"
      },
      "address": "МЗ Ветерник, Veternik, Novi Sad, City of Novi Sad, South Backa Administrative District, Vojvodina, 21203, Serbia"
    },
    {
      "lat": 45.26151813991812,
      "lon": 19.870220436289895,
      "geoinfo": {
        "display_name": "100, Dunavac, МЗ Петроварадин, Petrovaradin, City of Novi Sad, South Backa Administrative District, Vojvodina, 21132, Serbia",
        "road": "100",
        "house_number": null,
        "neighbourhood": "Dunavac",
        "suburb": "МЗ Петроварадин",
        "city_district": null,
        "city": "Petrovaradin",
        "state": "Vojvodina",
        "postcode": "21132",
        "country": "Serbia",
        "country_code": "rs"
      },
      "address": "100, Dunavac, МЗ Петроварадин, Petrovaradin, City of Novi Sad, South Backa Administrative District, Vojvodina, 21132, Serbia"
    },
    {
      "lat": 45.2310360942397,
      "lon": 19.869994004635146,
      "geoinfo": {
        "display_name": "Мишелук, МЗ Петроварадин, Petrovaradin, City of Novi Sad, South Backa Administrative District, Vojvodina, 21131, Serbia",
        "road": null,
        "house_number": null,
        "neighbourhood": null,
        "suburb": "МЗ Петроварадин",
        "city_district": null,
        "city": "Petrovaradin",
        "state": "Vojvodina",
        "postcode": "21131",
        "country": "Serbia",
        "country_code": "rs"
      },
      "address": "448, Мишелук, МЗ Петроварадин, Petrovaradin, City of Novi Sad, South Backa Administrative District, Vojvodina, 21131, Serbia"
    },
    {
      "lat": 45.2136402305021,
      "lon": 19.817536505208793,
      "geoinfo": {
        "display_name": "65, Ситара, Bocke, МЗ Сремска Каменица, Sremska Kamenica, City of Novi Sad, South Backa Administrative District, Vojvodina, 21207, Serbia",
        "road": "Ситара",
        "house_number": "65",
        "neighbourhood": "Bocke",
        "suburb": "МЗ Сремска Каменица",
        "city_district": null,
        "city": "Sremska Kamenica",
        "state": "Vojvodina",
        "postcode": "21207",
        "country": "Serbia",
        "country_code": "rs"
      },
      "address": "65, Ситара, Bocke, МЗ Сремска Каменица, Sremska Kamenica, City of Novi Sad, South Backa Administrative District, Vojvodina, 21207, Serbia"
    },
    {
      "lat": 45.212627435379126,
      "lon": 19.811917525457464,
      "geoinfo": {
        "display_name": "МЗ Ледници, Ledinci, City of Novi Sad, South Backa Administrative District, Vojvodina, 21207, Serbia",
        "road": null,
        "house_number": null,
        "neighbourhood": null,
        "suburb": "МЗ Ледници",
        "city_district": null,
        "city": "Ledinci",
        "state": "Vojvodina",
        "postcode": "21207",
        "country": "Serbia",
        "country_code": "rs"
      },
      "address": "856, МЗ Ледници, Ledinci, City of Novi Sad, South Backa Administrative District, Vojvodina, 21207, Serbia"
    },
    {
      "lat": 45.27942789336584,
      "lon": 19.78971856892527,
      "geoinfo": {
        "display_name": "73, Rumenacki put, Sajlovo, МЗ Сајлово, Novi Sad, City of Novi Sad, South Backa Administrative District, Vojvodina, 21000, Serbia",
        "road": "Rumenacki put",
        "house_number": "73",
        "neighbourhood": null,
        "suburb": "МЗ Сајлово",
        "city_district": null,
        "city": "Novi Sad",
        "state": "Vojvodina",
        "postcode": "21000",
        "country": "Serbia",
        "country_code": "rs"
      },
      "address": "73, Rumenacki put, Sajlovo, МЗ Сајлово, Novi Sad, City of Novi Sad, South Backa Administrative District, Vojvodina, 21000, Serbia"
    },
    {
      "lat": 45.264365461448946,
      "lon": 19.895346002445418,
      "geoinfo": {
        "display_name": "17, 21, Šangaj, МЗ Петроварадин, Novi Sad, City of Novi Sad, South Backa Administrative District, Vojvodina, 21132, Serbia",
        "road": "21",
        "house_number": "17",
        "neighbourhood": null,
        "suburb": "МЗ Петроварадин",
        "city_district": null,
        "city": "Novi Sad",
        "state": "Vojvodina",
        "postcode": "21132",
        "country": "Serbia",
        "country_code": "rs"
      },
      "address": "17, 21, Šangaj, МЗ Петроварадин, Novi Sad, City of Novi Sad, South Backa Administrative District, Vojvodina, 21132, Serbia"
    },
    {
      "lat": 45.247219845454154,
      "lon": 19.852629082420503,
      "geoinfo": {
        "display_name": "Трг Доситеја Обрадовића, Liman 1, Liman, Novi Sad, City of Novi Sad, South Backa Administrative District, Vojvodina, 21101, Serbia",
        "road": "Трг Доситеја Обрадовића",
        "house_number": null,
        "neighbourhood": null,
        "suburb": "Liman",
        "city_district": null,
        "city": "Novi Sad",
        "state": "Vojvodina",
        "postcode": "21101",
        "country": "Serbia",
        "country_code": "rs"
      },
      "address": "Трг Доситеја Обрадовића, Liman 1, Liman, Novi Sad, City of Novi Sad, South Backa Administrative District, Vojvodina, 21101, Serbia"
    },
    {
      "lat": 45.221265364178485,
      "lon": 19.836517577025273,
      "geoinfo": {
        "display_name": "16, Milosa Obilica, Кип, МЗ Сремска Каменица, Sremska Kamenica, City of Novi Sad, South Backa Administrative District, Vojvodina, 21208, Serbia",
        "road": "Milosa Obilica",
        "house_number": "16",
        "neighbourhood": "Кип",
        "suburb": "МЗ Сремска Каменица",
        "city_district": null,
        "city": "Sremska Kamenica",
        "state": "Vojvodina",
        "postcode": "21208",
        "country": "Serbia",
        "country_code": "rs"
      },
      "address": "16, Milosa Obilica, Кип, МЗ Сремска Каменица, Sremska Kamenica, City of Novi Sad, South Backa Administrative District, Vojvodina, 21208, Serbia"
    }
  ],
  "updated_at": "2025-10-19T06:13:11.344914+00:00",
  "_kind": "geo_samples"
}