{
  "country_code": "RS",
  "country": "Serbia",
  "city": "Obrenovac",
  "geonameid": 787516,
  "target_addresses": 2,
  "samples": [
    {
      "lat": 44.688615808711596,
      "lon": 20.17511912628978,
      "geoinfo": {
        "display_name": "Progar, Surcin Urban Municipality, City of Belgrade, Central Serbia, Serbia",
        "road": null,
        "house_number": null,
        "neighbourhood": null,
        "suburb": null,
        "city_district": null,
        "city": "Surcin Urban Municipality",
        "state": "Central Serbia",
        "postcode": null,
        "country": "Serbia",
        "country_code": "rs"
      },
      "address": "Obrenovac, Central Serbia, Serbia"
    },
    {
      "lat": 44.66937500424109,
      "lon": 20.15345019070513,
      "geoinfo": {
        "display_name": "Богољуба Урошевића Црног, Urovci, Obrenovac Urban Municipality, City of Belgrade, Central Serbia, Serbia",
        "road": "Богољуба Урошевића Црног",
        "house_number": null,
        "neighbourhood": null,
        "suburb": null,
        "city_district": null,
        "city": "Obrenovac Urban Municipality",
        "state": "Central Serbia",
        "postcode": null,
        "country": "Serbia",
        "country_code": "rs"
      },
      "address": "Богољуба Урошевића Црног, Obrenovac, Central Serbia, Serbia"
    },
    {
      "lat": 44.67143264531199,
      "lon": 20.179831918790377,
      "geoinfo": {
        "display_name": "130a, Nemanjina, Obrenovac, Obrenovac Urban Municipality, City of Belgrade, Central Serbia, 11500, Serbia",
        "road": "Nemanjina",
        "house_number": "130a",
        "neighbourhood": null,
        "suburb": null,
        "city_district": null,
        "city": "Obrenovac Urban Municipality",
        "state": "Central Serbia",
        "postcode": "11500",
        "country": "Serbia",
        "country_code": "rs"
      },
      "address": "130a, Nemanjina, Obrenovac, Obrenovac Urban Municipality, City of Belgrade, Central Serbia, 11500, Serbia"
    },
    {
      "lat": 44.66944675541182,
      "lon": 20.22415131405848,
      "geoinfo": {
        "display_name": "Zabrezje, Obrenovac Urban Municipality, City of Belgrade, Central Serbia, Serbia",
        "road": null,
        "house_number": null,
        "neighbourhood": null,
        "suburb": null,
        "city_district": null,
        "city": "Obrenovac Urban Municipality",
        "state": "Central Serbia",
        "postcode": null,
        "country": "Serbia",
        "country_code": "rs"
      },
      "address": "106, Zabrezje, Obrenovac Urban Municipality, City of Belgrade, 99408 Central Serbia, Serbia"
    }
  ],
  "updated_at": "2025-10-19T06:42:47.141341+00:00",
  "_kind": "geo_samples"
}