{
  "country_code": "RS",
  "country": "Serbia",
  "city": "Pančevo",
  "geonameid": 787237,
  "target_addresses": 2,
  "samples": [
    {
      "lat": 44.862299432144425,
      "lon": 20.591002173860808,
      "geoinfo": {
        "display_name": "M6, Reva, Palilula, Palilula Urban Municipality, Belgrade, City of Belgrade, Central Serbia, 11060, Serbia",
        "road": "M6",
        "house_number": null,
        "neighbourhood": "Reva",
        "suburb": "Palilula",
        "city_district": null,
        "city": "Belgrade",
        "state": "Central Serbia",
        "postcode": "11060",
        "country": "Serbia",
        "country_code": "rs"
      },
      "address": "M6, Pančevo, Central Serbia, Serbia"
    },
    {
      "lat": 44.910237546193315,
      "lon": 20.647601040433273,
      "geoinfo": {
        "display_name": "77, Ратарска, МЗ Горњи град, Pančevo, City of Pančevo, South Banat Administrative District, Vojvodina, 26000, Serbia",
        "road": "Ратарска",
        "house_number": "77",
        "neighbourhood": null,
        "suburb": "МЗ Горњи град",
        "city_district": null,
        "city": "Pančevo",
        "state": "Vojvodina",
        "postcode": "26000",
        "country": "Serbia",
        "country_code": "rs"
      },
      "address": "77 Ратарска, Pančevo, Vojvodina, Serbia"
    },
    {
      "lat": 44.83120515503526,
      "lon": 20.641482206206742,
      "geoinfo": {
        "display_name": "МЗ Центар, Pančevo, City of Pančevo, South Banat Administrative District, Vojvodina, Serbia",
        "road": null,
        "house_number": null,
        "neighbourhood": null,
        "suburb": "МЗ Центар",
        "city_district": null,
        "city": "Pančevo",
        "state": "Vojvodina",
        "postcode": null,
        "country": "Serbia",
        "country_code": "rs"
      },
      "address": "739, МЗ Центар, Pančevo, City of Pančevo, South Banat Administrative District, 52979 Vojvodina, Serbia"
    },
    {
      "lat": 44.85648726457356,
      "lon": 20.69504444348243,
      "geoinfo": {
        "display_name": "МЗ Војловица, Pančevo, City of Pančevo, South Banat Administrative District, Vojvodina, Serbia",
        "road": null,
        "house_number": null,
        "neighbourhood": null,
        "suburb": "МЗ Војловица",
        "city_district": null,
        "city": "Pančevo",
        "state": "Vojvodina",
        "postcode": null,
        "country": "Serbia",
        "country_code": "rs"
      },
      "address": "693, МЗ Војловица, Pančevo, City of Pančevo, South Banat Administrative District, 82084 Vojvodina, Serbia"
    }
  ],
  "updated_at": "2025-10-19T09:26:18.635908+00:00",
  "_kind": "geo_samples"
}