{
  "country_code": "RS",
  "country": "Serbia",
  "city": "Pirot",
  "geonameid": 787050,
  "target_addresses": 11,
  "samples": [
    {
      "lat": 43.166709116926256,
      "lon": 22.60892690010054,
      "geoinfo": {
        "display_name": "Ђерам, Berilovac, Pirot, City of Pirot, Pirot Administrative District, Central Serbia, 18300, Serbia",
        "road": null,
        "house_number": null,
        "neighbourhood": "Ђерам",
        "suburb": null,
        "city_district": "Berilovac",
        "city": "Pirot",
        "state": "Central Serbia",
        "postcode": "18300",
        "country": "Serbia",
        "country_code": "rs"
      },
      "address": "Ђерам, Pirot, Central Serbia, Serbia"
    },
    {
      "lat": 43.13279329562915,
      "lon": 22.628661692100984,
      "geoinfo": {
        "display_name": "Пољска Ржана, Poljska Rzana, City of Pirot, Pirot Administrative District, Central Serbia, 18300, Serbia",
        "road": "Пољска Ржана",
        "house_number": null,
        "neighbourhood": null,
        "suburb": null,
        "city_district": null,
        "city": "Poljska Rzana",
        "state": "Central Serbia",
        "postcode": "18300",
        "country": "Serbia",
        "country_code": "rs"
      },
      "address": "Пољска Ржана, Pirot, Central Serbia, Serbia"
    },
    {
      "lat": 43.114879139639996,
      "lon": 22.57418204430555,
      "geoinfo": {
        "display_name": "Присјанско Насеље, Prisjan, Pirot, City of Pirot, Pirot Administrative District, Central Serbia, Serbia",
        "road": null,
        "house_number": null,
        "neighbourhood": null,
        "suburb": null,
        "city_district": "Prisjan",
        "city": "Pirot",
        "state": "Central Serbia",
        "postcode": null,
        "country": "Serbia",
        "country_code": "rs"
      },
      "address": "Prisjan, Pirot, 61412 Central Serbia, Serbia"
    },
    {
      "lat": 43.178968763528715,
      "lon": 22.632492602265618,
      "geoinfo": {
        "display_name": "Berilovac, City of Pirot, Pirot Administrative District, Central Serbia, 18300, Serbia",
        "road": null,
        "house_number": null,
        "neighbourhood": null,
        "suburb": null,
        "city_district": null,
        "city": "Berilovac",
        "state": "Central Serbia",
        "postcode": "18300",
        "country": "Serbia",
        "country_code": "rs"
      },
      "address": "791, Berilovac, City of Pirot, Pirot Administrative District, Central Serbia, 18300, Serbia"
    },
    {
      "lat": 43.14319054584939,
      "lon": 22.620509472161427,
      "geoinfo": {
        "display_name": "Кружни пут Пирот-Крупац-Пирот, Izvor, Berilovac, City of Pirot, Pirot Administrative District, Central Serbia, 18300, Serbia",
        "road": "Кружни пут Пирот-Крупац-Пирот",
        "house_number": null,
        "neighbourhood": null,
        "suburb": null,
        "city_district": "Izvor",
        "city": "Berilovac",
        "state": "Central Serbia",
        "postcode": "18300",
        "country": "Serbia",
        "country_code": "rs"
      },
      "address": "332, Кружни пут Пирот-Крупац-Пирот, Izvor, Berilovac, City of Pirot, Pirot Administrative District, Central Serbia, 18300, Serbia"
    },
    {
      "lat": 43.13451873591617,
      "lon": 22.590654988813775,
      "geoinfo": {
        "display_name": "259, Присјанско Насеље, Pirot, City of Pirot, Pirot Administrative District, Central Serbia, 18300, Serbia",
        "road": "259",
        "house_number": null,
        "neighbourhood": null,
        "suburb": null,
        "city_district": null,
        "city": "Pirot",
        "state": "Central Serbia",
        "postcode": "18300",
        "country": "Serbia",
        "country_code": "rs"
      },
      "address": "259, Присјанско Насеље, Pirot, City of Pirot, Pirot Administrative District, Central Serbia, 18300, Serbia"
    },
    {
      "lat": 43.18709586267979,
      "lon": 22.60750571538958,
      "geoinfo": {
        "display_name": "Gradasnica, City of Pirot, Pirot Administrative District, Central Serbia, Serbia",
        "road": null,
        "house_number": null,
        "neighbourhood": null,
        "suburb": null,
        "city_district": null,
        "city": "Gradasnica",
        "state": "Central Serbia",
        "postcode": null,
        "country": "Serbia",
        "country_code": "rs"
      },
      "address": "378, Gradasnica, City of Pirot, Pirot Administrative District, 80800 Central Serbia, Serbia"
    },
    {
      "lat": 43.192824176611325,
      "lon": 22.584491745148867,
      "geoinfo": {
        "display_name": "Gradasnica, City of Pirot, Pirot Administrative District, Central Serbia, 18300, Serbia",
        "road": null,
        "house_number": null,
        "neighbourhood": null,
        "suburb": null,
        "city_district": null,
        "city": "Gradasnica",
        "state": "Central Serbia",
        "postcode": "18300",
        "country": "Serbia",
        "country_code": "rs"
      },
      "address": "743, Gradasnica, City of Pirot, Pirot Administrative District, Central Serbia, 18300, Serbia"
    },
    {
      "lat": 43.14049892072392,
      "lon": 22.570177877541894,
      "geoinfo": {
        "display_name": "A4, Barje Ciflik, Pirot, City of Pirot, Pirot Administrative District, Central Serbia, 18300, Serbia",
        "road": "A4",
        "house_number": null,
        "neighbourhood": null,
        "suburb": null,
        "city_district": "Barje Ciflik",
        "city": "Pirot",
        "state": "Central Serbia",
        "postcode": "18300",
        "country": "Serbia",
        "country_code": "rs"
      },
      "address": "A4, Barje Ciflik, Pirot, City of Pirot, Pirot Administrative District, Central Serbia, 18300, Serbia"
    },
    {
      "lat": 43.17390506158493,
      "lon": 22.567623536698463,
      "geoinfo": {
        "display_name": "Pirot, City of Pirot, Pirot Administrative District, Central Serbia, 18300, Serbia",
        "road": null,
        "house_number": null,
        "neighbourhood": null,
        "suburb": null,
        "city_district": null,
        "city": "Pirot",
        "state": "Central Serbia",
        "postcode": "18300",
        "country": "Serbia",
        "country_code": "rs"
      },
      "address": "441, Pirot, City of Pirot, Pirot Administrative District, Central Serbia, 18300, Serbia"
    },
    {
      "lat": 43.183402307909454,
      "lon": 22.619522252494352,
      "geoinfo": {
        "display_name": "Gradasnica, City of Pirot, Pirot Administrative District, Central Serbia, Serbia",
        "road": null,
        "house_number": null,
        "neighbourhood": null,
        "suburb": null,
        "city_district": null,
        "city": "Gradasnica",
        "state": "Central Serbia",
        "postcode": null,
        "country": "Serbia",
        "country_code": "rs"
      },
      "address": "502, Gradasnica, City of Pirot, Pirot Administrative District, 26617 Central Serbia, Serbia"
    }
  ],
  "updated_at": "2025-10-19T06:12:48.341447+00:00",
  "_kind": "geo_samples"
}