{
  "country_code": "RS",
  "country": "Serbia",
  "city": "Požarevac",
  "geonameid": 786827,
  "target_addresses": 2,
  "samples": [
    {
      "lat": 44.61648284531954,
      "lon": 21.148951795616757,
      "geoinfo": {
        "display_name": "Моравска, Pozarevac, Pozarevac Urban Municipality, City of Pozarevac, Branicevo Administrative District, Central Serbia, 12000, Serbia",
        "road": "Моравска",
        "house_number": null,
        "neighbourhood": null,
        "suburb": null,
        "city_district": null,
        "city": "Pozarevac",
        "state": "Central Serbia",
        "postcode": "12000",
        "country": "Serbia",
        "country_code": "rs"
      },
      "address": "Моравска, Požarevac, Central Serbia, Serbia"
    },
    {
      "lat": 44.659771406119184,
      "lon": 21.209742901269287,
      "geoinfo": {
        "display_name": "Cirikovac, Pozarevac Urban Municipality, City of Pozarevac, Branicevo Administrative District, Central Serbia, Serbia",
        "road": null,
        "house_number": null,
        "neighbourhood": null,
        "suburb": null,
        "city_district": null,
        "city": "Pozarevac Urban Municipality",
        "state": "Central Serbia",
        "postcode": null,
        "country": "Serbia",
        "country_code": "rs"
      },
      "address": "Požarevac, Central Serbia, Serbia"
    },
    {
      "lat": 44.606225528445584,
      "lon": 21.14981183863753,
      "geoinfo": {
        "display_name": "Pozarevac, Pozarevac Urban Municipality, City of Pozarevac, Branicevo Administrative District, Central Serbia, 12000, Serbia",
        "road": null,
        "house_number": null,
        "neighbourhood": null,
        "suburb": null,
        "city_district": null,
        "city": "Pozarevac Urban Municipality",
        "state": "Central Serbia",
        "postcode": "12000",
        "country": "Serbia",
        "country_code": "rs"
      },
      "address": "903, Požarevac, 12000 Central Serbia, Serbia"
    },
    {
      "lat": 44.60809690583579,
      "lon": 21.239571332374904,
      "geoinfo": {
        "display_name": "Trnjane, Pozarevac Urban Municipality, City of Pozarevac, Branicevo Administrative District, Central Serbia, Serbia",
        "road": null,
        "house_number": null,
        "neighbourhood": null,
        "suburb": null,
        "city_district": null,
        "city": "Pozarevac Urban Municipality",
        "state": "Central Serbia",
        "postcode": null,
        "country": "Serbia",
        "country_code": "rs"
      },
      "address": "356, Požarevac, 77124 Central Serbia, Serbia"
    }
  ],
  "updated_at": "2025-10-19T09:26:06.651855+00:00",
  "_kind": "geo_samples"
}