{
  "country_code": "RS",
  "country": "Serbia",
  "city": "Trstenik",
  "geonameid": 784873,
  "target_addresses": 2,
  "samples": [
    {
      "lat": 43.635629357262474,
      "lon": 21.051009367534142,
      "geoinfo": {
        "display_name": "Медвеђа, Medvedja, Trstenik Municipality, Rasina Administrative District, Central Serbia, 37244, Serbia",
        "road": "Медвеђа",
        "house_number": null,
        "neighbourhood": null,
        "suburb": null,
        "city_district": null,
        "city": "Trstenik Municipality",
        "state": "Central Serbia",
        "postcode": "37244",
        "country": "Serbia",
        "country_code": "rs"
      },
      "address": "Медвеђа, Trstenik, Central Serbia, Serbia"
    },
    {
      "lat": 43.60434278084018,
      "lon": 21.046696657654227,
      "geoinfo": {
        "display_name": "Оџаци, Odzaci, Trstenik Municipality, Rasina Administrative District, Central Serbia, 37243, Serbia",
        "road": "Оџаци",
        "house_number": null,
        "neighbourhood": null,
        "suburb": null,
        "city_district": null,
        "city": "Trstenik Municipality",
        "state": "Central Serbia",
        "postcode": "37243",
        "country": "Serbia",
        "country_code": "rs"
      },
      "address": "Оџаци, Trstenik, Central Serbia, Serbia"
    },
    {
      "lat": 43.603701938676814,
      "lon": 20.969566455673405,
      "geoinfo": {
        "display_name": "Osaonica, Trstenik Municipality, Rasina Administrative District, Central Serbia, Serbia",
        "road": null,
        "house_number": null,
        "neighbourhood": null,
        "suburb": null,
        "city_district": null,
        "city": "Trstenik Municipality",
        "state": "Central Serbia",
        "postcode": null,
        "country": "Serbia",
        "country_code": "rs"
      },
      "address": "646, Osaonica, Trstenik Municipality, Rasina Administrative District, 08019 Central Serbia, Serbia"
    },
    {
      "lat": 43.59234511215605,
      "lon": 21.04800372641224,
      "geoinfo": {
        "display_name": "131, Горњи Рибник, Gornji Ribnik, Trstenik Municipality, Rasina Administrative District, Central Serbia, 37243, Serbia",
        "road": "Горњи Рибник",
        "house_number": "131",
        "neighbourhood": null,
        "suburb": null,
        "city_district": null,
        "city": "Trstenik Municipality",
        "state": "Central Serbia",
        "postcode": "37243",
        "country": "Serbia",
        "country_code": "rs"
      },
      "address": "131, Горњи Рибник, Gornji Ribnik, Trstenik Municipality, Rasina Administrative District, Central Serbia, 37243, Serbia"
    }
  ],
  "updated_at": "2025-10-19T04:30:00.333471+00:00",
  "_kind": "geo_samples"
}