{
  "country_code": "RS",
  "country": "Serbia",
  "city": "Užice",
  "geonameid": 3188434,
  "target_addresses": 2,
  "samples": [
    {
      "lat": 43.85319420851183,
      "lon": 19.81486603911821,
      "geoinfo": {
        "display_name": "Зелена стаза, Турица, Коштица, Uzice, City of Užice, Zlatibor Administrative District, Central Serbia, 31104, Serbia",
        "road": "Зелена стаза",
        "house_number": null,
        "neighbourhood": "Турица",
        "suburb": "Коштица",
        "city_district": "Uzice",
        "city": "Uzice",
        "state": "Central Serbia",
        "postcode": "31104",
        "country": "Serbia",
        "country_code": "rs"
      },
      "address": "Зелена стаза, Užice, Central Serbia, Serbia"
    },
    {
      "lat": 43.878178461529444,
      "lon": 19.84443723813998,
      "geoinfo": {
        "display_name": "17b, Бате Живојиновића, Царина, Месна заједница Дубоко, Duboko, Uzice, City of Užice, Zlatibor Administrative District, Central Serbia, 31106, Serbia",
        "road": "Бате Живојиновића",
        "house_number": "17b",
        "neighbourhood": null,
        "suburb": "Месна заједница Дубоко",
        "city_district": null,
        "city": "Uzice",
        "state": "Central Serbia",
        "postcode": "31106",
        "country": "Serbia",
        "country_code": "rs"
      },
      "address": "17b Бате Живојиновића, Užice, Central Serbia, Serbia"
    },
    {
      "lat": 43.88912677051536,
      "lon": 19.886947305807364,
      "geoinfo": {
        "display_name": "Доњи гајеви, Месна заједница Дубоко, Duboko, Uzice, City of Užice, Zlatibor Administrative District, Central Serbia, 31103, Serbia",
        "road": "Доњи гајеви",
        "house_number": null,
        "neighbourhood": null,
        "suburb": "Месна заједница Дубоко",
        "city_district": null,
        "city": "Uzice",
        "state": "Central Serbia",
        "postcode": "31103",
        "country": "Serbia",
        "country_code": "rs"
      },
      "address": "343, Доњи гајеви, Месна заједница Дубоко, Duboko, Uzice, City of Užice, Zlatibor Administrative District, Central Serbia, 31103, Serbia"
    },
    {
      "lat": 43.86936003762919,
      "lon": 19.829789138042095,
      "geoinfo": {
        "display_name": "96a, Пора, Алексића мост, Доња Пора, Uzice, City of Užice, Zlatibor Administrative District, Central Serbia, 31106, Serbia",
        "road": "Пора",
        "house_number": "96a",
        "neighbourhood": "Алексића мост",
        "suburb": "Доња Пора",
        "city_district": "Uzice",
        "city": "Uzice",
        "state": "Central Serbia",
        "postcode": "31106",
        "country": "Serbia",
        "country_code": "rs"
      },
      "address": "96a, Пора, Алексића мост, Доња Пора, Uzice, City of Užice, Zlatibor Administrative District, Central Serbia, 31106, Serbia"
    }
  ],
  "updated_at": "2025-10-19T05:20:52.121819+00:00",
  "_kind": "geo_samples"
}