{
  "country_code": "RS",
  "country": "Serbia",
  "city": "Zemun",
  "geonameid": 783920,
  "target_addresses": 11,
  "samples": [
    {
      "lat": 44.82761695818115,
      "lon": 20.378754453471267,
      "geoinfo": {
        "display_name": "17a, Рајкова, Блок 52, Bezanijska Kosa, New Belgrade, Belgrade, City of Belgrade, Central Serbia, 11080, Serbia",
        "road": "Рајкова",
        "house_number": "17a",
        "neighbourhood": null,
        "suburb": "New Belgrade",
        "city_district": null,
        "city": "Belgrade",
        "state": "Central Serbia",
        "postcode": "11080",
        "country": "Serbia",
        "country_code": "rs"
      },
      "address": "17a Рајкова, Zemun, Central Serbia, Serbia"
    },
    {
      "lat": 44.82852063354392,
      "lon": 20.424116569585163,
      "geoinfo": {
        "display_name": "Žabar, Обала краља Александра I Карађорђевића, Danube Quay, Zemun, Zemun Urban Municipality, City of Belgrade, Central Serbia, 11070, Serbia",
        "road": "Обала краља Александра I Карађорђевића",
        "house_number": null,
        "neighbourhood": "Danube Quay",
        "suburb": "Zemun",
        "city_district": null,
        "city": "Zemun Urban Municipality",
        "state": "Central Serbia",
        "postcode": "11070",
        "country": "Serbia",
        "country_code": "rs"
      },
      "address": "Обала краља Александра I Карађорђевића, Zemun, Central Serbia, Serbia"
    },
    {
      "lat": 44.839429840570766,
      "lon": 20.38580842203421,
      "geoinfo": {
        "display_name": "27, Железничка, Sava Kovačević, Zemun, Zemun Urban Municipality, City of Belgrade, Central Serbia, 11080, Serbia",
        "road": "Железничка",
        "house_number": "27",
        "neighbourhood": "Sava Kovačević",
        "suburb": "Zemun",
        "city_district": null,
        "city": "Zemun Urban Municipality",
        "state": "Central Serbia",
        "postcode": "11080",
        "country": "Serbia",
        "country_code": "rs"
      },
      "address": "27, Железничка, Sava Kovačević, Zemun, Zemun Urban Municipality, City of Belgrade, Central Serbia, 11080, Serbia"
    },
    {
      "lat": 44.80280502834366,
      "lon": 20.405978328782616,
      "geoinfo": {
        "display_name": "23v, Jurija Gagarina, Belvil, Sava Quay, New Belgrade, Belgrade, City of Belgrade, Central Serbia, 11070, Serbia",
        "road": "Jurija Gagarina",
        "house_number": "23v",
        "neighbourhood": "Belvil",
        "suburb": "New Belgrade",
        "city_district": null,
        "city": "Belgrade",
        "state": "Central Serbia",
        "postcode": "11070",
        "country": "Serbia",
        "country_code": "rs"
      },
      "address": "23v, Jurija Gagarina, Belvil, Sava Quay, New Belgrade, Belgrade, City of Belgrade, Central Serbia, 11070, Serbia"
    },
    {
      "lat": 44.83975698659331,
      "lon": 20.39377568889853,
      "geoinfo": {
        "display_name": "13, Marije Bursac, Импа, Zemun, Zemun Urban Municipality, City of Belgrade, Central Serbia, 11080, Serbia",
        "road": "Marije Bursac",
        "house_number": "13",
        "neighbourhood": null,
        "suburb": "Zemun",
        "city_district": null,
        "city": "Zemun Urban Municipality",
        "state": "Central Serbia",
        "postcode": "11080",
        "country": "Serbia",
        "country_code": "rs"
      },
      "address": "13, Marije Bursac, Импа, Zemun, Zemun Urban Municipality, City of Belgrade, Central Serbia, 11080, Serbia"
    },
    {
      "lat": 44.860963392473835,
      "lon": 20.36610694650667,
      "geoinfo": {
        "display_name": "Батајнички друм 1. део, МЗ Нова Галеника, Zemun, Zemun Urban Municipality, City of Belgrade, Central Serbia, 11186, Serbia",
        "road": "Батајнички друм 1. део",
        "house_number": null,
        "neighbourhood": "МЗ Нова Галеника",
        "suburb": "Zemun",
        "city_district": null,
        "city": "Zemun Urban Municipality",
        "state": "Central Serbia",
        "postcode": "11186",
        "country": "Serbia",
        "country_code": "rs"
      },
      "address": "Батајнички друм 1. део, МЗ Нова Галеника, Zemun, Zemun Urban Municipality, City of Belgrade, Central Serbia, 11186, Serbia"
    },
    {
      "lat": 44.85683078827537,
      "lon": 20.408268422752958,
      "geoinfo": {
        "display_name": "Др Крсте Драгомировића, Stara Borča, Borča, Palilula Urban Municipality, City of Belgrade, Central Serbia, 11000, Serbia",
        "road": "Др Крсте Драгомировића",
        "house_number": null,
        "neighbourhood": null,
        "suburb": "Palilula Urban Municipality",
        "city_district": null,
        "city": "Borča",
        "state": "Central Serbia",
        "postcode": "11000",
        "country": "Serbia",
        "country_code": "rs"
      },
      "address": "784, Др Крсте Драгомировића, Stara Borča, Borča, Palilula Urban Municipality, City of Belgrade, Central Serbia, 11000, Serbia"
    },
    {
      "lat": 44.822628696337006,
      "lon": 20.39466477297578,
      "geoinfo": {
        "display_name": "212, Тошин бунар, Bezanijska Kosa, New Belgrade, Belgrade, City of Belgrade, Central Serbia, 11070, Serbia",
        "road": "Тошин бунар",
        "house_number": "212",
        "neighbourhood": null,
        "suburb": "New Belgrade",
        "city_district": null,
        "city": "Belgrade",
        "state": "Central Serbia",
        "postcode": "11070",
        "country": "Serbia",
        "country_code": "rs"
      },
      "address": "212, Тошин бунар, Bezanijska Kosa, New Belgrade, Belgrade, City of Belgrade, Central Serbia, 11070, Serbia"
    },
    {
      "lat": 44.85709741107355,
      "lon": 20.424351174705503,
      "geoinfo": {
        "display_name": "Пут за Црвенку, Stara Borča, Borča, Palilula Urban Municipality, City of Belgrade, Central Serbia, 11000, Serbia",
        "road": "Пут за Црвенку",
        "house_number": null,
        "neighbourhood": null,
        "suburb": "Palilula Urban Municipality",
        "city_district": null,
        "city": "Borča",
        "state": "Central Serbia",
        "postcode": "11000",
        "country": "Serbia",
        "country_code": "rs"
      },
      "address": "222, Пут за Црвенку, Stara Borča, Borča, Palilula Urban Municipality, City of Belgrade, Central Serbia, 11000, Serbia"
    },
    {
      "lat": 44.80534582409251,
      "lon": 20.4121026920112,
      "geoinfo": {
        "display_name": "BBC, 12, Jurija Gagarina, Belvil, Sava Quay, New Belgrade, Belgrade, City of Belgrade, Central Serbia, 11070, Serbia",
        "road": "Jurija Gagarina",
        "house_number": "12",
        "neighbourhood": "Belvil",
        "suburb": "New Belgrade",
        "city_district": null,
        "city": "Belgrade",
        "state": "Central Serbia",
        "postcode": "11070",
        "country": "Serbia",
        "country_code": "rs"
      },
      "address": "BBC, 12, Jurija Gagarina, Belvil, Sava Quay, New Belgrade, Belgrade, City of Belgrade, Central Serbia, 11070, Serbia"
    },
    {
      "lat": 44.8206108430999,
      "lon": 20.441927937869586,
      "geoinfo": {
        "display_name": "Museum of Contemporary Art, 10, Ушће, MZ Usce, New Belgrade, Belgrade, City of Belgrade, Central Serbia, 11070, Serbia",
        "road": "Ушће",
        "house_number": "10",
        "neighbourhood": "MZ Usce",
        "suburb": "New Belgrade",
        "city_district": null,
        "city": "Belgrade",
        "state": "Central Serbia",
        "postcode": "11070",
        "country": "Serbia",
        "country_code": "rs"
      },
      "address": "Museum of Contemporary Art, 10, Ушће, MZ Usce, New Belgrade, Belgrade, City of Belgrade, Central Serbia, 11070, Serbia"
    }
  ],
  "updated_at": "2025-10-19T06:12:26.396958+00:00",
  "_kind": "geo_samples"
}