{
  "country_code": "RS",
  "country": "Serbia",
  "city": "Čačak",
  "geonameid": 792078,
  "target_addresses": 2,
  "samples": [
    {
      "lat": 43.8868227260448,
      "lon": 20.407481004036082,
      "geoinfo": {
        "display_name": "Пут за Петровиће, Konjevici, City of Čačak, Moravica Administrative District, Central Serbia, 32103, Serbia",
        "road": "Пут за Петровиће",
        "house_number": null,
        "neighbourhood": null,
        "suburb": null,
        "city_district": null,
        "city": "Konjevici",
        "state": "Central Serbia",
        "postcode": "32103",
        "country": "Serbia",
        "country_code": "rs"
      },
      "address": "Пут за Петровиће, Čačak, Central Serbia, Serbia"
    },
    {
      "lat": 43.9152912505432,
      "lon": 20.355626029435985,
      "geoinfo": {
        "display_name": "36đ, Старчевића пут, Затежићи, MZ Ljubic, Cacak, City of Čačak, Moravica Administrative District, Central Serbia, 32000, Serbia",
        "road": "Старчевића пут",
        "house_number": "36đ",
        "neighbourhood": null,
        "suburb": "MZ Ljubic",
        "city_district": null,
        "city": "Cacak",
        "state": "Central Serbia",
        "postcode": "32000",
        "country": "Serbia",
        "country_code": "rs"
      },
      "address": "36đ Старчевића пут, Čačak, Central Serbia, Serbia"
    },
    {
      "lat": 43.87410619473754,
      "lon": 20.304143859272546,
      "geoinfo": {
        "display_name": "Kosutnjak, Pridvorica, City of Čačak, Moravica Administrative District, Central Serbia, 32106, Serbia",
        "road": null,
        "house_number": null,
        "neighbourhood": null,
        "suburb": "Kosutnjak",
        "city_district": null,
        "city": "Pridvorica",
        "state": "Central Serbia",
        "postcode": "32106",
        "country": "Serbia",
        "country_code": "rs"
      },
      "address": "520, Kosutnjak, Čačak, 32106 Central Serbia, Serbia"
    },
    {
      "lat": 43.91957068397687,
      "lon": 20.396052156326977,
      "geoinfo": {
        "display_name": "A5, MZ Konjevići, Rakova, City of Čačak, Moravica Administrative District, Central Serbia, 32210, Serbia",
        "road": "A5",
        "house_number": null,
        "neighbourhood": null,
        "suburb": "MZ Konjevići",
        "city_district": null,
        "city": "Rakova",
        "state": "Central Serbia",
        "postcode": "32210",
        "country": "Serbia",
        "country_code": "rs"
      },
      "address": "A5, MZ Konjevići, Rakova, City of Čačak, Moravica Administrative District, Central Serbia, 32210, Serbia"
    }
  ],
  "updated_at": "2025-10-19T06:20:39.392946+00:00",
  "_kind": "geo_samples"
}