{
  "country_code": "RS",
  "country": "Serbia",
  "city": "Šabac",
  "geonameid": 3191376,
  "target_addresses": 2,
  "samples": [
    {
      "lat": 44.744421354825946,
      "lon": 19.717320844223302,
      "geoinfo": {
        "display_name": "32, Хајдук Вељкова, Donji šor, Šabac, City of Šabac, Macva Administrative District, Central Serbia, 15000, Serbia",
        "road": "Хајдук Вељкова",
        "house_number": "32",
        "neighbourhood": null,
        "suburb": "Donji šor",
        "city_district": null,
        "city": "Šabac",
        "state": "Central Serbia",
        "postcode": "15000",
        "country": "Serbia",
        "country_code": "rs"
      },
      "address": "32 Хајдук Вељкова, Šabac, Central Serbia, Serbia"
    },
    {
      "lat": 44.78093210007866,
      "lon": 19.660208737759792,
      "geoinfo": {
        "display_name": "Табановачка, Donja Mala, Kamičak, Majur, City of Šabac, Macva Administrative District, Central Serbia, 15353, Serbia",
        "road": "Табановачка",
        "house_number": null,
        "neighbourhood": "Donja Mala",
        "suburb": "Kamičak",
        "city_district": null,
        "city": "Majur",
        "state": "Central Serbia",
        "postcode": "15353",
        "country": "Serbia",
        "country_code": "rs"
      },
      "address": "Табановачка, Šabac, Central Serbia, Serbia"
    },
    {
      "lat": 44.710903485508254,
      "lon": 19.685375835073128,
      "geoinfo": {
        "display_name": "Доситеја Обрадовића, Gornja Vranjska, City of Šabac, Macva Administrative District, Central Serbia, Serbia",
        "road": "Доситеја Обрадовића",
        "house_number": null,
        "neighbourhood": null,
        "suburb": null,
        "city_district": null,
        "city": "Gornja Vranjska",
        "state": "Central Serbia",
        "postcode": null,
        "country": "Serbia",
        "country_code": "rs"
      },
      "address": "377, Доситеја Обрадовића, Gornja Vranjska, City of Šabac, Macva Administrative District, 08023 Central Serbia, Serbia"
    },
    {
      "lat": 44.715864430432596,
      "lon": 19.704161944879175,
      "geoinfo": {
        "display_name": "15, Роберта Толингера, Letnjikovac, Pocerski Pricinovic, City of Šabac, Macva Administrative District, Central Serbia, 15000, Serbia",
        "road": "Роберта Толингера",
        "house_number": "15",
        "neighbourhood": null,
        "suburb": "Letnjikovac",
        "city_district": null,
        "city": "Pocerski Pricinovic",
        "state": "Central Serbia",
        "postcode": "15000",
        "country": "Serbia",
        "country_code": "rs"
      },
      "address": "15, Роберта Толингера, Letnjikovac, Pocerski Pricinovic, City of Šabac, Macva Administrative District, Central Serbia, 15000, Serbia"
    }
  ],
  "updated_at": "2025-10-19T06:43:01.461903+00:00",
  "_kind": "geo_samples"
}