{
  "country_code": "SL",
  "country": "Sierra Leone",
  "city": "Bo",
  "geonameid": 2410048,
  "target_addresses": 8,
  "samples": [
    {
      "lat": 7.9957912851623805,
      "lon": -11.717652111850834,
      "geoinfo": {
        "display_name": "Sembehun, Bo, Bo District, Southern Province, Sierra Leone, Sierra Leone",
        "road": null,
        "house_number": null,
        "neighbourhood": null,
        "suburb": null,
        "city_district": null,
        "city": "Bo",
        "state": "Bo District",
        "postcode": null,
        "country": "Sierra Leone",
        "country_code": "sl"
      },
      "address": "Bo, Bo District, Sierra Leone"
    },
    {
      "lat": 7.927954764838312,
      "lon": -11.743902394550892,
      "geoinfo": {
        "display_name": "Mendewa, Bo, Bo District, Sierra Leone",
        "road": null,
        "house_number": null,
        "neighbourhood": null,
        "suburb": "Mendewa",
        "city_district": null,
        "city": "Bo",
        "state": "Bo District",
        "postcode": null,
        "country": "Sierra Leone",
        "country_code": "sl"
      },
      "address": "Mendewa, Bo, Bo District, Sierra Leone"
    },
    {
      "lat": 7.983772802348565,
      "lon": -11.776315469798945,
      "geoinfo": {
        "display_name": "Kebbie Town, Bo, Bo District, Sierra Leone",
        "road": null,
        "house_number": null,
        "neighbourhood": null,
        "suburb": "Kebbie Town",
        "city_district": null,
        "city": "Bo",
        "state": "Bo District",
        "postcode": null,
        "country": "Sierra Leone",
        "country_code": "sl"
      },
      "address": "Kebbie Town, Bo, Bo District, Sierra Leone"
    },
    {
      "lat": 8.002295906988353,
      "lon": -11.729388387419268,
      "geoinfo": {
        "display_name": "Mahei Boima Road, Baoma, Bo, Bo District, Sierra Leone",
        "road": "Mahei Boima Road",
        "house_number": null,
        "neighbourhood": null,
        "suburb": null,
        "city_district": null,
        "city": "Bo",
        "state": "Bo District",
        "postcode": null,
        "country": "Sierra Leone",
        "country_code": "sl"
      },
      "address": "Mahei Boima Road, Bo, Bo District, Sierra Leone"
    },
    {
      "lat": 7.990084084306595,
      "lon": -11.732999113036573,
      "geoinfo": {
        "display_name": "Joe Town 2, Bo, Bo District, Sierra Leone",
        "road": null,
        "house_number": null,
        "neighbourhood": null,
        "suburb": "Joe Town 2",
        "city_district": null,
        "city": "Bo",
        "state": "Bo District",
        "postcode": null,
        "country": "Sierra Leone",
        "country_code": "sl"
      },
      "address": "Joe Town 2, Bo, Bo District, Sierra Leone"
    },
    {
      "lat": 7.968719226030897,
      "lon": -11.723173141648617,
      "geoinfo": {
        "display_name": "Galu Road, Dodo, Bo, Bo District, Sierra Leone",
        "road": "Galu Road",
        "house_number": null,
        "neighbourhood": null,
        "suburb": "Dodo",
        "city_district": null,
        "city": "Bo",
        "state": "Bo District",
        "postcode": null,
        "country": "Sierra Leone",
        "country_code": "sl"
      },
      "address": "Galu Road, Bo, Bo District, Sierra Leone"
    },
    {
      "lat": 7.943319865624439,
      "lon": -11.712118555453037,
      "geoinfo": {
        "display_name": "Davowa Street, Shelmingo, Gbondo Town 2, Bo District, Southern Province, Sierra Leone, Sierra Leone",
        "road": "Davowa Street",
        "house_number": null,
        "neighbourhood": "Shelmingo",
        "suburb": "Gbondo Town 2",
        "city_district": null,
        "city": null,
        "state": "Bo District",
        "postcode": null,
        "country": "Sierra Leone",
        "country_code": "sl"
      },
      "address": "Davowa Street, Bo, Bo District, Sierra Leone"
    },
    {
      "lat": 7.965194193465502,
      "lon": -11.745769977654312,
      "geoinfo": {
        "display_name": "Kortubguma, Bo, Bo District, Sierra Leone",
        "road": null,
        "house_number": null,
        "neighbourhood": null,
        "suburb": "Kortubguma",
        "city_district": null,
        "city": "Bo",
        "state": "Bo District",
        "postcode": null,
        "country": "Sierra Leone",
        "country_code": "sl"
      },
      "address": "Kortubguma, Bo, Bo District, Sierra Leone"
    },
    {
      "lat": 8.007162139698945,
      "lon": -11.743490847910847,
      "geoinfo": {
        "display_name": "Bobobu, Bo, Bo District, Sierra Leone",
        "road": null,
        "house_number": null,
        "neighbourhood": null,
        "suburb": null,
        "city_district": null,
        "city": "Bo",
        "state": "Bo District",
        "postcode": null,
        "country": "Sierra Leone",
        "country_code": "sl"
      },
      "address": "214, Bobobu, Bo, 96783 Bo District, Sierra Leone"
    },
    {
      "lat": 7.937584781011692,
      "lon": -11.771875186359527,
      "geoinfo": {
        "display_name": "Towama, Bo, Bo District, Sierra Leone",
        "road": null,
        "house_number": null,
        "neighbourhood": null,
        "suburb": null,
        "city_district": null,
        "city": "Bo",
        "state": "Bo District",
        "postcode": null,
        "country": "Sierra Leone",
        "country_code": "sl"
      },
      "address": "443, Towama, Bo, 94411 Bo District, Sierra Leone"
    },
    {
      "lat": 7.984580645369227,
      "lon": -11.726466468871687,
      "geoinfo": {
        "display_name": "Nduvuibu, Bo, Bo District, Sierra Leone",
        "road": null,
        "house_number": null,
        "neighbourhood": null,
        "suburb": "Nduvuibu",
        "city_district": null,
        "city": "Bo",
        "state": "Bo District",
        "postcode": null,
        "country": "Sierra Leone",
        "country_code": "sl"
      },
      "address": "201, Nduvuibu, Bo, 43038 Bo District, Sierra Leone"
    },
    {
      "lat": 7.981834283121579,
      "lon": -11.709723075037596,
      "geoinfo": {
        "display_name": "Galu Road, Borbor Kombor, Bo, Bo District, Sierra Leone",
        "road": "Galu Road",
        "house_number": null,
        "neighbourhood": null,
        "suburb": "Borbor Kombor",
        "city_district": null,
        "city": "Bo",
        "state": "Bo District",
        "postcode": null,
        "country": "Sierra Leone",
        "country_code": "sl"
      },
      "address": "499, Galu Road, Borbor Kombor, Bo, 01297 Bo District, Sierra Leone"
    },
    {
      "lat": 8.003604304493848,
      "lon": -11.73740494583134,
      "geoinfo": {
        "display_name": "Pindegumahun, Manjama, Bo District, Sierra Leone",
        "road": null,
        "house_number": null,
        "neighbourhood": null,
        "suburb": null,
        "city_district": null,
        "city": "Manjama",
        "state": "Bo District",
        "postcode": null,
        "country": "Sierra Leone",
        "country_code": "sl"
      },
      "address": "211, Pindegumahun, Manjama, 32748 Bo District, Sierra Leone"
    },
    {
      "lat": 7.979134969672856,
      "lon": -11.768536138534786,
      "geoinfo": {
        "display_name": "Falaba, Bo, Bo District, Sierra Leone",
        "road": null,
        "house_number": null,
        "neighbourhood": null,
        "suburb": null,
        "city_district": null,
        "city": "Bo",
        "state": "Bo District",
        "postcode": null,
        "country": "Sierra Leone",
        "country_code": "sl"
      },
      "address": "661, Falaba, Bo, 24414 Bo District, Sierra Leone"
    },
    {
      "lat": 7.977374321425295,
      "lon": -11.749010363114087,
      "geoinfo": {
        "display_name": "Goba Town, Bo, Bo District, Sierra Leone",
        "road": null,
        "house_number": null,
        "neighbourhood": null,
        "suburb": "Goba Town",
        "city_district": null,
        "city": "Bo",
        "state": "Bo District",
        "postcode": null,
        "country": "Sierra Leone",
        "country_code": "sl"
      },
      "address": "657, Goba Town, Bo, 59109 Bo District, Sierra Leone"
    },
    {
      "lat": 8.00106293074658,
      "lon": -11.721119686639119,
      "geoinfo": {
        "display_name": "Sembehun, Bo, Bo District, Southern Province, Sierra Leone, Sierra Leone",
        "road": null,
        "house_number": null,
        "neighbourhood": null,
        "suburb": null,
        "city_district": null,
        "city": "Bo",
        "state": "Bo District",
        "postcode": null,
        "country": "Sierra Leone",
        "country_code": "sl"
      },
      "address": "042, Bo, 87256 Bo District, Sierra Leone"
    }
  ],
  "updated_at": "2025-10-19T06:37:05.290474+00:00",
  "_kind": "geo_samples"
}