{
  "country_code": "SL",
  "country": "Sierra Leone",
  "city": "Kabala",
  "geonameid": 2408329,
  "target_addresses": 8,
  "samples": [
    {
      "lat": 9.575392490814568,
      "lon": -11.592981849076564,
      "geoinfo": {
        "display_name": "Yogomaia, Kabala, Koinadugu District, Northern Province, Sierra Leone, Sierra Leone",
        "road": null,
        "house_number": null,
        "neighbourhood": null,
        "suburb": null,
        "city_district": null,
        "city": "Kabala",
        "state": "Koinadugu District",
        "postcode": null,
        "country": "Sierra Leone",
        "country_code": "sl"
      },
      "address": "Kabala, Koinadugu District, Sierra Leone"
    },
    {
      "lat": 9.628515190198492,
      "lon": -11.532571986785182,
      "geoinfo": {
        "display_name": "Sulimania, Koinadugu District, Northern Province, Sierra Leone, Sierra Leone",
        "road": null,
        "house_number": null,
        "neighbourhood": null,
        "suburb": null,
        "city_district": null,
        "city": null,
        "state": "Koinadugu District",
        "postcode": null,
        "country": "Sierra Leone",
        "country_code": "sl"
      },
      "address": "611, Kabala, 42056 Koinadugu District, Sierra Leone"
    },
    {
      "lat": 9.621256315681325,
      "lon": -11.544705852282627,
      "geoinfo": {
        "display_name": "Dankankuma, Kabala, Koinadugu District, Northern Province, Sierra Leone, Sierra Leone",
        "road": null,
        "house_number": null,
        "neighbourhood": null,
        "suburb": null,
        "city_district": null,
        "city": "Kabala",
        "state": "Koinadugu District",
        "postcode": null,
        "country": "Sierra Leone",
        "country_code": "sl"
      },
      "address": "554, Dankankuma, Kabala, Koinadugu District, Northern Province, 43500 Sierra Leone, Sierra Leone"
    },
    {
      "lat": 9.592357709689594,
      "lon": -11.577205877754128,
      "geoinfo": {
        "display_name": "Sandi, Koinadugu District, Northern Province, Sierra Leone, Sierra Leone",
        "road": null,
        "house_number": null,
        "neighbourhood": null,
        "suburb": null,
        "city_district": null,
        "city": null,
        "state": "Koinadugu District",
        "postcode": null,
        "country": "Sierra Leone",
        "country_code": "sl"
      },
      "address": "440, Kabala, 50975 Koinadugu District, Sierra Leone"
    },
    {
      "lat": 9.614828680301251,
      "lon": -11.557905308704392,
      "geoinfo": {
        "display_name": "Senikedugu, Koinadugu District, Northern Province, Sierra Leone, Sierra Leone",
        "road": null,
        "house_number": null,
        "neighbourhood": null,
        "suburb": null,
        "city_district": null,
        "city": null,
        "state": "Koinadugu District",
        "postcode": null,
        "country": "Sierra Leone",
        "country_code": "sl"
      },
      "address": "344, Kabala, 11623 Koinadugu District, Sierra Leone"
    },
    {
      "lat": 9.60315788295779,
      "lon": -11.569761615704717,
      "geoinfo": {
        "display_name": "Kabala, Koinadugu District, Northern Province, Sierra Leone, Sierra Leone",
        "road": null,
        "house_number": null,
        "neighbourhood": null,
        "suburb": null,
        "city_district": null,
        "city": "Kabala",
        "state": "Koinadugu District",
        "postcode": null,
        "country": "Sierra Leone",
        "country_code": "sl"
      },
      "address": "636, Kabala, Koinadugu District, Northern Province, 31730 Sierra Leone, Sierra Leone"
    },
    {
      "lat": 9.566262999412107,
      "lon": -11.567217574531428,
      "geoinfo": {
        "display_name": "Dakunaia, Kabala, Koinadugu District, Northern Province, Sierra Leone, Sierra Leone",
        "road": null,
        "house_number": null,
        "neighbourhood": null,
        "suburb": null,
        "city_district": null,
        "city": "Kabala",
        "state": "Koinadugu District",
        "postcode": null,
        "country": "Sierra Leone",
        "country_code": "sl"
      },
      "address": "038, Kabala, 53472 Koinadugu District, Sierra Leone"
    },
    {
      "lat": 9.58199793905383,
      "lon": -11.554240878407773,
      "geoinfo": {
        "display_name": "Makeni Road, Makakura, Lengekoro, Koinadugu District, Northern Province, Sierra Leone, Sierra Leone",
        "road": "Makeni Road",
        "house_number": null,
        "neighbourhood": null,
        "suburb": null,
        "city_district": null,
        "city": "Lengekoro",
        "state": "Koinadugu District",
        "postcode": null,
        "country": "Sierra Leone",
        "country_code": "sl"
      },
      "address": "369, Makeni Road, Makakura, Lengekoro, Koinadugu District, Northern Province, 13733 Sierra Leone, Sierra Leone"
    },
    {
      "lat": 9.548101542095097,
      "lon": -11.539986823106734,
      "geoinfo": {
        "display_name": "Koinadugu District, Northern Province, Sierra Leone, Sierra Leone",
        "road": null,
        "house_number": null,
        "neighbourhood": null,
        "suburb": null,
        "city_district": null,
        "city": null,
        "state": "Koinadugu District",
        "postcode": null,
        "country": "Sierra Leone",
        "country_code": "sl"
      },
      "address": "626, Kabala, 71936 Koinadugu District, Sierra Leone"
    }
  ],
  "updated_at": "2025-10-19T07:03:25.269312+00:00",
  "_kind": "geo_samples"
}