{
  "country_code": "SL",
  "country": "Sierra Leone",
  "city": "Kenema",
  "geonameid": 2407790,
  "target_addresses": 8,
  "samples": [
    {
      "lat": 7.860222813698104,
      "lon": -11.210525732875928,
      "geoinfo": {
        "display_name": "Hardy Street, Kenema, Kenema District, Eastern Province, Sierra Leone",
        "road": "Hardy Street",
        "house_number": null,
        "neighbourhood": null,
        "suburb": null,
        "city_district": null,
        "city": "Kenema",
        "state": "Kenema District",
        "postcode": null,
        "country": "Sierra Leone",
        "country_code": "sl"
      },
      "address": "Hardy Street, Kenema, Kenema District, Sierra Leone"
    },
    {
      "lat": 7.9012601724594775,
      "lon": -11.20883336086013,
      "geoinfo": {
        "display_name": "Kenema, Kenema District, Eastern Province, Sierra Leone",
        "road": null,
        "house_number": null,
        "neighbourhood": null,
        "suburb": null,
        "city_district": null,
        "city": "Kenema",
        "state": "Kenema District",
        "postcode": null,
        "country": "Sierra Leone",
        "country_code": "sl"
      },
      "address": "Kenema, Kenema District, Sierra Leone"
    },
    {
      "lat": 7.8517603301072745,
      "lon": -11.175660705973785,
      "geoinfo": {
        "display_name": "Kpetema, Kenema, Kenema District, Eastern Province, Sierra Leone",
        "road": null,
        "house_number": null,
        "neighbourhood": null,
        "suburb": "Kpetema",
        "city_district": null,
        "city": "Kenema",
        "state": "Kenema District",
        "postcode": null,
        "country": "Sierra Leone",
        "country_code": "sl"
      },
      "address": "Kpetema, Kenema, Kenema District, Sierra Leone"
    },
    {
      "lat": 7.8725674183353656,
      "lon": -11.17671976677085,
      "geoinfo": {
        "display_name": "Abdul Sandy Street, Kpayama, Kenema, Kenema District, Eastern Province, Sierra Leone",
        "road": "Abdul Sandy Street",
        "house_number": null,
        "neighbourhood": null,
        "suburb": "Kpayama",
        "city_district": null,
        "city": "Kenema",
        "state": "Kenema District",
        "postcode": null,
        "country": "Sierra Leone",
        "country_code": "sl"
      },
      "address": "Abdul Sandy Street, Kenema, Kenema District, Sierra Leone"
    },
    {
      "lat": 7.885599633013315,
      "lon": -11.184014045011423,
      "geoinfo": {
        "display_name": "Kandeh Street, Kenema, Kenema District, Eastern Province, Sierra Leone",
        "road": "Kandeh Street",
        "house_number": null,
        "neighbourhood": null,
        "suburb": null,
        "city_district": null,
        "city": "Kenema",
        "state": "Kenema District",
        "postcode": null,
        "country": "Sierra Leone",
        "country_code": "sl"
      },
      "address": "Kandeh Street, Kenema, Kenema District, Sierra Leone"
    },
    {
      "lat": 7.891068160548613,
      "lon": -11.18698002576862,
      "geoinfo": {
        "display_name": "Hangha Road, Kenema, Kenema District, Eastern Province, Sierra Leone",
        "road": "Hangha Road",
        "house_number": null,
        "neighbourhood": null,
        "suburb": null,
        "city_district": null,
        "city": "Kenema",
        "state": "Kenema District",
        "postcode": null,
        "country": "Sierra Leone",
        "country_code": "sl"
      },
      "address": "Hangha Road, Kenema, Kenema District, Sierra Leone"
    },
    {
      "lat": 7.850528806942738,
      "lon": -11.224309747782673,
      "geoinfo": {
        "display_name": "Bo-Kenema Highway, Wanjama, Bandama, Kenema District, Eastern Province, Sierra Leone",
        "road": "Bo-Kenema Highway",
        "house_number": null,
        "neighbourhood": null,
        "suburb": null,
        "city_district": null,
        "city": "Bandama",
        "state": "Kenema District",
        "postcode": null,
        "country": "Sierra Leone",
        "country_code": "sl"
      },
      "address": "Bo-Kenema Highway, Kenema, Kenema District, Sierra Leone"
    },
    {
      "lat": 7.867802077232408,
      "lon": -11.179389844863536,
      "geoinfo": {
        "display_name": "Wujawah Street, Kenema, Kenema District, Eastern Province, Sierra Leone",
        "road": "Wujawah Street",
        "house_number": null,
        "neighbourhood": null,
        "suburb": null,
        "city_district": null,
        "city": "Kenema",
        "state": "Kenema District",
        "postcode": null,
        "country": "Sierra Leone",
        "country_code": "sl"
      },
      "address": "Wujawah Street, Kenema, Kenema District, Sierra Leone"
    },
    {
      "lat": 7.85495357259434,
      "lon": -11.17856391682566,
      "geoinfo": {
        "display_name": "Kpetema, Kenema, Kenema District, Eastern Province, Sierra Leone",
        "road": null,
        "house_number": null,
        "neighbourhood": null,
        "suburb": "Kpetema",
        "city_district": null,
        "city": "Kenema",
        "state": "Kenema District",
        "postcode": null,
        "country": "Sierra Leone",
        "country_code": "sl"
      },
      "address": "Kpetema, Kenema, Kenema District, 39278 Eastern Province, Sierra Leone"
    },
    {
      "lat": 7.835972925679738,
      "lon": -11.173216269784154,
      "geoinfo": {
        "display_name": "Kenema, Kenema District, Eastern Province, Sierra Leone",
        "road": null,
        "house_number": null,
        "neighbourhood": null,
        "suburb": null,
        "city_district": null,
        "city": "Kenema",
        "state": "Kenema District",
        "postcode": null,
        "country": "Sierra Leone",
        "country_code": "sl"
      },
      "address": "Kenema, Kenema District, 64122 Eastern Province, Sierra Leone"
    },
    {
      "lat": 7.857456486137078,
      "lon": -11.217916872755042,
      "geoinfo": {
        "display_name": "Bo-Kenema Highway, Wanjama, Bandama, Kenema District, Eastern Province, Sierra Leone",
        "road": "Bo-Kenema Highway",
        "house_number": null,
        "neighbourhood": null,
        "suburb": null,
        "city_district": null,
        "city": "Bandama",
        "state": "Kenema District",
        "postcode": null,
        "country": "Sierra Leone",
        "country_code": "sl"
      },
      "address": "Bo-Kenema Highway, Wanjama, Bandama, Kenema District, 20800 Eastern Province, Sierra Leone"
    },
    {
      "lat": 7.880758460705573,
      "lon": -11.172526328804457,
      "geoinfo": {
        "display_name": "Kenema, Kenema District, Eastern Province, Sierra Leone",
        "road": null,
        "house_number": null,
        "neighbourhood": null,
        "suburb": null,
        "city_district": null,
        "city": "Kenema",
        "state": "Kenema District",
        "postcode": null,
        "country": "Sierra Leone",
        "country_code": "sl"
      },
      "address": "439, Kenema, Kenema District, 88423 Eastern Province, Sierra Leone"
    },
    {
      "lat": 7.903984202284821,
      "lon": -11.16243335947111,
      "geoinfo": {
        "display_name": "Kenema, Kenema District, Eastern Province, Sierra Leone",
        "road": null,
        "house_number": null,
        "neighbourhood": null,
        "suburb": null,
        "city_district": null,
        "city": "Kenema",
        "state": "Kenema District",
        "postcode": null,
        "country": "Sierra Leone",
        "country_code": "sl"
      },
      "address": "543, Kenema, Kenema District, 09726 Eastern Province, Sierra Leone"
    },
    {
      "lat": 7.874356906381973,
      "lon": -11.178339615125319,
      "geoinfo": {
        "display_name": "Kpayama, Kenema, Kenema District, Eastern Province, Sierra Leone",
        "road": null,
        "house_number": null,
        "neighbourhood": null,
        "suburb": "Kpayama",
        "city_district": null,
        "city": "Kenema",
        "state": "Kenema District",
        "postcode": null,
        "country": "Sierra Leone",
        "country_code": "sl"
      },
      "address": "748, Kpayama, Kenema, Kenema District, 78336 Eastern Province, Sierra Leone"
    },
    {
      "lat": 7.910974407147256,
      "lon": -11.204902477036939,
      "geoinfo": {
        "display_name": "Kenema, Kenema District, Eastern Province, Sierra Leone",
        "road": null,
        "house_number": null,
        "neighbourhood": null,
        "suburb": null,
        "city_district": null,
        "city": "Kenema",
        "state": "Kenema District",
        "postcode": null,
        "country": "Sierra Leone",
        "country_code": "sl"
      },
      "address": "018, Kenema, Kenema District, 02319 Eastern Province, Sierra Leone"
    },
    {
      "lat": 7.909655018964875,
      "lon": -11.167301898231267,
      "geoinfo": {
        "display_name": "Kenema, Kenema District, Eastern Province, Sierra Leone",
        "road": null,
        "house_number": null,
        "neighbourhood": null,
        "suburb": null,
        "city_district": null,
        "city": "Kenema",
        "state": "Kenema District",
        "postcode": null,
        "country": "Sierra Leone",
        "country_code": "sl"
      },
      "address": "480, Kenema, Kenema District, 16405 Eastern Province, Sierra Leone"
    },
    {
      "lat": 7.846821446281064,
      "lon": -11.173057236958094,
      "geoinfo": {
        "display_name": "My First Point, Kenema-Joru Highway, Kpetema, Kenema, Kenema District, Eastern Province, Sierra Leone",
        "road": "Kenema-Joru Highway",
        "house_number": null,
        "neighbourhood": null,
        "suburb": "Kpetema",
        "city_district": null,
        "city": "Kenema",
        "state": "Kenema District",
        "postcode": null,
        "country": "Sierra Leone",
        "country_code": "sl"
      },
      "address": "404, Kenema-Joru Highway, Kenema, 90506 Kenema District, Sierra Leone"
    },
    {
      "lat": 7.881293428531748,
      "lon": -11.146675940930033,
      "geoinfo": {
        "display_name": "Combema, Kenema, Kenema District, Eastern Province, Sierra Leone",
        "road": null,
        "house_number": null,
        "neighbourhood": null,
        "suburb": "Combema",
        "city_district": null,
        "city": "Kenema",
        "state": "Kenema District",
        "postcode": null,
        "country": "Sierra Leone",
        "country_code": "sl"
      },
      "address": "557, Combema, Kenema, Kenema District, 25331 Eastern Province, Sierra Leone"
    },
    {
      "lat": 7.890860271972113,
      "lon": -11.16284406626564,
      "geoinfo": {
        "display_name": "Burma 2 Road, Burma 2, Kenema, Kenema District, Eastern Province, Sierra Leone",
        "road": "Burma 2 Road",
        "house_number": null,
        "neighbourhood": null,
        "suburb": "Burma 2",
        "city_district": null,
        "city": "Kenema",
        "state": "Kenema District",
        "postcode": null,
        "country": "Sierra Leone",
        "country_code": "sl"
      },
      "address": "Burma 2 Road, Burma 2, Kenema, Kenema District, Eastern Province, Sierra Leone"
    },
    {
      "lat": 7.876520196006057,
      "lon": -11.168477503515472,
      "geoinfo": {
        "display_name": "Combema Road, Samai Town, Kenema, Kenema District, Eastern Province, Sierra Leone",
        "road": "Combema Road",
        "house_number": null,
        "neighbourhood": null,
        "suburb": "Samai Town",
        "city_district": null,
        "city": "Kenema",
        "state": "Kenema District",
        "postcode": null,
        "country": "Sierra Leone",
        "country_code": "sl"
      },
      "address": "761, Combema Road, Samai Town, Kenema, Kenema District, 07728 Eastern Province, Sierra Leone"
    },
    {
      "lat": 7.85789798549766,
      "lon": -11.207231649734991,
      "geoinfo": {
        "display_name": "Sidibe Lane, Kenema, Kenema District, Eastern Province, Sierra Leone",
        "road": "Sidibe Lane",
        "house_number": null,
        "neighbourhood": null,
        "suburb": null,
        "city_district": null,
        "city": "Kenema",
        "state": "Kenema District",
        "postcode": null,
        "country": "Sierra Leone",
        "country_code": "sl"
      },
      "address": "819, Sidibe Lane, Kenema, Kenema District, 01726 Eastern Province, Sierra Leone"
    },
    {
      "lat": 7.875346504943637,
      "lon": -11.170460371375048,
      "geoinfo": {
        "display_name": "Samai Town, Kenema, Kenema District, Eastern Province, Sierra Leone",
        "road": null,
        "house_number": null,
        "neighbourhood": null,
        "suburb": "Samai Town",
        "city_district": null,
        "city": "Kenema",
        "state": "Kenema District",
        "postcode": null,
        "country": "Sierra Leone",
        "country_code": "sl"
      },
      "address": "218, Samai Town, Kenema, Kenema District, 14998 Eastern Province, Sierra Leone"
    }
  ],
  "updated_at": "2025-10-19T03:25:21.518895+00:00",
  "_kind": "geo_samples"
}