{
  "country_code": "SL",
  "country": "Sierra Leone",
  "city": "Port Loko",
  "geonameid": 2404433,
  "target_addresses": 8,
  "samples": [
    {
      "lat": 8.747943375009353,
      "lon": -12.766846815921646,
      "geoinfo": {
        "display_name": "Port Loko, Maforki Chiefdom, Port Loko District, North West Province, Sierra Leone, Sierra Leone",
        "road": null,
        "house_number": null,
        "neighbourhood": null,
        "suburb": null,
        "city_district": null,
        "city": "Port Loko",
        "state": "Port Loko District",
        "postcode": null,
        "country": "Sierra Leone",
        "country_code": "sl"
      },
      "address": "Port Loko, Port Loko District, Sierra Leone"
    },
    {
      "lat": 8.75237752295896,
      "lon": -12.79110603126892,
      "geoinfo": {
        "display_name": "Kandebaleh Street, Port Loko, Maforki Chiefdom, Port Loko District, North West Province, Sierra Leone, Sierra Leone",
        "road": "Kandebaleh Street",
        "house_number": null,
        "neighbourhood": null,
        "suburb": null,
        "city_district": null,
        "city": "Port Loko",
        "state": "Port Loko District",
        "postcode": null,
        "country": "Sierra Leone",
        "country_code": "sl"
      },
      "address": "Kandebaleh Street, Port Loko, Port Loko District, Sierra Leone"
    },
    {
      "lat": 8.734563385921307,
      "lon": -12.812929483480415,
      "geoinfo": {
        "display_name": "Haul Road, Batpulun, Magbema, Maforki Chiefdom, Port Loko District, North West Province, Sierra Leone, Sierra Leone",
        "road": "Haul Road",
        "house_number": null,
        "neighbourhood": null,
        "suburb": null,
        "city_district": null,
        "city": "Magbema",
        "state": "Port Loko District",
        "postcode": null,
        "country": "Sierra Leone",
        "country_code": "sl"
      },
      "address": "Haul Road, Port Loko, Port Loko District, Sierra Leone"
    },
    {
      "lat": 8.798322581518438,
      "lon": -12.762869330749762,
      "geoinfo": {
        "display_name": "TAH 7, Kisama, Port Loko, Maforki Chiefdom, Port Loko District, North West Province, Sierra Leone, Sierra Leone",
        "road": "TAH 7",
        "house_number": null,
        "neighbourhood": null,
        "suburb": null,
        "city_district": null,
        "city": "Port Loko",
        "state": "Port Loko District",
        "postcode": null,
        "country": "Sierra Leone",
        "country_code": "sl"
      },
      "address": "TAH 7, Port Loko, Port Loko District, Sierra Leone"
    },
    {
      "lat": 8.782327801247199,
      "lon": -12.790948895277612,
      "geoinfo": {
        "display_name": "Port Loko, Maforki Chiefdom, Port Loko District, North West Province, Sierra Leone, Sierra Leone",
        "road": null,
        "house_number": null,
        "neighbourhood": null,
        "suburb": null,
        "city_district": null,
        "city": "Port Loko",
        "state": "Port Loko District",
        "postcode": null,
        "country": "Sierra Leone",
        "country_code": "sl"
      },
      "address": "937, Port Loko, Maforki Chiefdom, Port Loko District, North West Province, 04234 Sierra Leone, Sierra Leone"
    },
    {
      "lat": 8.766600065329913,
      "lon": -12.812872107556595,
      "geoinfo": {
        "display_name": "Port Loko, Maforki Chiefdom, Port Loko District, North West Province, Sierra Leone, Sierra Leone",
        "road": null,
        "house_number": null,
        "neighbourhood": null,
        "suburb": null,
        "city_district": null,
        "city": "Port Loko",
        "state": "Port Loko District",
        "postcode": null,
        "country": "Sierra Leone",
        "country_code": "sl"
      },
      "address": "255, Port Loko, Maforki Chiefdom, Port Loko District, North West Province, 48952 Sierra Leone, Sierra Leone"
    },
    {
      "lat": 8.74572769701163,
      "lon": -12.826713729214156,
      "geoinfo": {
        "display_name": "Maforki Chiefdom, Port Loko District, North West Province, Sierra Leone, Sierra Leone",
        "road": null,
        "house_number": null,
        "neighbourhood": null,
        "suburb": null,
        "city_district": null,
        "city": null,
        "state": "Port Loko District",
        "postcode": null,
        "country": "Sierra Leone",
        "country_code": "sl"
      },
      "address": "833, Port Loko, 71837 Port Loko District, Sierra Leone"
    },
    {
      "lat": 8.733066836586184,
      "lon": -12.794147923281088,
      "geoinfo": {
        "display_name": "Rosar, Port Loko, Maforki Chiefdom, Port Loko District, North West Province, Sierra Leone, Sierra Leone",
        "road": null,
        "house_number": null,
        "neighbourhood": null,
        "suburb": null,
        "city_district": null,
        "city": "Port Loko",
        "state": "Port Loko District",
        "postcode": null,
        "country": "Sierra Leone",
        "country_code": "sl"
      },
      "address": "754, Rosar, Port Loko, Maforki Chiefdom, Port Loko District, North West Province, 00801 Sierra Leone, Sierra Leone"
    },
    {
      "lat": 8.799927354422536,
      "lon": -12.782942193159323,
      "geoinfo": {
        "display_name": "Port Loko, Maforki Chiefdom, Port Loko District, North West Province, Sierra Leone, Sierra Leone",
        "road": null,
        "house_number": null,
        "neighbourhood": null,
        "suburb": null,
        "city_district": null,
        "city": "Port Loko",
        "state": "Port Loko District",
        "postcode": null,
        "country": "Sierra Leone",
        "country_code": "sl"
      },
      "address": "654, Port Loko, Maforki Chiefdom, Port Loko District, North West Province, 08286 Sierra Leone, Sierra Leone"
    },
    {
      "lat": 8.757739141803182,
      "lon": -12.827663573438395,
      "geoinfo": {
        "display_name": "Maforki Chiefdom, Port Loko District, North West Province, Sierra Leone, Sierra Leone",
        "road": null,
        "house_number": null,
        "neighbourhood": null,
        "suburb": null,
        "city_district": null,
        "city": null,
        "state": "Port Loko District",
        "postcode": null,
        "country": "Sierra Leone",
        "country_code": "sl"
      },
      "address": "583, Port Loko, 54721 Port Loko District, Sierra Leone"
    },
    {
      "lat": 8.804491186263377,
      "lon": -12.80617160772748,
      "geoinfo": {
        "display_name": "Fulun, Port Loko, Maforki Chiefdom, Port Loko District, North West Province, Sierra Leone, Sierra Leone",
        "road": null,
        "house_number": null,
        "neighbourhood": null,
        "suburb": null,
        "city_district": null,
        "city": "Port Loko",
        "state": "Port Loko District",
        "postcode": null,
        "country": "Sierra Leone",
        "country_code": "sl"
      },
      "address": "966, Fulun, Port Loko, Maforki Chiefdom, Port Loko District, North West Province, 78237 Sierra Leone, Sierra Leone"
    },
    {
      "lat": 8.776644253793688,
      "lon": -12.77691605272765,
      "geoinfo": {
        "display_name": "Port Loko, Maforki Chiefdom, Port Loko District, North West Province, Sierra Leone, Sierra Leone",
        "road": null,
        "house_number": null,
        "neighbourhood": null,
        "suburb": null,
        "city_district": null,
        "city": "Port Loko",
        "state": "Port Loko District",
        "postcode": null,
        "country": "Sierra Leone",
        "country_code": "sl"
      },
      "address": "563, Port Loko, Maforki Chiefdom, Port Loko District, North West Province, 23816 Sierra Leone, Sierra Leone"
    }
  ],
  "updated_at": "2025-10-19T04:49:26.433087+00:00",
  "_kind": "geo_samples"
}