{
  "country_code": "SL",
  "country": "Sierra Leone",
  "city": "Waterloo",
  "geonameid": 2403094,
  "target_addresses": 8,
  "samples": [
    {
      "lat": 8.360188639014405,
      "lon": -13.072351258058042,
      "geoinfo": {
        "display_name": "Loko Town, Waterloo, Western Area Rural, Western Area, Sierra Leone",
        "road": null,
        "house_number": null,
        "neighbourhood": "Loko Town",
        "suburb": null,
        "city_district": null,
        "city": "Waterloo",
        "state": "Western Area Rural",
        "postcode": null,
        "country": "Sierra Leone",
        "country_code": "sl"
      },
      "address": "Loko Town, Waterloo, Western Area Rural, Sierra Leone"
    },
    {
      "lat": 8.35434903011424,
      "lon": -13.054161383284715,
      "geoinfo": {
        "display_name": "New Site Community, Pa Lokko, Waterloo, Western Area Rural, Western Area, Sierra Leone",
        "road": null,
        "house_number": null,
        "neighbourhood": "New Site Community",
        "suburb": null,
        "city_district": null,
        "city": "Waterloo",
        "state": "Western Area Rural",
        "postcode": null,
        "country": "Sierra Leone",
        "country_code": "sl"
      },
      "address": "New Site Community, Waterloo, Western Area Rural, Sierra Leone"
    },
    {
      "lat": 8.34762394647849,
      "lon": -13.100679307967663,
      "geoinfo": {
        "display_name": "Paw paw, Waterloo, Western Area Rural, Western Area, Sierra Leone",
        "road": null,
        "house_number": null,
        "neighbourhood": null,
        "suburb": null,
        "city_district": null,
        "city": "Waterloo",
        "state": "Western Area Rural",
        "postcode": null,
        "country": "Sierra Leone",
        "country_code": "sl"
      },
      "address": "Waterloo, Western Area Rural, Sierra Leone"
    },
    {
      "lat": 8.351027221396748,
      "lon": -13.075949264789545,
      "geoinfo": {
        "display_name": "White Stone, Depea Water, Waterloo, Western Area Rural, Western Area, Sierra Leone",
        "road": null,
        "house_number": null,
        "neighbourhood": "White Stone",
        "suburb": null,
        "city_district": null,
        "city": "Waterloo",
        "state": "Western Area Rural",
        "postcode": null,
        "country": "Sierra Leone",
        "country_code": "sl"
      },
      "address": "White Stone, Waterloo, Western Area Rural, Sierra Leone"
    },
    {
      "lat": 8.303283084917263,
      "lon": -13.073251497390117,
      "geoinfo": {
        "display_name": "Matindi Road, Samuel Town Village, Samuel Town, Middle Town, Western Area Rural, Western Area, Sierra Leone",
        "road": "Matindi Road",
        "house_number": null,
        "neighbourhood": "Samuel Town Village",
        "suburb": null,
        "city_district": null,
        "city": "Middle Town",
        "state": "Western Area Rural",
        "postcode": null,
        "country": "Sierra Leone",
        "country_code": "sl"
      },
      "address": "Matindi Road, Waterloo, Western Area Rural, Sierra Leone"
    },
    {
      "lat": 8.317799019860237,
      "lon": -13.062736037378556,
      "geoinfo": {
        "display_name": "Kakanda Town, Waterloo, Western Area Rural, Western Area, Sierra Leone",
        "road": null,
        "house_number": null,
        "neighbourhood": "Kakanda Town",
        "suburb": null,
        "city_district": null,
        "city": "Waterloo",
        "state": "Western Area Rural",
        "postcode": null,
        "country": "Sierra Leone",
        "country_code": "sl"
      },
      "address": "Kakanda Town, Waterloo, Western Area Rural, Sierra Leone"
    },
    {
      "lat": 8.371226685549676,
      "lon": -13.092509264609356,
      "geoinfo": {
        "display_name": "Kaibara, Devil Hole, Western Area Rural, Western Area, Sierra Leone",
        "road": null,
        "house_number": null,
        "neighbourhood": "Kaibara",
        "suburb": null,
        "city_district": null,
        "city": "Devil Hole",
        "state": "Western Area Rural",
        "postcode": null,
        "country": "Sierra Leone",
        "country_code": "sl"
      },
      "address": "Kaibara, Waterloo, Western Area Rural, Sierra Leone"
    },
    {
      "lat": 8.341987798438625,
      "lon": -13.038638086142479,
      "geoinfo": {
        "display_name": "Lovers' Road, San San Water Section, Masantigi, Waterloo, Western Area Rural, Western Area, Sierra Leone",
        "road": "Lovers' Road",
        "house_number": null,
        "neighbourhood": "San San Water Section",
        "suburb": null,
        "city_district": null,
        "city": "Waterloo",
        "state": "Western Area Rural",
        "postcode": null,
        "country": "Sierra Leone",
        "country_code": "sl"
      },
      "address": "Lovers' Road, Waterloo, Western Area Rural, Sierra Leone"
    },
    {
      "lat": 8.340106742390489,
      "lon": -13.096702494976183,
      "geoinfo": {
        "display_name": "Paw paw, Waterloo, Western Area Rural, Western Area, Sierra Leone",
        "road": null,
        "house_number": null,
        "neighbourhood": null,
        "suburb": null,
        "city_district": null,
        "city": "Waterloo",
        "state": "Western Area Rural",
        "postcode": null,
        "country": "Sierra Leone",
        "country_code": "sl"
      },
      "address": "400, Paw paw, Waterloo, Western Area Rural, 41458 Western Area, Sierra Leone"
    },
    {
      "lat": 8.307012171149912,
      "lon": -13.043348365223881,
      "geoinfo": {
        "display_name": "Malambay Road, Columbus, Gendima, Waterloo, Western Area Rural, Western Area, Sierra Leone",
        "road": "Malambay Road",
        "house_number": null,
        "neighbourhood": "Columbus",
        "suburb": null,
        "city_district": null,
        "city": "Waterloo",
        "state": "Western Area Rural",
        "postcode": null,
        "country": "Sierra Leone",
        "country_code": "sl"
      },
      "address": "164, Malambay Road, Columbus, Gendima, Waterloo, Western Area Rural, 04658 Western Area, Sierra Leone"
    },
    {
      "lat": 8.307369513979621,
      "lon": -13.094704946325002,
      "geoinfo": {
        "display_name": "Chinese Quarry Road, Chinese Quarry, Waterloo, Western Area Rural, Western Area, Sierra Leone",
        "road": "Chinese Quarry Road",
        "house_number": null,
        "neighbourhood": "Chinese Quarry",
        "suburb": null,
        "city_district": null,
        "city": "Waterloo",
        "state": "Western Area Rural",
        "postcode": null,
        "country": "Sierra Leone",
        "country_code": "sl"
      },
      "address": "967, Chinese Quarry Road, Chinese Quarry, Waterloo, Western Area Rural, 14794 Western Area, Sierra Leone"
    },
    {
      "lat": 8.379012859626348,
      "lon": -13.065432051329475,
      "geoinfo": {
        "display_name": "Mabokari, Koya Chiefdom, Port Loko District, North West Province, Sierra Leone, Sierra Leone",
        "road": null,
        "house_number": null,
        "neighbourhood": null,
        "suburb": null,
        "city_district": null,
        "city": null,
        "state": "Port Loko District",
        "postcode": null,
        "country": "Sierra Leone",
        "country_code": "sl"
      },
      "address": "044, Mabokari, Koya Chiefdom, Port Loko District, North West Province, 80350 Sierra Leone, Sierra Leone"
    },
    {
      "lat": 8.31210722717248,
      "lon": -13.101743017628088,
      "geoinfo": {
        "display_name": "Samahun, Waterloo, Western Area Rural, Western Area, Sierra Leone",
        "road": null,
        "house_number": null,
        "neighbourhood": null,
        "suburb": null,
        "city_district": null,
        "city": "Waterloo",
        "state": "Western Area Rural",
        "postcode": null,
        "country": "Sierra Leone",
        "country_code": "sl"
      },
      "address": "103, Samahun, Waterloo, Western Area Rural, 36886 Western Area, Sierra Leone"
    },
    {
      "lat": 8.367127089070708,
      "lon": -13.059592588409485,
      "geoinfo": {
        "display_name": "Pa Lokko, Waterloo, Western Area Rural, Western Area, Sierra Leone",
        "road": null,
        "house_number": null,
        "neighbourhood": null,
        "suburb": null,
        "city_district": null,
        "city": "Waterloo",
        "state": "Western Area Rural",
        "postcode": null,
        "country": "Sierra Leone",
        "country_code": "sl"
      },
      "address": "714, Pa Lokko, Waterloo, Western Area Rural, 14220 Western Area, Sierra Leone"
    },
    {
      "lat": 8.333097057461226,
      "lon": -13.093441448675556,
      "geoinfo": {
        "display_name": "Nassit Community, Waterloo, Western Area Rural, Western Area, Sierra Leone",
        "road": null,
        "house_number": null,
        "neighbourhood": "Nassit Community",
        "suburb": null,
        "city_district": null,
        "city": "Waterloo",
        "state": "Western Area Rural",
        "postcode": null,
        "country": "Sierra Leone",
        "country_code": "sl"
      },
      "address": "822, Nassit Community, Waterloo, Western Area Rural, 93336 Western Area, Sierra Leone"
    },
    {
      "lat": 8.370897075944276,
      "lon": -13.080232037689976,
      "geoinfo": {
        "display_name": "Compound, Soso Town, Waterloo, Western Area Rural, Western Area, Sierra Leone",
        "road": null,
        "house_number": null,
        "neighbourhood": "Compound",
        "suburb": null,
        "city_district": null,
        "city": "Waterloo",
        "state": "Western Area Rural",
        "postcode": null,
        "country": "Sierra Leone",
        "country_code": "sl"
      },
      "address": "255, Compound, Soso Town, Waterloo, Western Area Rural, 06650 Western Area, Sierra Leone"
    }
  ],
  "updated_at": "2025-10-19T05:32:58.810838+00:00",
  "_kind": "geo_samples"
}