{
  "country_code": "IE",
  "country": "Ireland",
  "city": "Carlow",
  "geonameid": 2965768,
  "target_addresses": 3,
  "samples": [
    {
      "lat": 52.826723852757056,
      "lon": -6.969706682940819,
      "geoinfo": {
        "display_name": "L7916, Rossmore ED, The Municipal District of Graiguecullen — Portarlington, County Laois, Leinster, R93 YN61, Ireland",
        "road": "L7916",
        "house_number": null,
        "neighbourhood": null,
        "suburb": null,
        "city_district": "Rossmore ED",
        "city": null,
        "state": null,
        "postcode": "R93 YN61",
        "country": "Ireland",
        "country_code": "ie"
      },
      "address": "L7916, Carlow, Ireland"
    },
    {
      "lat": 52.86268789632946,
      "lon": -6.921082340676615,
      "geoinfo": {
        "display_name": "Oakpark, Carlow Rural ED, The Municipal District of Carlow, County Carlow, Leinster, R93 P992, Ireland",
        "road": null,
        "house_number": null,
        "neighbourhood": null,
        "suburb": "Oakpark",
        "city_district": "Carlow Rural ED",
        "city": null,
        "state": null,
        "postcode": "R93 P992",
        "country": "Ireland",
        "country_code": "ie"
      },
      "address": "Oakpark, Carlow, Ireland"
    },
    {
      "lat": 52.832958076039425,
      "lon": -6.895836646313476,
      "geoinfo": {
        "display_name": "Link Road, Chapelstown, Carlow Rural ED, Carlow, County Carlow, Leinster, R93 K8N1, Ireland",
        "road": "Link Road",
        "house_number": null,
        "neighbourhood": null,
        "suburb": "Chapelstown",
        "city_district": "Carlow Rural ED",
        "city": "Carlow",
        "state": null,
        "postcode": "R93 K8N1",
        "country": "Ireland",
        "country_code": "ie"
      },
      "address": "Link Road, Carlow, Ireland"
    },
    {
      "lat": 52.83958708232358,
      "lon": -6.897236293357115,
      "geoinfo": {
        "display_name": "R726, Pollerton Big, Carlow Rural ED, Carlow, County Carlow, Leinster, R93 Y381, Ireland",
        "road": "R726",
        "house_number": null,
        "neighbourhood": null,
        "suburb": "Pollerton Big",
        "city_district": "Carlow Rural ED",
        "city": "Carlow",
        "state": null,
        "postcode": "R93 Y381",
        "country": "Ireland",
        "country_code": "ie"
      },
      "address": "R726, Pollerton Big, Carlow Rural ED, Carlow, County Carlow, Leinster, R93 Y381, Ireland"
    },
    {
      "lat": 52.801435121128215,
      "lon": -6.920970885634568,
      "geoinfo": {
        "display_name": "L1010, Park, Ballinacarrig ED, The Municipal District of Carlow, County Carlow, Leinster, R93 Y0A6, Ireland",
        "road": "L1010",
        "house_number": null,
        "neighbourhood": null,
        "suburb": "Park",
        "city_district": "Ballinacarrig ED",
        "city": null,
        "state": null,
        "postcode": "R93 Y0A6",
        "country": "Ireland",
        "country_code": "ie"
      },
      "address": "L1010, Park, Ballinacarrig ED, The Municipal District of Carlow, County Carlow, Leinster, R93 Y0A6, Ireland"
    },
    {
      "lat": 52.844752922249675,
      "lon": -6.9936387184360385,
      "geoinfo": {
        "display_name": "L7914, Ballickmoyler ED, The Municipal District of Graiguecullen — Portarlington, County Laois, Leinster, R93 YN61, Ireland",
        "road": "L7914",
        "house_number": null,
        "neighbourhood": null,
        "suburb": null,
        "city_district": "Ballickmoyler ED",
        "city": null,
        "state": null,
        "postcode": "R93 YN61",
        "country": "Ireland",
        "country_code": "ie"
      },
      "address": "L7914, Ballickmoyler ED, The Municipal District of Graiguecullen — Portarlington, County Laois, Leinster, R93 YN61, Ireland"
    }
  ],
  "updated_at": "2025-10-19T04:23:37.815030+00:00",
  "_kind": "geo_samples"
}