{
  "country_code": "IE",
  "country": "Ireland",
  "city": "Cork",
  "geonameid": 2965140,
  "target_addresses": 14,
  "samples": [
    {
      "lat": 51.90551538105833,
      "lon": -8.53986543275419,
      "geoinfo": {
        "display_name": "Blarney Street, Ballysheedy, St. Mary's, Cork, County Cork, Munster, T23 D30F, Ireland",
        "road": "Blarney Street",
        "house_number": null,
        "neighbourhood": null,
        "suburb": null,
        "city_district": "St. Mary's",
        "city": "Cork",
        "state": null,
        "postcode": "T23 D30F",
        "country": "Ireland",
        "country_code": "ie"
      },
      "address": "Blarney Street, Cork, Ireland"
    },
    {
      "lat": 51.91017010059892,
      "lon": -8.495174918238401,
      "geoinfo": {
        "display_name": "Churchfield Road, Knocknabohilly, Knocknaheeny, Cork, County Cork, Munster, T23 W08N, Ireland",
        "road": "Churchfield Road",
        "house_number": null,
        "neighbourhood": null,
        "suburb": null,
        "city_district": "Knocknaheeny",
        "city": "Cork",
        "state": null,
        "postcode": "T23 W08N",
        "country": "Ireland",
        "country_code": "ie"
      },
      "address": "Churchfield Road, Cork, Ireland"
    },
    {
      "lat": 51.866433892723514,
      "lon": -8.5141556324101,
      "geoinfo": {
        "display_name": "Spur Hill, Doughcloyne, Inishkenny, Cork, County Cork, Munster, T12 VY33, Ireland",
        "road": "Spur Hill",
        "house_number": null,
        "neighbourhood": null,
        "suburb": null,
        "city_district": "Inishkenny",
        "city": "Cork",
        "state": null,
        "postcode": "T12 VY33",
        "country": "Ireland",
        "country_code": "ie"
      },
      "address": "Spur Hill, Cork, Ireland"
    },
    {
      "lat": 51.88710135995737,
      "lon": -8.499029915617053,
      "geoinfo": {
        "display_name": "Glasheen Road Girls National School, School Avenue, Huggartsland, Glasheen B, Cork, County Cork, Munster, T12 EK54, Ireland",
        "road": "School Avenue",
        "house_number": null,
        "neighbourhood": null,
        "suburb": null,
        "city_district": "Glasheen B",
        "city": "Cork",
        "state": null,
        "postcode": "T12 EK54",
        "country": "Ireland",
        "country_code": "ie"
      },
      "address": "Glasheen Road Girls National School, School Avenue, Huggartsland, Glasheen B, Cork, County Cork, Munster, T12 EK54, Ireland"
    },
    {
      "lat": 51.92569751236842,
      "lon": -8.474142024678866,
      "geoinfo": {
        "display_name": "Flex, Kilbarry Business Park, Kilbarry, Kilbarry Business & Technology Park, Commons ED, Cork, County Cork, Munster, T23 CV63, Ireland",
        "road": null,
        "house_number": null,
        "neighbourhood": null,
        "suburb": null,
        "city_district": "Commons ED",
        "city": "Cork",
        "state": null,
        "postcode": "T23 CV63",
        "country": "Ireland",
        "country_code": "ie"
      },
      "address": "Flex, Kilbarry Business Park, Kilbarry, Kilbarry Business & Technology Park, Commons ED, Cork, County Cork, Munster, T23 CV63, Ireland"
    },
    {
      "lat": 51.855783743619575,
      "lon": -8.490477231327803,
      "geoinfo": {
        "display_name": "L6452, Lehenagh More, Lehenaghmore, Lehenagh, Cork, County Cork, Munster, T12 H516, Ireland",
        "road": "L6452",
        "house_number": null,
        "neighbourhood": null,
        "suburb": "Lehenaghmore",
        "city_district": "Lehenagh",
        "city": "Cork",
        "state": null,
        "postcode": "T12 H516",
        "country": "Ireland",
        "country_code": "ie"
      },
      "address": "L6452, Lehenagh More, Lehenaghmore, Lehenagh, Cork, County Cork, Munster, T12 H516, Ireland"
    },
    {
      "lat": 51.90727850660418,
      "lon": -8.414824310407239,
      "geoinfo": {
        "display_name": "Burke's Hill, Lota More, Rathcooney, Cork, County Cork, Munster, T23 P4F1, Ireland",
        "road": "Burke's Hill",
        "house_number": null,
        "neighbourhood": null,
        "suburb": null,
        "city_district": "Rathcooney",
        "city": "Cork",
        "state": null,
        "postcode": "T23 P4F1",
        "country": "Ireland",
        "country_code": "ie"
      },
      "address": "Burke's Hill, Lota More, Rathcooney, Cork, County Cork, Munster, T23 P4F1, Ireland"
    },
    {
      "lat": 51.86984268317997,
      "lon": -8.424754042955241,
      "geoinfo": {
        "display_name": "Douglas Golf Club, M28, Ballinimlagh, Moneygurney, Douglas, Cork, County Cork, Munster, T12 D5RC, Ireland",
        "road": "M28",
        "house_number": null,
        "neighbourhood": null,
        "suburb": "Moneygurney",
        "city_district": "Douglas",
        "city": "Cork",
        "state": null,
        "postcode": "T12 D5RC",
        "country": "Ireland",
        "country_code": "ie"
      },
      "address": "Douglas Golf Club, M28, Ballinimlagh, Moneygurney, Douglas, Cork, County Cork, Munster, T12 D5RC, Ireland"
    },
    {
      "lat": 51.90513508415535,
      "lon": -8.529646315888852,
      "geoinfo": {
        "display_name": "Old Blarney Road, Ballysheedy, St. Mary's, Cork, County Cork, Munster, T23 D30F, Ireland",
        "road": "Old Blarney Road",
        "house_number": null,
        "neighbourhood": null,
        "suburb": null,
        "city_district": "St. Mary's",
        "city": "Cork",
        "state": null,
        "postcode": "T23 D30F",
        "country": "Ireland",
        "country_code": "ie"
      },
      "address": "Old Blarney Road, Ballysheedy, St. Mary's, Cork, County Cork, Munster, T23 D30F, Ireland"
    },
    {
      "lat": 51.86297082876926,
      "lon": -8.462421483258042,
      "geoinfo": {
        "display_name": "Curraghconway, Woodlands, Frankfield, Lehenagh, Cork, County Cork, Munster, T12 WT04, Ireland",
        "road": null,
        "house_number": null,
        "neighbourhood": null,
        "suburb": "Frankfield",
        "city_district": "Lehenagh",
        "city": "Cork",
        "state": null,
        "postcode": "T12 WT04",
        "country": "Ireland",
        "country_code": "ie"
      },
      "address": "926, Frankfield, T12 WT04 Cork, Ireland"
    },
    {
      "lat": 51.89792796539172,
      "lon": -8.493840804156186,
      "geoinfo": {
        "display_name": "34, Sunday's Well Road, Sunday's Well, Sunday's Well A, Cork, County Cork, Munster, T23 HF50, Ireland",
        "road": "Sunday's Well Road",
        "house_number": "34",
        "neighbourhood": "Sunday's Well",
        "suburb": null,
        "city_district": "Sunday's Well A",
        "city": "Cork",
        "state": null,
        "postcode": "T23 HF50",
        "country": "Ireland",
        "country_code": "ie"
      },
      "address": "34, Sunday's Well Road, Sunday's Well, Sunday's Well A, Cork, County Cork, Munster, T23 HF50, Ireland"
    },
    {
      "lat": 51.8958139992281,
      "lon": -8.419945261590843,
      "geoinfo": {
        "display_name": "Saint Michael's National School, Church Road, Old Mahon, Ballinlough, Mahon A, Cork, County Cork, Munster, T12 Y0EH, Ireland",
        "road": "Church Road",
        "house_number": null,
        "neighbourhood": null,
        "suburb": "Ballinlough",
        "city_district": "Mahon A",
        "city": "Cork",
        "state": null,
        "postcode": "T12 Y0EH",
        "country": "Ireland",
        "country_code": "ie"
      },
      "address": "Saint Michael's National School, Church Road, Old Mahon, Ballinlough, Mahon A, Cork, County Cork, Munster, T12 Y0EH, Ireland"
    },
    {
      "lat": 51.89919015180962,
      "lon": -8.436060572570602,
      "geoinfo": {
        "display_name": "SuperValu Páirc Uí Chaoimh, Cork Harbour Greenway, The Marina, Knockrea B, Cork, County Cork, Munster, T12 PF30, Ireland",
        "road": "Cork Harbour Greenway",
        "house_number": null,
        "neighbourhood": null,
        "suburb": "The Marina",
        "city_district": "Knockrea B",
        "city": "Cork",
        "state": null,
        "postcode": "T12 PF30",
        "country": "Ireland",
        "country_code": "ie"
      },
      "address": "SuperValu Páirc Uí Chaoimh, Cork Harbour Greenway, The Marina, Knockrea B, Cork, County Cork, Munster, T12 PF30, Ireland"
    },
    {
      "lat": 51.88565523417747,
      "lon": -8.540423456490515,
      "geoinfo": {
        "display_name": "MTU Bishopstown Campus, Rossa Avenue, Bishopstown ED B, Cork, County Cork, Munster, T12 EE94, Ireland",
        "road": "Rossa Avenue",
        "house_number": null,
        "neighbourhood": null,
        "suburb": null,
        "city_district": "Bishopstown ED B",
        "city": "Cork",
        "state": null,
        "postcode": "T12 EE94",
        "country": "Ireland",
        "country_code": "ie"
      },
      "address": "MTU Bishopstown Campus, Rossa Avenue, Bishopstown ED B, Cork, County Cork, Munster, T12 EE94, Ireland"
    }
  ],
  "updated_at": "2025-10-19T04:49:36.191704+00:00",
  "_kind": "geo_samples"
}