{
  "country_code": "IE",
  "country": "Ireland",
  "city": "Donaghmede",
  "geonameid": 6691033,
  "target_addresses": 3,
  "samples": [
    {
      "lat": 53.36258484119445,
      "lon": -6.120198797698674,
      "geoinfo": {
        "display_name": "Sutton, Fingal, County Dublin, Leinster, D13 A7X4, Ireland",
        "road": null,
        "house_number": null,
        "neighbourhood": null,
        "suburb": null,
        "city_district": null,
        "city": "Sutton",
        "state": null,
        "postcode": "D13 A7X4",
        "country": "Ireland",
        "country_code": "ie"
      },
      "address": "Donaghmede, Ireland"
    },
    {
      "lat": 53.39421174245585,
      "lon": -6.104115598264719,
      "geoinfo": {
        "display_name": "Burrow Road, Howth DED 1986, Sutton, Fingal, County Dublin, Leinster, D13 XW30, Ireland",
        "road": "Burrow Road",
        "house_number": null,
        "neighbourhood": null,
        "suburb": null,
        "city_district": "Howth DED 1986",
        "city": "Sutton",
        "state": null,
        "postcode": "D13 XW30",
        "country": "Ireland",
        "country_code": "ie"
      },
      "address": "Burrow Road, Howth DED 1986, Sutton, Fingal, County Dublin, Leinster, D13 XW30, Ireland"
    },
    {
      "lat": 53.380682821487476,
      "lon": -6.157942830117277,
      "geoinfo": {
        "display_name": "577, Howth Road, Kilbarrack, Raheny A ED, Dublin, County Dublin, Leinster, D05 TW94, Ireland",
        "road": "Howth Road",
        "house_number": "577",
        "neighbourhood": null,
        "suburb": "Kilbarrack",
        "city_district": "Raheny A ED",
        "city": "Dublin",
        "state": null,
        "postcode": "D05 TW94",
        "country": "Ireland",
        "country_code": "ie"
      },
      "address": "577, Howth Road, Kilbarrack, Raheny A ED, Dublin, County Dublin, Leinster, D05 TW94, Ireland"
    },
    {
      "lat": 53.39627900460098,
      "lon": -6.177769510809037,
      "geoinfo": {
        "display_name": "FOXHILL CLOSE (NC), Foxhill Close, Ayrfield Ward 1986, Dublin, County Dublin, Leinster, D13 X079, Ireland",
        "road": "Foxhill Close",
        "house_number": null,
        "neighbourhood": null,
        "suburb": null,
        "city_district": "Ayrfield Ward 1986",
        "city": "Dublin",
        "state": null,
        "postcode": "D13 X079",
        "country": "Ireland",
        "country_code": "ie"
      },
      "address": "FOXHILL CLOSE (NC), Foxhill Close, Ayrfield Ward 1986, Dublin, County Dublin, Leinster, D13 X079, Ireland"
    }
  ],
  "updated_at": "2025-10-19T02:41:54.606907+00:00",
  "_kind": "geo_samples"
}