{
  "country_code": "IE",
  "country": "Ireland",
  "city": "Dublin",
  "geonameid": 2964574,
  "target_addresses": 3,
  "samples": [
    {
      "lat": 53.347389883994424,
      "lon": -6.295848408275066,
      "geoinfo": {
        "display_name": "Parkgate Place, Islandbridge, Phoenix Park ED, Dublin, County Dublin, Leinster, D08 YFF1, Ireland",
        "road": "Parkgate Place",
        "house_number": null,
        "neighbourhood": null,
        "suburb": "Islandbridge",
        "city_district": "Phoenix Park ED",
        "city": "Dublin",
        "state": null,
        "postcode": "D08 YFF1",
        "country": "Ireland",
        "country_code": "ie"
      },
      "address": "Parkgate Place, Dublin, Ireland"
    },
    {
      "lat": 53.30714604183507,
      "lon": -6.284883263593487,
      "geoinfo": {
        "display_name": "War Memorial Hall, Rathfarnham Road, Terenure, Rathfarnham D ED, Dublin, County Dublin, Leinster, D06 K767, Ireland",
        "road": "Rathfarnham Road",
        "house_number": null,
        "neighbourhood": null,
        "suburb": "Terenure",
        "city_district": "Rathfarnham D ED",
        "city": "Dublin",
        "state": null,
        "postcode": "D06 K767",
        "country": "Ireland",
        "country_code": "ie"
      },
      "address": "Rathfarnham Road, Dublin, Ireland"
    },
    {
      "lat": 53.361482316135586,
      "lon": -6.304464710193706,
      "geoinfo": {
        "display_name": "153, Dunard Avenue, Cabra West D Ward, Dublin, County Dublin, Leinster, D07 AYW1, Ireland",
        "road": "Dunard Avenue",
        "house_number": "153",
        "neighbourhood": null,
        "suburb": null,
        "city_district": "Cabra West D Ward",
        "city": "Dublin",
        "state": null,
        "postcode": "D07 AYW1",
        "country": "Ireland",
        "country_code": "ie"
      },
      "address": "153 Dunard Avenue, Dublin, Ireland"
    },
    {
      "lat": 53.31025657380639,
      "lon": -6.196486183819968,
      "geoinfo": {
        "display_name": "Booterstown Dart Station Parking, Rock Road, Intake, Blackrock-Booterstown DED 1986, Blackrock, Dún Laoghaire-Rathdown, County Dublin, Leinster, A94 X2C6, Ireland",
        "road": "Rock Road",
        "house_number": null,
        "neighbourhood": null,
        "suburb": "Intake",
        "city_district": "Blackrock-Booterstown DED 1986",
        "city": "Blackrock",
        "state": null,
        "postcode": "A94 X2C6",
        "country": "Ireland",
        "country_code": "ie"
      },
      "address": "Booterstown Dart Station Parking, Rock Road, Intake, Blackrock-Booterstown DED 1986, Blackrock, Dún Laoghaire-Rathdown, County Dublin, Leinster, A94 X2C6, Ireland"
    },
    {
      "lat": 53.3081996525873,
      "lon": -6.199699330214576,
      "geoinfo": {
        "display_name": "21, Castle Court, Booterstown, Blackrock-Booterstown DED 1986, Blackrock, Dún Laoghaire-Rathdown, County Dublin, Leinster, A94 X2C6, Ireland",
        "road": "Castle Court",
        "house_number": "21",
        "neighbourhood": null,
        "suburb": "Booterstown",
        "city_district": "Blackrock-Booterstown DED 1986",
        "city": "Blackrock",
        "state": null,
        "postcode": "A94 X2C6",
        "country": "Ireland",
        "country_code": "ie"
      },
      "address": "21, Castle Court, Booterstown, Blackrock-Booterstown DED 1986, Blackrock, Dún Laoghaire-Rathdown, County Dublin, Leinster, A94 X2C6, Ireland"
    },
    {
      "lat": 53.29680636675695,
      "lon": -6.225523299045117,
      "geoinfo": {
        "display_name": "5, Salzburg, Ardilea, Roebuck, Clonskeagh-Roebuck DED 1986, Goatstown, Dún Laoghaire-Rathdown, County Dublin, Leinster, D14 DX57, Ireland",
        "road": "Salzburg",
        "house_number": "5",
        "neighbourhood": null,
        "suburb": "Roebuck",
        "city_district": "Clonskeagh-Roebuck DED 1986",
        "city": "Goatstown",
        "state": null,
        "postcode": "D14 DX57",
        "country": "Ireland",
        "country_code": "ie"
      },
      "address": "5, Salzburg, Ardilea, Roebuck, Clonskeagh-Roebuck DED 1986, Goatstown, Dún Laoghaire-Rathdown, County Dublin, Leinster, D14 DX57, Ireland"
    }
  ],
  "updated_at": "2025-10-19T03:03:39.557050+00:00",
  "_kind": "geo_samples"
}