{
  "country_code": "IE",
  "country": "Ireland",
  "city": "Letterkenny",
  "geonameid": 2962961,
  "target_addresses": 3,
  "samples": [
    {
      "lat": 54.9354179001402,
      "lon": -7.790414636298336,
      "geoinfo": {
        "display_name": "R250, Ardahee, Doon Glebe, Ballymacool ED, Letterkenny, County Donegal, Ulster, Ireland",
        "road": "R250",
        "house_number": null,
        "neighbourhood": null,
        "suburb": null,
        "city_district": "Ballymacool ED",
        "city": "Letterkenny",
        "state": null,
        "postcode": null,
        "country": "Ireland",
        "country_code": "ie"
      },
      "address": "R250, Letterkenny, Ireland"
    },
    {
      "lat": 54.931594120119584,
      "lon": -7.689233053918231,
      "geoinfo": {
        "display_name": "Magheraboy ED, Letterkenny, County Donegal, Ulster, F92 CTH6, Ireland",
        "road": null,
        "house_number": null,
        "neighbourhood": null,
        "suburb": null,
        "city_district": "Magheraboy ED",
        "city": "Letterkenny",
        "state": null,
        "postcode": "F92 CTH6",
        "country": "Ireland",
        "country_code": "ie"
      },
      "address": "Magheraboy ED, Letterkenny, Ireland"
    },
    {
      "lat": 54.93843857332778,
      "lon": -7.74014128678151,
      "geoinfo": {
        "display_name": "Letterkenny Rural ED, Letterkenny, County Donegal, Ulster, F92 DX89, Ireland",
        "road": null,
        "house_number": null,
        "neighbourhood": null,
        "suburb": null,
        "city_district": "Letterkenny Rural ED",
        "city": "Letterkenny",
        "state": null,
        "postcode": "F92 DX89",
        "country": "Ireland",
        "country_code": "ie"
      },
      "address": "Letterkenny Rural ED, Letterkenny, Ireland"
    }
  ],
  "updated_at": "2025-10-16T15:16:34.416146+00:00",
  "_kind": "geo_samples"
}