{
  "country_code": "IE",
  "country": "Ireland",
  "city": "Limerick",
  "geonameid": 2962943,
  "target_addresses": 3,
  "samples": [
    {
      "lat": 52.6580393684012,
      "lon": -8.692866652822403,
      "geoinfo": {
        "display_name": "Limerick Southern Ring Road, Limerick North Rural, The Metropolitan District of Limerick City, Limerick, County Limerick, Munster, V94 12R6, Ireland",
        "road": "Limerick Southern Ring Road",
        "house_number": null,
        "neighbourhood": null,
        "suburb": "Limerick North Rural",
        "city_district": "The Metropolitan District of Limerick City",
        "city": "Limerick",
        "state": null,
        "postcode": "V94 12R6",
        "country": "Ireland",
        "country_code": "ie"
      },
      "address": "Limerick Southern Ring Road, Limerick, Ireland"
    },
    {
      "lat": 52.670902073570254,
      "lon": -8.64368959226068,
      "geoinfo": {
        "display_name": "84, Mayorstone Gardens, Clareview, Farranshone, The Metropolitan District of Limerick City, Limerick, County Limerick, Munster, V94 TN5P, Ireland",
        "road": "Mayorstone Gardens",
        "house_number": "84",
        "neighbourhood": null,
        "suburb": "Farranshone",
        "city_district": "The Metropolitan District of Limerick City",
        "city": "Limerick",
        "state": null,
        "postcode": "V94 TN5P",
        "country": "Ireland",
        "country_code": "ie"
      },
      "address": "84 Mayorstone Gardens, Limerick, Ireland"
    },
    {
      "lat": 52.65409467587185,
      "lon": -8.554972484413476,
      "geoinfo": {
        "display_name": "80, Kylemore, Ballysimon ED, The Metropolitan District of Limerick City, Limerick, County Limerick, Munster, V94 2D68, Ireland",
        "road": "Kylemore",
        "house_number": "80",
        "neighbourhood": null,
        "suburb": "Ballysimon ED",
        "city_district": "The Metropolitan District of Limerick City",
        "city": "Limerick",
        "state": null,
        "postcode": "V94 2D68",
        "country": "Ireland",
        "country_code": "ie"
      },
      "address": "80 Kylemore, Limerick, Ireland"
    },
    {
      "lat": 52.68821656625409,
      "lon": -8.626670011661528,
      "geoinfo": {
        "display_name": "Abbey A, The Metropolitan District of Limerick City, Limerick, County Limerick, Munster, V94 HXW5, Ireland",
        "road": null,
        "house_number": null,
        "neighbourhood": null,
        "suburb": "Abbey A",
        "city_district": "The Metropolitan District of Limerick City",
        "city": "Limerick",
        "state": null,
        "postcode": "V94 HXW5",
        "country": "Ireland",
        "country_code": "ie"
      },
      "address": "Abbey A, The Metropolitan District of Limerick City, Limerick, County Limerick, Munster, V94 HXW5, Ireland"
    },
    {
      "lat": 52.63695038891125,
      "lon": -8.626166067407825,
      "geoinfo": {
        "display_name": "Limerick South Rural, The Metropolitan District of Limerick City, Limerick, County Limerick, Munster, V94 C3YX, Ireland",
        "road": null,
        "house_number": null,
        "neighbourhood": null,
        "suburb": "Limerick South Rural",
        "city_district": "The Metropolitan District of Limerick City",
        "city": "Limerick",
        "state": null,
        "postcode": "V94 C3YX",
        "country": "Ireland",
        "country_code": "ie"
      },
      "address": "Limerick South Rural, The Metropolitan District of Limerick City, Limerick, County Limerick, Munster, V94 C3YX, Ireland"
    },
    {
      "lat": 52.671384351531316,
      "lon": -8.631988243727804,
      "geoinfo": {
        "display_name": "Cannon Breen Park, Thomondgate, Killeely B, The Metropolitan District of Limerick City, Limerick, County Limerick, Munster, V94 YW63, Ireland",
        "road": "Cannon Breen Park",
        "house_number": null,
        "neighbourhood": null,
        "suburb": "Killeely B",
        "city_district": "The Metropolitan District of Limerick City",
        "city": "Limerick",
        "state": null,
        "postcode": "V94 YW63",
        "country": "Ireland",
        "country_code": "ie"
      },
      "address": "Cannon Breen Park, Thomondgate, Killeely B, The Metropolitan District of Limerick City, Limerick, County Limerick, Munster, V94 YW63, Ireland"
    }
  ],
  "updated_at": "2025-10-19T02:41:22.489063+00:00",
  "_kind": "geo_samples"
}