{
  "country_code": "IE",
  "country": "Ireland",
  "city": "Lucan",
  "geonameid": 2962785,
  "target_addresses": 3,
  "samples": [
    {
      "lat": 53.36649703839594,
      "lon": -6.435555559742392,
      "geoinfo": {
        "display_name": "Lower Lucan Road, Laraghcon, Lucan North DED 1986, Fingal, County Dublin, Leinster, K78 E3F9, Ireland",
        "road": "Lower Lucan Road",
        "house_number": null,
        "neighbourhood": null,
        "suburb": "Laraghcon",
        "city_district": "Lucan North DED 1986",
        "city": null,
        "state": null,
        "postcode": "K78 E3F9",
        "country": "Ireland",
        "country_code": "ie"
      },
      "address": "Lower Lucan Road, Lucan, Ireland"
    },
    {
      "lat": 53.3393704284687,
      "lon": -6.471762456110336,
      "geoinfo": {
        "display_name": "Adamstown, Lucan-St. Helens DED 1986, Lucan, South Dublin, County Dublin, Leinster, K78 E0C5, Ireland",
        "road": null,
        "house_number": null,
        "neighbourhood": null,
        "suburb": "Adamstown",
        "city_district": "Lucan-St. Helens DED 1986",
        "city": "Lucan",
        "state": null,
        "postcode": "K78 E0C5",
        "country": "Ireland",
        "country_code": "ie"
      },
      "address": "Adamstown, Lucan, Ireland"
    },
    {
      "lat": 53.382763865192366,
      "lon": -6.462633135081313,
      "geoinfo": {
        "display_name": "Passifyoucan Lane, Blanchardstown-Blakestown DED 1986, Ongar, Fingal, County Dublin, Leinster, D15 AE61, Ireland",
        "road": "Passifyoucan Lane",
        "house_number": null,
        "neighbourhood": null,
        "suburb": null,
        "city_district": "Blanchardstown-Blakestown DED 1986",
        "city": "Ongar",
        "state": null,
        "postcode": "D15 AE61",
        "country": "Ireland",
        "country_code": "ie"
      },
      "address": "Passifyoucan Lane, Lucan, Ireland"
    },
    {
      "lat": 53.38258236758306,
      "lon": -6.4567462393087265,
      "geoinfo": {
        "display_name": "Barnhill Road, Lucan North DED 1986, Ongar, Fingal, County Dublin, Leinster, D15 AE61, Ireland",
        "road": "Barnhill Road",
        "house_number": null,
        "neighbourhood": null,
        "suburb": null,
        "city_district": "Lucan North DED 1986",
        "city": "Ongar",
        "state": null,
        "postcode": "D15 AE61",
        "country": "Ireland",
        "country_code": "ie"
      },
      "address": "Barnhill Road, Lucan North DED 1986, Ongar, Fingal, County Dublin, Leinster, D15 AE61, Ireland"
    },
    {
      "lat": 53.39511193455512,
      "lon": -6.42919998366898,
      "geoinfo": {
        "display_name": "12, Ravenswood Road, Ravenswood, Blanchardstown-Blakestown DED 1986, Ongar, Fingal, County Dublin, Leinster, D15 NX83, Ireland",
        "road": "Ravenswood Road",
        "house_number": "12",
        "neighbourhood": null,
        "suburb": null,
        "city_district": "Blanchardstown-Blakestown DED 1986",
        "city": "Ongar",
        "state": null,
        "postcode": "D15 NX83",
        "country": "Ireland",
        "country_code": "ie"
      },
      "address": "12, Ravenswood Road, Ravenswood, Blanchardstown-Blakestown DED 1986, Ongar, Fingal, County Dublin, Leinster, D15 NX83, Ireland"
    },
    {
      "lat": 53.35629170039928,
      "lon": -6.490255775162349,
      "geoinfo": {
        "display_name": "Weston Airport, Celbridge Road, Lucan-St. Helens DED 1986, Lucan, South Dublin, County Dublin, Leinster, W23 PD34, Ireland",
        "road": "Celbridge Road",
        "house_number": null,
        "neighbourhood": null,
        "suburb": null,
        "city_district": "Lucan-St. Helens DED 1986",
        "city": "Lucan",
        "state": null,
        "postcode": "W23 PD34",
        "country": "Ireland",
        "country_code": "ie"
      },
      "address": "Weston Airport, Celbridge Road, Lucan-St. Helens DED 1986, Lucan, South Dublin, County Dublin, Leinster, W23 PD34, Ireland"
    }
  ],
  "updated_at": "2025-10-19T04:46:14.230509+00:00",
  "_kind": "geo_samples"
}