{
  "country_code": "YE",
  "country": "Yemen",
  "city": "Bayt al Faqīh",
  "geonameid": 76991,
  "target_addresses": 5,
  "samples": [
    {
      "lat": 14.52943363992196,
      "lon": 43.35960834586459,
      "geoinfo": {
        "display_name": "Ad Damah, Majahisah, Bayt Al Faqiah District, Al Hudaydah Governorate, Yemen",
        "road": null,
        "house_number": null,
        "neighbourhood": null,
        "suburb": null,
        "city_district": null,
        "city": "Majahisah",
        "state": "Al Hudaydah Governorate",
        "postcode": null,
        "country": "Yemen",
        "country_code": "ye"
      },
      "address": "Bayt al Faqīh, Al Hudaydah Governorate, Yemen"
    },
    {
      "lat": 14.493590673491237,
      "lon": 43.321337060523405,
      "geoinfo": {
        "display_name": "Taiz - Al Hodeidah Road, Buyut al Mashayikh, Bayt al Faqih, Bayt Al Faqiah District, Al Hudaydah Governorate, Yemen",
        "road": "Taiz - Al Hodeidah Road",
        "house_number": null,
        "neighbourhood": null,
        "suburb": null,
        "city_district": null,
        "city": "Bayt al Faqih",
        "state": "Al Hudaydah Governorate",
        "postcode": null,
        "country": "Yemen",
        "country_code": "ye"
      },
      "address": "Taiz - Al Hodeidah Road, Bayt al Faqīh, Al Hudaydah Governorate, Yemen"
    },
    {
      "lat": 14.494941945653647,
      "lon": 43.34929566743672,
      "geoinfo": {
        "display_name": "Al Maybalah, Bayt al Faqih, Bayt Al Faqiah District, Al Hudaydah Governorate, Yemen",
        "road": null,
        "house_number": null,
        "neighbourhood": null,
        "suburb": "Al Maybalah",
        "city_district": null,
        "city": "Bayt al Faqih",
        "state": "Al Hudaydah Governorate",
        "postcode": null,
        "country": "Yemen",
        "country_code": "ye"
      },
      "address": "Al Maybalah, Bayt al Faqīh, Al Hudaydah Governorate, Yemen"
    },
    {
      "lat": 14.524198159068005,
      "lon": 43.31718153940404,
      "geoinfo": {
        "display_name": "Somani, Bayt al Faqih, Bayt Al Faqiah District, Al Hudaydah Governorate, Yemen",
        "road": null,
        "house_number": null,
        "neighbourhood": null,
        "suburb": "Somani",
        "city_district": null,
        "city": "Bayt al Faqih",
        "state": "Al Hudaydah Governorate",
        "postcode": null,
        "country": "Yemen",
        "country_code": "ye"
      },
      "address": "Somani, Bayt al Faqīh, Al Hudaydah Governorate, Yemen"
    },
    {
      "lat": 14.529902470276683,
      "lon": 43.34437889584074,
      "geoinfo": {
        "display_name": "As Salifin, Majahisah, Bayt Al Faqiah District, Al Hudaydah Governorate, Yemen",
        "road": null,
        "house_number": null,
        "neighbourhood": null,
        "suburb": "As Salifin",
        "city_district": null,
        "city": "Majahisah",
        "state": "Al Hudaydah Governorate",
        "postcode": null,
        "country": "Yemen",
        "country_code": "ye"
      },
      "address": "As Salifin, Bayt al Faqīh, Al Hudaydah Governorate, Yemen"
    }
  ],
  "updated_at": "2025-10-17T01:23:24.025773+00:00",
  "_kind": "geo_samples"
}