{
  "country_code": "YE",
  "country": "Yemen",
  "city": "Dhī as Sufāl",
  "geonameid": 76154,
  "target_addresses": 5,
  "samples": [
    {
      "lat": 13.868211239855356,
      "lon": 44.13703056621912,
      "geoinfo": {
        "display_name": "Al Hissah, Az Zayl, As Sayyani District, Ibb Governorate, Yemen",
        "road": null,
        "house_number": null,
        "neighbourhood": null,
        "suburb": null,
        "city_district": null,
        "city": "Az Zayl",
        "state": "Ibb Governorate",
        "postcode": null,
        "country": "Yemen",
        "country_code": "ye"
      },
      "address": "Dhī as Sufāl, Ibb Governorate, Yemen"
    },
    {
      "lat": 13.795370405889095,
      "lon": 44.11481347637762,
      "geoinfo": {
        "display_name": "القاعده, At Turbah, Dhi as Sufal, Dhi As Sufal District, Ibb Governorate, Yemen",
        "road": null,
        "house_number": null,
        "neighbourhood": null,
        "suburb": "At Turbah",
        "city_district": null,
        "city": "Dhi as Sufal",
        "state": "Ibb Governorate",
        "postcode": null,
        "country": "Yemen",
        "country_code": "ye"
      },
      "address": "At Turbah, Dhī as Sufāl, Ibb Governorate, Yemen"
    },
    {
      "lat": 13.846599050688612,
      "lon": 44.119910296158196,
      "geoinfo": {
        "display_name": "Al Munawih, Ar Rimi, Bayt al Maliki, Dhi As Sufal District, Ibb Governorate, Yemen",
        "road": null,
        "house_number": null,
        "neighbourhood": null,
        "suburb": "Ar Rimi",
        "city_district": null,
        "city": "Bayt al Maliki",
        "state": "Ibb Governorate",
        "postcode": null,
        "country": "Yemen",
        "country_code": "ye"
      },
      "address": "Ar Rimi, Dhī as Sufāl, Ibb Governorate, Yemen"
    },
    {
      "lat": 13.812170152510365,
      "lon": 44.083237424833484,
      "geoinfo": {
        "display_name": "شقح, شارع الثلاثين المؤدي الى الجعاشن, القاعده, Al Qarfuf, Madrat, Dhi As Sufal District, Ibb Governorate, Yemen",
        "road": "شارع الثلاثين المؤدي الى الجعاشن",
        "house_number": null,
        "neighbourhood": null,
        "suburb": null,
        "city_district": null,
        "city": "Madrat",
        "state": "Ibb Governorate",
        "postcode": null,
        "country": "Yemen",
        "country_code": "ye"
      },
      "address": "شارع الثلاثين المؤدي الى الجعاشن, Dhī as Sufāl, Ibb Governorate, Yemen"
    },
    {
      "lat": 13.803759162580247,
      "lon": 44.141871133185234,
      "geoinfo": {
        "display_name": "Manzil as Sunna`, Quraysh, Dhi As Sufal District, Ibb Governorate, Yemen",
        "road": null,
        "house_number": null,
        "neighbourhood": null,
        "suburb": null,
        "city_district": null,
        "city": "Quraysh",
        "state": "Ibb Governorate",
        "postcode": null,
        "country": "Yemen",
        "country_code": "ye"
      },
      "address": "348, Dhī as Sufāl, 84350 Ibb Governorate, Yemen"
    },
    {
      "lat": 13.833337256881693,
      "lon": 44.12875440638493,
      "geoinfo": {
        "display_name": "`Ozlat Wadi Daba', Al Ibnah, Dhi as Sufal, Dhi As Sufal District, Ibb Governorate, Yemen",
        "road": null,
        "house_number": null,
        "neighbourhood": null,
        "suburb": null,
        "city_district": null,
        "city": "Dhi as Sufal",
        "state": "Ibb Governorate",
        "postcode": null,
        "country": "Yemen",
        "country_code": "ye"
      },
      "address": "355, Dhī as Sufāl, 94041 Ibb Governorate, Yemen"
    },
    {
      "lat": 13.838574438550653,
      "lon": 44.14747732328381,
      "geoinfo": {
        "display_name": "Dhrass road, ضراس, Harat al Maqbarah, Nuwabah, As Sayyani District, Ibb Governorate, Yemen",
        "road": "Dhrass road",
        "house_number": null,
        "neighbourhood": null,
        "suburb": null,
        "city_district": null,
        "city": "Nuwabah",
        "state": "Ibb Governorate",
        "postcode": null,
        "country": "Yemen",
        "country_code": "ye"
      },
      "address": "411, Dhrass road, ضراس, Harat al Maqbarah, Nuwabah, As Sayyani District, 18001 Ibb Governorate, Yemen"
    },
    {
      "lat": 13.844835589763377,
      "lon": 44.13419206156979,
      "geoinfo": {
        "display_name": "Dhrass road, ضراس, Harat al Maqbarah, Nuwabah, As Sayyani District, Ibb Governorate, Yemen",
        "road": "Dhrass road",
        "house_number": null,
        "neighbourhood": null,
        "suburb": null,
        "city_district": null,
        "city": "Nuwabah",
        "state": "Ibb Governorate",
        "postcode": null,
        "country": "Yemen",
        "country_code": "ye"
      },
      "address": "970, Dhrass road, ضراس, Harat al Maqbarah, Nuwabah, As Sayyani District, 10212 Ibb Governorate, Yemen"
    },
    {
      "lat": 13.816422521281277,
      "lon": 44.09084704459661,
      "geoinfo": {
        "display_name": "Bayt `Abd Allah, Tanif, Dhi As Sufal District, Ibb Governorate, Yemen",
        "road": null,
        "house_number": null,
        "neighbourhood": null,
        "suburb": null,
        "city_district": null,
        "city": "Tanif",
        "state": "Ibb Governorate",
        "postcode": null,
        "country": "Yemen",
        "country_code": "ye"
      },
      "address": "640, Dhī as Sufāl, 38596 Ibb Governorate, Yemen"
    }
  ],
  "updated_at": "2025-10-19T06:29:01.349288+00:00",
  "_kind": "geo_samples"
}