{
  "country_code": "YE",
  "country": "Yemen",
  "city": "Ma'rib",
  "geonameid": 72968,
  "target_addresses": 5,
  "samples": [
    {
      "lat": 15.443087408991587,
      "lon": 45.36712052834969,
      "geoinfo": {
        "display_name": "Al Hizam, Al Mahtam, Marib City District, Marib Governorate, Yemen",
        "road": null,
        "house_number": null,
        "neighbourhood": null,
        "suburb": null,
        "city_district": null,
        "city": "Al Mahtam",
        "state": "Marib Governorate",
        "postcode": null,
        "country": "Yemen",
        "country_code": "ye"
      },
      "address": "Ma'rib, Marib Governorate, Yemen"
    },
    {
      "lat": 15.471204750607885,
      "lon": 45.35019661887715,
      "geoinfo": {
        "display_name": "Husun Al Jalal al Qadimah, Ar Rumaylah, Marib district, Marib Governorate, Yemen",
        "road": null,
        "house_number": null,
        "neighbourhood": null,
        "suburb": "Husun Al Jalal al Qadimah",
        "city_district": null,
        "city": "Ar Rumaylah",
        "state": "Marib Governorate",
        "postcode": null,
        "country": "Yemen",
        "country_code": "ye"
      },
      "address": "Husun Al Jalal al Qadimah, Ma'rib, Marib Governorate, Yemen"
    },
    {
      "lat": 15.493087600023774,
      "lon": 45.34541643911703,
      "geoinfo": {
        "display_name": "طريق سوق الثلوث بير المرازيق مأرب, Jaww an Nasim, Marib district, Marib Governorate, Yemen",
        "road": "طريق سوق الثلوث بير المرازيق مأرب",
        "house_number": null,
        "neighbourhood": null,
        "suburb": null,
        "city_district": null,
        "city": "Jaww an Nasim",
        "state": "Marib Governorate",
        "postcode": null,
        "country": "Yemen",
        "country_code": "ye"
      },
      "address": "طريق سوق الثلوث بير المرازيق مأرب, Ma'rib, Marib Governorate, Yemen"
    },
    {
      "lat": 15.483342122662823,
      "lon": 45.335445861915204,
      "geoinfo": {
        "display_name": "Husun al Jalal al Jadidah, Jaww an Nasim, Marib district, Marib Governorate, Yemen",
        "road": null,
        "house_number": null,
        "neighbourhood": null,
        "suburb": "Husun al Jalal al Jadidah",
        "city_district": null,
        "city": "Jaww an Nasim",
        "state": "Marib Governorate",
        "postcode": null,
        "country": "Yemen",
        "country_code": "ye"
      },
      "address": "Husun al Jalal al Jadidah, Ma'rib, Marib Governorate, Yemen"
    },
    {
      "lat": 15.470582121393571,
      "lon": 45.31918812837106,
      "geoinfo": {
        "display_name": "Harat al Amn as Siyasi, Marib, Marib City District, Marib Governorate, Yemen",
        "road": null,
        "house_number": null,
        "neighbourhood": null,
        "suburb": "Harat al Amn as Siyasi",
        "city_district": null,
        "city": "Marib",
        "state": "Marib Governorate",
        "postcode": null,
        "country": "Yemen",
        "country_code": "ye"
      },
      "address": "Harat al Amn as Siyasi, Ma'rib, Marib Governorate, Yemen"
    },
    {
      "lat": 15.473874519177976,
      "lon": 45.33587604789163,
      "geoinfo": {
        "display_name": "Marib district, Marib Governorate, Yemen",
        "road": null,
        "house_number": null,
        "neighbourhood": null,
        "suburb": null,
        "city_district": null,
        "city": null,
        "state": "Marib Governorate",
        "postcode": null,
        "country": "Yemen",
        "country_code": "ye"
      },
      "address": "976, Ma'rib, 31443 Marib Governorate, Yemen"
    },
    {
      "lat": 15.450101138722884,
      "lon": 45.368203441288244,
      "geoinfo": {
        "display_name": "طريق الخسيف - محطة بن معيلي, Al `Aqqar, Ar Rab`, Marib City District, Marib Governorate, Yemen",
        "road": "طريق الخسيف - محطة بن معيلي",
        "house_number": null,
        "neighbourhood": null,
        "suburb": null,
        "city_district": null,
        "city": "Ar Rab`",
        "state": "Marib Governorate",
        "postcode": null,
        "country": "Yemen",
        "country_code": "ye"
      },
      "address": "553, طريق الخسيف - محطة بن معيلي, Ma'rib, 08995 Marib Governorate, Yemen"
    },
    {
      "lat": 15.455947059460675,
      "lon": 45.296402032471015,
      "geoinfo": {
        "display_name": "Marib, Marib City District, Marib Governorate, Yemen",
        "road": null,
        "house_number": null,
        "neighbourhood": null,
        "suburb": null,
        "city_district": null,
        "city": "Marib",
        "state": "Marib Governorate",
        "postcode": null,
        "country": "Yemen",
        "country_code": "ye"
      },
      "address": "006, Ma'rib, 89680 Marib Governorate, Yemen"
    },
    {
      "lat": 15.445855984845812,
      "lon": 45.284900516417984,
      "geoinfo": {
        "display_name": "Harat al Amn as Siyasi, Marib, Marib City District, Marib Governorate, Yemen",
        "road": null,
        "house_number": null,
        "neighbourhood": null,
        "suburb": "Harat al Amn as Siyasi",
        "city_district": null,
        "city": "Marib",
        "state": "Marib Governorate",
        "postcode": null,
        "country": "Yemen",
        "country_code": "ye"
      },
      "address": "331, Harat al Amn as Siyasi, Marib, Marib City District, 23122 Marib Governorate, Yemen"
    },
    {
      "lat": 15.464843491027048,
      "lon": 45.31686000827054,
      "geoinfo": {
        "display_name": "Suq Hint, Marib, Marib City District, Marib Governorate, Yemen",
        "road": null,
        "house_number": null,
        "neighbourhood": null,
        "suburb": null,
        "city_district": null,
        "city": "Marib",
        "state": "Marib Governorate",
        "postcode": null,
        "country": "Yemen",
        "country_code": "ye"
      },
      "address": "130, Ma'rib, 59222 Marib Governorate, Yemen"
    }
  ],
  "updated_at": "2025-10-19T07:32:12.145779+00:00",
  "_kind": "geo_samples"
}