{
  "country_code": "YE",
  "country": "Yemen",
  "city": "Sa'dah",
  "geonameid": 71334,
  "target_addresses": 5,
  "samples": [
    {
      "lat": 16.899851402891166,
      "lon": 43.78138058696629,
      "geoinfo": {
        "display_name": "Al al Lawm, Al Musadir, Sa'adah district, Sa'dah Governorate, Yemen",
        "road": null,
        "house_number": null,
        "neighbourhood": null,
        "suburb": null,
        "city_district": null,
        "city": "Al Musadir",
        "state": "Sa'dah Governorate",
        "postcode": null,
        "country": "Yemen",
        "country_code": "ye"
      },
      "address": "Sa'dah, Sa'dah Governorate, Yemen"
    },
    {
      "lat": 16.939314556459944,
      "lon": 43.755438945226324,
      "geoinfo": {
        "display_name": "Bab as Salam, Sa`dah, Sa'adah district, Sa'dah Governorate, Yemen",
        "road": null,
        "house_number": null,
        "neighbourhood": null,
        "suburb": "Bab as Salam",
        "city_district": null,
        "city": "Sa`dah",
        "state": "Sa'dah Governorate",
        "postcode": null,
        "country": "Yemen",
        "country_code": "ye"
      },
      "address": "Bab as Salam, Sa'dah, Sa'dah Governorate, Yemen"
    },
    {
      "lat": 16.967270193645156,
      "lon": 43.774024472526165,
      "geoinfo": {
        "display_name": "Sa'dah Al Buq' Road, `Akwan, Al Dharwah, As Safra district, Sa'dah Governorate, Yemen",
        "road": "Sa'dah Al Buq' Road",
        "house_number": null,
        "neighbourhood": null,
        "suburb": null,
        "city_district": null,
        "city": "Al Dharwah",
        "state": "Sa'dah Governorate",
        "postcode": null,
        "country": "Yemen",
        "country_code": "ye"
      },
      "address": "Sa'dah Al Buq' Road, Sa'dah, Sa'dah Governorate, Yemen"
    },
    {
      "lat": 16.93581286328916,
      "lon": 43.77182079182334,
      "geoinfo": {
        "display_name": "Bi'r Hataban, Al Khamis, Sa'adah district, Sa'dah Governorate, Yemen",
        "road": null,
        "house_number": null,
        "neighbourhood": null,
        "suburb": "Bi'r Hataban",
        "city_district": null,
        "city": "Al Khamis",
        "state": "Sa'dah Governorate",
        "postcode": null,
        "country": "Yemen",
        "country_code": "ye"
      },
      "address": "Bi'r Hataban, Sa'dah, Sa'dah Governorate, Yemen"
    },
    {
      "lat": 16.98171844000899,
      "lon": 43.759629718431874,
      "geoinfo": {
        "display_name": "`Utayfah, Al Hamazat, Sahar district, Sa'dah Governorate, Yemen",
        "road": null,
        "house_number": null,
        "neighbourhood": null,
        "suburb": "`Utayfah",
        "city_district": null,
        "city": "Al Hamazat",
        "state": "Sa'dah Governorate",
        "postcode": null,
        "country": "Yemen",
        "country_code": "ye"
      },
      "address": "`Utayfah, Sa'dah, Sa'dah Governorate, Yemen"
    },
    {
      "lat": 16.947622898827337,
      "lon": 43.722238584450736,
      "geoinfo": {
        "display_name": "Sa'dah - Elb Road, Abu Mash`af, Al Masud, As Safra district, Sa'dah Governorate, Yemen",
        "road": "Sa'dah - Elb Road",
        "house_number": null,
        "neighbourhood": null,
        "suburb": null,
        "city_district": null,
        "city": "Al Masud",
        "state": "Sa'dah Governorate",
        "postcode": null,
        "country": "Yemen",
        "country_code": "ye"
      },
      "address": "796, Sa'dah - Elb Road, Sa'dah, 40218 Sa'dah Governorate, Yemen"
    },
    {
      "lat": 16.963246146368828,
      "lon": 43.78621424012595,
      "geoinfo": {
        "display_name": "Zur Wadi`ah, Al ar Ruhit, As Safra district, Sa'dah Governorate, Yemen",
        "road": null,
        "house_number": null,
        "neighbourhood": null,
        "suburb": null,
        "city_district": null,
        "city": "Al ar Ruhit",
        "state": "Sa'dah Governorate",
        "postcode": null,
        "country": "Yemen",
        "country_code": "ye"
      },
      "address": "220, Sa'dah, 99370 Sa'dah Governorate, Yemen"
    },
    {
      "lat": 16.978101563404778,
      "lon": 43.74317107388258,
      "geoinfo": {
        "display_name": "Al Gharbi, Sahar district, Sa'dah Governorate, Yemen",
        "road": null,
        "house_number": null,
        "neighbourhood": null,
        "suburb": null,
        "city_district": null,
        "city": null,
        "state": "Sa'dah Governorate",
        "postcode": null,
        "country": "Yemen",
        "country_code": "ye"
      },
      "address": "909, Al Gharbi, Sahar district, 16102 Sa'dah Governorate, Yemen"
    },
    {
      "lat": 16.965317917232003,
      "lon": 43.79239686055299,
      "geoinfo": {
        "display_name": "Al Nayil, As Safra district, Sa'dah Governorate, Yemen",
        "road": null,
        "house_number": null,
        "neighbourhood": null,
        "suburb": null,
        "city_district": null,
        "city": "Al Nayil",
        "state": "Sa'dah Governorate",
        "postcode": null,
        "country": "Yemen",
        "country_code": "ye"
      },
      "address": "390, Al Nayil, As Safra district, 96373 Sa'dah Governorate, Yemen"
    },
    {
      "lat": 16.90663427199829,
      "lon": 43.75230948500064,
      "geoinfo": {
        "display_name": "Al Hadibah al Janubiyah, Ghuraz, Sa'adah district, Sa'dah Governorate, Yemen",
        "road": null,
        "house_number": null,
        "neighbourhood": null,
        "suburb": null,
        "city_district": null,
        "city": "Ghuraz",
        "state": "Sa'dah Governorate",
        "postcode": null,
        "country": "Yemen",
        "country_code": "ye"
      },
      "address": "488, Al Hadibah al Janubiyah, Ghuraz, Sa'adah district, 89862 Sa'dah Governorate, Yemen"
    }
  ],
  "updated_at": "2025-10-19T06:28:40.490397+00:00",
  "_kind": "geo_samples"
}