{
  "country_code": "YE",
  "country": "Yemen",
  "city": "Sanaa",
  "geonameid": 71137,
  "target_addresses": 5,
  "samples": [
    {
      "lat": 15.342715150273708,
      "lon": 44.162210399694224,
      "geoinfo": {
        "display_name": "Qaryat `Asr al Asfal, Sana'a City, Ma`een District, Amanat Al Asimah, Yemen",
        "road": null,
        "house_number": null,
        "neighbourhood": null,
        "suburb": null,
        "city_district": null,
        "city": "Sana'a City",
        "state": "Amanat Al Asimah",
        "postcode": null,
        "country": "Yemen",
        "country_code": "ye"
      },
      "address": "Sanaa, Amanat Al Asimah, Yemen"
    },
    {
      "lat": 15.327873450417329,
      "lon": 44.1972163370229,
      "geoinfo": {
        "display_name": "Djibouti St, Al Qadayid, Al Wahdah District, Sana'a, Sana'a City, Amanat Al Asimah, Yemen",
        "road": "Djibouti St",
        "house_number": null,
        "neighbourhood": null,
        "suburb": "Al Qadayid",
        "city_district": null,
        "city": "Sana'a",
        "state": "Amanat Al Asimah",
        "postcode": null,
        "country": "Yemen",
        "country_code": "ye"
      },
      "address": "Djibouti St, Sanaa, Amanat Al Asimah, Yemen"
    },
    {
      "lat": 15.391170422905496,
      "lon": 44.19255640271116,
      "geoinfo": {
        "display_name": "سلاح الصيانة, شارع النهضة, Masakin al `Aqil, Masakin Sufan, Sana'a City, At Thaourah District, Amanat Al Asimah, Yemen",
        "road": "شارع النهضة",
        "house_number": null,
        "neighbourhood": "Masakin al `Aqil",
        "suburb": "Masakin Sufan",
        "city_district": null,
        "city": "Sana'a City",
        "state": "Amanat Al Asimah",
        "postcode": null,
        "country": "Yemen",
        "country_code": "ye"
      },
      "address": "شارع النهضة, Sanaa, Amanat Al Asimah, Yemen"
    },
    {
      "lat": 15.379861533375216,
      "lon": 44.19453424723033,
      "geoinfo": {
        "display_name": "Al `Usaymi, Ma`had al Qada', Sana'a City, At Thaourah District, Amanat Al Asimah, Yemen",
        "road": null,
        "house_number": null,
        "neighbourhood": "Al `Usaymi",
        "suburb": "Ma`had al Qada'",
        "city_district": null,
        "city": "Sana'a City",
        "state": "Amanat Al Asimah",
        "postcode": null,
        "country": "Yemen",
        "country_code": "ye"
      },
      "address": "Al `Usaymi, Sanaa, Amanat Al Asimah, Yemen"
    },
    {
      "lat": 15.355703650440619,
      "lon": 44.1761000147313,
      "geoinfo": {
        "display_name": "Qaryat `Asr, Al Qulaysi, Sana'a City, Ma`een District, Amanat Al Asimah, Yemen",
        "road": null,
        "house_number": null,
        "neighbourhood": "Qaryat `Asr",
        "suburb": "Al Qulaysi",
        "city_district": null,
        "city": "Sana'a City",
        "state": "Amanat Al Asimah",
        "postcode": null,
        "country": "Yemen",
        "country_code": "ye"
      },
      "address": "Qaryat `Asr, Sanaa, Amanat Al Asimah, Yemen"
    },
    {
      "lat": 15.387304188678339,
      "lon": 44.21978921343914,
      "geoinfo": {
        "display_name": "حي سبأ, Sadd Shu`ub, Sana'a City, Sho'oub District, Amanat Al Asimah, Yemen",
        "road": null,
        "house_number": null,
        "neighbourhood": "حي سبأ",
        "suburb": "Sadd Shu`ub",
        "city_district": null,
        "city": "Sana'a City",
        "state": "Amanat Al Asimah",
        "postcode": null,
        "country": "Yemen",
        "country_code": "ye"
      },
      "address": "212, حي سبأ, Sanaa, 18968 Amanat Al Asimah, Yemen"
    },
    {
      "lat": 15.328893981180686,
      "lon": 44.17780813147815,
      "geoinfo": {
        "display_name": "Al Qadayid, Al Wahdah District, Sana'a, Sana'a City, Amanat Al Asimah, Yemen",
        "road": null,
        "house_number": null,
        "neighbourhood": null,
        "suburb": "Al Qadayid",
        "city_district": null,
        "city": "Sana'a",
        "state": "Amanat Al Asimah",
        "postcode": null,
        "country": "Yemen",
        "country_code": "ye"
      },
      "address": "799, Al Qadayid, Al Wahdah District, Sana'a, Sana'a City, 12035 Amanat Al Asimah, Yemen"
    },
    {
      "lat": 15.343423863323167,
      "lon": 44.21387361666672,
      "geoinfo": {
        "display_name": "Al Sailah Street, At Tadamun, Sana'a City, As Safia district, Amanat Al Asimah, Yemen",
        "road": "Al Sailah Street",
        "house_number": null,
        "neighbourhood": null,
        "suburb": "At Tadamun",
        "city_district": null,
        "city": "Sana'a City",
        "state": "Amanat Al Asimah",
        "postcode": null,
        "country": "Yemen",
        "country_code": "ye"
      },
      "address": "351, Al Sailah Street, At Tadamun, Sana'a City, As Safia district, 69547 Amanat Al Asimah, Yemen"
    },
    {
      "lat": 15.36300957094325,
      "lon": 44.23687492854934,
      "geoinfo": {
        "display_name": "Madinat ad Dubbat, Sana'a City, Sho'oub District, Amanat Al Asimah, Yemen",
        "road": null,
        "house_number": null,
        "neighbourhood": null,
        "suburb": "Madinat ad Dubbat",
        "city_district": null,
        "city": "Sana'a City",
        "state": "Amanat Al Asimah",
        "postcode": null,
        "country": "Yemen",
        "country_code": "ye"
      },
      "address": "635, Madinat ad Dubbat, Sana'a City, Sho'oub District, 88463 Amanat Al Asimah, Yemen"
    },
    {
      "lat": 15.374359167851665,
      "lon": 44.22005592178177,
      "geoinfo": {
        "display_name": "حي ظهر حمير, Al Furqan, Sana'a City, Sho'oub District, Amanat Al Asimah, Yemen",
        "road": null,
        "house_number": null,
        "neighbourhood": null,
        "suburb": "Al Furqan",
        "city_district": null,
        "city": "Sana'a City",
        "state": "Amanat Al Asimah",
        "postcode": null,
        "country": "Yemen",
        "country_code": "ye"
      },
      "address": "004, حي ظهر حمير, Al Furqan, Sana'a City, Sho'oub District, 46417 Amanat Al Asimah, Yemen"
    }
  ],
  "updated_at": "2025-10-19T11:35:08.167105+00:00",
  "_kind": "geo_samples"
}