{
  "country_code": "YE",
  "country": "Yemen",
  "city": "Yarīm",
  "geonameid": 69559,
  "target_addresses": 5,
  "samples": [
    {
      "lat": 14.265742738742855,
      "lon": 44.36127843154107,
      "geoinfo": {
        "display_name": "Sana'a - Taiz Road, Az Zarahi, Hiran, Yarim District, Ibb Governorate, Yemen",
        "road": "Sana'a - Taiz Road",
        "house_number": null,
        "neighbourhood": null,
        "suburb": "Az Zarahi",
        "city_district": null,
        "city": "Hiran",
        "state": "Ibb Governorate",
        "postcode": null,
        "country": "Yemen",
        "country_code": "ye"
      },
      "address": "Sana'a - Taiz Road, Yarīm, Ibb Governorate, Yemen"
    },
    {
      "lat": 14.257656430270039,
      "lon": 44.39791735295047,
      "geoinfo": {
        "display_name": "Kharabat `Aras, Al Balad, Yarim District, Ibb Governorate, Yemen",
        "road": null,
        "house_number": null,
        "neighbourhood": null,
        "suburb": null,
        "city_district": null,
        "city": "Al Balad",
        "state": "Ibb Governorate",
        "postcode": null,
        "country": "Yemen",
        "country_code": "ye"
      },
      "address": "Yarīm, Ibb Governorate, Yemen"
    },
    {
      "lat": 14.306255684955644,
      "lon": 44.38068320853434,
      "geoinfo": {
        "display_name": "طريق اللقايا المدينة القديمة, يريم, Mikhal, Yarim, Yarim District, Ibb Governorate, Yemen",
        "road": "طريق اللقايا المدينة القديمة",
        "house_number": null,
        "neighbourhood": null,
        "suburb": "Mikhal",
        "city_district": null,
        "city": "Yarim",
        "state": "Ibb Governorate",
        "postcode": null,
        "country": "Yemen",
        "country_code": "ye"
      },
      "address": "طريق اللقايا المدينة القديمة, Yarīm, Ibb Governorate, Yemen"
    },
    {
      "lat": 14.292259043497621,
      "lon": 44.40703254465893,
      "geoinfo": {
        "display_name": "Aden - Ald Dala - Yarim Road, Sahan, Al Mansurah, Yarim District, Ibb Governorate, Yemen",
        "road": "Aden - Ald Dala - Yarim Road",
        "house_number": null,
        "neighbourhood": null,
        "suburb": null,
        "city_district": null,
        "city": "Al Mansurah",
        "state": "Ibb Governorate",
        "postcode": null,
        "country": "Yemen",
        "country_code": "ye"
      },
      "address": "Aden - Ald Dala - Yarim Road, Yarīm, Ibb Governorate, Yemen"
    },
    {
      "lat": 14.328366768440713,
      "lon": 44.370778054090465,
      "geoinfo": {
        "display_name": "طريق بني ساري , Al Aslaf, Bani Sari, Yarim District, Ibb Governorate, Yemen",
        "road": "طريق بني ساري ",
        "house_number": null,
        "neighbourhood": null,
        "suburb": null,
        "city_district": null,
        "city": "Bani Sari",
        "state": "Ibb Governorate",
        "postcode": null,
        "country": "Yemen",
        "country_code": "ye"
      },
      "address": "طريق بني ساري , Yarīm, Ibb Governorate, Yemen"
    },
    {
      "lat": 14.31628739379728,
      "lon": 44.34163971249539,
      "geoinfo": {
        "display_name": "Dar ash Sha`b, As Sari, Yarim District, Ibb Governorate, Yemen",
        "road": null,
        "house_number": null,
        "neighbourhood": null,
        "suburb": null,
        "city_district": null,
        "city": "As Sari",
        "state": "Ibb Governorate",
        "postcode": null,
        "country": "Yemen",
        "country_code": "ye"
      },
      "address": "408, Yarīm, 84504 Ibb Governorate, Yemen"
    },
    {
      "lat": 14.32603131533611,
      "lon": 44.39309686683368,
      "geoinfo": {
        "display_name": "Sana'a - Taiz Road, يريم, Al Aslaf, Bani Sari, Yarim District, Ibb Governorate, Yemen",
        "road": "Sana'a - Taiz Road",
        "house_number": null,
        "neighbourhood": null,
        "suburb": null,
        "city_district": null,
        "city": "Bani Sari",
        "state": "Ibb Governorate",
        "postcode": null,
        "country": "Yemen",
        "country_code": "ye"
      },
      "address": "940, Sana'a - Taiz Road, يريم, Al Aslaf, Bani Sari, Yarim District, 03042 Ibb Governorate, Yemen"
    },
    {
      "lat": 14.2740834721323,
      "lon": 44.34143833486334,
      "geoinfo": {
        "display_name": "Irian خط اريان, Al Haswah, Najd Rayman, Yarim District, Ibb Governorate, Yemen",
        "road": "Irian خط اريان",
        "house_number": null,
        "neighbourhood": null,
        "suburb": null,
        "city_district": null,
        "city": "Najd Rayman",
        "state": "Ibb Governorate",
        "postcode": null,
        "country": "Yemen",
        "country_code": "ye"
      },
      "address": "374, Irian خط اريان, Al Haswah, Najd Rayman, Yarim District, 16330 Ibb Governorate, Yemen"
    },
    {
      "lat": 14.325406700961768,
      "lon": 44.34686990392195,
      "geoinfo": {
        "display_name": "Qa` al Maydan, Dar ash Sha`b, Al Manshar, Yarim District, Ibb Governorate, Yemen",
        "road": null,
        "house_number": null,
        "neighbourhood": null,
        "suburb": null,
        "city_district": null,
        "city": "Al Manshar",
        "state": "Ibb Governorate",
        "postcode": null,
        "country": "Yemen",
        "country_code": "ye"
      },
      "address": "037, Yarīm, 45356 Ibb Governorate, Yemen"
    },
    {
      "lat": 14.311919350056586,
      "lon": 44.34288297284995,
      "geoinfo": {
        "display_name": "Dar ash Sha`b, As Sari, Yarim District, Ibb Governorate, Yemen",
        "road": null,
        "house_number": null,
        "neighbourhood": null,
        "suburb": null,
        "city_district": null,
        "city": "As Sari",
        "state": "Ibb Governorate",
        "postcode": null,
        "country": "Yemen",
        "country_code": "ye"
      },
      "address": "911, Yarīm, 59117 Ibb Governorate, Yemen"
    }
  ],
  "updated_at": "2025-10-19T07:54:01.386053+00:00",
  "_kind": "geo_samples"
}