{
  "country_code": "YE",
  "country": "Yemen",
  "city": "Zabīd",
  "geonameid": 69500,
  "target_addresses": 14,
  "samples": [
    {
      "lat": 14.194361031990484,
      "lon": 43.33789381572679,
      "geoinfo": {
        "display_name": "Mahwa al Jatim, Zabid, Zabid District, Al Hudaydah Governorate, Yemen",
        "road": null,
        "house_number": null,
        "neighbourhood": null,
        "suburb": null,
        "city_district": null,
        "city": "Zabid",
        "state": "Al Hudaydah Governorate",
        "postcode": null,
        "country": "Yemen",
        "country_code": "ye"
      },
      "address": "Zabīd, Al Hudaydah Governorate, Yemen"
    },
    {
      "lat": 14.165256231490677,
      "lon": 43.32259238177536,
      "geoinfo": {
        "display_name": "Taiz - Al Hodeidah Road, Zabid District, Al Hudaydah Governorate, Yemen",
        "road": "Taiz - Al Hodeidah Road",
        "house_number": null,
        "neighbourhood": null,
        "suburb": null,
        "city_district": null,
        "city": null,
        "state": "Al Hudaydah Governorate",
        "postcode": null,
        "country": "Yemen",
        "country_code": "ye"
      },
      "address": "Taiz - Al Hodeidah Road, Zabīd, Al Hudaydah Governorate, Yemen"
    },
    {
      "lat": 14.224616798415134,
      "lon": 43.30946802450578,
      "geoinfo": {
        "display_name": "Zabid District, Al Hudaydah Governorate, Yemen",
        "road": null,
        "house_number": null,
        "neighbourhood": null,
        "suburb": null,
        "city_district": null,
        "city": null,
        "state": "Al Hudaydah Governorate",
        "postcode": null,
        "country": "Yemen",
        "country_code": "ye"
      },
      "address": "636, Zabid District, 21207 Al Hudaydah Governorate, Yemen"
    },
    {
      "lat": 14.214486904494509,
      "lon": 43.35259856046671,
      "geoinfo": {
        "display_name": "Al Hima', Zabid District, Al Hudaydah Governorate, Yemen",
        "road": null,
        "house_number": null,
        "neighbourhood": null,
        "suburb": null,
        "city_district": null,
        "city": null,
        "state": "Al Hudaydah Governorate",
        "postcode": null,
        "country": "Yemen",
        "country_code": "ye"
      },
      "address": "426, Al Hima', Zabid District, 81366 Al Hudaydah Governorate, Yemen"
    },
    {
      "lat": 14.214962943515223,
      "lon": 43.352734278051145,
      "geoinfo": {
        "display_name": "Al Hima', Zabid District, Al Hudaydah Governorate, Yemen",
        "road": null,
        "house_number": null,
        "neighbourhood": null,
        "suburb": null,
        "city_district": null,
        "city": null,
        "state": "Al Hudaydah Governorate",
        "postcode": null,
        "country": "Yemen",
        "country_code": "ye"
      },
      "address": "191, Al Hima', Zabid District, 17311 Al Hudaydah Governorate, Yemen"
    },
    {
      "lat": 14.205556688639975,
      "lon": 43.321387051407065,
      "geoinfo": {
        "display_name": "Zabid, Zabid District, Al Hudaydah Governorate, Yemen",
        "road": null,
        "house_number": null,
        "neighbourhood": null,
        "suburb": null,
        "city_district": null,
        "city": "Zabid",
        "state": "Al Hudaydah Governorate",
        "postcode": null,
        "country": "Yemen",
        "country_code": "ye"
      },
      "address": "465, Zabid, Zabid District, 75318 Al Hudaydah Governorate, Yemen"
    },
    {
      "lat": 14.227418158468826,
      "lon": 43.30723891285613,
      "geoinfo": {
        "display_name": "Zabid District, Al Hudaydah Governorate, Yemen",
        "road": null,
        "house_number": null,
        "neighbourhood": null,
        "suburb": null,
        "city_district": null,
        "city": null,
        "state": "Al Hudaydah Governorate",
        "postcode": null,
        "country": "Yemen",
        "country_code": "ye"
      },
      "address": "170, Zabid District, 33689 Al Hudaydah Governorate, Yemen"
    },
    {
      "lat": 14.160217625415978,
      "lon": 43.295490578319146,
      "geoinfo": {
        "display_name": "234, Qaryat Husayn Radi, At Tuhayta, At Tuhayat District, Al Hudaydah Governorate, Yemen",
        "road": "234",
        "house_number": null,
        "neighbourhood": null,
        "suburb": null,
        "city_district": null,
        "city": "At Tuhayta",
        "state": "Al Hudaydah Governorate",
        "postcode": null,
        "country": "Yemen",
        "country_code": "ye"
      },
      "address": "234, Qaryat Husayn Radi, At Tuhayta, At Tuhayat District, 40780 Al Hudaydah Governorate, Yemen"
    },
    {
      "lat": 14.159982039104385,
      "lon": 43.3229056665508,
      "geoinfo": {
        "display_name": "Al Garrahi District, Al Hudaydah Governorate, Yemen",
        "road": null,
        "house_number": null,
        "neighbourhood": null,
        "suburb": null,
        "city_district": null,
        "city": null,
        "state": "Al Hudaydah Governorate",
        "postcode": null,
        "country": "Yemen",
        "country_code": "ye"
      },
      "address": "300, Zabīd, 67382 Al Hudaydah Governorate, Yemen"
    },
    {
      "lat": 14.164230086444974,
      "lon": 43.34752755445547,
      "geoinfo": {
        "display_name": "Al Jarrahi, Al Garrahi District, Al Hudaydah Governorate, Yemen",
        "road": null,
        "house_number": null,
        "neighbourhood": null,
        "suburb": null,
        "city_district": null,
        "city": "Al Jarrahi",
        "state": "Al Hudaydah Governorate",
        "postcode": null,
        "country": "Yemen",
        "country_code": "ye"
      },
      "address": "079, Al Jarrahi, Al Garrahi District, 57716 Al Hudaydah Governorate, Yemen"
    },
    {
      "lat": 14.161144610827478,
      "lon": 43.32561488704699,
      "geoinfo": {
        "display_name": "Al Garrahi District, Al Hudaydah Governorate, Yemen",
        "road": null,
        "house_number": null,
        "neighbourhood": null,
        "suburb": null,
        "city_district": null,
        "city": null,
        "state": "Al Hudaydah Governorate",
        "postcode": null,
        "country": "Yemen",
        "country_code": "ye"
      },
      "address": "396, Zabīd, 31336 Al Hudaydah Governorate, Yemen"
    },
    {
      "lat": 14.175659709524798,
      "lon": 43.34589106018906,
      "geoinfo": {
        "display_name": "`Ozlat Al Qaryah, Zabid District, Al Hudaydah Governorate, Yemen",
        "road": null,
        "house_number": null,
        "neighbourhood": null,
        "suburb": null,
        "city_district": null,
        "city": null,
        "state": "Al Hudaydah Governorate",
        "postcode": null,
        "country": "Yemen",
        "country_code": "ye"
      },
      "address": "619, Zabīd, 76508 Al Hudaydah Governorate, Yemen"
    },
    {
      "lat": 14.215137662589525,
      "lon": 43.32708028965772,
      "geoinfo": {
        "display_name": "`Ozlat Zabid, Zabid, Zabid District, Al Hudaydah Governorate, Yemen",
        "road": null,
        "house_number": null,
        "neighbourhood": null,
        "suburb": null,
        "city_district": null,
        "city": "Zabid",
        "state": "Al Hudaydah Governorate",
        "postcode": null,
        "country": "Yemen",
        "country_code": "ye"
      },
      "address": "852, Zabīd, 74906 Al Hudaydah Governorate, Yemen"
    },
    {
      "lat": 14.190879586005536,
      "lon": 43.30896075032965,
      "geoinfo": {
        "display_name": "Zabid, Zabid District, Al Hudaydah Governorate, Yemen",
        "road": null,
        "house_number": null,
        "neighbourhood": null,
        "suburb": null,
        "city_district": null,
        "city": "Zabid",
        "state": "Al Hudaydah Governorate",
        "postcode": null,
        "country": "Yemen",
        "country_code": "ye"
      },
      "address": "888, Zabid, Zabid District, 96975 Al Hudaydah Governorate, Yemen"
    }
  ],
  "updated_at": "2025-10-19T06:37:11.512451+00:00",
  "_kind": "geo_samples"
}