{
  "country_code": "YE",
  "country": "Yemen",
  "city": "Zinjibār",
  "geonameid": 69426,
  "target_addresses": 5,
  "samples": [
    {
      "lat": 13.132164363140214,
      "lon": 45.39491826973912,
      "geoinfo": {
        "display_name": "Zingibar - Mukalla Road, Zinjibar, Zinjibar District, Abyan Governorate, Yemen",
        "road": "Zingibar - Mukalla Road",
        "house_number": null,
        "neighbourhood": null,
        "suburb": null,
        "city_district": null,
        "city": "Zinjibar",
        "state": "Abyan Governorate",
        "postcode": null,
        "country": "Yemen",
        "country_code": "ye"
      },
      "address": "Zingibar - Mukalla Road, Zinjibār, Abyan Governorate, Yemen"
    },
    {
      "lat": 13.09951922004577,
      "lon": 45.372958004427986,
      "geoinfo": {
        "display_name": "طريق زنجبار, `Aqimat Ghazi, An Nashsh, Khanfir District, Abyan Governorate, Yemen",
        "road": "طريق زنجبار",
        "house_number": null,
        "neighbourhood": null,
        "suburb": null,
        "city_district": null,
        "city": "An Nashsh",
        "state": "Abyan Governorate",
        "postcode": null,
        "country": "Yemen",
        "country_code": "ye"
      },
      "address": "طريق زنجبار, Zinjibār, Abyan Governorate, Yemen"
    },
    {
      "lat": 13.089882563111573,
      "lon": 45.3800726157255,
      "geoinfo": {
        "display_name": "Kuhaydiyah, Zinjibar District, Abyan Governorate, Yemen",
        "road": null,
        "house_number": null,
        "neighbourhood": null,
        "suburb": null,
        "city_district": null,
        "city": null,
        "state": "Abyan Governorate",
        "postcode": null,
        "country": "Yemen",
        "country_code": "ye"
      },
      "address": "Zinjibār, Abyan Governorate, Yemen"
    },
    {
      "lat": 13.147995119481797,
      "lon": 45.35018705108348,
      "geoinfo": {
        "display_name": "Zinjibar - Giaar Road, Al Makhzan al Fawqi, Al Makhzan, Khanfir District, Abyan Governorate, Yemen",
        "road": "Zinjibar - Giaar Road",
        "house_number": null,
        "neighbourhood": null,
        "suburb": "Al Makhzan al Fawqi",
        "city_district": null,
        "city": "Al Makhzan",
        "state": "Abyan Governorate",
        "postcode": null,
        "country": "Yemen",
        "country_code": "ye"
      },
      "address": "Zinjibar - Giaar Road, Zinjibār, Abyan Governorate, Yemen"
    },
    {
      "lat": 13.11834782810074,
      "lon": 45.38369001968129,
      "geoinfo": {
        "display_name": "Al Mahall, Zinjibar, Zinjibar District, Abyan Governorate, Yemen",
        "road": null,
        "house_number": null,
        "neighbourhood": "Al Mahall",
        "suburb": null,
        "city_district": null,
        "city": "Zinjibar",
        "state": "Abyan Governorate",
        "postcode": null,
        "country": "Yemen",
        "country_code": "ye"
      },
      "address": "Al Mahall, Zinjibār, Abyan Governorate, Yemen"
    },
    {
      "lat": 13.136508962613247,
      "lon": 45.42272148889858,
      "geoinfo": {
        "display_name": "Aden - Al Mukalla Raod, Zinjibar District, Abyan Governorate, Yemen",
        "road": "Aden - Al Mukalla Raod",
        "house_number": null,
        "neighbourhood": null,
        "suburb": null,
        "city_district": null,
        "city": null,
        "state": "Abyan Governorate",
        "postcode": null,
        "country": "Yemen",
        "country_code": "ye"
      },
      "address": "462, Aden - Al Mukalla Raod, Zinjibar District, 17994 Abyan Governorate, Yemen"
    },
    {
      "lat": 13.11916258193788,
      "lon": 45.42022900279047,
      "geoinfo": {
        "display_name": "Zinjibar District, Abyan Governorate, Yemen",
        "road": null,
        "house_number": null,
        "neighbourhood": null,
        "suburb": null,
        "city_district": null,
        "city": null,
        "state": "Abyan Governorate",
        "postcode": null,
        "country": "Yemen",
        "country_code": "ye"
      },
      "address": "007, Zinjibār, 26727 Abyan Governorate, Yemen"
    },
    {
      "lat": 13.125827836845904,
      "lon": 45.35100601722035,
      "geoinfo": {
        "display_name": "Al Wahdah as Sihhiyah al Musaymir, طريق زنجبار, `Aqimat Ghazi, An Nashsh, Khanfir District, Abyan Governorate, Yemen",
        "road": "طريق زنجبار",
        "house_number": null,
        "neighbourhood": null,
        "suburb": null,
        "city_district": null,
        "city": "An Nashsh",
        "state": "Abyan Governorate",
        "postcode": null,
        "country": "Yemen",
        "country_code": "ye"
      },
      "address": "776, طريق زنجبار, Zinjibār, 24645 Abyan Governorate, Yemen"
    },
    {
      "lat": 13.119206879471445,
      "lon": 45.341195538144994,
      "geoinfo": {
        "display_name": "Khanfir District, Abyan Governorate, Yemen",
        "road": null,
        "house_number": null,
        "neighbourhood": null,
        "suburb": null,
        "city_district": null,
        "city": null,
        "state": "Abyan Governorate",
        "postcode": null,
        "country": "Yemen",
        "country_code": "ye"
      },
      "address": "616, Zinjibār, 18002 Abyan Governorate, Yemen"
    },
    {
      "lat": 13.16651166395929,
      "lon": 45.376867362125665,
      "geoinfo": {
        "display_name": "Abiyan, Khanfir District, Abyan Governorate, Yemen",
        "road": null,
        "house_number": null,
        "neighbourhood": null,
        "suburb": null,
        "city_district": null,
        "city": null,
        "state": "Abyan Governorate",
        "postcode": null,
        "country": "Yemen",
        "country_code": "ye"
      },
      "address": "469, Zinjibār, 98553 Abyan Governorate, Yemen"
    }
  ],
  "updated_at": "2025-10-19T07:50:24.387026+00:00",
  "_kind": "geo_samples"
}