{
  "country_code": "KG",
  "country": "Kyrgyzstan",
  "city": "Ala-Buka",
  "geonameid": 1528875,
  "target_addresses": 4,
  "samples": [
    {
      "lat": 41.38478050435741,
      "lon": 71.44528320398811,
      "geoinfo": {
        "display_name": "Водохранилище, Ala-Buka District, Jalal-Abad Region, Kyrgyzstan",
        "road": null,
        "house_number": null,
        "neighbourhood": null,
        "suburb": null,
        "city_district": null,
        "city": null,
        "state": "Jalal-Abad Region",
        "postcode": null,
        "country": "Kyrgyzstan",
        "country_code": "kg"
      },
      "address": "Ala-Buka, Jalal-Abad Region, Kyrgyzstan"
    },
    {
      "lat": 41.42151900136427,
      "lon": 71.52783647326125,
      "geoinfo": {
        "display_name": "Базарбая Калыбекова, Kyzyl-Ata, Ala-Buka District, Jalal-Abad Region, Kyrgyzstan",
        "road": "Базарбая Калыбекова",
        "house_number": null,
        "neighbourhood": null,
        "suburb": null,
        "city_district": null,
        "city": "Kyzyl-Ata",
        "state": "Jalal-Abad Region",
        "postcode": null,
        "country": "Kyrgyzstan",
        "country_code": "kg"
      },
      "address": "Базарбая Калыбекова, Ala-Buka, Jalal-Abad Region, Kyrgyzstan"
    },
    {
      "lat": 41.41164494581078,
      "lon": 71.51497418643555,
      "geoinfo": {
        "display_name": "М-109, Ala-Buka, Ala-Buka District, Jalal-Abad Region, Kyrgyzstan",
        "road": "М-109",
        "house_number": null,
        "neighbourhood": null,
        "suburb": null,
        "city_district": null,
        "city": "Ala-Buka",
        "state": "Jalal-Abad Region",
        "postcode": null,
        "country": "Kyrgyzstan",
        "country_code": "kg"
      },
      "address": "М-109, Ala-Buka, Jalal-Abad Region, Kyrgyzstan"
    },
    {
      "lat": 41.37296556770512,
      "lon": 71.51893148295989,
      "geoinfo": {
        "display_name": "M-110, Yrzar, Ala-Buka District, Jalal-Abad Region, Kyrgyzstan",
        "road": "M-110",
        "house_number": null,
        "neighbourhood": null,
        "suburb": null,
        "city_district": null,
        "city": "Yrzar",
        "state": "Jalal-Abad Region",
        "postcode": null,
        "country": "Kyrgyzstan",
        "country_code": "kg"
      },
      "address": "M-110, Ala-Buka, Jalal-Abad Region, Kyrgyzstan"
    },
    {
      "lat": 41.44299400617832,
      "lon": 71.47876874240195,
      "geoinfo": {
        "display_name": "Сары-Таала, Ala-Buka District, Jalal-Abad Region, Kyrgyzstan",
        "road": null,
        "house_number": null,
        "neighbourhood": null,
        "suburb": null,
        "city_district": null,
        "city": "Сары-Таала",
        "state": "Jalal-Abad Region",
        "postcode": null,
        "country": "Kyrgyzstan",
        "country_code": "kg"
      },
      "address": "245, Сары-Таала, Ala-Buka District, 67779 Jalal-Abad Region, Kyrgyzstan"
    },
    {
      "lat": 41.426235474819556,
      "lon": 71.44651158487136,
      "geoinfo": {
        "display_name": "Орукту, Ala-Buka District, Jalal-Abad Region, Kyrgyzstan",
        "road": null,
        "house_number": null,
        "neighbourhood": null,
        "suburb": null,
        "city_district": null,
        "city": "Орукту",
        "state": "Jalal-Abad Region",
        "postcode": null,
        "country": "Kyrgyzstan",
        "country_code": "kg"
      },
      "address": "584, Орукту, Ala-Buka District, 62825 Jalal-Abad Region, Kyrgyzstan"
    },
    {
      "lat": 41.41224970886956,
      "lon": 71.51082763543987,
      "geoinfo": {
        "display_name": "М-109, Ala-Buka, Ala-Buka District, Jalal-Abad Region, Kyrgyzstan",
        "road": "М-109",
        "house_number": null,
        "neighbourhood": null,
        "suburb": null,
        "city_district": null,
        "city": "Ala-Buka",
        "state": "Jalal-Abad Region",
        "postcode": null,
        "country": "Kyrgyzstan",
        "country_code": "kg"
      },
      "address": "М-109, Ala-Buka, Ala-Buka District, 89966 Jalal-Abad Region, Kyrgyzstan"
    },
    {
      "lat": 41.425897727132735,
      "lon": 71.48451822121594,
      "geoinfo": {
        "display_name": "Нуркул Орозалиев улица, Сары-Таала, Ala-Buka District, Jalal-Abad Region, Kyrgyzstan",
        "road": "Нуркул Орозалиев улица",
        "house_number": null,
        "neighbourhood": null,
        "suburb": null,
        "city_district": null,
        "city": "Сары-Таала",
        "state": "Jalal-Abad Region",
        "postcode": null,
        "country": "Kyrgyzstan",
        "country_code": "kg"
      },
      "address": "813, Нуркул Орозалиев улица, Сары-Таала, Ala-Buka District, 16446 Jalal-Abad Region, Kyrgyzstan"
    }
  ],
  "updated_at": "2025-10-19T05:34:33.709393+00:00",
  "_kind": "geo_samples"
}