{
  "country_code": "KG",
  "country": "Kyrgyzstan",
  "city": "Batken",
  "geonameid": 1528735,
  "target_addresses": 4,
  "samples": [
    {
      "lat": 40.066913955381956,
      "lon": 70.84158160912551,
      "geoinfo": {
        "display_name": "Тамаша жай, Batken City, Batken Region, 720105, Kyrgyzstan",
        "road": null,
        "house_number": null,
        "neighbourhood": null,
        "suburb": "Тамаша жай",
        "city_district": null,
        "city": "Batken City",
        "state": "Batken Region",
        "postcode": "720105",
        "country": "Kyrgyzstan",
        "country_code": "kg"
      },
      "address": "Тамаша жай, Batken, Batken Region, Kyrgyzstan"
    },
    {
      "lat": 40.03407083482048,
      "lon": 70.8166647972153,
      "geoinfo": {
        "display_name": "Айдын кол, Келечек, Kızıl-Jol, Batken, Batken Region, 720100, Kyrgyzstan",
        "road": "Айдын кол",
        "house_number": null,
        "neighbourhood": null,
        "suburb": "Келечек",
        "city_district": null,
        "city": "Batken",
        "state": "Batken Region",
        "postcode": "720100",
        "country": "Kyrgyzstan",
        "country_code": "kg"
      },
      "address": "Айдын кол, Batken, Batken Region, Kyrgyzstan"
    },
    {
      "lat": 40.092225113707194,
      "lon": 70.83469108815657,
      "geoinfo": {
        "display_name": "Chek, Batken District, Batken Region, 720105, Kyrgyzstan",
        "road": null,
        "house_number": null,
        "neighbourhood": null,
        "suburb": null,
        "city_district": null,
        "city": "Chek",
        "state": "Batken Region",
        "postcode": "720105",
        "country": "Kyrgyzstan",
        "country_code": "kg"
      },
      "address": "Batken, Batken Region, Kyrgyzstan"
    },
    {
      "lat": 40.02254101678607,
      "lon": 70.79668458761704,
      "geoinfo": {
        "display_name": "ЭМ-16, Batken District, Batken Region, Kyrgyzstan",
        "road": "ЭМ-16",
        "house_number": null,
        "neighbourhood": null,
        "suburb": null,
        "city_district": null,
        "city": null,
        "state": "Batken Region",
        "postcode": null,
        "country": "Kyrgyzstan",
        "country_code": "kg"
      },
      "address": "ЭМ-16, Batken, Batken Region, Kyrgyzstan"
    },
    {
      "lat": 40.05086367285722,
      "lon": 70.81955965363625,
      "geoinfo": {
        "display_name": "Келечек, Kızıl-Jol, Batken City, Batken Region, 720105, Kyrgyzstan",
        "road": null,
        "house_number": null,
        "neighbourhood": null,
        "suburb": "Келечек",
        "city_district": null,
        "city": "Batken City",
        "state": "Batken Region",
        "postcode": "720105",
        "country": "Kyrgyzstan",
        "country_code": "kg"
      },
      "address": "141, Келечек, Batken, 720105 Batken Region, Kyrgyzstan"
    },
    {
      "lat": 40.02236665279661,
      "lon": 70.80020741357339,
      "geoinfo": {
        "display_name": "ЭМ-16, Batken District, Batken Region, Kyrgyzstan",
        "road": "ЭМ-16",
        "house_number": null,
        "neighbourhood": null,
        "suburb": null,
        "city_district": null,
        "city": null,
        "state": "Batken Region",
        "postcode": null,
        "country": "Kyrgyzstan",
        "country_code": "kg"
      },
      "address": "ЭМ-16, Batken District, 08745 Batken Region, Kyrgyzstan"
    },
    {
      "lat": 40.06001225081226,
      "lon": 70.81336300492224,
      "geoinfo": {
        "display_name": "60-лет Киргизия, Кокон мааласы, Базар-Башы, Batken City, Batken Region, 720105, Kyrgyzstan",
        "road": "60-лет Киргизия",
        "house_number": null,
        "neighbourhood": null,
        "suburb": "Кокон мааласы",
        "city_district": null,
        "city": "Batken City",
        "state": "Batken Region",
        "postcode": "720105",
        "country": "Kyrgyzstan",
        "country_code": "kg"
      },
      "address": "60-лет Киргизия, Batken, 720105 Batken Region, Kyrgyzstan"
    },
    {
      "lat": 40.09155452242525,
      "lon": 70.77826321521749,
      "geoinfo": {
        "display_name": "М-096, Kızıl-Bel, Batken District, Batken Region, Kyrgyzstan",
        "road": "М-096",
        "house_number": null,
        "neighbourhood": null,
        "suburb": null,
        "city_district": null,
        "city": "Kızıl-Bel",
        "state": "Batken Region",
        "postcode": null,
        "country": "Kyrgyzstan",
        "country_code": "kg"
      },
      "address": "М-096, Kızıl-Bel, Batken District, 42934 Batken Region, Kyrgyzstan"
    }
  ],
  "updated_at": "2025-10-19T05:34:18.770111+00:00",
  "_kind": "geo_samples"
}