{
  "country_code": "KG",
  "country": "Kyrgyzstan",
  "city": "Bishkek",
  "geonameid": 1528675,
  "target_addresses": 4,
  "samples": [
    {
      "lat": 42.834868822048534,
      "lon": 74.62285624194736,
      "geoinfo": {
        "display_name": "1, 5th microdistrict, October District, Bishkek City, 720025, Kyrgyzstan",
        "road": null,
        "house_number": "1",
        "neighbourhood": null,
        "suburb": "5th microdistrict",
        "city_district": "October District",
        "city": "Bishkek City",
        "state": null,
        "postcode": "720025",
        "country": "Kyrgyzstan",
        "country_code": "kg"
      },
      "address": "5th microdistrict, Bishkek, Kyrgyzstan"
    },
    {
      "lat": 42.889172292854944,
      "lon": 74.60868681885547,
      "geoinfo": {
        "display_name": "21, Aleksandrovskiy Lane, Sverdlov District, Bishkek City, 720004, Kyrgyzstan",
        "road": "Aleksandrovskiy Lane",
        "house_number": "21",
        "neighbourhood": null,
        "suburb": null,
        "city_district": "Sverdlov District",
        "city": "Bishkek City",
        "state": null,
        "postcode": "720004",
        "country": "Kyrgyzstan",
        "country_code": "kg"
      },
      "address": "21 Aleksandrovskiy Lane, Bishkek, Kyrgyzstan"
    },
    {
      "lat": 42.864887494394,
      "lon": 74.64041562757697,
      "geoinfo": {
        "display_name": "Armejskaya Street, October District, Bishkek City, 720065, Kyrgyzstan",
        "road": "Armejskaya Street",
        "house_number": null,
        "neighbourhood": null,
        "suburb": null,
        "city_district": "October District",
        "city": "Bishkek City",
        "state": null,
        "postcode": "720065",
        "country": "Kyrgyzstan",
        "country_code": "kg"
      },
      "address": "Armejskaya Street, Bishkek, Kyrgyzstan"
    },
    {
      "lat": 42.891645090821314,
      "lon": 74.5941630469032,
      "geoinfo": {
        "display_name": "17, Джамбула улица, First of May District, Bishkek City, 720004, Kyrgyzstan",
        "road": "Джамбула улица",
        "house_number": "17",
        "neighbourhood": null,
        "suburb": null,
        "city_district": "First of May District",
        "city": "Bishkek City",
        "state": null,
        "postcode": "720004",
        "country": "Kyrgyzstan",
        "country_code": "kg"
      },
      "address": "17 Джамбула улица, Bishkek, Kyrgyzstan"
    },
    {
      "lat": 42.878659393184385,
      "lon": 74.55413523062201,
      "geoinfo": {
        "display_name": "Gas Town, First of May District, Bishkek City, 720046, Kyrgyzstan",
        "road": null,
        "house_number": null,
        "neighbourhood": null,
        "suburb": "Gas Town",
        "city_district": "First of May District",
        "city": "Bishkek City",
        "state": null,
        "postcode": "720046",
        "country": "Kyrgyzstan",
        "country_code": "kg"
      },
      "address": "251, Gas Town, First of May District, Bishkek City, 720046, Kyrgyzstan"
    },
    {
      "lat": 42.825506244372846,
      "lon": 74.58585317257133,
      "geoinfo": {
        "display_name": "82/6 стр, Chyngyz Aytmatov Avenue, October District, Bishkek City, 720016, Kyrgyzstan",
        "road": "Chyngyz Aytmatov Avenue",
        "house_number": "82/6 стр",
        "neighbourhood": null,
        "suburb": null,
        "city_district": "October District",
        "city": "Bishkek City",
        "state": null,
        "postcode": "720016",
        "country": "Kyrgyzstan",
        "country_code": "kg"
      },
      "address": "82/6 стр, Chyngyz Aytmatov Avenue, October District, Bishkek City, 720016, Kyrgyzstan"
    },
    {
      "lat": 42.84807925602862,
      "lon": 74.5619659768246,
      "geoinfo": {
        "display_name": "57, Серафимовича улица, Workers Township, Lenin District, Bishkek City, 720007, Kyrgyzstan",
        "road": "Серафимовича улица",
        "house_number": "57",
        "neighbourhood": null,
        "suburb": "Workers Township",
        "city_district": "Lenin District",
        "city": "Bishkek City",
        "state": null,
        "postcode": "720007",
        "country": "Kyrgyzstan",
        "country_code": "kg"
      },
      "address": "57, Серафимовича улица, Workers Township, Lenin District, Bishkek City, 720007, Kyrgyzstan"
    },
    {
      "lat": 42.898424413658255,
      "lon": 74.58411445687584,
      "geoinfo": {
        "display_name": "10, Ак-муз улица, Salam-Alik, First of May District, Bishkek City, 720054, Kyrgyzstan",
        "road": "Ак-муз улица",
        "house_number": "10",
        "neighbourhood": null,
        "suburb": "Salam-Alik",
        "city_district": "First of May District",
        "city": "Bishkek City",
        "state": null,
        "postcode": "720054",
        "country": "Kyrgyzstan",
        "country_code": "kg"
      },
      "address": "10, Ак-муз улица, Salam-Alik, First of May District, Bishkek City, 720054, Kyrgyzstan"
    }
  ],
  "updated_at": "2025-10-19T05:34:01.160831+00:00",
  "_kind": "geo_samples"
}