{
  "country_code": "KG",
  "country": "Kyrgyzstan",
  "city": "Jalal-Abad",
  "geonameid": 1528249,
  "target_addresses": 4,
  "samples": [
    {
      "lat": 40.95687016022161,
      "lon": 73.0385232284708,
      "geoinfo": {
        "display_name": "Таш-Булак, Suzak District, Jalal-Abad Region, 720901, Kyrgyzstan",
        "road": null,
        "house_number": null,
        "neighbourhood": null,
        "suburb": null,
        "city_district": null,
        "city": "Таш-Булак",
        "state": "Jalal-Abad Region",
        "postcode": "720901",
        "country": "Kyrgyzstan",
        "country_code": "kg"
      },
      "address": "Jalal-Abad, Jalal-Abad Region, Kyrgyzstan"
    },
    {
      "lat": 40.94058995771308,
      "lon": 72.98471885003384,
      "geoinfo": {
        "display_name": "ВЛКСМ көчөсү, Manas, Jalal-Abad Region, 715600, Kyrgyzstan",
        "road": "ВЛКСМ көчөсү",
        "house_number": null,
        "neighbourhood": null,
        "suburb": null,
        "city_district": null,
        "city": "Manas",
        "state": "Jalal-Abad Region",
        "postcode": "715600",
        "country": "Kyrgyzstan",
        "country_code": "kg"
      },
      "address": "ВЛКСМ көчөсү, Jalal-Abad, Jalal-Abad Region, Kyrgyzstan"
    },
    {
      "lat": 40.96110439412154,
      "lon": 72.98363713497693,
      "geoinfo": {
        "display_name": "Живопрома улица, Suzak District, Jalal-Abad Region, 715600, Kyrgyzstan",
        "road": "Живопрома улица",
        "house_number": null,
        "neighbourhood": null,
        "suburb": null,
        "city_district": null,
        "city": null,
        "state": "Jalal-Abad Region",
        "postcode": "715600",
        "country": "Kyrgyzstan",
        "country_code": "kg"
      },
      "address": "Живопрома улица, Jalal-Abad, Jalal-Abad Region, Kyrgyzstan"
    },
    {
      "lat": 40.94381924142931,
      "lon": 72.98373128342233,
      "geoinfo": {
        "display_name": "Осмонов Бекмат көчөсү, Manas, Jalal-Abad Region, 715600, Kyrgyzstan",
        "road": "Осмонов Бекмат көчөсү",
        "house_number": null,
        "neighbourhood": null,
        "suburb": null,
        "city_district": null,
        "city": "Manas",
        "state": "Jalal-Abad Region",
        "postcode": "715600",
        "country": "Kyrgyzstan",
        "country_code": "kg"
      },
      "address": "Осмонов Бекмат көчөсү, Jalal-Abad, Jalal-Abad Region, Kyrgyzstan"
    },
    {
      "lat": 40.94516019132172,
      "lon": 72.97754854125355,
      "geoinfo": {
        "display_name": "Jalal-Abad Airport, Жеңиш көчөсү, Manas, Jalal-Abad Region, 715600, Kyrgyzstan",
        "road": "Жеңиш көчөсү",
        "house_number": null,
        "neighbourhood": null,
        "suburb": null,
        "city_district": null,
        "city": "Manas",
        "state": "Jalal-Abad Region",
        "postcode": "715600",
        "country": "Kyrgyzstan",
        "country_code": "kg"
      },
      "address": "757, Жеңиш көчөсү, Jalal-Abad, 715600 Jalal-Abad Region, Kyrgyzstan"
    },
    {
      "lat": 40.91884943565796,
      "lon": 72.95243291566688,
      "geoinfo": {
        "display_name": "Курманбек Баатыр көчөсү, Suzak District, Jalal-Abad Region, 721319, Kyrgyzstan",
        "road": "Курманбек Баатыр көчөсү",
        "house_number": null,
        "neighbourhood": null,
        "suburb": null,
        "city_district": null,
        "city": null,
        "state": "Jalal-Abad Region",
        "postcode": "721319",
        "country": "Kyrgyzstan",
        "country_code": "kg"
      },
      "address": "078, Курманбек Баатыр көчөсү, Suzak District, Jalal-Abad Region, 721319, Kyrgyzstan"
    },
    {
      "lat": 40.93717091840966,
      "lon": 73.03554962511012,
      "geoinfo": {
        "display_name": "Suzak District, Jalal-Abad Region, Kyrgyzstan",
        "road": null,
        "house_number": null,
        "neighbourhood": null,
        "suburb": null,
        "city_district": null,
        "city": null,
        "state": "Jalal-Abad Region",
        "postcode": null,
        "country": "Kyrgyzstan",
        "country_code": "kg"
      },
      "address": "333, Suzak District, 88609 Jalal-Abad Region, Kyrgyzstan"
    },
    {
      "lat": 40.96202138363159,
      "lon": 72.98204484278764,
      "geoinfo": {
        "display_name": "Живопрома улица, Suzak District, Jalal-Abad Region, 715600, Kyrgyzstan",
        "road": "Живопрома улица",
        "house_number": null,
        "neighbourhood": null,
        "suburb": null,
        "city_district": null,
        "city": null,
        "state": "Jalal-Abad Region",
        "postcode": "715600",
        "country": "Kyrgyzstan",
        "country_code": "kg"
      },
      "address": "277, Живопрома улица, Suzak District, Jalal-Abad Region, 715600, Kyrgyzstan"
    }
  ],
  "updated_at": "2025-10-19T05:35:50.404553+00:00",
  "_kind": "geo_samples"
}