{
  "country_code": "KG",
  "country": "Kyrgyzstan",
  "city": "Kara Suu",
  "geonameid": 1528091,
  "target_addresses": 4,
  "samples": [
    {
      "lat": 40.70273350279796,
      "lon": 72.89088518512307,
      "geoinfo": {
        "display_name": "Рахманалиев А. улица, Киров, Kara-Suu District, Osh Region, Kyrgyzstan",
        "road": "Рахманалиев А. улица",
        "house_number": null,
        "neighbourhood": null,
        "suburb": null,
        "city_district": null,
        "city": "Киров",
        "state": "Osh Region",
        "postcode": null,
        "country": "Kyrgyzstan",
        "country_code": "kg"
      },
      "address": "Рахманалиев А. улица, Kara Suu, Osh Region, Kyrgyzstan"
    },
    {
      "lat": 40.68511231324293,
      "lon": 72.91086478429378,
      "geoinfo": {
        "display_name": "Октябр, Kara-Suu District, Osh Region, Kyrgyzstan",
        "road": null,
        "house_number": null,
        "neighbourhood": null,
        "suburb": null,
        "city_district": null,
        "city": "Октябр",
        "state": "Osh Region",
        "postcode": null,
        "country": "Kyrgyzstan",
        "country_code": "kg"
      },
      "address": "Kara Suu, Osh Region, Kyrgyzstan"
    },
    {
      "lat": 40.68791826153886,
      "lon": 72.90388122843908,
      "geoinfo": {
        "display_name": "Жаны-Чек улица, Эркин, Kara-Suu District, Osh Region, Kyrgyzstan",
        "road": "Жаны-Чек улица",
        "house_number": null,
        "neighbourhood": null,
        "suburb": null,
        "city_district": null,
        "city": "Эркин",
        "state": "Osh Region",
        "postcode": null,
        "country": "Kyrgyzstan",
        "country_code": "kg"
      },
      "address": "Жаны-Чек улица, Kara Suu, Osh Region, Kyrgyzstan"
    },
    {
      "lat": 40.708908081615455,
      "lon": 72.91611029851067,
      "geoinfo": {
        "display_name": "М-091, Kutchi, Kara-Suu District, Osh Region, Kyrgyzstan",
        "road": "М-091",
        "house_number": null,
        "neighbourhood": null,
        "suburb": null,
        "city_district": null,
        "city": "Kutchi",
        "state": "Osh Region",
        "postcode": null,
        "country": "Kyrgyzstan",
        "country_code": "kg"
      },
      "address": "М-091, Kara Suu, Osh Region, Kyrgyzstan"
    }
  ],
  "updated_at": "2025-10-16T17:42:44.624122+00:00",
  "_kind": "geo_samples"
}