{
  "country_code": "KG",
  "country": "Kyrgyzstan",
  "city": "Kochkor-Ata",
  "geonameid": 1527903,
  "target_addresses": 4,
  "samples": [
    {
      "lat": 41.04147951342638,
      "lon": 72.46471841691617,
      "geoinfo": {
        "display_name": "Nooken District, Jalal-Abad Region, Kyrgyzstan",
        "road": null,
        "house_number": null,
        "neighbourhood": null,
        "suburb": null,
        "city_district": null,
        "city": null,
        "state": "Jalal-Abad Region",
        "postcode": null,
        "country": "Kyrgyzstan",
        "country_code": "kg"
      },
      "address": "Kochkor-Ata, Jalal-Abad Region, Kyrgyzstan"
    },
    {
      "lat": 41.0284006727999,
      "lon": 72.5015261650931,
      "geoinfo": {
        "display_name": "Bishkek-Osh, Kochkor-Ata, Nooken District, Jalal-Abad Region, Kyrgyzstan",
        "road": "Bishkek-Osh",
        "house_number": null,
        "neighbourhood": null,
        "suburb": null,
        "city_district": null,
        "city": "Kochkor-Ata",
        "state": "Jalal-Abad Region",
        "postcode": null,
        "country": "Kyrgyzstan",
        "country_code": "kg"
      },
      "address": "Bishkek-Osh, Kochkor-Ata, Jalal-Abad Region, Kyrgyzstan"
    },
    {
      "lat": 41.03754490650339,
      "lon": 72.49838505022367,
      "geoinfo": {
        "display_name": "Калинина, Kochkor-Ata, Nooken District, Jalal-Abad Region, Kyrgyzstan",
        "road": "Калинина",
        "house_number": null,
        "neighbourhood": null,
        "suburb": null,
        "city_district": null,
        "city": "Kochkor-Ata",
        "state": "Jalal-Abad Region",
        "postcode": null,
        "country": "Kyrgyzstan",
        "country_code": "kg"
      },
      "address": "425, Калинина, Kochkor-Ata, Nooken District, 06887 Jalal-Abad Region, Kyrgyzstan"
    },
    {
      "lat": 41.054267946176445,
      "lon": 72.46800867950245,
      "geoinfo": {
        "display_name": "Nooken District, Jalal-Abad Region, Kyrgyzstan",
        "road": null,
        "house_number": null,
        "neighbourhood": null,
        "suburb": null,
        "city_district": null,
        "city": null,
        "state": "Jalal-Abad Region",
        "postcode": null,
        "country": "Kyrgyzstan",
        "country_code": "kg"
      },
      "address": "814, Nooken District, 77419 Jalal-Abad Region, Kyrgyzstan"
    },
    {
      "lat": 41.04721791600849,
      "lon": 72.53542848684198,
      "geoinfo": {
        "display_name": "Rahmandjan, Nooken District, Jalal-Abad Region, Kyrgyzstan",
        "road": null,
        "house_number": null,
        "neighbourhood": null,
        "suburb": null,
        "city_district": null,
        "city": "Rahmandjan",
        "state": "Jalal-Abad Region",
        "postcode": null,
        "country": "Kyrgyzstan",
        "country_code": "kg"
      },
      "address": "040, Rahmandjan, Nooken District, 42484 Jalal-Abad Region, Kyrgyzstan"
    },
    {
      "lat": 41.0317475290882,
      "lon": 72.49231343987019,
      "geoinfo": {
        "display_name": "Луговая, Kochkor-Ata, Nooken District, Jalal-Abad Region, Kyrgyzstan",
        "road": "Луговая",
        "house_number": null,
        "neighbourhood": null,
        "suburb": null,
        "city_district": null,
        "city": "Kochkor-Ata",
        "state": "Jalal-Abad Region",
        "postcode": null,
        "country": "Kyrgyzstan",
        "country_code": "kg"
      },
      "address": "957, Луговая, Kochkor-Ata, Nooken District, 42097 Jalal-Abad Region, Kyrgyzstan"
    }
  ],
  "updated_at": "2025-10-19T03:27:45.801325+00:00",
  "_kind": "geo_samples"
}