{
  "country_code": "KG",
  "country": "Kyrgyzstan",
  "city": "Kyzyl-Kyya",
  "geonameid": 1527719,
  "target_addresses": 4,
  "samples": [
    {
      "lat": 40.25926011304568,
      "lon": 72.13102634645385,
      "geoinfo": {
        "display_name": "Mira street, Жаңы квартал, Yanvarsky, Kyzyl-Kyya City, Kadamjay District, Batken Region, 720305, Kyrgyzstan",
        "road": "Mira street",
        "house_number": null,
        "neighbourhood": "Жаңы квартал",
        "suburb": null,
        "city_district": null,
        "city": "Kyzyl-Kyya City",
        "state": "Batken Region",
        "postcode": "720305",
        "country": "Kyrgyzstan",
        "country_code": "kg"
      },
      "address": "Mira street, Kyzyl-Kyya, Batken Region, Kyrgyzstan"
    },
    {
      "lat": 40.27708650000977,
      "lon": 72.14322767651662,
      "geoinfo": {
        "display_name": "ЭМ-16, Kyzyl-Kyya City, Kadamjay District, Batken Region, 715211, Kyrgyzstan",
        "road": "ЭМ-16",
        "house_number": null,
        "neighbourhood": null,
        "suburb": null,
        "city_district": null,
        "city": "Kyzyl-Kyya City",
        "state": "Batken Region",
        "postcode": "715211",
        "country": "Kyrgyzstan",
        "country_code": "kg"
      },
      "address": "ЭМ-16, Kyzyl-Kyya, Batken Region, Kyrgyzstan"
    },
    {
      "lat": 40.28412205773167,
      "lon": 72.17028630731761,
      "geoinfo": {
        "display_name": "Kadamjay District, Batken Region, 715211, Kyrgyzstan",
        "road": null,
        "house_number": null,
        "neighbourhood": null,
        "suburb": null,
        "city_district": null,
        "city": null,
        "state": "Batken Region",
        "postcode": "715211",
        "country": "Kyrgyzstan",
        "country_code": "kg"
      },
      "address": "Kyzyl-Kyya, Batken Region, Kyrgyzstan"
    },
    {
      "lat": 40.2678272837219,
      "lon": 72.13223984108505,
      "geoinfo": {
        "display_name": "60 years of Kyrgyzstan street, Жаңы квартал, 1-й микрорайон, Kyzyl-Kyya, Kadamjay District, Batken Region, 720305, Kyrgyzstan",
        "road": "60 years of Kyrgyzstan street",
        "house_number": null,
        "neighbourhood": "Жаңы квартал",
        "suburb": null,
        "city_district": null,
        "city": "Kyzyl-Kyya",
        "state": "Batken Region",
        "postcode": "720305",
        "country": "Kyrgyzstan",
        "country_code": "kg"
      },
      "address": "60 years of Kyrgyzstan street, Kyzyl-Kyya, Batken Region, Kyrgyzstan"
    },
    {
      "lat": 40.25492322558754,
      "lon": 72.11240223275641,
      "geoinfo": {
        "display_name": "Боз, Kyzyl-Kyya, Kadamjay District, Batken Region, 720305, Kyrgyzstan",
        "road": null,
        "house_number": null,
        "neighbourhood": null,
        "suburb": null,
        "city_district": null,
        "city": "Kyzyl-Kyya",
        "state": "Batken Region",
        "postcode": "720305",
        "country": "Kyrgyzstan",
        "country_code": "kg"
      },
      "address": "925, Боз, Kyzyl-Kyya, Kadamjay District, Batken Region, 720305, Kyrgyzstan"
    },
    {
      "lat": 40.23635025616946,
      "lon": 72.14059921070519,
      "geoinfo": {
        "display_name": "Kyzyl-Kyya City, Kadamjay District, Batken Region, 720300, Kyrgyzstan",
        "road": null,
        "house_number": null,
        "neighbourhood": null,
        "suburb": null,
        "city_district": null,
        "city": "Kyzyl-Kyya City",
        "state": "Batken Region",
        "postcode": "720300",
        "country": "Kyrgyzstan",
        "country_code": "kg"
      },
      "address": "327, Kyzyl-Kyya City, Kadamjay District, Batken Region, 720300, Kyrgyzstan"
    },
    {
      "lat": 40.277374511870036,
      "lon": 72.17111215778017,
      "geoinfo": {
        "display_name": "Чыгыш 2/1, Kadamjay District, Batken Region, 720300, Kyrgyzstan",
        "road": null,
        "house_number": null,
        "neighbourhood": "Чыгыш 2/1",
        "suburb": null,
        "city_district": null,
        "city": null,
        "state": "Batken Region",
        "postcode": "720300",
        "country": "Kyrgyzstan",
        "country_code": "kg"
      },
      "address": "Чыгыш 2/1, Kadamjay District, Batken Region, 720300, Kyrgyzstan"
    },
    {
      "lat": 40.25064421121819,
      "lon": 72.1080677472817,
      "geoinfo": {
        "display_name": "Боз, Kyzyl-Kyya, Kadamjay District, Batken Region, 720305, Kyrgyzstan",
        "road": null,
        "house_number": null,
        "neighbourhood": null,
        "suburb": null,
        "city_district": null,
        "city": "Kyzyl-Kyya",
        "state": "Batken Region",
        "postcode": "720305",
        "country": "Kyrgyzstan",
        "country_code": "kg"
      },
      "address": "018, Боз, Kyzyl-Kyya, Kadamjay District, Batken Region, 720305, Kyrgyzstan"
    }
  ],
  "updated_at": "2025-10-19T05:35:33.149841+00:00",
  "_kind": "geo_samples"
}