{
  "country_code": "KG",
  "country": "Kyrgyzstan",
  "city": "Lebedinovka",
  "geonameid": 1527690,
  "target_addresses": 19,
  "samples": [
    {
      "lat": 42.87839614904352,
      "lon": 74.69471520794535,
      "geoinfo": {
        "display_name": "1, Lenin avenue, Sverdlov District, Lebedinovka, Alamüdün District, Chuy Region, 724318, Kyrgyzstan",
        "road": "Lenin avenue",
        "house_number": "1",
        "neighbourhood": null,
        "suburb": null,
        "city_district": "Sverdlov District",
        "city": "Lebedinovka",
        "state": "Chuy Region",
        "postcode": "724318",
        "country": "Kyrgyzstan",
        "country_code": "kg"
      },
      "address": "1 Lenin avenue, Lebedinovka, Chuy Region, Kyrgyzstan"
    },
    {
      "lat": 42.898376504483906,
      "lon": 74.69402805983506,
      "geoinfo": {
        "display_name": "Новостройка ?, Alamüdün District, 724318, Kyrgyzstan",
        "road": null,
        "house_number": null,
        "neighbourhood": null,
        "suburb": null,
        "city_district": null,
        "city": null,
        "state": null,
        "postcode": "724318",
        "country": "Kyrgyzstan",
        "country_code": "kg"
      },
      "address": "Lebedinovka, Chuy Region, Kyrgyzstan"
    },
    {
      "lat": 42.88500961755127,
      "lon": 74.70336027626128,
      "geoinfo": {
        "display_name": "Мичурина улица, Novopokrovka, Ysyk-Ata District, 725024, Kyrgyzstan",
        "road": "Мичурина улица",
        "house_number": null,
        "neighbourhood": null,
        "suburb": null,
        "city_district": null,
        "city": "Novopokrovka",
        "state": null,
        "postcode": "725024",
        "country": "Kyrgyzstan",
        "country_code": "kg"
      },
      "address": "Мичурина улица, Lebedinovka, Chuy Region, Kyrgyzstan"
    },
    {
      "lat": 42.91894464549747,
      "lon": 74.71479212620962,
      "geoinfo": {
        "display_name": "ЭМ-11, Ysyk-Ata District, Chuy Region, 725024, Kyrgyzstan",
        "road": "ЭМ-11",
        "house_number": null,
        "neighbourhood": null,
        "suburb": null,
        "city_district": null,
        "city": null,
        "state": "Chuy Region",
        "postcode": "725024",
        "country": "Kyrgyzstan",
        "country_code": "kg"
      },
      "address": "ЭМ-11, Lebedinovka, Chuy Region, Kyrgyzstan"
    },
    {
      "lat": 42.85337569159606,
      "lon": 74.65636401053911,
      "geoinfo": {
        "display_name": "Анкара улица, October District, Bishkek City, 720082, Kyrgyzstan",
        "road": "Анкара улица",
        "house_number": null,
        "neighbourhood": null,
        "suburb": null,
        "city_district": "October District",
        "city": "Bishkek City",
        "state": null,
        "postcode": "720082",
        "country": "Kyrgyzstan",
        "country_code": "kg"
      },
      "address": "Анкара улица, October District, Bishkek City, 720082, Kyrgyzstan"
    },
    {
      "lat": 42.87575286491817,
      "lon": 74.68115954217156,
      "geoinfo": {
        "display_name": "5, Аламедин-1 микрорайон, microrayon Alamedin-1, Sverdlov District, Bishkek City, 724318, Kyrgyzstan",
        "road": "Аламедин-1 микрорайон",
        "house_number": "5",
        "neighbourhood": null,
        "suburb": "microrayon Alamedin-1",
        "city_district": "Sverdlov District",
        "city": "Bishkek City",
        "state": null,
        "postcode": "724318",
        "country": "Kyrgyzstan",
        "country_code": "kg"
      },
      "address": "5, Аламедин-1 микрорайон, microrayon Alamedin-1, Sverdlov District, Bishkek City, 724318, Kyrgyzstan"
    },
    {
      "lat": 42.90737434120756,
      "lon": 74.67000693196022,
      "geoinfo": {
        "display_name": "Советская улица, Vostok, Alamüdün District, 720051, Kyrgyzstan",
        "road": "Советская улица",
        "house_number": null,
        "neighbourhood": null,
        "suburb": null,
        "city_district": null,
        "city": "Vostok",
        "state": null,
        "postcode": "720051",
        "country": "Kyrgyzstan",
        "country_code": "kg"
      },
      "address": "551, Советская улица, 720051 Lebedinovka, Kyrgyzstan"
    },
    {
      "lat": 42.886959975634774,
      "lon": 74.62036095837675,
      "geoinfo": {
        "display_name": "112, Kuznechnaya Krepost Street, Sverdlov District, Bishkek City, 720045, Kyrgyzstan",
        "road": "Kuznechnaya Krepost Street",
        "house_number": "112",
        "neighbourhood": null,
        "suburb": null,
        "city_district": "Sverdlov District",
        "city": "Bishkek City",
        "state": null,
        "postcode": "720045",
        "country": "Kyrgyzstan",
        "country_code": "kg"
      },
      "address": "112, Kuznechnaya Krepost Street, Sverdlov District, Bishkek City, 720045, Kyrgyzstan"
    },
    {
      "lat": 42.923205191645664,
      "lon": 74.70846528681919,
      "geoinfo": {
        "display_name": "ЭМ-11, Ysyk-Ata District, Chuy Region, 725024, Kyrgyzstan",
        "road": "ЭМ-11",
        "house_number": null,
        "neighbourhood": null,
        "suburb": null,
        "city_district": null,
        "city": null,
        "state": "Chuy Region",
        "postcode": "725024",
        "country": "Kyrgyzstan",
        "country_code": "kg"
      },
      "address": "ЭМ-11, Lebedinovka, 725024 Chuy Region, Kyrgyzstan"
    },
    {
      "lat": 42.877501391723776,
      "lon": 74.71985072064678,
      "geoinfo": {
        "display_name": "Горького улица, Novopokrovka, Ysyk-Ata District, 725024, Kyrgyzstan",
        "road": "Горького улица",
        "house_number": null,
        "neighbourhood": null,
        "suburb": null,
        "city_district": null,
        "city": "Novopokrovka",
        "state": null,
        "postcode": "725024",
        "country": "Kyrgyzstan",
        "country_code": "kg"
      },
      "address": "340, Горького улица, 725024 Lebedinovka, Kyrgyzstan"
    },
    {
      "lat": 42.87531279606621,
      "lon": 74.65474741835816,
      "geoinfo": {
        "display_name": "27, Chuy Avenue, Sverdlov District, Bishkek City, 720022, Kyrgyzstan",
        "road": "Chuy Avenue",
        "house_number": "27",
        "neighbourhood": null,
        "suburb": null,
        "city_district": "Sverdlov District",
        "city": "Bishkek City",
        "state": null,
        "postcode": "720022",
        "country": "Kyrgyzstan",
        "country_code": "kg"
      },
      "address": "27, Chuy Avenue, Sverdlov District, Bishkek City, 720022, Kyrgyzstan"
    },
    {
      "lat": 42.91075062152845,
      "lon": 74.70771921066478,
      "geoinfo": {
        "display_name": "Ysyk-Ata District, Chuy Region, Kyrgyzstan",
        "road": null,
        "house_number": null,
        "neighbourhood": null,
        "suburb": null,
        "city_district": null,
        "city": null,
        "state": "Chuy Region",
        "postcode": null,
        "country": "Kyrgyzstan",
        "country_code": "kg"
      },
      "address": "227, Lebedinovka, 33423 Chuy Region, Kyrgyzstan"
    },
    {
      "lat": 42.88825741456173,
      "lon": 74.72944416137622,
      "geoinfo": {
        "display_name": "Горького улица, Novopokrovka, Ysyk-Ata District, 725024, Kyrgyzstan",
        "road": "Горького улица",
        "house_number": null,
        "neighbourhood": null,
        "suburb": null,
        "city_district": null,
        "city": "Novopokrovka",
        "state": null,
        "postcode": "725024",
        "country": "Kyrgyzstan",
        "country_code": "kg"
      },
      "address": "570, Горького улица, 725024 Lebedinovka, Kyrgyzstan"
    },
    {
      "lat": 42.859250847355156,
      "lon": 74.69115204788366,
      "geoinfo": {
        "display_name": "Исакеева улица, Кырман, October District, Bishkek City, 720001, Kyrgyzstan",
        "road": "Исакеева улица",
        "house_number": null,
        "neighbourhood": "Кырман",
        "suburb": null,
        "city_district": "October District",
        "city": "Bishkek City",
        "state": null,
        "postcode": "720001",
        "country": "Kyrgyzstan",
        "country_code": "kg"
      },
      "address": "440, Исакеева улица, Кырман, October District, Bishkek City, 720001, Kyrgyzstan"
    },
    {
      "lat": 42.878599544640295,
      "lon": 74.65493779684847,
      "geoinfo": {
        "display_name": "2-2, Mikhail Frunze Street, Sverdlov District, Bishkek City, 720022, Kyrgyzstan",
        "road": "Mikhail Frunze Street",
        "house_number": "2-2",
        "neighbourhood": null,
        "suburb": null,
        "city_district": "Sverdlov District",
        "city": "Bishkek City",
        "state": null,
        "postcode": "720022",
        "country": "Kyrgyzstan",
        "country_code": "kg"
      },
      "address": "2-2, Mikhail Frunze Street, Sverdlov District, Bishkek City, 720022, Kyrgyzstan"
    },
    {
      "lat": 42.89263088386221,
      "lon": 74.65082543468056,
      "geoinfo": {
        "display_name": "Курманалиева 1-я улица, Sverdlov District, Bishkek City, 720022, Kyrgyzstan",
        "road": "Курманалиева 1-я улица",
        "house_number": null,
        "neighbourhood": null,
        "suburb": null,
        "city_district": "Sverdlov District",
        "city": "Bishkek City",
        "state": null,
        "postcode": "720022",
        "country": "Kyrgyzstan",
        "country_code": "kg"
      },
      "address": "Курманалиева 1-я улица, Sverdlov District, Bishkek City, 720022, Kyrgyzstan"
    },
    {
      "lat": 42.8521041532008,
      "lon": 74.67384433476079,
      "geoinfo": {
        "display_name": "Субанова Темиркана улица, Полицейский городок, October District, Bishkek City, 720048, Kyrgyzstan",
        "road": "Субанова Темиркана улица",
        "house_number": null,
        "neighbourhood": null,
        "suburb": "Полицейский городок",
        "city_district": "October District",
        "city": "Bishkek City",
        "state": null,
        "postcode": "720048",
        "country": "Kyrgyzstan",
        "country_code": "kg"
      },
      "address": "236, Субанова Темиркана улица, Полицейский городок, October District, Bishkek City, 720048, Kyrgyzstan"
    },
    {
      "lat": 42.86859830596726,
      "lon": 74.73527390733524,
      "geoinfo": {
        "display_name": "Ленина улица, Novopokrovka, Ysyk-Ata District, 725022, Kyrgyzstan",
        "road": "Ленина улица",
        "house_number": null,
        "neighbourhood": null,
        "suburb": null,
        "city_district": null,
        "city": "Novopokrovka",
        "state": null,
        "postcode": "725022",
        "country": "Kyrgyzstan",
        "country_code": "kg"
      },
      "address": "847, Ленина улица, 725022 Lebedinovka, Kyrgyzstan"
    },
    {
      "lat": 42.87022503345918,
      "lon": 74.63016817799026,
      "geoinfo": {
        "display_name": "47, Kiyizbaeva Street, microrayon East-5, Sverdlov District, Bishkek City, 720065, Kyrgyzstan",
        "road": "Kiyizbaeva Street",
        "house_number": "47",
        "neighbourhood": null,
        "suburb": "microrayon East-5",
        "city_district": "Sverdlov District",
        "city": "Bishkek City",
        "state": null,
        "postcode": "720065",
        "country": "Kyrgyzstan",
        "country_code": "kg"
      },
      "address": "47, Kiyizbaeva Street, microrayon East-5, Sverdlov District, Bishkek City, 720065, Kyrgyzstan"
    },
    {
      "lat": 42.881595400077444,
      "lon": 74.63866557040423,
      "geoinfo": {
        "display_name": "112, Саратовская улица, Sverdlov District, Bishkek City, 720065, Kyrgyzstan",
        "road": "Саратовская улица",
        "house_number": "112",
        "neighbourhood": null,
        "suburb": null,
        "city_district": "Sverdlov District",
        "city": "Bishkek City",
        "state": null,
        "postcode": "720065",
        "country": "Kyrgyzstan",
        "country_code": "kg"
      },
      "address": "112, Саратовская улица, Sverdlov District, Bishkek City, 720065, Kyrgyzstan"
    },
    {
      "lat": 42.87596657964566,
      "lon": 74.69447887535851,
      "geoinfo": {
        "display_name": "3, Зелёная улица, Power Township, Sverdlov District, Bishkek City, 724318, Kyrgyzstan",
        "road": "Зелёная улица",
        "house_number": "3",
        "neighbourhood": null,
        "suburb": "Power Township",
        "city_district": "Sverdlov District",
        "city": "Bishkek City",
        "state": null,
        "postcode": "724318",
        "country": "Kyrgyzstan",
        "country_code": "kg"
      },
      "address": "3, Зелёная улица, Power Township, Sverdlov District, Bishkek City, 724318, Kyrgyzstan"
    }
  ],
  "updated_at": "2025-10-19T05:09:52.194470+00:00",
  "_kind": "geo_samples"
}