{
  "country_code": "KG",
  "country": "Kyrgyzstan",
  "city": "Osh",
  "geonameid": 1527534,
  "target_addresses": 4,
  "samples": [
    {
      "lat": 40.53788301201338,
      "lon": 72.79655744751271,
      "geoinfo": {
        "display_name": "Маджеримтал улица, Mahalya, Osh City, 714004, Kyrgyzstan",
        "road": "Маджеримтал улица",
        "house_number": null,
        "neighbourhood": null,
        "suburb": null,
        "city_district": null,
        "city": "Osh City",
        "state": "Osh City",
        "postcode": "714004",
        "country": "Kyrgyzstan",
        "country_code": "kg"
      },
      "address": "Маджеримтал улица, Osh, Osh City, Kyrgyzstan"
    },
    {
      "lat": 40.4929598291703,
      "lon": 72.7805265357919,
      "geoinfo": {
        "display_name": "Ак-Буура 3-1, Ак-Буура-2, Osh City, 724500, Kyrgyzstan",
        "road": "Ак-Буура 3-1",
        "house_number": null,
        "neighbourhood": null,
        "suburb": null,
        "city_district": null,
        "city": "Ак-Буура-2",
        "state": "Osh City",
        "postcode": "724500",
        "country": "Kyrgyzstan",
        "country_code": "kg"
      },
      "address": "Ак-Буура 3-1, Osh, Osh City, Kyrgyzstan"
    },
    {
      "lat": 40.53928398439129,
      "lon": 72.75189271361178,
      "geoinfo": {
        "display_name": "B. Osmonov street, Kara-Suu District, Osh Region, 723506, Kyrgyzstan",
        "road": "B. Osmonov street",
        "house_number": null,
        "neighbourhood": null,
        "suburb": null,
        "city_district": null,
        "city": null,
        "state": "Osh Region",
        "postcode": "723506",
        "country": "Kyrgyzstan",
        "country_code": "kg"
      },
      "address": "B. Osmonov street, Osh, Osh Region, Kyrgyzstan"
    },
    {
      "lat": 40.56174005346079,
      "lon": 72.79584734538298,
      "geoinfo": {
        "display_name": "Osh, Osh City, 723506, Kyrgyzstan",
        "road": null,
        "house_number": null,
        "neighbourhood": null,
        "suburb": null,
        "city_district": null,
        "city": "Osh",
        "state": "Osh City",
        "postcode": "723506",
        "country": "Kyrgyzstan",
        "country_code": "kg"
      },
      "address": "Osh, Osh City, Kyrgyzstan"
    },
    {
      "lat": 40.56868595232236,
      "lon": 72.77373454351421,
      "geoinfo": {
        "display_name": "Жаны-Маха, Kara-Suu District, Osh Region, 723506, Kyrgyzstan",
        "road": null,
        "house_number": null,
        "neighbourhood": null,
        "suburb": null,
        "city_district": null,
        "city": "Жаны-Маха",
        "state": "Osh Region",
        "postcode": "723506",
        "country": "Kyrgyzstan",
        "country_code": "kg"
      },
      "address": "324, Жаны-Маха, Kara-Suu District, Osh Region, 723506, Kyrgyzstan"
    },
    {
      "lat": 40.50725321479257,
      "lon": 72.81071015714568,
      "geoinfo": {
        "display_name": "Л.Толстой улица, Osh City, 724500, Kyrgyzstan",
        "road": "Л.Толстой улица",
        "house_number": null,
        "neighbourhood": null,
        "suburb": null,
        "city_district": null,
        "city": "Osh City",
        "state": "Osh City",
        "postcode": "724500",
        "country": "Kyrgyzstan",
        "country_code": "kg"
      },
      "address": "804, Л.Толстой улица, Osh City, 724500, Kyrgyzstan"
    },
    {
      "lat": 40.49776288871675,
      "lon": 72.82526870560228,
      "geoinfo": {
        "display_name": "Народный, 45, Isanova street, Osh City, 723503, Kyrgyzstan",
        "road": "Isanova street",
        "house_number": "45",
        "neighbourhood": null,
        "suburb": null,
        "city_district": null,
        "city": "Osh City",
        "state": "Osh City",
        "postcode": "723503",
        "country": "Kyrgyzstan",
        "country_code": "kg"
      },
      "address": "Народный, 45, Isanova street, Osh City, 723503, Kyrgyzstan"
    },
    {
      "lat": 40.51873124662892,
      "lon": 72.79284240917994,
      "geoinfo": {
        "display_name": "Юбилейный көчөсү, Osh City, 724500, Kyrgyzstan",
        "road": "Юбилейный көчөсү",
        "house_number": null,
        "neighbourhood": null,
        "suburb": null,
        "city_district": null,
        "city": "Osh City",
        "state": "Osh City",
        "postcode": "724500",
        "country": "Kyrgyzstan",
        "country_code": "kg"
      },
      "address": "444, Юбилейный көчөсү, Osh City, 724500, Kyrgyzstan"
    }
  ],
  "updated_at": "2025-10-19T03:54:38.761231+00:00",
  "_kind": "geo_samples"
}