{
  "country_code": "KG",
  "country": "Kyrgyzstan",
  "city": "Suzak",
  "geonameid": 1527317,
  "target_addresses": 4,
  "samples": [
    {
      "lat": 40.87953268067641,
      "lon": 72.93612959435265,
      "geoinfo": {
        "display_name": "Kumush-Aziz, Suzak District, Jalal-Abad Region, 721328, Kyrgyzstan",
        "road": null,
        "house_number": null,
        "neighbourhood": null,
        "suburb": null,
        "city_district": null,
        "city": "Kumush-Aziz",
        "state": "Jalal-Abad Region",
        "postcode": "721328",
        "country": "Kyrgyzstan",
        "country_code": "kg"
      },
      "address": "Suzak, Jalal-Abad Region, Kyrgyzstan"
    },
    {
      "lat": 40.92560460884841,
      "lon": 72.87591200667245,
      "geoinfo": {
        "display_name": "Bishkek-Osh, Suzak District, Jalal-Abad Region, Kyrgyzstan",
        "road": "Bishkek-Osh",
        "house_number": null,
        "neighbourhood": null,
        "suburb": null,
        "city_district": null,
        "city": null,
        "state": "Jalal-Abad Region",
        "postcode": null,
        "country": "Kyrgyzstan",
        "country_code": "kg"
      },
      "address": "Bishkek-Osh, Suzak, Jalal-Abad Region, Kyrgyzstan"
    },
    {
      "lat": 40.87574071541826,
      "lon": 72.87559572871228,
      "geoinfo": {
        "display_name": "М-117, Достук, Suzak District, Jalal-Abad Region, Kyrgyzstan",
        "road": "М-117",
        "house_number": null,
        "neighbourhood": null,
        "suburb": null,
        "city_district": null,
        "city": "Достук",
        "state": "Jalal-Abad Region",
        "postcode": null,
        "country": "Kyrgyzstan",
        "country_code": "kg"
      },
      "address": "М-117, Suzak, Jalal-Abad Region, Kyrgyzstan"
    },
    {
      "lat": 40.90393196732249,
      "lon": 72.90640015553488,
      "geoinfo": {
        "display_name": "Юнусов Алымжан көчөсү, Suzak, Suzak District, Jalal-Abad Region, 721319, Kyrgyzstan",
        "road": "Юнусов Алымжан көчөсү",
        "house_number": null,
        "neighbourhood": null,
        "suburb": null,
        "city_district": null,
        "city": "Suzak",
        "state": "Jalal-Abad Region",
        "postcode": "721319",
        "country": "Kyrgyzstan",
        "country_code": "kg"
      },
      "address": "Юнусов Алымжан көчөсү, Suzak, Jalal-Abad Region, Kyrgyzstan"
    },
    {
      "lat": 40.93640090575996,
      "lon": 72.9111112465134,
      "geoinfo": {
        "display_name": "Саада, Suzak District, Jalal-Abad Region, 721319, Kyrgyzstan",
        "road": null,
        "house_number": null,
        "neighbourhood": null,
        "suburb": null,
        "city_district": null,
        "city": null,
        "state": "Jalal-Abad Region",
        "postcode": "721319",
        "country": "Kyrgyzstan",
        "country_code": "kg"
      },
      "address": "348, Саада, Suzak District, Jalal-Abad Region, 721319, Kyrgyzstan"
    },
    {
      "lat": 40.903557302635036,
      "lon": 72.93016198526584,
      "geoinfo": {
        "display_name": "Suzak, Suzak District, Jalal-Abad Region, 721319, Kyrgyzstan",
        "road": null,
        "house_number": null,
        "neighbourhood": null,
        "suburb": null,
        "city_district": null,
        "city": "Suzak",
        "state": "Jalal-Abad Region",
        "postcode": "721319",
        "country": "Kyrgyzstan",
        "country_code": "kg"
      },
      "address": "202, Suzak, Suzak District, Jalal-Abad Region, 721319, Kyrgyzstan"
    },
    {
      "lat": 40.90555455585638,
      "lon": 72.90757629532413,
      "geoinfo": {
        "display_name": "Suzak, Suzak District, Jalal-Abad Region, 721319, Kyrgyzstan",
        "road": null,
        "house_number": null,
        "neighbourhood": null,
        "suburb": null,
        "city_district": null,
        "city": "Suzak",
        "state": "Jalal-Abad Region",
        "postcode": "721319",
        "country": "Kyrgyzstan",
        "country_code": "kg"
      },
      "address": "826, Suzak, Suzak District, Jalal-Abad Region, 721319, Kyrgyzstan"
    },
    {
      "lat": 40.87083798148344,
      "lon": 72.92134683021615,
      "geoinfo": {
        "display_name": "Aral, Suzak District, Jalal-Abad Region, 721328, Kyrgyzstan",
        "road": null,
        "house_number": null,
        "neighbourhood": null,
        "suburb": null,
        "city_district": null,
        "city": "Aral",
        "state": "Jalal-Abad Region",
        "postcode": "721328",
        "country": "Kyrgyzstan",
        "country_code": "kg"
      },
      "address": "229, Aral, Suzak District, Jalal-Abad Region, 721328, Kyrgyzstan"
    }
  ],
  "updated_at": "2025-10-19T07:31:07.853963+00:00",
  "_kind": "geo_samples"
}