{
  "country_code": "KG",
  "country": "Kyrgyzstan",
  "city": "Talas",
  "geonameid": 1527299,
  "target_addresses": 4,
  "samples": [
    {
      "lat": 42.48519370857834,
      "lon": 72.25767472224226,
      "geoinfo": {
        "display_name": "Talas District, Talas Region, Kyrgyzstan",
        "road": null,
        "house_number": null,
        "neighbourhood": null,
        "suburb": null,
        "city_district": null,
        "city": null,
        "state": "Talas Region",
        "postcode": null,
        "country": "Kyrgyzstan",
        "country_code": "kg"
      },
      "address": "Talas, Talas Region, Kyrgyzstan"
    },
    {
      "lat": 42.51700961866046,
      "lon": 72.24196003318828,
      "geoinfo": {
        "display_name": "Sadovaya St., Talas City, Talas Region, Kyrgyzstan",
        "road": "Sadovaya St.",
        "house_number": null,
        "neighbourhood": null,
        "suburb": null,
        "city_district": null,
        "city": "Talas City",
        "state": "Talas Region",
        "postcode": null,
        "country": "Kyrgyzstan",
        "country_code": "kg"
      },
      "address": "Sadovaya St., Talas, Talas Region, Kyrgyzstan"
    },
    {
      "lat": 42.531374561612466,
      "lon": 72.28043375546513,
      "geoinfo": {
        "display_name": "M-041, Орто-Арык, Talas District, Talas Region, Kyrgyzstan",
        "road": "M-041",
        "house_number": null,
        "neighbourhood": null,
        "suburb": null,
        "city_district": null,
        "city": "Орто-Арык",
        "state": "Talas Region",
        "postcode": null,
        "country": "Kyrgyzstan",
        "country_code": "kg"
      },
      "address": "M-041, Talas, Talas Region, Kyrgyzstan"
    },
    {
      "lat": 42.519421830492234,
      "lon": 72.29319901528955,
      "geoinfo": {
        "display_name": "131, Шеркулова Шекербека улица, Көк-Токой, Talas District, Talas Region, Kyrgyzstan",
        "road": "Шеркулова Шекербека улица",
        "house_number": "131",
        "neighbourhood": null,
        "suburb": null,
        "city_district": null,
        "city": "Көк-Токой",
        "state": "Talas Region",
        "postcode": null,
        "country": "Kyrgyzstan",
        "country_code": "kg"
      },
      "address": "131 Шеркулова Шекербека улица, Talas, Talas Region, Kyrgyzstan"
    },
    {
      "lat": 42.52367081160115,
      "lon": 72.24650141349528,
      "geoinfo": {
        "display_name": "Калинина улица, Talas City, Talas Region, Kyrgyzstan",
        "road": "Калинина улица",
        "house_number": null,
        "neighbourhood": null,
        "suburb": null,
        "city_district": null,
        "city": "Talas City",
        "state": "Talas Region",
        "postcode": null,
        "country": "Kyrgyzstan",
        "country_code": "kg"
      },
      "address": "400, Калинина улица, Talas City, 83689 Talas Region, Kyrgyzstan"
    },
    {
      "lat": 42.520641934239364,
      "lon": 72.24789826181683,
      "geoinfo": {
        "display_name": "Адиль, Сарыгулова Ислама улица, Talas, Talas Region, Kyrgyzstan",
        "road": "Сарыгулова Ислама улица",
        "house_number": null,
        "neighbourhood": null,
        "suburb": null,
        "city_district": null,
        "city": "Talas",
        "state": "Talas Region",
        "postcode": null,
        "country": "Kyrgyzstan",
        "country_code": "kg"
      },
      "address": "092, Сарыгулова Ислама улица, Talas, 28834 Talas Region, Kyrgyzstan"
    },
    {
      "lat": 42.48859586639763,
      "lon": 72.23290717319246,
      "geoinfo": {
        "display_name": "Talas District, Talas Region, Kyrgyzstan",
        "road": null,
        "house_number": null,
        "neighbourhood": null,
        "suburb": null,
        "city_district": null,
        "city": null,
        "state": "Talas Region",
        "postcode": null,
        "country": "Kyrgyzstan",
        "country_code": "kg"
      },
      "address": "571, Talas District, 24511 Talas Region, Kyrgyzstan"
    },
    {
      "lat": 42.48989214798295,
      "lon": 72.25632823759221,
      "geoinfo": {
        "display_name": "Talas District, Talas Region, Kyrgyzstan",
        "road": null,
        "house_number": null,
        "neighbourhood": null,
        "suburb": null,
        "city_district": null,
        "city": null,
        "state": "Talas Region",
        "postcode": null,
        "country": "Kyrgyzstan",
        "country_code": "kg"
      },
      "address": "890, Talas District, 22855 Talas Region, Kyrgyzstan"
    }
  ],
  "updated_at": "2025-10-19T05:34:59.485002+00:00",
  "_kind": "geo_samples"
}