{
  "country_code": "KG",
  "country": "Kyrgyzstan",
  "city": "Tokmok",
  "geonameid": 1527199,
  "target_addresses": 4,
  "samples": [
    {
      "lat": 42.84531520156672,
      "lon": 75.35926006509476,
      "geoinfo": {
        "display_name": "ЭМ-11, Tokmok City, Chuy District, Chuy Region, Kyrgyzstan",
        "road": "ЭМ-11",
        "house_number": null,
        "neighbourhood": null,
        "suburb": null,
        "city_district": null,
        "city": "Tokmok City",
        "state": "Chuy Region",
        "postcode": null,
        "country": "Kyrgyzstan",
        "country_code": "kg"
      },
      "address": "ЭМ-11, Tokmok, Chuy Region, Kyrgyzstan"
    },
    {
      "lat": 42.84754494167451,
      "lon": 75.31249477465141,
      "geoinfo": {
        "display_name": "208, Пушкина улица, Tokmok City, 724915, Kyrgyzstan",
        "road": "Пушкина улица",
        "house_number": "208",
        "neighbourhood": null,
        "suburb": null,
        "city_district": null,
        "city": "Tokmok City",
        "state": null,
        "postcode": "724915",
        "country": "Kyrgyzstan",
        "country_code": "kg"
      },
      "address": "208 Пушкина улица, Tokmok, Chuy Region, Kyrgyzstan"
    },
    {
      "lat": 42.83664848750675,
      "lon": 75.33335856363814,
      "geoinfo": {
        "display_name": "Пржевальского улица, Vinogradnoe, Chuy District, 724909, Kyrgyzstan",
        "road": "Пржевальского улица",
        "house_number": null,
        "neighbourhood": null,
        "suburb": null,
        "city_district": null,
        "city": "Vinogradnoe",
        "state": null,
        "postcode": "724909",
        "country": "Kyrgyzstan",
        "country_code": "kg"
      },
      "address": "Пржевальского улица, Tokmok, Chuy Region, Kyrgyzstan"
    },
    {
      "lat": 42.80467364459002,
      "lon": 75.33559321809962,
      "geoinfo": {
        "display_name": "М-034, Tokmok City, 724917, Kyrgyzstan",
        "road": "М-034",
        "house_number": null,
        "neighbourhood": null,
        "suburb": null,
        "city_district": null,
        "city": "Tokmok City",
        "state": null,
        "postcode": "724917",
        "country": "Kyrgyzstan",
        "country_code": "kg"
      },
      "address": "М-034, Tokmok, Chuy Region, Kyrgyzstan"
    },
    {
      "lat": 42.84263577463053,
      "lon": 75.27272505777579,
      "geoinfo": {
        "display_name": "32, 70 Лет Октября улица, Tokmok City, 724915, Kyrgyzstan",
        "road": "70 Лет Октября улица",
        "house_number": "32",
        "neighbourhood": null,
        "suburb": null,
        "city_district": null,
        "city": "Tokmok City",
        "state": null,
        "postcode": "724915",
        "country": "Kyrgyzstan",
        "country_code": "kg"
      },
      "address": "32, 70 Лет Октября улица, Tokmok City, 724915, Kyrgyzstan"
    },
    {
      "lat": 42.82088713216398,
      "lon": 75.33158128428975,
      "geoinfo": {
        "display_name": "Jantaeva Street, Tokmok City, Chuy Region, 724917, Kyrgyzstan",
        "road": "Jantaeva Street",
        "house_number": null,
        "neighbourhood": null,
        "suburb": null,
        "city_district": null,
        "city": "Tokmok City",
        "state": "Chuy Region",
        "postcode": "724917",
        "country": "Kyrgyzstan",
        "country_code": "kg"
      },
      "address": "861, Jantaeva Street, Tokmok City, Chuy Region, 724917, Kyrgyzstan"
    },
    {
      "lat": 42.82639767788239,
      "lon": 75.31309041908403,
      "geoinfo": {
        "display_name": "\"Свет Азии\" Библейский колледж, Неделина улица, Tokmok City, 724912, Kyrgyzstan",
        "road": "Неделина улица",
        "house_number": null,
        "neighbourhood": null,
        "suburb": null,
        "city_district": null,
        "city": "Tokmok City",
        "state": null,
        "postcode": "724912",
        "country": "Kyrgyzstan",
        "country_code": "kg"
      },
      "address": "178, Неделина улица, 724912 Tokmok, Kyrgyzstan"
    },
    {
      "lat": 42.82298468902418,
      "lon": 75.32915786926115,
      "geoinfo": {
        "display_name": "Jantaeva Street, Tokmok City, Chuy District, Chuy Region, 724912, Kyrgyzstan",
        "road": "Jantaeva Street",
        "house_number": null,
        "neighbourhood": null,
        "suburb": null,
        "city_district": null,
        "city": "Tokmok City",
        "state": "Chuy Region",
        "postcode": "724912",
        "country": "Kyrgyzstan",
        "country_code": "kg"
      },
      "address": "334, Jantaeva Street, Tokmok City, Chuy District, Chuy Region, 724912, Kyrgyzstan"
    }
  ],
  "updated_at": "2025-10-19T05:34:43.410271+00:00",
  "_kind": "geo_samples"
}