{
  "country_code": "DO",
  "country": "Dominican Republic",
  "city": "Azua",
  "geonameid": 3512208,
  "target_addresses": 3,
  "samples": [
    {
      "lat": 18.432231871234276,
      "lon": -70.72872092764624,
      "geoinfo": {
        "display_name": "Doña Emma Balaguer de Vallejo, Azua de Compostela, Azua, 71007, Dominican Republic",
        "road": null,
        "house_number": null,
        "neighbourhood": null,
        "suburb": null,
        "city_district": null,
        "city": "Doña Emma Balaguer de Vallejo",
        "state": "Azua",
        "postcode": "71007",
        "country": "Dominican Republic",
        "country_code": "do"
      },
      "address": "Azua, Azua, Dominican Republic"
    },
    {
      "lat": 18.455048868414643,
      "lon": -70.76422573176087,
      "geoinfo": {
        "display_name": "Azua - Barahona, Azua, Azua de Compostela, Azua, 90101, Dominican Republic",
        "road": "Azua - Barahona",
        "house_number": null,
        "neighbourhood": null,
        "suburb": null,
        "city_district": null,
        "city": "Azua",
        "state": "Azua",
        "postcode": "90101",
        "country": "Dominican Republic",
        "country_code": "do"
      },
      "address": "Azua - Barahona, Azua, Azua, Dominican Republic"
    },
    {
      "lat": 18.44167592901165,
      "lon": -70.71632205670299,
      "geoinfo": {
        "display_name": "Avenida Juan Pablo Duarte, Azua, Azua de Compostela, Azua, 90101, Dominican Republic",
        "road": "Avenida Juan Pablo Duarte",
        "house_number": null,
        "neighbourhood": null,
        "suburb": null,
        "city_district": null,
        "city": "Azua",
        "state": "Azua",
        "postcode": "90101",
        "country": "Dominican Republic",
        "country_code": "do"
      },
      "address": "Avenida Juan Pablo Duarte, Azua, Azua, Dominican Republic"
    },
    {
      "lat": 18.446015252287612,
      "lon": -70.7704678088192,
      "geoinfo": {
        "display_name": "Río Jura, Los Jovillos, Azua de Compostela, Azua, 90101, Dominican Republic",
        "road": "Río Jura",
        "house_number": null,
        "neighbourhood": null,
        "suburb": null,
        "city_district": null,
        "city": "Los Jovillos",
        "state": "Azua",
        "postcode": "90101",
        "country": "Dominican Republic",
        "country_code": "do"
      },
      "address": "313, Río Jura, Los Jovillos, Azua de Compostela, Azua, 90101, Dominican Republic"
    },
    {
      "lat": 18.47929222581764,
      "lon": -70.74892537817965,
      "geoinfo": {
        "display_name": "Barrio Los Chapines, Azua, Azua de Compostela, Azua, 90101, Dominican Republic",
        "road": null,
        "house_number": null,
        "neighbourhood": "Barrio Los Chapines",
        "suburb": null,
        "city_district": null,
        "city": "Azua",
        "state": "Azua",
        "postcode": "90101",
        "country": "Dominican Republic",
        "country_code": "do"
      },
      "address": "859, Barrio Los Chapines, Azua, Azua de Compostela, Azua, 90101, Dominican Republic"
    },
    {
      "lat": 18.469934629593755,
      "lon": -70.72358014953387,
      "geoinfo": {
        "display_name": "Azua, Azua de Compostela, Azua, 90101, Dominican Republic",
        "road": null,
        "house_number": null,
        "neighbourhood": null,
        "suburb": null,
        "city_district": null,
        "city": "Azua",
        "state": "Azua",
        "postcode": "90101",
        "country": "Dominican Republic",
        "country_code": "do"
      },
      "address": "712, Azua, Azua de Compostela, Azua, 90101, Dominican Republic"
    }
  ],
  "updated_at": "2025-10-19T03:41:11.051297+00:00",
  "_kind": "geo_samples"
}