{
  "country_code": "DO",
  "country": "Dominican Republic",
  "city": "Baní",
  "geonameid": 3512067,
  "target_addresses": 3,
  "samples": [
    {
      "lat": 18.300287340345733,
      "lon": -70.33500918142306,
      "geoinfo": {
        "display_name": "Fundación de Peravia, Villa Güera, Baní, Peravia, 94000, Dominican Republic",
        "road": null,
        "house_number": null,
        "neighbourhood": null,
        "suburb": "Fundación de Peravia",
        "city_district": null,
        "city": "Baní",
        "state": "Peravia",
        "postcode": "94000",
        "country": "Dominican Republic",
        "country_code": "do"
      },
      "address": "Fundación de Peravia, Baní, Peravia, Dominican Republic"
    },
    {
      "lat": 18.30166121576715,
      "lon": -70.29378666543502,
      "geoinfo": {
        "display_name": "Río Arriba, Baní, Peravia, 94000, Dominican Republic",
        "road": null,
        "house_number": null,
        "neighbourhood": null,
        "suburb": null,
        "city_district": null,
        "city": "Baní",
        "state": "Peravia",
        "postcode": "94000",
        "country": "Dominican Republic",
        "country_code": "do"
      },
      "address": "Baní, Peravia, Dominican Republic"
    },
    {
      "lat": 18.266442930506088,
      "lon": -70.35442235210355,
      "geoinfo": {
        "display_name": "El Llano, Villa Sombrero, Baní, Peravia, 94000, Dominican Republic",
        "road": null,
        "house_number": null,
        "neighbourhood": null,
        "suburb": "El Llano",
        "city_district": null,
        "city": "Baní",
        "state": "Peravia",
        "postcode": "94000",
        "country": "Dominican Republic",
        "country_code": "do"
      },
      "address": "El Llano, Baní, Peravia, Dominican Republic"
    },
    {
      "lat": 18.313304675970226,
      "lon": -70.3270826130762,
      "geoinfo": {
        "display_name": "Fundación de Peravia, Río Arriba, Baní, Peravia, 94000, Dominican Republic",
        "road": null,
        "house_number": null,
        "neighbourhood": null,
        "suburb": "Fundación de Peravia",
        "city_district": null,
        "city": "Baní",
        "state": "Peravia",
        "postcode": "94000",
        "country": "Dominican Republic",
        "country_code": "do"
      },
      "address": "458, Fundación de Peravia, Río Arriba, Baní, Peravia, 94000, Dominican Republic"
    },
    {
      "lat": 18.28924675714738,
      "lon": -70.35105593676231,
      "geoinfo": {
        "display_name": "Cañafistol, Baní, Peravia, 94000, Dominican Republic",
        "road": null,
        "house_number": null,
        "neighbourhood": null,
        "suburb": null,
        "city_district": null,
        "city": "Baní",
        "state": "Peravia",
        "postcode": "94000",
        "country": "Dominican Republic",
        "country_code": "do"
      },
      "address": "850, Cañafistol, Baní, Peravia, 94000, Dominican Republic"
    },
    {
      "lat": 18.24284688443018,
      "lon": -70.32477585249325,
      "geoinfo": {
        "display_name": "Circunvalación de Baní, Boca Canasta, Baní, Peravia, 92001, Dominican Republic",
        "road": "Circunvalación de Baní",
        "house_number": null,
        "neighbourhood": null,
        "suburb": null,
        "city_district": null,
        "city": "Baní",
        "state": "Peravia",
        "postcode": "92001",
        "country": "Dominican Republic",
        "country_code": "do"
      },
      "address": "271, Circunvalación de Baní, Boca Canasta, Baní, Peravia, 92001, Dominican Republic"
    }
  ],
  "updated_at": "2025-10-19T04:33:26.847053+00:00",
  "_kind": "geo_samples"
}