{
  "country_code": "DO",
  "country": "Dominican Republic",
  "city": "Bayaguana",
  "geonameid": 3511626,
  "target_addresses": 3,
  "samples": [
    {
      "lat": 18.74927710225081,
      "lon": -69.68000835348406,
      "geoinfo": {
        "display_name": "Bayaguana, Monte Plata, 51801, Dominican Republic",
        "road": null,
        "house_number": null,
        "neighbourhood": null,
        "suburb": null,
        "city_district": null,
        "city": "Bayaguana",
        "state": "Monte Plata",
        "postcode": "51801",
        "country": "Dominican Republic",
        "country_code": "do"
      },
      "address": "Bayaguana, Monte Plata, Dominican Republic"
    },
    {
      "lat": 18.78729181214191,
      "lon": -69.62934171398243,
      "geoinfo": {
        "display_name": "La Madama, Bayaguana, Monte Plata, Dominican Republic",
        "road": null,
        "house_number": null,
        "neighbourhood": "La Madama",
        "suburb": null,
        "city_district": null,
        "city": "Bayaguana",
        "state": "Monte Plata",
        "postcode": null,
        "country": "Dominican Republic",
        "country_code": "do"
      },
      "address": "La Madama, Bayaguana, Monte Plata, Dominican Republic"
    },
    {
      "lat": 18.735284504867575,
      "lon": -69.64110994124789,
      "geoinfo": {
        "display_name": "Pilanconcito, Bayaguana, Monte Plata, Dominican Republic",
        "road": null,
        "house_number": null,
        "neighbourhood": "Pilanconcito",
        "suburb": null,
        "city_district": null,
        "city": "Bayaguana",
        "state": "Monte Plata",
        "postcode": null,
        "country": "Dominican Republic",
        "country_code": "do"
      },
      "address": "Pilanconcito, Bayaguana, Monte Plata, Dominican Republic"
    },
    {
      "lat": 18.72089331062906,
      "lon": -69.65146945794667,
      "geoinfo": {
        "display_name": "Bayaguana, Monte Plata, 51801, Dominican Republic",
        "road": null,
        "house_number": null,
        "neighbourhood": null,
        "suburb": null,
        "city_district": null,
        "city": "Bayaguana",
        "state": "Monte Plata",
        "postcode": "51801",
        "country": "Dominican Republic",
        "country_code": "do"
      },
      "address": "722, Bayaguana, Monte Plata, 51801, Dominican Republic"
    },
    {
      "lat": 18.756455017515286,
      "lon": -69.64184030912831,
      "geoinfo": {
        "display_name": "Calle San Juan, Centro del Pueblo, Bayaguana, Monte Plata, Dominican Republic",
        "road": "Calle San Juan",
        "house_number": null,
        "neighbourhood": "Centro del Pueblo",
        "suburb": null,
        "city_district": null,
        "city": "Bayaguana",
        "state": "Monte Plata",
        "postcode": null,
        "country": "Dominican Republic",
        "country_code": "do"
      },
      "address": "550, Calle San Juan, Centro del Pueblo, Bayaguana, 42513 Monte Plata, Dominican Republic"
    },
    {
      "lat": 18.719940822823286,
      "lon": -69.61017882766902,
      "geoinfo": {
        "display_name": "Juana Lorenza, Bayaguana, Monte Plata, Dominican Republic",
        "road": null,
        "house_number": null,
        "neighbourhood": null,
        "suburb": null,
        "city_district": null,
        "city": "Bayaguana",
        "state": "Monte Plata",
        "postcode": null,
        "country": "Dominican Republic",
        "country_code": "do"
      },
      "address": "285, Juana Lorenza, Bayaguana, 12961 Monte Plata, Dominican Republic"
    }
  ],
  "updated_at": "2025-10-19T03:45:51.180404+00:00",
  "_kind": "geo_samples"
}