{
  "country_code": "DO",
  "country": "Dominican Republic",
  "city": "Bella Vista",
  "geonameid": 3511550,
  "target_addresses": 11,
  "samples": [
    {
      "lat": 18.43360927136312,
      "lon": -69.96290413771605,
      "geoinfo": {
        "display_name": "San Juan, Miramar, Santo Domingo de Guzmán, Distrito Nacional, 03201, Dominican Republic",
        "road": "San Juan",
        "house_number": null,
        "neighbourhood": "Miramar",
        "suburb": null,
        "city_district": null,
        "city": null,
        "state": "Distrito Nacional",
        "postcode": "03201",
        "country": "Dominican Republic",
        "country_code": "do"
      },
      "address": "San Juan, Bella Vista, Distrito Nacional, Dominican Republic"
    },
    {
      "lat": 18.441160264365163,
      "lon": -69.95852493730777,
      "geoinfo": {
        "display_name": "Avenida Mirador Sur, Residencial Anacaona III, Santo Domingo, Santo Domingo de Guzmán, Distrito Nacional, 03201, Dominican Republic",
        "road": "Avenida Mirador Sur",
        "house_number": null,
        "neighbourhood": "Residencial Anacaona III",
        "suburb": null,
        "city_district": null,
        "city": "Santo Domingo",
        "state": "Distrito Nacional",
        "postcode": "03201",
        "country": "Dominican Republic",
        "country_code": "do"
      },
      "address": "Avenida Mirador Sur, Bella Vista, Distrito Nacional, Dominican Republic"
    },
    {
      "lat": 18.416095301911188,
      "lon": -69.92462738023612,
      "geoinfo": {
        "display_name": "Santo Domingo, Santo Domingo de Guzmán, Distrito Nacional, 03201, Dominican Republic",
        "road": null,
        "house_number": null,
        "neighbourhood": null,
        "suburb": null,
        "city_district": null,
        "city": "Santo Domingo",
        "state": "Distrito Nacional",
        "postcode": "03201",
        "country": "Dominican Republic",
        "country_code": "do"
      },
      "address": "Bella Vista, Distrito Nacional, Dominican Republic"
    },
    {
      "lat": 18.448009456300824,
      "lon": -69.94971468133166,
      "geoinfo": {
        "display_name": "Calle 1era, Residencial Anacaona III, Santo Domingo, Santo Domingo de Guzmán, Distrito Nacional, 03201, Dominican Republic",
        "road": "Calle 1era",
        "house_number": null,
        "neighbourhood": "Residencial Anacaona III",
        "suburb": null,
        "city_district": null,
        "city": "Santo Domingo",
        "state": "Distrito Nacional",
        "postcode": "03201",
        "country": "Dominican Republic",
        "country_code": "do"
      },
      "address": "Calle 1era, Residencial Anacaona III, Santo Domingo, Santo Domingo de Guzmán, Distrito Nacional, 03201, Dominican Republic"
    },
    {
      "lat": 18.42254599343822,
      "lon": -69.9409543951954,
      "geoinfo": {
        "display_name": "Jardines del Caribe, Santo Domingo, Santo Domingo de Guzmán, Distrito Nacional, 03201, Dominican Republic",
        "road": null,
        "house_number": null,
        "neighbourhood": "Jardines del Caribe",
        "suburb": null,
        "city_district": null,
        "city": "Santo Domingo",
        "state": "Distrito Nacional",
        "postcode": "03201",
        "country": "Dominican Republic",
        "country_code": "do"
      },
      "address": "243, Jardines del Caribe, Santo Domingo, Santo Domingo de Guzmán, Distrito Nacional, 03201, Dominican Republic"
    },
    {
      "lat": 18.491270828994004,
      "lon": -69.9392807945493,
      "geoinfo": {
        "display_name": "Calle Central, Los Caminos, Santo Domingo, Santo Domingo de Guzmán, Distrito Nacional, 03201, Dominican Republic",
        "road": "Calle Central",
        "house_number": null,
        "neighbourhood": "Los Caminos",
        "suburb": null,
        "city_district": null,
        "city": "Santo Domingo",
        "state": "Distrito Nacional",
        "postcode": "03201",
        "country": "Dominican Republic",
        "country_code": "do"
      },
      "address": "923, Calle Central, Los Caminos, Santo Domingo, Santo Domingo de Guzmán, Distrito Nacional, 03201, Dominican Republic"
    },
    {
      "lat": 18.4798426032251,
      "lon": -69.96271811388011,
      "geoinfo": {
        "display_name": "Avenida John F. Kennedy, Gala, Santo Domingo, Santo Domingo de Guzmán, Distrito Nacional, 03201, Dominican Republic",
        "road": "Avenida John F. Kennedy",
        "house_number": null,
        "neighbourhood": "Gala",
        "suburb": null,
        "city_district": null,
        "city": "Santo Domingo",
        "state": "Distrito Nacional",
        "postcode": "03201",
        "country": "Dominican Republic",
        "country_code": "do"
      },
      "address": "393, Avenida John F. Kennedy, Gala, Santo Domingo, Santo Domingo de Guzmán, Distrito Nacional, 03201, Dominican Republic"
    },
    {
      "lat": 18.416315939096012,
      "lon": -69.95694895953233,
      "geoinfo": {
        "display_name": "Costa Caribe, Santo Domingo, Santo Domingo de Guzmán, Distrito Nacional, 03201, Dominican Republic",
        "road": null,
        "house_number": null,
        "neighbourhood": "Costa Caribe",
        "suburb": null,
        "city_district": null,
        "city": "Santo Domingo",
        "state": "Distrito Nacional",
        "postcode": "03201",
        "country": "Dominican Republic",
        "country_code": "do"
      },
      "address": "418, Costa Caribe, Santo Domingo, Santo Domingo de Guzmán, Distrito Nacional, 03201, Dominican Republic"
    },
    {
      "lat": 18.44497314353491,
      "lon": -69.89939628134255,
      "geoinfo": {
        "display_name": "Ensanche Independencia, Santo Domingo, Santo Domingo de Guzmán, Distrito Nacional, 10204, Dominican Republic",
        "road": null,
        "house_number": null,
        "neighbourhood": "Ensanche Independencia",
        "suburb": null,
        "city_district": null,
        "city": "Santo Domingo",
        "state": "Distrito Nacional",
        "postcode": "10204",
        "country": "Dominican Republic",
        "country_code": "do"
      },
      "address": "588, Ensanche Independencia, Santo Domingo, Santo Domingo de Guzmán, Distrito Nacional, 10204, Dominican Republic"
    },
    {
      "lat": 18.488687310169077,
      "lon": -69.9606544100249,
      "geoinfo": {
        "display_name": "Avenida de los Próceres, Constelación, Santo Domingo, Santo Domingo de Guzmán, Distrito Nacional, 10604, Dominican Republic",
        "road": "Avenida de los Próceres",
        "house_number": null,
        "neighbourhood": "Constelación",
        "suburb": null,
        "city_district": null,
        "city": "Santo Domingo",
        "state": "Distrito Nacional",
        "postcode": "10604",
        "country": "Dominican Republic",
        "country_code": "do"
      },
      "address": "079, Avenida de los Próceres, Constelación, Santo Domingo, Santo Domingo de Guzmán, Distrito Nacional, 10604, Dominican Republic"
    },
    {
      "lat": 18.42618095626164,
      "lon": -69.92478264190346,
      "geoinfo": {
        "display_name": "Los Arrecifes, Santo Domingo, Santo Domingo de Guzmán, Distrito Nacional, 03201, Dominican Republic",
        "road": null,
        "house_number": null,
        "neighbourhood": "Los Arrecifes",
        "suburb": null,
        "city_district": null,
        "city": "Santo Domingo",
        "state": "Distrito Nacional",
        "postcode": "03201",
        "country": "Dominican Republic",
        "country_code": "do"
      },
      "address": "183, Los Arrecifes, Santo Domingo, Santo Domingo de Guzmán, Distrito Nacional, 03201, Dominican Republic"
    }
  ],
  "updated_at": "2025-10-19T04:11:20.428971+00:00",
  "_kind": "geo_samples"
}