{
  "country_code": "DO",
  "country": "Dominican Republic",
  "city": "Boca Chica",
  "geonameid": 3511336,
  "target_addresses": 3,
  "samples": [
    {
      "lat": 18.41963900445394,
      "lon": -69.63257149097215,
      "geoinfo": {
        "display_name": "G, Andrés, Boca Chica, Santo Domingo, 15700, Dominican Republic",
        "road": "G",
        "house_number": null,
        "neighbourhood": null,
        "suburb": null,
        "city_district": null,
        "city": "Andrés",
        "state": "Santo Domingo",
        "postcode": "15700",
        "country": "Dominican Republic",
        "country_code": "do"
      },
      "address": "G, Boca Chica, Santo Domingo, Dominican Republic"
    },
    {
      "lat": 18.417012279906174,
      "lon": -69.61165929959411,
      "geoinfo": {
        "display_name": "Boca Chica, Santo Domingo, 03002, Dominican Republic",
        "road": null,
        "house_number": null,
        "neighbourhood": null,
        "suburb": null,
        "city_district": null,
        "city": "Boca Chica",
        "state": "Santo Domingo",
        "postcode": "03002",
        "country": "Dominican Republic",
        "country_code": "do"
      },
      "address": "Boca Chica, Santo Domingo, Dominican Republic"
    },
    {
      "lat": 18.473598399946415,
      "lon": -69.61159102235585,
      "geoinfo": {
        "display_name": "Calle Los Rieles, Boca Chica, Santo Domingo, 03002, Dominican Republic",
        "road": "Calle Los Rieles",
        "house_number": null,
        "neighbourhood": null,
        "suburb": null,
        "city_district": null,
        "city": "Boca Chica",
        "state": "Santo Domingo",
        "postcode": "03002",
        "country": "Dominican Republic",
        "country_code": "do"
      },
      "address": "Calle Los Rieles, Boca Chica, Santo Domingo, Dominican Republic"
    },
    {
      "lat": 18.450021400690797,
      "lon": -69.57927464731445,
      "geoinfo": {
        "display_name": "Boca Chica, Santo Domingo, 03002, Dominican Republic",
        "road": null,
        "house_number": null,
        "neighbourhood": null,
        "suburb": null,
        "city_district": null,
        "city": "Boca Chica",
        "state": "Santo Domingo",
        "postcode": "03002",
        "country": "Dominican Republic",
        "country_code": "do"
      },
      "address": "093, Boca Chica, Santo Domingo, 03002, Dominican Republic"
    },
    {
      "lat": 18.466515593067754,
      "lon": -69.58985496479006,
      "geoinfo": {
        "display_name": "Academia de los Mets de Nueva York, Acceso a la Academia de los Metros de Nueva York, Boca Chica, Santo Domingo, 15700, Dominican Republic",
        "road": "Acceso a la Academia de los Metros de Nueva York",
        "house_number": null,
        "neighbourhood": null,
        "suburb": null,
        "city_district": null,
        "city": null,
        "state": "Santo Domingo",
        "postcode": "15700",
        "country": "Dominican Republic",
        "country_code": "do"
      },
      "address": "415, Acceso a la Academia de los Metros de Nueva York, Boca Chica, 15700 Santo Domingo, Dominican Republic"
    },
    {
      "lat": 18.464196545040796,
      "lon": -69.60569005125033,
      "geoinfo": {
        "display_name": "Boca Chica, Santo Domingo, 15700, Dominican Republic",
        "road": null,
        "house_number": null,
        "neighbourhood": null,
        "suburb": null,
        "city_district": null,
        "city": "Boca Chica",
        "state": "Santo Domingo",
        "postcode": "15700",
        "country": "Dominican Republic",
        "country_code": "do"
      },
      "address": "016, Boca Chica, Santo Domingo, 15700, Dominican Republic"
    }
  ],
  "updated_at": "2025-10-19T03:45:40.414845+00:00",
  "_kind": "geo_samples"
}