{
  "country_code": "DO",
  "country": "Dominican Republic",
  "city": "Ciudad Nueva",
  "geonameid": 3509578,
  "target_addresses": 3,
  "samples": [
    {
      "lat": 18.467779304647667,
      "lon": -69.88720523806369,
      "geoinfo": {
        "display_name": "La Trajedia De La Balandra Aurora, Paseo Marítimo Malecón de Santo Domingo, Ciudad Nueva, Zona Colonial, Santo Domingo de Guzmán, Distrito Nacional, 10210, Dominican Republic",
        "road": "Paseo Marítimo Malecón de Santo Domingo",
        "house_number": null,
        "neighbourhood": "Ciudad Nueva",
        "suburb": null,
        "city_district": null,
        "city": "Zona Colonial",
        "state": "Distrito Nacional",
        "postcode": "10210",
        "country": "Dominican Republic",
        "country_code": "do"
      },
      "address": "Paseo Marítimo Malecón de Santo Domingo, Ciudad Nueva, Distrito Nacional, Dominican Republic"
    },
    {
      "lat": 18.42556709384984,
      "lon": -69.9048410693492,
      "geoinfo": {
        "display_name": "Santo Domingo, Santo Domingo de Guzmán, Distrito Nacional, 03201, Dominican Republic",
        "road": null,
        "house_number": null,
        "neighbourhood": null,
        "suburb": null,
        "city_district": null,
        "city": "Santo Domingo",
        "state": "Distrito Nacional",
        "postcode": "03201",
        "country": "Dominican Republic",
        "country_code": "do"
      },
      "address": "Ciudad Nueva, Distrito Nacional, Dominican Republic"
    },
    {
      "lat": 18.455069220727676,
      "lon": -69.88401357728382,
      "geoinfo": {
        "display_name": "Ciudad Nueva, Santo Domingo, Santo Domingo de Guzmán, Distrito Nacional, 10208, Dominican Republic",
        "road": null,
        "house_number": null,
        "neighbourhood": "Ciudad Nueva",
        "suburb": null,
        "city_district": null,
        "city": "Santo Domingo",
        "state": "Distrito Nacional",
        "postcode": "10208",
        "country": "Dominican Republic",
        "country_code": "do"
      },
      "address": "Ciudad Nueva, Ciudad Nueva, Distrito Nacional, Dominican Republic"
    },
    {
      "lat": 18.443698918431664,
      "lon": -69.86092201285555,
      "geoinfo": {
        "display_name": "Zona Colonial, Santo Domingo de Guzmán, Distrito Nacional, 10210, Dominican Republic",
        "road": null,
        "house_number": null,
        "neighbourhood": null,
        "suburb": null,
        "city_district": null,
        "city": "Zona Colonial",
        "state": "Distrito Nacional",
        "postcode": "10210",
        "country": "Dominican Republic",
        "country_code": "do"
      },
      "address": "523, Zona Colonial, Santo Domingo de Guzmán, Distrito Nacional, 10210, Dominican Republic"
    },
    {
      "lat": 18.45365577700299,
      "lon": -69.88335695774107,
      "geoinfo": {
        "display_name": "Ciudad Nueva, Santo Domingo, Santo Domingo de Guzmán, Distrito Nacional, 10208, Dominican Republic",
        "road": null,
        "house_number": null,
        "neighbourhood": "Ciudad Nueva",
        "suburb": null,
        "city_district": null,
        "city": "Santo Domingo",
        "state": "Distrito Nacional",
        "postcode": "10208",
        "country": "Dominican Republic",
        "country_code": "do"
      },
      "address": "213, Ciudad Nueva, Santo Domingo, Santo Domingo de Guzmán, Distrito Nacional, 10208, Dominican Republic"
    },
    {
      "lat": 18.43898786612464,
      "lon": -69.92213557342589,
      "geoinfo": {
        "display_name": "Matahambre, El Manguito, Santo Domingo, Santo Domingo de Guzmán, Distrito Nacional, 03201, Dominican Republic",
        "road": null,
        "house_number": null,
        "neighbourhood": "Matahambre",
        "suburb": null,
        "city_district": null,
        "city": "Santo Domingo",
        "state": "Distrito Nacional",
        "postcode": "03201",
        "country": "Dominican Republic",
        "country_code": "do"
      },
      "address": "862, Matahambre, El Manguito, Santo Domingo, Santo Domingo de Guzmán, Distrito Nacional, 03201, Dominican Republic"
    }
  ],
  "updated_at": "2025-10-19T03:40:48.210378+00:00",
  "_kind": "geo_samples"
}