{
  "country_code": "DO",
  "country": "Dominican Republic",
  "city": "Constanza",
  "geonameid": 3509363,
  "target_addresses": 3,
  "samples": [
    {
      "lat": 18.897184045253557,
      "lon": -70.73249148894308,
      "geoinfo": {
        "display_name": "Carretera La Sabina - Constanza, Los Profesores, La Secadora, La Sabina, Constanza, La Vega, Dominican Republic",
        "road": "Carretera La Sabina - Constanza",
        "house_number": null,
        "neighbourhood": "Los Profesores",
        "suburb": null,
        "city_district": null,
        "city": "La Sabina",
        "state": "La Vega",
        "postcode": null,
        "country": "Dominican Republic",
        "country_code": "do"
      },
      "address": "Carretera La Sabina - Constanza, Constanza, La Vega, Dominican Republic"
    },
    {
      "lat": 18.874641724475413,
      "lon": -70.77122696130147,
      "geoinfo": {
        "display_name": "La Sabina, Constanza, La Vega, Dominican Republic",
        "road": null,
        "house_number": null,
        "neighbourhood": null,
        "suburb": null,
        "city_district": null,
        "city": "La Sabina",
        "state": "La Vega",
        "postcode": null,
        "country": "Dominican Republic",
        "country_code": "do"
      },
      "address": "Constanza, La Vega, Dominican Republic"
    },
    {
      "lat": 18.88609384787528,
      "lon": -70.72056841670015,
      "geoinfo": {
        "display_name": "Calle Vinicio Cosme, Colonia Japonesa, La Sabina, Constanza, La Vega, Dominican Republic",
        "road": "Calle Vinicio Cosme",
        "house_number": null,
        "neighbourhood": null,
        "suburb": null,
        "city_district": null,
        "city": "La Sabina",
        "state": "La Vega",
        "postcode": null,
        "country": "Dominican Republic",
        "country_code": "do"
      },
      "address": "Calle Vinicio Cosme, Constanza, La Vega, Dominican Republic"
    },
    {
      "lat": 18.91589261640392,
      "lon": -70.74443203429863,
      "geoinfo": {
        "display_name": "Los Envasadores, Constanza, La Vega, Dominican Republic",
        "road": null,
        "house_number": null,
        "neighbourhood": "Los Envasadores",
        "suburb": null,
        "city_district": null,
        "city": "Constanza",
        "state": "La Vega",
        "postcode": null,
        "country": "Dominican Republic",
        "country_code": "do"
      },
      "address": "282, Los Envasadores, Constanza, 87632 La Vega, Dominican Republic"
    },
    {
      "lat": 18.900147558009838,
      "lon": -70.70605784835229,
      "geoinfo": {
        "display_name": "Carretera Palero - La Sabina, Palero, La Sabina, Constanza, La Vega, Dominican Republic",
        "road": "Carretera Palero - La Sabina",
        "house_number": null,
        "neighbourhood": null,
        "suburb": null,
        "city_district": null,
        "city": "La Sabina",
        "state": "La Vega",
        "postcode": null,
        "country": "Dominican Republic",
        "country_code": "do"
      },
      "address": "279, Carretera Palero - La Sabina, Palero, La Sabina, Constanza, 35484 La Vega, Dominican Republic"
    },
    {
      "lat": 18.937227876884855,
      "lon": -70.71916158079755,
      "geoinfo": {
        "display_name": "Tireo al Medio, Constanza, La Vega, Dominican Republic",
        "road": null,
        "house_number": null,
        "neighbourhood": null,
        "suburb": null,
        "city_district": null,
        "city": "Tireo al Medio",
        "state": "La Vega",
        "postcode": null,
        "country": "Dominican Republic",
        "country_code": "do"
      },
      "address": "167, Tireo al Medio, Constanza, 42775 La Vega, Dominican Republic"
    }
  ],
  "updated_at": "2025-10-19T01:59:28.189092+00:00",
  "_kind": "geo_samples"
}