{
  "country_code": "DO",
  "country": "Dominican Republic",
  "city": "Cotuí",
  "geonameid": 3509207,
  "target_addresses": 3,
  "samples": [
    {
      "lat": 19.027786613118828,
      "lon": -70.18653017054771,
      "geoinfo": {
        "display_name": "Cotuí, Sánchez Ramírez, Dominican Republic",
        "road": null,
        "house_number": null,
        "neighbourhood": null,
        "suburb": null,
        "city_district": null,
        "city": "Cotuí",
        "state": "Sánchez Ramírez",
        "postcode": null,
        "country": "Dominican Republic",
        "country_code": "do"
      },
      "address": "Cotuí, Sánchez Ramírez, Dominican Republic"
    },
    {
      "lat": 19.046746809962247,
      "lon": -70.12065979120518,
      "geoinfo": {
        "display_name": "Cotuí - La Cueva, Urb. María Cristina, Cotuí, Sánchez Ramírez, 72702, Dominican Republic",
        "road": "Cotuí - La Cueva",
        "house_number": null,
        "neighbourhood": "Urb. María Cristina",
        "suburb": null,
        "city_district": null,
        "city": "Cotuí",
        "state": "Sánchez Ramírez",
        "postcode": "72702",
        "country": "Dominican Republic",
        "country_code": "do"
      },
      "address": "Cotuí - La Cueva, Cotuí, Sánchez Ramírez, Dominican Republic"
    },
    {
      "lat": 19.03330328503463,
      "lon": -70.14212140783788,
      "geoinfo": {
        "display_name": "Sabana en Medio, Cotuí, Sánchez Ramírez, 43002, Dominican Republic",
        "road": null,
        "house_number": null,
        "neighbourhood": "Sabana en Medio",
        "suburb": null,
        "city_district": null,
        "city": "Cotuí",
        "state": "Sánchez Ramírez",
        "postcode": "43002",
        "country": "Dominican Republic",
        "country_code": "do"
      },
      "address": "Sabana en Medio, Cotuí, Sánchez Ramírez, Dominican Republic"
    },
    {
      "lat": 19.077270120107485,
      "lon": -70.15228238575642,
      "geoinfo": {
        "display_name": "Cotuí - Villa Las Matas, La Yuca, Quitasueño, Cotuí, Sánchez Ramírez, 72702, Dominican Republic",
        "road": "Cotuí - Villa Las Matas",
        "house_number": null,
        "neighbourhood": "La Yuca",
        "suburb": null,
        "city_district": null,
        "city": "Cotuí",
        "state": "Sánchez Ramírez",
        "postcode": "72702",
        "country": "Dominican Republic",
        "country_code": "do"
      },
      "address": "115, Cotuí - Villa Las Matas, La Yuca, Quitasueño, Cotuí, Sánchez Ramírez, 72702, Dominican Republic"
    },
    {
      "lat": 19.08168384841462,
      "lon": -70.1651576680378,
      "geoinfo": {
        "display_name": "Villa La Mata, La Mata, Sánchez Ramírez, 43000, Dominican Republic",
        "road": null,
        "house_number": null,
        "neighbourhood": null,
        "suburb": null,
        "city_district": null,
        "city": "Villa La Mata",
        "state": "Sánchez Ramírez",
        "postcode": "43000",
        "country": "Dominican Republic",
        "country_code": "do"
      },
      "address": "212, Villa La Mata, La Mata, Sánchez Ramírez, 43000, Dominican Republic"
    },
    {
      "lat": 19.022845845969957,
      "lon": -70.14802154494159,
      "geoinfo": {
        "display_name": "Maimón - Cotuí, Sabana en Medio, Quitasueño, Cotuí, Sánchez Ramírez, 72702, Dominican Republic",
        "road": "Maimón - Cotuí",
        "house_number": null,
        "neighbourhood": "Sabana en Medio",
        "suburb": null,
        "city_district": null,
        "city": "Cotuí",
        "state": "Sánchez Ramírez",
        "postcode": "72702",
        "country": "Dominican Republic",
        "country_code": "do"
      },
      "address": "159, Maimón - Cotuí, Sabana en Medio, Quitasueño, Cotuí, Sánchez Ramírez, 72702, Dominican Republic"
    }
  ],
  "updated_at": "2025-10-19T04:33:09.639320+00:00",
  "_kind": "geo_samples"
}