{
  "country_code": "DO",
  "country": "Dominican Republic",
  "city": "Esperanza",
  "geonameid": 3505855,
  "target_addresses": 3,
  "samples": [
    {
      "lat": 19.583999696167474,
      "lon": -70.98701785710229,
      "geoinfo": {
        "display_name": "Calle Ramón Matías Mella, Norte (Rincón), Esperanza, Valverde, Dominican Republic",
        "road": "Calle Ramón Matías Mella",
        "house_number": null,
        "neighbourhood": "Norte (Rincón)",
        "suburb": null,
        "city_district": null,
        "city": "Esperanza",
        "state": "Valverde",
        "postcode": null,
        "country": "Dominican Republic",
        "country_code": "do"
      },
      "address": "Calle Ramón Matías Mella, Esperanza, Valverde, Dominican Republic"
    },
    {
      "lat": 19.553302197552803,
      "lon": -70.99414700863191,
      "geoinfo": {
        "display_name": "Amina, Mao, Valverde, Dominican Republic",
        "road": null,
        "house_number": null,
        "neighbourhood": null,
        "suburb": null,
        "city_district": null,
        "city": "Amina",
        "state": "Valverde",
        "postcode": null,
        "country": "Dominican Republic",
        "country_code": "do"
      },
      "address": "Esperanza, Valverde, Dominican Republic"
    },
    {
      "lat": 19.60819852361891,
      "lon": -70.98880639316762,
      "geoinfo": {
        "display_name": "El Edén, Esperanza, Valverde, Dominican Republic",
        "road": null,
        "house_number": null,
        "neighbourhood": "El Edén",
        "suburb": null,
        "city_district": null,
        "city": "Esperanza",
        "state": "Valverde",
        "postcode": null,
        "country": "Dominican Republic",
        "country_code": "do"
      },
      "address": "El Edén, Esperanza, Valverde, Dominican Republic"
    },
    {
      "lat": 19.593655091973663,
      "lon": -71.02925399128834,
      "geoinfo": {
        "display_name": "Boca de Mao, Esperanza, Valverde, Dominican Republic",
        "road": null,
        "house_number": null,
        "neighbourhood": null,
        "suburb": "Boca de Mao",
        "city_district": null,
        "city": "Esperanza",
        "state": "Valverde",
        "postcode": null,
        "country": "Dominican Republic",
        "country_code": "do"
      },
      "address": "899, Boca de Mao, Esperanza, 58069 Valverde, Dominican Republic"
    },
    {
      "lat": 19.57589933684643,
      "lon": -70.96547524130952,
      "geoinfo": {
        "display_name": "Salomé Ureña, Esperanza, Valverde, 63101, Dominican Republic",
        "road": null,
        "house_number": null,
        "neighbourhood": "Salomé Ureña",
        "suburb": null,
        "city_district": null,
        "city": "Esperanza",
        "state": "Valverde",
        "postcode": "63101",
        "country": "Dominican Republic",
        "country_code": "do"
      },
      "address": "488, Salomé Ureña, Esperanza, Valverde, 63101, Dominican Republic"
    },
    {
      "lat": 19.60322403709836,
      "lon": -71.01805207723297,
      "geoinfo": {
        "display_name": "Carretera Boca de Mao Abajo, 1º de Mayo, Esperanza, Valverde, Dominican Republic",
        "road": "Carretera Boca de Mao Abajo",
        "house_number": null,
        "neighbourhood": "1º de Mayo",
        "suburb": null,
        "city_district": null,
        "city": "Esperanza",
        "state": "Valverde",
        "postcode": null,
        "country": "Dominican Republic",
        "country_code": "do"
      },
      "address": "898, Carretera Boca de Mao Abajo, 1º de Mayo, Esperanza, Valverde, Dominican Republic"
    }
  ],
  "updated_at": "2025-10-19T03:53:55.172469+00:00",
  "_kind": "geo_samples"
}