{
  "country_code": "DO",
  "country": "Dominican Republic",
  "city": "Hato Mayor del Rey",
  "geonameid": 3504765,
  "target_addresses": 3,
  "samples": [
    {
      "lat": 18.79171877389766,
      "lon": -69.25816967455167,
      "geoinfo": {
        "display_name": "Hato Mayor del Rey, アト・マジョール州, Hato Mayor, Dominican Republic",
        "road": null,
        "house_number": null,
        "neighbourhood": null,
        "suburb": null,
        "city_district": null,
        "city": "Hato Mayor del Rey",
        "state": "Hato Mayor",
        "postcode": null,
        "country": "Dominican Republic",
        "country_code": "do"
      },
      "address": "Hato Mayor del Rey, Hato Mayor, Dominican Republic"
    },
    {
      "lat": 18.797074001691684,
      "lon": -69.25987896336787,
      "geoinfo": {
        "display_name": "Vilorio, Hato Mayor del Rey, アト・マジョール州, Hato Mayor, Dominican Republic",
        "road": null,
        "house_number": null,
        "neighbourhood": "Vilorio",
        "suburb": null,
        "city_district": null,
        "city": "Hato Mayor del Rey",
        "state": "Hato Mayor",
        "postcode": null,
        "country": "Dominican Republic",
        "country_code": "do"
      },
      "address": "Vilorio, Hato Mayor del Rey, Hato Mayor, Dominican Republic"
    },
    {
      "lat": 18.73789479570014,
      "lon": -69.25942091923353,
      "geoinfo": {
        "display_name": "Camino Batey Peña, Green City, Hato Mayor del Rey, アト・マジョール州, Hato Mayor, Dominican Republic",
        "road": "Camino Batey Peña",
        "house_number": null,
        "neighbourhood": "Green City",
        "suburb": null,
        "city_district": null,
        "city": "Hato Mayor del Rey",
        "state": "Hato Mayor",
        "postcode": null,
        "country": "Dominican Republic",
        "country_code": "do"
      },
      "address": "Camino Batey Peña, Hato Mayor del Rey, Hato Mayor, Dominican Republic"
    },
    {
      "lat": 18.736520733279487,
      "lon": -69.24775754562198,
      "geoinfo": {
        "display_name": "San Pedro de Macorís - Hato Mayor, La Plata, Guayabo Dulce, Hato Mayor del Rey, アト・マジョール州, Hato Mayor, 50902, Dominican Republic",
        "road": "San Pedro de Macorís - Hato Mayor",
        "house_number": null,
        "neighbourhood": "La Plata",
        "suburb": null,
        "city_district": null,
        "city": "Hato Mayor del Rey",
        "state": "Hato Mayor",
        "postcode": "50902",
        "country": "Dominican Republic",
        "country_code": "do"
      },
      "address": "748, San Pedro de Macorís - Hato Mayor, La Plata, Guayabo Dulce, Hato Mayor del Rey, アト・マジョール州, Hato Mayor, 50902, Dominican Republic"
    },
    {
      "lat": 18.787875851730977,
      "lon": -69.26373091751853,
      "geoinfo": {
        "display_name": "Los Multis, Hato Mayor del Rey, アト・マジョール州, Hato Mayor, Dominican Republic",
        "road": null,
        "house_number": null,
        "neighbourhood": "Los Multis",
        "suburb": null,
        "city_district": null,
        "city": "Hato Mayor del Rey",
        "state": "Hato Mayor",
        "postcode": null,
        "country": "Dominican Republic",
        "country_code": "do"
      },
      "address": "308, Los Multis, Hato Mayor del Rey, アト・マジョール州, 98896 Hato Mayor, Dominican Republic"
    },
    {
      "lat": 18.754021111387537,
      "lon": -69.24482734513447,
      "geoinfo": {
        "display_name": "Calle Josapa, La Plata, Hato Mayor del Rey, アト・マジョール州, Hato Mayor, Dominican Republic",
        "road": "Calle Josapa",
        "house_number": null,
        "neighbourhood": "La Plata",
        "suburb": null,
        "city_district": null,
        "city": "Hato Mayor del Rey",
        "state": "Hato Mayor",
        "postcode": null,
        "country": "Dominican Republic",
        "country_code": "do"
      },
      "address": "340, Calle Josapa, La Plata, Hato Mayor del Rey, アト・マジョール州, 13150 Hato Mayor, Dominican Republic"
    }
  ],
  "updated_at": "2025-10-19T03:53:31.899083+00:00",
  "_kind": "geo_samples"
}