{
  "country_code": "DO",
  "country": "Dominican Republic",
  "city": "La Vega",
  "geonameid": 3509382,
  "target_addresses": 3,
  "samples": [
    {
      "lat": 19.224632041909906,
      "lon": -70.55560281115301,
      "geoinfo": {
        "display_name": "Nibaje, La Vega, 48000, Dominican Republic",
        "road": null,
        "house_number": null,
        "neighbourhood": "Nibaje",
        "suburb": null,
        "city_district": null,
        "city": "La Vega",
        "state": "La Vega",
        "postcode": "48000",
        "country": "Dominican Republic",
        "country_code": "do"
      },
      "address": "431, Nibaje, La Vega, 48000, Dominican Republic"
    },
    {
      "lat": 19.24226009698743,
      "lon": -70.5256449977459,
      "geoinfo": {
        "display_name": "Galaxy Aparta Hotel, Autopista Duarte, Soto, Cruce Los Soto, La Vega, 48000, Dominican Republic",
        "road": "Autopista Duarte",
        "house_number": null,
        "neighbourhood": "Soto",
        "suburb": null,
        "city_district": null,
        "city": "La Vega",
        "state": "La Vega",
        "postcode": "48000",
        "country": "Dominican Republic",
        "country_code": "do"
      },
      "address": "080, Autopista Duarte, La Vega, 48000 La Vega, Dominican Republic"
    },
    {
      "lat": 19.209611575682853,
      "lon": -70.54010457417083,
      "geoinfo": {
        "display_name": "Juan Pablo Duarte, Zona 3, La Vega, 48000, Dominican Republic",
        "road": null,
        "house_number": null,
        "neighbourhood": null,
        "suburb": "Zona 3",
        "city_district": null,
        "city": "La Vega",
        "state": "La Vega",
        "postcode": "48000",
        "country": "Dominican Republic",
        "country_code": "do"
      },
      "address": "Juan Pablo Duarte, Zona 3, La Vega, 48000, Dominican Republic"
    }
  ],
  "updated_at": "2025-10-19T03:42:37.750339+00:00",
  "_kind": "geo_samples"
}