{
  "country_code": "DO",
  "country": "Dominican Republic",
  "city": "Neiba",
  "geonameid": 3495857,
  "target_addresses": 3,
  "samples": [
    {
      "lat": 18.514230686082797,
      "lon": -71.39984529116418,
      "geoinfo": {
        "display_name": "Galván, Baoruco, Dominican Republic",
        "road": null,
        "house_number": null,
        "neighbourhood": null,
        "suburb": null,
        "city_district": null,
        "city": "Galván",
        "state": "Baoruco",
        "postcode": null,
        "country": "Dominican Republic",
        "country_code": "do"
      },
      "address": "Neiba, Baoruco, Dominican Republic"
    },
    {
      "lat": 18.492057434684263,
      "lon": -71.38755099092975,
      "geoinfo": {
        "display_name": "Neiba - Galván, Los Multis de Galván, El Mamón, Neiba, Galván, Baoruco, 82000, Dominican Republic",
        "road": "Neiba - Galván",
        "house_number": null,
        "neighbourhood": "Los Multis de Galván",
        "suburb": null,
        "city_district": null,
        "city": "Neiba",
        "state": "Baoruco",
        "postcode": "82000",
        "country": "Dominican Republic",
        "country_code": "do"
      },
      "address": "Neiba - Galván, Neiba, Baoruco, Dominican Republic"
    },
    {
      "lat": 18.48392232211111,
      "lon": -71.45322542149007,
      "geoinfo": {
        "display_name": "Villa Jaragua - Neiba, El Estero, Neiba, Baoruco, 82001, Dominican Republic",
        "road": "Villa Jaragua - Neiba",
        "house_number": null,
        "neighbourhood": null,
        "suburb": null,
        "city_district": null,
        "city": "Neiba",
        "state": "Baoruco",
        "postcode": "82001",
        "country": "Dominican Republic",
        "country_code": "do"
      },
      "address": "Villa Jaragua - Neiba, Neiba, Baoruco, Dominican Republic"
    },
    {
      "lat": 18.462952451119328,
      "lon": -71.45605256762893,
      "geoinfo": {
        "display_name": "El Estero, Neiba, Baoruco, 82001, Dominican Republic",
        "road": null,
        "house_number": null,
        "neighbourhood": null,
        "suburb": null,
        "city_district": null,
        "city": "Neiba",
        "state": "Baoruco",
        "postcode": "82001",
        "country": "Dominican Republic",
        "country_code": "do"
      },
      "address": "996, El Estero, Neiba, Baoruco, 82001, Dominican Republic"
    },
    {
      "lat": 18.49658481147262,
      "lon": -71.38140658263765,
      "geoinfo": {
        "display_name": "Neiba - Galván, Los Multis de Galván, El Mamón, Neiba, Galván, Baoruco, 82000, Dominican Republic",
        "road": "Neiba - Galván",
        "house_number": null,
        "neighbourhood": "Los Multis de Galván",
        "suburb": null,
        "city_district": null,
        "city": "Neiba",
        "state": "Baoruco",
        "postcode": "82000",
        "country": "Dominican Republic",
        "country_code": "do"
      },
      "address": "168, Neiba - Galván, Los Multis de Galván, El Mamón, Neiba, Galván, Baoruco, 82000, Dominican Republic"
    },
    {
      "lat": 18.47549449260238,
      "lon": -71.42678904116816,
      "geoinfo": {
        "display_name": "Cachón Seco, Neiba, Baoruco, 82001, Dominican Republic",
        "road": null,
        "house_number": null,
        "neighbourhood": "Cachón Seco",
        "suburb": null,
        "city_district": null,
        "city": "Neiba",
        "state": "Baoruco",
        "postcode": "82001",
        "country": "Dominican Republic",
        "country_code": "do"
      },
      "address": "126, Cachón Seco, Neiba, Baoruco, 82001, Dominican Republic"
    }
  ],
  "updated_at": "2025-10-19T04:32:31.871518+00:00",
  "_kind": "geo_samples"
}