{
  "country_code": "DO",
  "country": "Dominican Republic",
  "city": "Puerto Plata",
  "geonameid": 3493175,
  "target_addresses": 3,
  "samples": [
    {
      "lat": 19.753377227906665,
      "lon": -70.70223875812192,
      "geoinfo": {
        "display_name": "Puerto Plata, 32106, Dominican Republic",
        "road": null,
        "house_number": null,
        "neighbourhood": null,
        "suburb": null,
        "city_district": null,
        "city": "Puerto Plata",
        "state": "Puerto Plata",
        "postcode": "32106",
        "country": "Dominican Republic",
        "country_code": "do"
      },
      "address": "Puerto Plata, Puerto Plata, Dominican Republic"
    },
    {
      "lat": 19.808333250032245,
      "lon": -70.71993149812606,
      "geoinfo": {
        "display_name": "Calle José Núñez de Cáceres, Barrio Los Rieles, Costámbar, Puerto Plata, Dominican Republic",
        "road": "Calle José Núñez de Cáceres",
        "house_number": null,
        "neighbourhood": "Barrio Los Rieles",
        "suburb": "Costámbar",
        "city_district": null,
        "city": "Puerto Plata",
        "state": "Puerto Plata",
        "postcode": null,
        "country": "Dominican Republic",
        "country_code": "do"
      },
      "address": "Calle José Núñez de Cáceres, Puerto Plata, Puerto Plata, Dominican Republic"
    },
    {
      "lat": 19.79449912822075,
      "lon": -70.70829609999402,
      "geoinfo": {
        "display_name": "Barrio Haití, Puerto Plata, Dominican Republic",
        "road": null,
        "house_number": null,
        "neighbourhood": "Barrio Haití",
        "suburb": null,
        "city_district": null,
        "city": "Puerto Plata",
        "state": "Puerto Plata",
        "postcode": null,
        "country": "Dominican Republic",
        "country_code": "do"
      },
      "address": "Barrio Haití, Puerto Plata, Puerto Plata, Dominican Republic"
    },
    {
      "lat": 19.77287749812635,
      "lon": -70.66268385871487,
      "geoinfo": {
        "display_name": "Calle 6, Urbanización Atlántica, Puerto Plata, Dominican Republic",
        "road": "Calle 6",
        "house_number": null,
        "neighbourhood": "Urbanización Atlántica",
        "suburb": null,
        "city_district": null,
        "city": "Puerto Plata",
        "state": "Puerto Plata",
        "postcode": null,
        "country": "Dominican Republic",
        "country_code": "do"
      },
      "address": "Calle 6, Urbanización Atlántica, 74119 Puerto Plata, Dominican Republic"
    },
    {
      "lat": 19.788625402874896,
      "lon": -70.70801164461847,
      "geoinfo": {
        "display_name": "Calle 2ª, Barrio Altos de Chavón, Puerto Plata, Dominican Republic",
        "road": "Calle 2ª",
        "house_number": null,
        "neighbourhood": "Barrio Altos de Chavón",
        "suburb": null,
        "city_district": null,
        "city": "Puerto Plata",
        "state": "Puerto Plata",
        "postcode": null,
        "country": "Dominican Republic",
        "country_code": "do"
      },
      "address": "Calle 2ª, Barrio Altos de Chavón, 00064 Puerto Plata, Dominican Republic"
    },
    {
      "lat": 19.821860440666196,
      "lon": -70.69635856856206,
      "geoinfo": {
        "display_name": "Costámbar, Puerto Plata, 32106, Dominican Republic",
        "road": null,
        "house_number": null,
        "neighbourhood": null,
        "suburb": "Costámbar",
        "city_district": null,
        "city": "Puerto Plata",
        "state": "Puerto Plata",
        "postcode": "32106",
        "country": "Dominican Republic",
        "country_code": "do"
      },
      "address": "430, Costámbar, Puerto Plata, 32106, Dominican Republic"
    }
  ],
  "updated_at": "2025-10-19T03:53:21.165054+00:00",
  "_kind": "geo_samples"
}