{
  "country_code": "DO",
  "country": "Dominican Republic",
  "city": "Salcedo",
  "geonameid": 3493283,
  "target_addresses": 3,
  "samples": [
    {
      "lat": 19.40767585876446,
      "lon": -70.39588413486031,
      "geoinfo": {
        "display_name": "Salcedo, Hermanas Mirabal, Dominican Republic",
        "road": null,
        "house_number": null,
        "neighbourhood": null,
        "suburb": null,
        "city_district": null,
        "city": "Salcedo",
        "state": "Hermanas Mirabal",
        "postcode": null,
        "country": "Dominican Republic",
        "country_code": "do"
      },
      "address": "Salcedo, Hermanas Mirabal, Dominican Republic"
    },
    {
      "lat": 19.341070658679822,
      "lon": -70.4341874553865,
      "geoinfo": {
        "display_name": "Carretera Palmar, Salcedo, Hermanas Mirabal, Dominican Republic",
        "road": "Carretera Palmar",
        "house_number": null,
        "neighbourhood": null,
        "suburb": null,
        "city_district": null,
        "city": "Salcedo",
        "state": "Hermanas Mirabal",
        "postcode": null,
        "country": "Dominican Republic",
        "country_code": "do"
      },
      "address": "Carretera Palmar, Salcedo, Hermanas Mirabal, Dominican Republic"
    },
    {
      "lat": 19.39591982999088,
      "lon": -70.40184839350452,
      "geoinfo": {
        "display_name": "Camino Jayabo, Jayabo, Salcedo, Hermanas Mirabal, Dominican Republic",
        "road": "Camino Jayabo",
        "house_number": null,
        "neighbourhood": null,
        "suburb": null,
        "city_district": null,
        "city": "Salcedo",
        "state": "Hermanas Mirabal",
        "postcode": null,
        "country": "Dominican Republic",
        "country_code": "do"
      },
      "address": "Camino Jayabo, Salcedo, Hermanas Mirabal, Dominican Republic"
    },
    {
      "lat": 19.38936904627477,
      "lon": -70.46092534523939,
      "geoinfo": {
        "display_name": "Moca, Espaillat, 56000, Dominican Republic",
        "road": null,
        "house_number": null,
        "neighbourhood": null,
        "suburb": null,
        "city_district": null,
        "city": "Moca",
        "state": "Espaillat",
        "postcode": "56000",
        "country": "Dominican Republic",
        "country_code": "do"
      },
      "address": "252, Moca, Espaillat, 56000, Dominican Republic"
    },
    {
      "lat": 19.35744967221353,
      "lon": -70.43105630537431,
      "geoinfo": {
        "display_name": "Carretera Palmar, Salcedo, Hermanas Mirabal, Dominican Republic",
        "road": "Carretera Palmar",
        "house_number": null,
        "neighbourhood": null,
        "suburb": null,
        "city_district": null,
        "city": "Salcedo",
        "state": "Hermanas Mirabal",
        "postcode": null,
        "country": "Dominican Republic",
        "country_code": "do"
      },
      "address": "331, Carretera Palmar, Salcedo, 19224 Hermanas Mirabal, Dominican Republic"
    },
    {
      "lat": 19.34414495558068,
      "lon": -70.43960445057425,
      "geoinfo": {
        "display_name": "Calle El Badén, Salcedo, Hermanas Mirabal, Dominican Republic",
        "road": "Calle El Badén",
        "house_number": null,
        "neighbourhood": null,
        "suburb": null,
        "city_district": null,
        "city": "Salcedo",
        "state": "Hermanas Mirabal",
        "postcode": null,
        "country": "Dominican Republic",
        "country_code": "do"
      },
      "address": "626, Calle El Badén, Salcedo, 57694 Hermanas Mirabal, Dominican Republic"
    }
  ],
  "updated_at": "2025-10-19T01:58:59.450706+00:00",
  "_kind": "geo_samples"
}