{
  "country_code": "DO",
  "country": "Dominican Republic",
  "city": "San Fernando de Monte Cristi",
  "geonameid": 3493174,
  "target_addresses": 3,
  "samples": [
    {
      "lat": 19.88044726316427,
      "lon": -71.61572125798808,
      "geoinfo": {
        "display_name": "San Fernando de Monte Cristi, Monte Cristi, 61704, Dominican Republic",
        "road": null,
        "house_number": null,
        "neighbourhood": null,
        "suburb": null,
        "city_district": null,
        "city": "San Fernando de Monte Cristi",
        "state": "Monte Cristi",
        "postcode": "61704",
        "country": "Dominican Republic",
        "country_code": "do"
      },
      "address": "San Fernando de Monte Cristi, Monte Cristi, Dominican Republic"
    },
    {
      "lat": 19.831192812366815,
      "lon": -71.6247471591959,
      "geoinfo": {
        "display_name": "Carretera Duarte, El Baitoal, San Fernando de Monte Cristi, Monte Cristi, 61704, Dominican Republic",
        "road": "Carretera Duarte",
        "house_number": null,
        "neighbourhood": null,
        "suburb": null,
        "city_district": null,
        "city": "San Fernando de Monte Cristi",
        "state": "Monte Cristi",
        "postcode": "61704",
        "country": "Dominican Republic",
        "country_code": "do"
      },
      "address": "Carretera Duarte, San Fernando de Monte Cristi, Monte Cristi, Dominican Republic"
    },
    {
      "lat": 19.853303958042645,
      "lon": -71.64858749910373,
      "geoinfo": {
        "display_name": "Calle Francsico Rodríguez, Cristo Rey, San Fernando de Monte Cristi, Monte Cristi, 62000, Dominican Republic",
        "road": "Calle Francsico Rodríguez",
        "house_number": null,
        "neighbourhood": null,
        "suburb": null,
        "city_district": null,
        "city": "San Fernando de Monte Cristi",
        "state": "Monte Cristi",
        "postcode": "62000",
        "country": "Dominican Republic",
        "country_code": "do"
      },
      "address": "Calle Francsico Rodríguez, San Fernando de Monte Cristi, Monte Cristi, Dominican Republic"
    },
    {
      "lat": 19.878257743304886,
      "lon": -71.64546384661149,
      "geoinfo": {
        "display_name": "La Aviación, San Fernando de Monte Cristi, Monte Cristi, 62000, Dominican Republic",
        "road": null,
        "house_number": null,
        "neighbourhood": null,
        "suburb": null,
        "city_district": null,
        "city": "San Fernando de Monte Cristi",
        "state": "Monte Cristi",
        "postcode": "62000",
        "country": "Dominican Republic",
        "country_code": "do"
      },
      "address": "205, La Aviación, San Fernando de Monte Cristi, Monte Cristi, 62000, Dominican Republic"
    },
    {
      "lat": 19.84424628058174,
      "lon": -71.61810253640503,
      "geoinfo": {
        "display_name": "San Fernando, San Fernando de Monte Cristi, Monte Cristi, 62000, Dominican Republic",
        "road": null,
        "house_number": null,
        "neighbourhood": null,
        "suburb": null,
        "city_district": null,
        "city": "San Fernando de Monte Cristi",
        "state": "Monte Cristi",
        "postcode": "62000",
        "country": "Dominican Republic",
        "country_code": "do"
      },
      "address": "554, San Fernando, San Fernando de Monte Cristi, Monte Cristi, 62000, Dominican Republic"
    },
    {
      "lat": 19.876026857311526,
      "lon": -71.68068665174216,
      "geoinfo": {
        "display_name": "San Fernando de Monte Cristi, Monte Cristi, 61704, Dominican Republic",
        "road": null,
        "house_number": null,
        "neighbourhood": null,
        "suburb": null,
        "city_district": null,
        "city": "San Fernando de Monte Cristi",
        "state": "Monte Cristi",
        "postcode": "61704",
        "country": "Dominican Republic",
        "country_code": "do"
      },
      "address": "856, San Fernando de Monte Cristi, Monte Cristi, 61704, Dominican Republic"
    }
  ],
  "updated_at": "2025-10-19T02:18:27.745060+00:00",
  "_kind": "geo_samples"
}