{
  "country_code": "DO",
  "country": "Dominican Republic",
  "city": "San Francisco de Macorís",
  "geonameid": 3493146,
  "target_addresses": 3,
  "samples": [
    {
      "lat": 19.325769207518135,
      "lon": -70.24814900688814,
      "geoinfo": {
        "display_name": "Las Guazumas, San Francisco de Macorís, Duarte, 80506, Dominican Republic",
        "road": null,
        "house_number": null,
        "neighbourhood": null,
        "suburb": "Las Guazumas",
        "city_district": null,
        "city": "San Francisco de Macorís",
        "state": "Duarte",
        "postcode": "80506",
        "country": "Dominican Republic",
        "country_code": "do"
      },
      "address": "Las Guazumas, San Francisco de Macorís, Duarte, Dominican Republic"
    },
    {
      "lat": 19.292020546181767,
      "lon": -70.23921147868565,
      "geoinfo": {
        "display_name": "Calle 2, Jobo Bonito, Santa Lucía, San Francisco de Macorís, Duarte, 80506, Dominican Republic",
        "road": "Calle 2",
        "house_number": null,
        "neighbourhood": "Jobo Bonito",
        "suburb": null,
        "city_district": null,
        "city": "San Francisco de Macorís",
        "state": "Duarte",
        "postcode": "80506",
        "country": "Dominican Republic",
        "country_code": "do"
      },
      "address": "Calle 2, San Francisco de Macorís, Duarte, Dominican Republic"
    },
    {
      "lat": 19.27925349328076,
      "lon": -70.2215517302387,
      "geoinfo": {
        "display_name": "San Francisco de Macorís, Duarte, 80506, Dominican Republic",
        "road": null,
        "house_number": null,
        "neighbourhood": null,
        "suburb": null,
        "city_district": null,
        "city": "San Francisco de Macorís",
        "state": "Duarte",
        "postcode": "80506",
        "country": "Dominican Republic",
        "country_code": "do"
      },
      "address": "San Francisco de Macorís, Duarte, Dominican Republic"
    },
    {
      "lat": 19.29479820533283,
      "lon": -70.26955157157899,
      "geoinfo": {
        "display_name": "Calle Los Almendros, Barrio Azul, San Francisco de Macorís, Duarte, 80506, Dominican Republic",
        "road": "Calle Los Almendros",
        "house_number": null,
        "neighbourhood": "Barrio Azul",
        "suburb": null,
        "city_district": null,
        "city": "San Francisco de Macorís",
        "state": "Duarte",
        "postcode": "80506",
        "country": "Dominican Republic",
        "country_code": "do"
      },
      "address": "643, Calle Los Almendros, Barrio Azul, San Francisco de Macorís, Duarte, 80506, Dominican Republic"
    },
    {
      "lat": 19.290986266070668,
      "lon": -70.29239565669201,
      "geoinfo": {
        "display_name": "San Francisco de Macorís, Duarte, 80506, Dominican Republic",
        "road": null,
        "house_number": null,
        "neighbourhood": null,
        "suburb": null,
        "city_district": null,
        "city": "San Francisco de Macorís",
        "state": "Duarte",
        "postcode": "80506",
        "country": "Dominican Republic",
        "country_code": "do"
      },
      "address": "656, San Francisco de Macorís, Duarte, 80506, Dominican Republic"
    },
    {
      "lat": 19.298454282980952,
      "lon": -70.21772568638528,
      "geoinfo": {
        "display_name": "Camino Mata Larga, El Limón, San Francisco de Macorís, Duarte, 80506, Dominican Republic",
        "road": "Camino Mata Larga",
        "house_number": null,
        "neighbourhood": null,
        "suburb": null,
        "city_district": null,
        "city": "San Francisco de Macorís",
        "state": "Duarte",
        "postcode": "80506",
        "country": "Dominican Republic",
        "country_code": "do"
      },
      "address": "097, Camino Mata Larga, El Limón, San Francisco de Macorís, Duarte, 80506, Dominican Republic"
    }
  ],
  "updated_at": "2025-10-19T03:45:27.536382+00:00",
  "_kind": "geo_samples"
}