{
  "country_code": "DO",
  "country": "Dominican Republic",
  "city": "San Cristóbal",
  "geonameid": 3511540,
  "target_addresses": 11,
  "samples": [
    {
      "lat": 18.41977747394056,
      "lon": -70.06961751004407,
      "geoinfo": {
        "display_name": "Hatillo, San Cristóbal, 92305, Dominican Republic",
        "road": null,
        "house_number": null,
        "neighbourhood": null,
        "suburb": null,
        "city_district": null,
        "city": "San Cristóbal",
        "state": "San Cristóbal",
        "postcode": "92305",
        "country": "Dominican Republic",
        "country_code": "do"
      },
      "address": "San Cristóbal, San Cristóbal, Dominican Republic"
    },
    {
      "lat": 18.419539724590848,
      "lon": -70.1101626962127,
      "geoinfo": {
        "display_name": "Avenida Libertad, Jeringa, Madre Vieja Norte, Hatillo, San Cristóbal, 92305, Dominican Republic",
        "road": "Avenida Libertad",
        "house_number": null,
        "neighbourhood": "Jeringa",
        "suburb": null,
        "city_district": null,
        "city": "San Cristóbal",
        "state": "San Cristóbal",
        "postcode": "92305",
        "country": "Dominican Republic",
        "country_code": "do"
      },
      "address": "Avenida Libertad, San Cristóbal, San Cristóbal, Dominican Republic"
    },
    {
      "lat": 18.431568195366598,
      "lon": -70.06821257485731,
      "geoinfo": {
        "display_name": "Autopista 6 de Noviembre, San Cristóbal, Bajos de Haina, San Cristóbal, 92301, Dominican Republic",
        "road": "Autopista 6 de Noviembre",
        "house_number": null,
        "neighbourhood": null,
        "suburb": null,
        "city_district": null,
        "city": "San Cristóbal",
        "state": "San Cristóbal",
        "postcode": "92301",
        "country": "Dominican Republic",
        "country_code": "do"
      },
      "address": "Autopista 6 de Noviembre, San Cristóbal, San Cristóbal, Dominican Republic"
    },
    {
      "lat": 18.418040655597046,
      "lon": -70.07999320125039,
      "geoinfo": {
        "display_name": "Antigua Carretera Francisco del Rosario Sánchez, Sabana Hatillo, San Cristóbal, 92305, Dominican Republic",
        "road": "Antigua Carretera Francisco del Rosario Sánchez",
        "house_number": null,
        "neighbourhood": null,
        "suburb": null,
        "city_district": null,
        "city": "San Cristóbal",
        "state": "San Cristóbal",
        "postcode": "92305",
        "country": "Dominican Republic",
        "country_code": "do"
      },
      "address": "960, Antigua Carretera Francisco del Rosario Sánchez, Sabana Hatillo, San Cristóbal, 92305, Dominican Republic"
    },
    {
      "lat": 18.388023586368842,
      "lon": -70.07195077834892,
      "geoinfo": {
        "display_name": "Boca de Nigua, San Gregorio de Nigua, San Cristóbal, 92306, Dominican Republic",
        "road": null,
        "house_number": null,
        "neighbourhood": null,
        "suburb": null,
        "city_district": null,
        "city": "San Gregorio de Nigua",
        "state": "San Cristóbal",
        "postcode": "92306",
        "country": "Dominican Republic",
        "country_code": "do"
      },
      "address": "091, Boca de Nigua, San Gregorio de Nigua, San Cristóbal, 92306, Dominican Republic"
    },
    {
      "lat": 18.455487946993955,
      "lon": -70.08232760291659,
      "geoinfo": {
        "display_name": "Hatillo, San Cristóbal, 92305, Dominican Republic",
        "road": null,
        "house_number": null,
        "neighbourhood": null,
        "suburb": null,
        "city_district": null,
        "city": "San Cristóbal",
        "state": "San Cristóbal",
        "postcode": "92305",
        "country": "Dominican Republic",
        "country_code": "do"
      },
      "address": "861, Hatillo, San Cristóbal, 92305, Dominican Republic"
    },
    {
      "lat": 18.44646158642166,
      "lon": -70.13898064451368,
      "geoinfo": {
        "display_name": "Camino Villegas 2, San Cristóbal, 92305, Dominican Republic",
        "road": "Camino Villegas 2",
        "house_number": null,
        "neighbourhood": null,
        "suburb": null,
        "city_district": null,
        "city": "San Cristóbal",
        "state": "San Cristóbal",
        "postcode": "92305",
        "country": "Dominican Republic",
        "country_code": "do"
      },
      "address": "Camino Villegas 2, San Cristóbal, 92305, Dominican Republic"
    },
    {
      "lat": 18.3970216466508,
      "lon": -70.13315273557618,
      "geoinfo": {
        "display_name": "Brisas de Edén, San Cristóbal, 92305, Dominican Republic",
        "road": null,
        "house_number": null,
        "neighbourhood": "Brisas de Edén",
        "suburb": null,
        "city_district": null,
        "city": "San Cristóbal",
        "state": "San Cristóbal",
        "postcode": "92305",
        "country": "Dominican Republic",
        "country_code": "do"
      },
      "address": "681, Brisas de Edén, San Cristóbal, 92305, Dominican Republic"
    },
    {
      "lat": 18.379293891866286,
      "lon": -70.10681029735622,
      "geoinfo": {
        "display_name": "Niza, San Cristóbal, 92305, Dominican Republic",
        "road": null,
        "house_number": null,
        "neighbourhood": null,
        "suburb": null,
        "city_district": null,
        "city": "San Cristóbal",
        "state": "San Cristóbal",
        "postcode": "92305",
        "country": "Dominican Republic",
        "country_code": "do"
      },
      "address": "061, Niza, San Cristóbal, 92305, Dominican Republic"
    },
    {
      "lat": 18.402367435797295,
      "lon": -70.139480206619,
      "geoinfo": {
        "display_name": "Autopista 6 de Noviembre, San Cristóbal, 92305, Dominican Republic",
        "road": "Autopista 6 de Noviembre",
        "house_number": null,
        "neighbourhood": null,
        "suburb": null,
        "city_district": null,
        "city": "San Cristóbal",
        "state": "San Cristóbal",
        "postcode": "92305",
        "country": "Dominican Republic",
        "country_code": "do"
      },
      "address": "Autopista 6 de Noviembre, San Cristóbal, 92305, Dominican Republic"
    },
    {
      "lat": 18.449078180551354,
      "lon": -70.10238522255928,
      "geoinfo": {
        "display_name": "Camino Consuelo (Camino El Pollito), La  Cruz, Hatillo, San Cristóbal, 92305, Dominican Republic",
        "road": "Camino Consuelo (Camino El Pollito)",
        "house_number": null,
        "neighbourhood": null,
        "suburb": null,
        "city_district": null,
        "city": "San Cristóbal",
        "state": "San Cristóbal",
        "postcode": "92305",
        "country": "Dominican Republic",
        "country_code": "do"
      },
      "address": "236, Camino Consuelo (Camino El Pollito), La  Cruz, Hatillo, San Cristóbal, 92305, Dominican Republic"
    }
  ],
  "updated_at": "2025-10-19T04:10:57.063471+00:00",
  "_kind": "geo_samples"
}