{
  "country_code": "DO",
  "country": "Dominican Republic",
  "city": "Santo Domingo",
  "geonameid": 3492908,
  "target_addresses": 3,
  "samples": [
    {
      "lat": 18.458401628962267,
      "lon": -69.93301290393156,
      "geoinfo": {
        "display_name": "Avenida Sarasota, Los Maestros, Santo Domingo, Santo Domingo de Guzmán, Distrito Nacional, 11109, Dominican Republic",
        "road": "Avenida Sarasota",
        "house_number": null,
        "neighbourhood": null,
        "suburb": null,
        "city_district": null,
        "city": "Santo Domingo",
        "state": "Distrito Nacional",
        "postcode": "11109",
        "country": "Dominican Republic",
        "country_code": "do"
      },
      "address": "Avenida Sarasota, Santo Domingo, Distrito Nacional, Dominican Republic"
    },
    {
      "lat": 18.47613463800906,
      "lon": -69.90169966243968,
      "geoinfo": {
        "display_name": "El Nuevo Diario, 41, Avenida Francia, San Juan Bosco, Santo Domingo, Santo Domingo de Guzmán, Distrito Nacional, 10202, Dominican Republic",
        "road": "Avenida Francia",
        "house_number": "41",
        "neighbourhood": null,
        "suburb": null,
        "city_district": null,
        "city": "Santo Domingo",
        "state": "Distrito Nacional",
        "postcode": "10202",
        "country": "Dominican Republic",
        "country_code": "do"
      },
      "address": "41 Avenida Francia, Santo Domingo, Distrito Nacional, Dominican Republic"
    },
    {
      "lat": 18.493621614287584,
      "lon": -69.9030867441059,
      "geoinfo": {
        "display_name": "Calle Hermanos Pinzón, Villa Juana, Santo Domingo, Santo Domingo de Guzmán, Distrito Nacional, 10411, Dominican Republic",
        "road": "Calle Hermanos Pinzón",
        "house_number": null,
        "neighbourhood": "Villa Juana",
        "suburb": null,
        "city_district": null,
        "city": "Santo Domingo",
        "state": "Distrito Nacional",
        "postcode": "10411",
        "country": "Dominican Republic",
        "country_code": "do"
      },
      "address": "Calle Hermanos Pinzón, Santo Domingo, Distrito Nacional, Dominican Republic"
    },
    {
      "lat": 18.501839163099486,
      "lon": -69.8876418591846,
      "geoinfo": {
        "display_name": "Calle Dajabón, Ensanche Espaillat, Santo Domingo, Santo Domingo de Guzmán, Distrito Nacional, 03201, Dominican Republic",
        "road": "Calle Dajabón",
        "house_number": null,
        "neighbourhood": "Ensanche Espaillat",
        "suburb": null,
        "city_district": null,
        "city": "Santo Domingo",
        "state": "Distrito Nacional",
        "postcode": "03201",
        "country": "Dominican Republic",
        "country_code": "do"
      },
      "address": "410, Calle Dajabón, Ensanche Espaillat, Santo Domingo, Santo Domingo de Guzmán, Distrito Nacional, 03201, Dominican Republic"
    },
    {
      "lat": 18.476342104921976,
      "lon": -69.85074376704863,
      "geoinfo": {
        "display_name": "Calle Pablo Neruda, Los Coquitos, Santo Domingo Este, Santo Domingo, 11708, Dominican Republic",
        "road": "Calle Pablo Neruda",
        "house_number": null,
        "neighbourhood": "Los Coquitos",
        "suburb": null,
        "city_district": null,
        "city": "Santo Domingo Este",
        "state": "Santo Domingo",
        "postcode": "11708",
        "country": "Dominican Republic",
        "country_code": "do"
      },
      "address": "984, Calle Pablo Neruda, Los Coquitos, Santo Domingo Este, Santo Domingo, 11708, Dominican Republic"
    },
    {
      "lat": 18.4850751168822,
      "lon": -69.88830034374485,
      "geoinfo": {
        "display_name": "Calle Jacuba, Villa Francisca, Santo Domingo, Santo Domingo de Guzmán, Distrito Nacional, 10215, Dominican Republic",
        "road": "Calle Jacuba",
        "house_number": null,
        "neighbourhood": "Villa Francisca",
        "suburb": null,
        "city_district": null,
        "city": "Santo Domingo",
        "state": "Distrito Nacional",
        "postcode": "10215",
        "country": "Dominican Republic",
        "country_code": "do"
      },
      "address": "348, Calle Jacuba, Villa Francisca, Santo Domingo, Santo Domingo de Guzmán, Distrito Nacional, 10215, Dominican Republic"
    }
  ],
  "updated_at": "2025-10-19T03:40:23.792695+00:00",
  "_kind": "geo_samples"
}