{
  "country_code": "DO",
  "country": "Dominican Republic",
  "city": "Santa Cruz de Barahona",
  "geonameid": 3492985,
  "target_addresses": 3,
  "samples": [
    {
      "lat": 18.21899028258291,
      "lon": -71.0797637002031,
      "geoinfo": {
        "display_name": "Av. Dr. Joaquín Balaguer, Juan Pablo Duarte, El Batey Central, Barahona, 81000, Dominican Republic",
        "road": "Av. Dr. Joaquín Balaguer",
        "house_number": null,
        "neighbourhood": null,
        "suburb": null,
        "city_district": null,
        "city": "Barahona",
        "state": "Barahona",
        "postcode": "81000",
        "country": "Dominican Republic",
        "country_code": "do"
      },
      "address": "Av. Dr. Joaquín Balaguer, Santa Cruz de Barahona, Barahona, Dominican Republic"
    },
    {
      "lat": 18.225902405411077,
      "lon": -71.09423329835224,
      "geoinfo": {
        "display_name": "El Batey Central, Barahona, 81000, Dominican Republic",
        "road": null,
        "house_number": null,
        "neighbourhood": null,
        "suburb": null,
        "city_district": null,
        "city": "Barahona",
        "state": "Barahona",
        "postcode": "81000",
        "country": "Dominican Republic",
        "country_code": "do"
      },
      "address": "Santa Cruz de Barahona, Barahona, Dominican Republic"
    },
    {
      "lat": 18.19500543933864,
      "lon": -71.10973621885745,
      "geoinfo": {
        "display_name": "Alto Velo, Barahona, 20301, Dominican Republic",
        "road": null,
        "house_number": null,
        "neighbourhood": null,
        "suburb": null,
        "city_district": null,
        "city": "Barahona",
        "state": "Barahona",
        "postcode": "20301",
        "country": "Dominican Republic",
        "country_code": "do"
      },
      "address": "766, Santa Cruz de Barahona, 20301 Barahona, Dominican Republic"
    },
    {
      "lat": 18.235774608287734,
      "lon": -71.08243813906952,
      "geoinfo": {
        "display_name": "El Batey Central, Barahona, 81000, Dominican Republic",
        "road": null,
        "house_number": null,
        "neighbourhood": null,
        "suburb": null,
        "city_district": null,
        "city": "Barahona",
        "state": "Barahona",
        "postcode": "81000",
        "country": "Dominican Republic",
        "country_code": "do"
      },
      "address": "448, Santa Cruz de Barahona, 81000 Barahona, Dominican Republic"
    },
    {
      "lat": 18.226625852709304,
      "lon": -71.1318523072998,
      "geoinfo": {
        "display_name": "Barahona, Fundación, Barahona, 20305, Dominican Republic",
        "road": null,
        "house_number": null,
        "neighbourhood": null,
        "suburb": null,
        "city_district": null,
        "city": "Barahona",
        "state": "Barahona",
        "postcode": "20305",
        "country": "Dominican Republic",
        "country_code": "do"
      },
      "address": "688, Santa Cruz de Barahona, 20305 Barahona, Dominican Republic"
    }
  ],
  "updated_at": "2025-10-19T03:53:09.602874+00:00",
  "_kind": "geo_samples"
}