{
  "country_code": "KM",
  "country": "Comoros",
  "city": "Moroni",
  "geonameid": 921772,
  "target_addresses": 34,
  "samples": [
    {
      "lat": -11.694820271866629,
      "lon": 43.27212664068908,
      "geoinfo": {
        "display_name": "Hadouja هادوجا, Moroni, Grande Comore, Comoros",
        "road": null,
        "house_number": null,
        "neighbourhood": null,
        "suburb": "Hadouja هادوجا",
        "city_district": null,
        "city": "Moroni",
        "state": "Grande Comore",
        "postcode": null,
        "country": "Comoros",
        "country_code": "km"
      },
      "address": "525, Hadouja هادوجا, Moroni, 80046 Grande Comore, Comoros"
    },
    {
      "lat": -11.708707597652028,
      "lon": 43.24373134379821,
      "geoinfo": {
        "display_name": "Piste de Marathon de l'INJS, Rue Itsambuni, Djomani, Moroni, Grande Comore, Comoros",
        "road": "Rue Itsambuni",
        "house_number": null,
        "neighbourhood": "Djomani",
        "suburb": null,
        "city_district": null,
        "city": "Moroni",
        "state": "Grande Comore",
        "postcode": null,
        "country": "Comoros",
        "country_code": "km"
      },
      "address": "761, Rue Itsambuni, Moroni, 49507 Grande Comore, Comoros"
    },
    {
      "lat": -11.70464194177991,
      "lon": 43.24274246332406,
      "geoinfo": {
        "display_name": "Rue Itsambuni, Mdjivurize مدجيفوريز, Hadouja هادوجا, Moroni, Grande Comore, Comoros",
        "road": "Rue Itsambuni",
        "house_number": null,
        "neighbourhood": "Mdjivurize مدجيفوريز",
        "suburb": "Hadouja هادوجا",
        "city_district": null,
        "city": "Moroni",
        "state": "Grande Comore",
        "postcode": null,
        "country": "Comoros",
        "country_code": "km"
      },
      "address": "774, Rue Itsambuni, Mdjivurize مدجيفوريز, Hadouja هادوجا, Moroni, 26306 Grande Comore, Comoros"
    },
    {
      "lat": -11.694796322573604,
      "lon": 43.21978941286048,
      "geoinfo": {
        "display_name": "Zilimadjou زيليمادجو, Grande Comore, Comoros",
        "road": null,
        "house_number": null,
        "neighbourhood": null,
        "suburb": null,
        "city_district": null,
        "city": "Zilimadjou زيليمادجو",
        "state": "Grande Comore",
        "postcode": null,
        "country": "Comoros",
        "country_code": "km"
      },
      "address": "138, Moroni, 16905 Grande Comore, Comoros"
    },
    {
      "lat": -11.689278087341359,
      "lon": 43.2722452992328,
      "geoinfo": {
        "display_name": "Coulee de Lave, Hadouja هادوجا, Moroni, Grande Comore, Comoros",
        "road": null,
        "house_number": null,
        "neighbourhood": "Coulee de Lave",
        "suburb": "Hadouja هادوجا",
        "city_district": null,
        "city": "Moroni",
        "state": "Grande Comore",
        "postcode": null,
        "country": "Comoros",
        "country_code": "km"
      },
      "address": "706, Coulee de Lave, Hadouja هادوجا, Moroni, 12134 Grande Comore, Comoros"
    },
    {
      "lat": -11.663370686211872,
      "lon": 43.24871523172632,
      "geoinfo": {
        "display_name": "Itsandra Mdjini إتساندرا مدجيني, Grande Comore, 38301, Comoros",
        "road": null,
        "house_number": null,
        "neighbourhood": null,
        "suburb": null,
        "city_district": null,
        "city": "Itsandra Mdjini إتساندرا مدجيني",
        "state": "Grande Comore",
        "postcode": "38301",
        "country": "Comoros",
        "country_code": "km"
      },
      "address": "866, Moroni, 38301 Grande Comore, Comoros"
    },
    {
      "lat": -11.700933716475085,
      "lon": 43.25973086507166,
      "geoinfo": {
        "display_name": "Mangani, Hadouja هادوجا, Moroni, Grande Comore, Comoros",
        "road": null,
        "house_number": null,
        "neighbourhood": "Mangani",
        "suburb": "Hadouja هادوجا",
        "city_district": null,
        "city": "Moroni",
        "state": "Grande Comore",
        "postcode": null,
        "country": "Comoros",
        "country_code": "km"
      },
      "address": "402, Mangani, Hadouja هادوجا, Moroni, 90845 Grande Comore, Comoros"
    },
    {
      "lat": -11.721096791168216,
      "lon": 43.22095418463402,
      "geoinfo": {
        "display_name": "Zilimadjou زيليمادجو, Grande Comore, Comoros",
        "road": null,
        "house_number": null,
        "neighbourhood": null,
        "suburb": null,
        "city_district": null,
        "city": "Zilimadjou زيليمادجو",
        "state": "Grande Comore",
        "postcode": null,
        "country": "Comoros",
        "country_code": "km"
      },
      "address": "010, Moroni, 44738 Grande Comore, Comoros"
    },
    {
      "lat": -11.690110864961131,
      "lon": 43.26742443435434,
      "geoinfo": {
        "display_name": "Coulee de Lave, Hadouja هادوجا, Moroni, Grande Comore, Comoros",
        "road": null,
        "house_number": null,
        "neighbourhood": "Coulee de Lave",
        "suburb": "Hadouja هادوجا",
        "city_district": null,
        "city": "Moroni",
        "state": "Grande Comore",
        "postcode": null,
        "country": "Comoros",
        "country_code": "km"
      },
      "address": "814, Coulee de Lave, Hadouja هادوجا, Moroni, 46827 Grande Comore, Comoros"
    },
    {
      "lat": -11.683401284918492,
      "lon": 43.257204525018935,
      "geoinfo": {
        "display_name": "Ray assurances & lavage auto, Rue Youssouf Anas, Oasis, Hadouja هادوجا, Moroni, Grande Comore, Comoros",
        "road": "Rue Youssouf Anas",
        "house_number": null,
        "neighbourhood": "Oasis",
        "suburb": "Hadouja هادوجا",
        "city_district": null,
        "city": "Moroni",
        "state": "Grande Comore",
        "postcode": null,
        "country": "Comoros",
        "country_code": "km"
      },
      "address": "183, Rue Youssouf Anas, Moroni, 47036 Grande Comore, Comoros"
    },
    {
      "lat": -11.729564510240014,
      "lon": 43.223411565231,
      "geoinfo": {
        "display_name": "Mdé ya Bambao مديا بامباو, Grande Comore, Comoros",
        "road": null,
        "house_number": null,
        "neighbourhood": null,
        "suburb": null,
        "city_district": null,
        "city": "Mdé ya Bambao مديا بامباو",
        "state": "Grande Comore",
        "postcode": null,
        "country": "Comoros",
        "country_code": "km"
      },
      "address": "171, Moroni, 04322 Grande Comore, Comoros"
    },
    {
      "lat": -11.703344260108253,
      "lon": 43.2533703033004,
      "geoinfo": {
        "display_name": "Boulevard Karthala, Buzini, Hadouja هادوجا, Moroni, Grande Comore, Comoros",
        "road": "Boulevard Karthala",
        "house_number": null,
        "neighbourhood": "Buzini",
        "suburb": "Hadouja هادوجا",
        "city_district": null,
        "city": "Moroni",
        "state": "Grande Comore",
        "postcode": null,
        "country": "Comoros",
        "country_code": "km"
      },
      "address": "455, Boulevard Karthala, Buzini, Hadouja هادوجا, Moroni, 67094 Grande Comore, Comoros"
    },
    {
      "lat": -11.732325788996405,
      "lon": 43.25936064299677,
      "geoinfo": {
        "display_name": "Mzaki مزاكي, Grande Comore, Comoros",
        "road": null,
        "house_number": null,
        "neighbourhood": null,
        "suburb": null,
        "city_district": null,
        "city": "Mzaki مزاكي",
        "state": "Grande Comore",
        "postcode": null,
        "country": "Comoros",
        "country_code": "km"
      },
      "address": "943, Moroni, 78352 Grande Comore, Comoros"
    },
    {
      "lat": -11.697176691800237,
      "lon": 43.248487653217516,
      "geoinfo": {
        "display_name": "Rue de la Corniche, Hankunu هانكونو, Hadouja هادوجا, Moroni, Grande Comore, Comoros",
        "road": "Rue de la Corniche",
        "house_number": null,
        "neighbourhood": "Hankunu هانكونو",
        "suburb": "Hadouja هادوجا",
        "city_district": null,
        "city": "Moroni",
        "state": "Grande Comore",
        "postcode": null,
        "country": "Comoros",
        "country_code": "km"
      },
      "address": "990, Rue de la Corniche, Hankunu هانكونو, Hadouja هادوجا, Moroni, 80064 Grande Comore, Comoros"
    },
    {
      "lat": -11.70155616933668,
      "lon": 43.29696673359253,
      "geoinfo": {
        "display_name": "Tsidjé تسيدجي, Grande Comore, Comoros",
        "road": null,
        "house_number": null,
        "neighbourhood": null,
        "suburb": null,
        "city_district": null,
        "city": "Tsidjé تسيدجي",
        "state": "Grande Comore",
        "postcode": null,
        "country": "Comoros",
        "country_code": "km"
      },
      "address": "061, Moroni, 98604 Grande Comore, Comoros"
    },
    {
      "lat": -11.674959007454497,
      "lon": 43.23724138175506,
      "geoinfo": {
        "display_name": "Itsandra Mdjini إتساندرا مدجيني, Grande Comore, 38301, Comoros",
        "road": null,
        "house_number": null,
        "neighbourhood": null,
        "suburb": null,
        "city_district": null,
        "city": "Itsandra Mdjini إتساندرا مدجيني",
        "state": "Grande Comore",
        "postcode": "38301",
        "country": "Comoros",
        "country_code": "km"
      },
      "address": "631, Moroni, 38301 Grande Comore, Comoros"
    },
    {
      "lat": -11.676190106390631,
      "lon": 43.2774912453317,
      "geoinfo": {
        "display_name": "Route Nationale 4, Samba Mbodoni سامبا مبودوني, Grande Comore, Comoros",
        "road": "Route Nationale 4",
        "house_number": null,
        "neighbourhood": null,
        "suburb": null,
        "city_district": null,
        "city": "Samba Mbodoni سامبا مبودوني",
        "state": "Grande Comore",
        "postcode": null,
        "country": "Comoros",
        "country_code": "km"
      },
      "address": "Route Nationale 4, Moroni, 19132 Grande Comore, Comoros"
    },
    {
      "lat": -11.693505956315153,
      "lon": 43.210068989004554,
      "geoinfo": {
        "display_name": "Iconi أيقونات, Grande Comore, Comoros",
        "road": null,
        "house_number": null,
        "neighbourhood": null,
        "suburb": null,
        "city_district": null,
        "city": "Iconi أيقونات",
        "state": "Grande Comore",
        "postcode": null,
        "country": "Comoros",
        "country_code": "km"
      },
      "address": "822, Moroni, 37063 Grande Comore, Comoros"
    },
    {
      "lat": -11.730242129207545,
      "lon": 43.23533596179728,
      "geoinfo": {
        "display_name": "Ikoni, Grande Comore, Comoros",
        "road": null,
        "house_number": null,
        "neighbourhood": null,
        "suburb": null,
        "city_district": null,
        "city": "Ikoni",
        "state": "Grande Comore",
        "postcode": null,
        "country": "Comoros",
        "country_code": "km"
      },
      "address": "652, Moroni, 32136 Grande Comore, Comoros"
    },
    {
      "lat": -11.66511401123106,
      "lon": 43.239448407686666,
      "geoinfo": {
        "display_name": "Itsandra Mdjini إتساندرا مدجيني, Grande Comore, 38301, Comoros",
        "road": null,
        "house_number": null,
        "neighbourhood": null,
        "suburb": null,
        "city_district": null,
        "city": "Itsandra Mdjini إتساندرا مدجيني",
        "state": "Grande Comore",
        "postcode": "38301",
        "country": "Comoros",
        "country_code": "km"
      },
      "address": "628, Moroni, 38301 Grande Comore, Comoros"
    },
    {
      "lat": -11.70386336342688,
      "lon": 43.25200875670454,
      "geoinfo": {
        "display_name": "Place Badjanani, Irungudjani إيرونجودجاني, Hadouja هادوجا, Moroni, Grande Comore, Comoros",
        "road": "Place Badjanani",
        "house_number": null,
        "neighbourhood": "Irungudjani إيرونجودجاني",
        "suburb": "Hadouja هادوجا",
        "city_district": null,
        "city": "Moroni",
        "state": "Grande Comore",
        "postcode": null,
        "country": "Comoros",
        "country_code": "km"
      },
      "address": "094, Place Badjanani, Irungudjani إيرونجودجاني, Hadouja هادوجا, Moroni, 26790 Grande Comore, Comoros"
    },
    {
      "lat": -11.708710626923661,
      "lon": 43.29475983921357,
      "geoinfo": {
        "display_name": "Mvouni مفوني, Grande Comore, Comoros",
        "road": null,
        "house_number": null,
        "neighbourhood": null,
        "suburb": null,
        "city_district": null,
        "city": "Mvouni مفوني",
        "state": "Grande Comore",
        "postcode": null,
        "country": "Comoros",
        "country_code": "km"
      },
      "address": "533, Moroni, 31611 Grande Comore, Comoros"
    },
    {
      "lat": -11.728529368872623,
      "lon": 43.25171019580167,
      "geoinfo": {
        "display_name": "Mzaki مزاكي, Grande Comore, Comoros",
        "road": null,
        "house_number": null,
        "neighbourhood": null,
        "suburb": null,
        "city_district": null,
        "city": "Mzaki مزاكي",
        "state": "Grande Comore",
        "postcode": null,
        "country": "Comoros",
        "country_code": "km"
      },
      "address": "059, Moroni, 56676 Grande Comore, Comoros"
    },
    {
      "lat": -11.674788500270035,
      "lon": 43.22750502490219,
      "geoinfo": {
        "display_name": "Hadouja هادوجا, Moroni, Grande Comore, Comoros",
        "road": null,
        "house_number": null,
        "neighbourhood": null,
        "suburb": "Hadouja هادوجا",
        "city_district": null,
        "city": "Moroni",
        "state": "Grande Comore",
        "postcode": null,
        "country": "Comoros",
        "country_code": "km"
      },
      "address": "759, Hadouja هادوجا, Moroni, 59676 Grande Comore, Comoros"
    },
    {
      "lat": -11.681151460814174,
      "lon": 43.22259393456338,
      "geoinfo": {
        "display_name": "Hadouja هادوجا, Moroni, Grande Comore, Comoros",
        "road": null,
        "house_number": null,
        "neighbourhood": null,
        "suburb": "Hadouja هادوجا",
        "city_district": null,
        "city": "Moroni",
        "state": "Grande Comore",
        "postcode": null,
        "country": "Comoros",
        "country_code": "km"
      },
      "address": "192, Hadouja هادوجا, Moroni, 39328 Grande Comore, Comoros"
    },
    {
      "lat": -11.665347507133339,
      "lon": 43.26293569127678,
      "geoinfo": {
        "display_name": "Ntsudjini نتسودجيني, Grande Comore, Comoros",
        "road": null,
        "house_number": null,
        "neighbourhood": null,
        "suburb": null,
        "city_district": null,
        "city": "Ntsudjini نتسودجيني",
        "state": "Grande Comore",
        "postcode": null,
        "country": "Comoros",
        "country_code": "km"
      },
      "address": "332, Moroni, 44747 Grande Comore, Comoros"
    },
    {
      "lat": -11.713702755451813,
      "lon": 43.29925915564019,
      "geoinfo": {
        "display_name": "Mvouni مفوني, Grande Comore, Comoros",
        "road": null,
        "house_number": null,
        "neighbourhood": null,
        "suburb": null,
        "city_district": null,
        "city": "Mvouni مفوني",
        "state": "Grande Comore",
        "postcode": null,
        "country": "Comoros",
        "country_code": "km"
      },
      "address": "189, Moroni, 98872 Grande Comore, Comoros"
    },
    {
      "lat": -11.696655344719144,
      "lon": 43.27322265630116,
      "geoinfo": {
        "display_name": "Route Nationale 4, Mavingouni, Hadouja هادوجا, Tsidjé تسيدجي, Grande Comore, Comoros",
        "road": "Route Nationale 4",
        "house_number": null,
        "neighbourhood": null,
        "suburb": "Hadouja هادوجا",
        "city_district": null,
        "city": "Tsidjé تسيدجي",
        "state": "Grande Comore",
        "postcode": null,
        "country": "Comoros",
        "country_code": "km"
      },
      "address": "Route Nationale 4, Moroni, 65189 Grande Comore, Comoros"
    },
    {
      "lat": -11.70332016646493,
      "lon": 43.22187245126068,
      "geoinfo": {
        "display_name": "Zilimadjou زيليمادجو, Grande Comore, Comoros",
        "road": null,
        "house_number": null,
        "neighbourhood": null,
        "suburb": null,
        "city_district": null,
        "city": "Zilimadjou زيليمادجو",
        "state": "Grande Comore",
        "postcode": null,
        "country": "Comoros",
        "country_code": "km"
      },
      "address": "139, Moroni, 36125 Grande Comore, Comoros"
    },
    {
      "lat": -11.711439422796822,
      "lon": 43.28832042750323,
      "geoinfo": {
        "display_name": "Mwangaza, Mvouni مفوني, Grande Comore, Comoros",
        "road": null,
        "house_number": null,
        "neighbourhood": null,
        "suburb": null,
        "city_district": null,
        "city": "Mvouni مفوني",
        "state": "Grande Comore",
        "postcode": null,
        "country": "Comoros",
        "country_code": "km"
      },
      "address": "182, Moroni, 67308 Grande Comore, Comoros"
    }
  ],
  "updated_at": "2025-10-19T04:58:35.088157+00:00",
  "_kind": "geo_samples"
}