{
  "country_code": "GQ",
  "country": "Equatorial Guinea",
  "city": "Malabo",
  "geonameid": 2309527,
  "target_addresses": 34,
  "samples": [
    {
      "lat": 3.7545145353097067,
      "lon": 8.742231421822368,
      "geoinfo": {
        "display_name": "BGFI Bank - Sucursal km4, Carretera del Aeropuerto, Caribe, Paraíso, Distrito de Malabo, Bioko Norte, Región Insular, Equatorial Guinea",
        "road": "Carretera del Aeropuerto",
        "house_number": null,
        "neighbourhood": "Caribe",
        "suburb": null,
        "city_district": null,
        "city": "Paraíso",
        "state": "Bioko Norte",
        "postcode": null,
        "country": "Equatorial Guinea",
        "country_code": "gq"
      },
      "address": "Carretera del Aeropuerto, Malabo, Bioko Norte, Equatorial Guinea"
    },
    {
      "lat": 3.760881594072778,
      "lon": 8.783871283015584,
      "geoinfo": {
        "display_name": "Los Ángeles, Área Presidencial, Malabo, Distrito de Malabo, Bioko Norte, Región Insular, Equatorial Guinea",
        "road": null,
        "house_number": null,
        "neighbourhood": "Los Ángeles",
        "suburb": "Área Presidencial",
        "city_district": null,
        "city": "Malabo",
        "state": "Bioko Norte",
        "postcode": null,
        "country": "Equatorial Guinea",
        "country_code": "gq"
      },
      "address": "Los Ángeles, Malabo, Bioko Norte, Equatorial Guinea"
    },
    {
      "lat": 3.7934267619509643,
      "lon": 8.779553700455768,
      "geoinfo": {
        "display_name": "Área Presidencial, Malabo, Distrito de Malabo, Bioko Norte, Región Insular, Equatorial Guinea",
        "road": null,
        "house_number": null,
        "neighbourhood": null,
        "suburb": "Área Presidencial",
        "city_district": null,
        "city": "Malabo",
        "state": "Bioko Norte",
        "postcode": null,
        "country": "Equatorial Guinea",
        "country_code": "gq"
      },
      "address": "Área Presidencial, Malabo, Bioko Norte, Equatorial Guinea"
    },
    {
      "lat": 3.740629163967975,
      "lon": 8.78890844514753,
      "geoinfo": {
        "display_name": "Alcaide, Semu, Malabo, Distrito de Malabo, Bioko Norte, Región Insular, Equatorial Guinea",
        "road": null,
        "house_number": null,
        "neighbourhood": "Alcaide",
        "suburb": "Semu",
        "city_district": null,
        "city": "Malabo",
        "state": "Bioko Norte",
        "postcode": null,
        "country": "Equatorial Guinea",
        "country_code": "gq"
      },
      "address": "Alcaide, Malabo, Bioko Norte, Equatorial Guinea"
    },
    {
      "lat": 3.7567312574759417,
      "lon": 8.7812568172378,
      "geoinfo": {
        "display_name": "Avenida del 3 de Agosto, Los Ángeles, Santa Isabel, Malabo, Distrito de Malabo, Bioko Norte, Región Insular, Equatorial Guinea",
        "road": "Avenida del 3 de Agosto",
        "house_number": null,
        "neighbourhood": "Los Ángeles",
        "suburb": "Santa Isabel",
        "city_district": null,
        "city": "Malabo",
        "state": "Bioko Norte",
        "postcode": null,
        "country": "Equatorial Guinea",
        "country_code": "gq"
      },
      "address": "Avenida del 3 de Agosto, Malabo, Bioko Norte, Equatorial Guinea"
    },
    {
      "lat": 3.716666367567767,
      "lon": 8.79528343767111,
      "geoinfo": {
        "display_name": "Carretera de Basilé, Semu, Basilé, Distrito de Malabo, Bioko Norte, Región Insular, Equatorial Guinea",
        "road": "Carretera de Basilé",
        "house_number": null,
        "neighbourhood": null,
        "suburb": "Semu",
        "city_district": null,
        "city": "Basilé",
        "state": "Bioko Norte",
        "postcode": null,
        "country": "Equatorial Guinea",
        "country_code": "gq"
      },
      "address": "Carretera de Basilé, Malabo, Bioko Norte, Equatorial Guinea"
    },
    {
      "lat": 3.716594496385166,
      "lon": 8.769088364754467,
      "geoinfo": {
        "display_name": "Malabo, Distrito de Malabo, Bioko Norte, Región Insular, Equatorial Guinea",
        "road": null,
        "house_number": null,
        "neighbourhood": null,
        "suburb": null,
        "city_district": null,
        "city": "Malabo",
        "state": "Bioko Norte",
        "postcode": null,
        "country": "Equatorial Guinea",
        "country_code": "gq"
      },
      "address": "Malabo, Bioko Norte, Equatorial Guinea"
    },
    {
      "lat": 3.746004787383373,
      "lon": 8.783346165714992,
      "geoinfo": {
        "display_name": "Avenida de Semu, Alcaide, Semu, Malabo, Distrito de Malabo, Bioko Norte, Región Insular, Equatorial Guinea",
        "road": "Avenida de Semu",
        "house_number": null,
        "neighbourhood": "Alcaide",
        "suburb": "Semu",
        "city_district": null,
        "city": "Malabo",
        "state": "Bioko Norte",
        "postcode": null,
        "country": "Equatorial Guinea",
        "country_code": "gq"
      },
      "address": "Avenida de Semu, Malabo, Bioko Norte, Equatorial Guinea"
    },
    {
      "lat": 3.7753295211376323,
      "lon": 8.778802090722664,
      "geoinfo": {
        "display_name": "Puerto Nuevo, Santa Isabel, Malabo, Distrito de Malabo, Bioko Norte, Región Insular, Equatorial Guinea",
        "road": null,
        "house_number": null,
        "neighbourhood": null,
        "suburb": "Santa Isabel",
        "city_district": null,
        "city": "Malabo",
        "state": "Bioko Norte",
        "postcode": null,
        "country": "Equatorial Guinea",
        "country_code": "gq"
      },
      "address": "Santa Isabel, Malabo, Bioko Norte, Equatorial Guinea"
    },
    {
      "lat": 3.7631271901061205,
      "lon": 8.775657563799172,
      "geoinfo": {
        "display_name": "Paseo Marítimo, Santa Isabel, Malabo, Distrito de Malabo, Bioko Norte, Región Insular, Equatorial Guinea",
        "road": "Paseo Marítimo",
        "house_number": null,
        "neighbourhood": null,
        "suburb": "Santa Isabel",
        "city_district": null,
        "city": "Malabo",
        "state": "Bioko Norte",
        "postcode": null,
        "country": "Equatorial Guinea",
        "country_code": "gq"
      },
      "address": "Paseo Marítimo, Malabo, Bioko Norte, Equatorial Guinea"
    },
    {
      "lat": 3.773554744084683,
      "lon": 8.821294150350944,
      "geoinfo": {
        "display_name": "Ela Nguema, Malabo, Distrito de Malabo, Bioko Norte, Región Insular, Equatorial Guinea",
        "road": null,
        "house_number": null,
        "neighbourhood": null,
        "suburb": "Ela Nguema",
        "city_district": null,
        "city": "Malabo",
        "state": "Bioko Norte",
        "postcode": null,
        "country": "Equatorial Guinea",
        "country_code": "gq"
      },
      "address": "Ela Nguema, Malabo, Bioko Norte, Equatorial Guinea"
    },
    {
      "lat": 3.74745669142461,
      "lon": 8.73891121400414,
      "geoinfo": {
        "display_name": "Calle Rubio, Caribe, Malabo II, Distrito de Malabo, Bioko Norte, Región Insular, Equatorial Guinea",
        "road": "Calle Rubio",
        "house_number": null,
        "neighbourhood": "Caribe",
        "suburb": null,
        "city_district": null,
        "city": "Malabo II",
        "state": "Bioko Norte",
        "postcode": null,
        "country": "Equatorial Guinea",
        "country_code": "gq"
      },
      "address": "Calle Rubio, Malabo, Bioko Norte, Equatorial Guinea"
    },
    {
      "lat": 3.7252741018868014,
      "lon": 8.794736250772347,
      "geoinfo": {
        "display_name": "Semu, Malabo, Distrito de Malabo, Bioko Norte, Región Insular, Equatorial Guinea",
        "road": null,
        "house_number": null,
        "neighbourhood": null,
        "suburb": "Semu",
        "city_district": null,
        "city": "Malabo",
        "state": "Bioko Norte",
        "postcode": null,
        "country": "Equatorial Guinea",
        "country_code": "gq"
      },
      "address": "Semu, Malabo, Bioko Norte, Equatorial Guinea"
    },
    {
      "lat": 3.748612857251595,
      "lon": 8.766132730718363,
      "geoinfo": {
        "display_name": "Santa María, Malabo, Distrito de Malabo, Bioko Norte, Región Insular, Equatorial Guinea",
        "road": null,
        "house_number": null,
        "neighbourhood": null,
        "suburb": "Santa María",
        "city_district": null,
        "city": "Malabo",
        "state": "Bioko Norte",
        "postcode": null,
        "country": "Equatorial Guinea",
        "country_code": "gq"
      },
      "address": "Santa María, Malabo, Bioko Norte, Equatorial Guinea"
    },
    {
      "lat": 3.7513119413989,
      "lon": 8.743498090806634,
      "geoinfo": {
        "display_name": "Caribe, Malabo II, Distrito de Malabo, Bioko Norte, Región Insular, Equatorial Guinea",
        "road": null,
        "house_number": null,
        "neighbourhood": "Caribe",
        "suburb": null,
        "city_district": null,
        "city": "Malabo II",
        "state": "Bioko Norte",
        "postcode": null,
        "country": "Equatorial Guinea",
        "country_code": "gq"
      },
      "address": "Caribe, Malabo, Bioko Norte, Equatorial Guinea"
    },
    {
      "lat": 3.732346592294468,
      "lon": 8.757285866803917,
      "geoinfo": {
        "display_name": "Ministry of education, Calle de Servicio, Santa María, Malabo, Distrito de Malabo, Bioko Norte, Región Insular, Equatorial Guinea",
        "road": "Calle de Servicio",
        "house_number": null,
        "neighbourhood": null,
        "suburb": "Santa María",
        "city_district": null,
        "city": "Malabo",
        "state": "Bioko Norte",
        "postcode": null,
        "country": "Equatorial Guinea",
        "country_code": "gq"
      },
      "address": "Calle de Servicio, Malabo, Bioko Norte, Equatorial Guinea"
    },
    {
      "lat": 3.767532699372174,
      "lon": 8.777944504311042,
      "geoinfo": {
        "display_name": "Punto de la Unidad Africana, Área Presidencial, Malabo, Distrito de Malabo, Bioko Norte, Región Insular, Equatorial Guinea",
        "road": "Punto de la Unidad Africana",
        "house_number": null,
        "neighbourhood": null,
        "suburb": "Área Presidencial",
        "city_district": null,
        "city": "Malabo",
        "state": "Bioko Norte",
        "postcode": null,
        "country": "Equatorial Guinea",
        "country_code": "gq"
      },
      "address": "Punto de la Unidad Africana, Malabo, Bioko Norte, Equatorial Guinea"
    },
    {
      "lat": 3.742865743897032,
      "lon": 8.76845497495493,
      "geoinfo": {
        "display_name": "Kingdom Hall of Jehovah's Witnesses, Avenida Hasán II, Los Ángeles, Santa María, Malabo, Distrito de Malabo, Bioko Norte, Región Insular, Equatorial Guinea",
        "road": "Avenida Hasán II",
        "house_number": null,
        "neighbourhood": "Los Ángeles",
        "suburb": "Santa María",
        "city_district": null,
        "city": "Malabo",
        "state": "Bioko Norte",
        "postcode": null,
        "country": "Equatorial Guinea",
        "country_code": "gq"
      },
      "address": "Avenida Hasán II, Malabo, Bioko Norte, Equatorial Guinea"
    },
    {
      "lat": 3.7505780332793197,
      "lon": 8.780501694763823,
      "geoinfo": {
        "display_name": "El Refugio, Calle del Rey Malabo, Los Ángeles, Santa Isabel, Malabo, Distrito de Malabo, Bioko Norte, Región Insular, Equatorial Guinea",
        "road": "Calle del Rey Malabo",
        "house_number": null,
        "neighbourhood": "Los Ángeles",
        "suburb": "Santa Isabel",
        "city_district": null,
        "city": "Malabo",
        "state": "Bioko Norte",
        "postcode": null,
        "country": "Equatorial Guinea",
        "country_code": "gq"
      },
      "address": "Calle del Rey Malabo, Malabo, Bioko Norte, Equatorial Guinea"
    },
    {
      "lat": 3.7537941226389466,
      "lon": 8.77750147246336,
      "geoinfo": {
        "display_name": "Carrefour, Calle del Alcalde Abilio Balboa, Los Ángeles, Santa Isabel, Malabo, Distrito de Malabo, Bioko Norte, Región Insular, Equatorial Guinea",
        "road": "Calle del Alcalde Abilio Balboa",
        "house_number": null,
        "neighbourhood": "Los Ángeles",
        "suburb": "Santa Isabel",
        "city_district": null,
        "city": "Malabo",
        "state": "Bioko Norte",
        "postcode": null,
        "country": "Equatorial Guinea",
        "country_code": "gq"
      },
      "address": "Calle del Alcalde Abilio Balboa, Malabo, Bioko Norte, Equatorial Guinea"
    },
    {
      "lat": 3.7623062195404793,
      "lon": 8.787278166434236,
      "geoinfo": {
        "display_name": "Carretera del Puerto Viejo, Área Presidencial, Malabo, Distrito de Malabo, Bioko Norte, Región Insular, Equatorial Guinea",
        "road": "Carretera del Puerto Viejo",
        "house_number": null,
        "neighbourhood": null,
        "suburb": "Área Presidencial",
        "city_district": null,
        "city": "Malabo",
        "state": "Bioko Norte",
        "postcode": null,
        "country": "Equatorial Guinea",
        "country_code": "gq"
      },
      "address": "Carretera del Puerto Viejo, Malabo, Bioko Norte, Equatorial Guinea"
    },
    {
      "lat": 3.7705112871887843,
      "lon": 8.79014172662176,
      "geoinfo": {
        "display_name": "Puerto Viejo, Área Presidencial, Malabo, Distrito de Malabo, Bioko Norte, Región Insular, Equatorial Guinea",
        "road": null,
        "house_number": null,
        "neighbourhood": null,
        "suburb": "Área Presidencial",
        "city_district": null,
        "city": "Malabo",
        "state": "Bioko Norte",
        "postcode": null,
        "country": "Equatorial Guinea",
        "country_code": "gq"
      },
      "address": "433, Puerto Viejo, Área Presidencial, Malabo, Distrito de Malabo, Bioko Norte, 31014 Región Insular, Equatorial Guinea"
    },
    {
      "lat": 3.7878621180897216,
      "lon": 8.809385168313613,
      "geoinfo": {
        "display_name": "Ela Nguema, Malabo, Distrito de Malabo, Bioko Norte, Región Insular, Equatorial Guinea",
        "road": null,
        "house_number": null,
        "neighbourhood": null,
        "suburb": "Ela Nguema",
        "city_district": null,
        "city": "Malabo",
        "state": "Bioko Norte",
        "postcode": null,
        "country": "Equatorial Guinea",
        "country_code": "gq"
      },
      "address": "579, Ela Nguema, Malabo, Distrito de Malabo, Bioko Norte, 20198 Región Insular, Equatorial Guinea"
    },
    {
      "lat": 3.781348401758464,
      "lon": 8.770152612844031,
      "geoinfo": {
        "display_name": "Área Presidencial, Malabo, Distrito de Malabo, Bioko Norte, Región Insular, Equatorial Guinea",
        "road": null,
        "house_number": null,
        "neighbourhood": null,
        "suburb": "Área Presidencial",
        "city_district": null,
        "city": "Malabo",
        "state": "Bioko Norte",
        "postcode": null,
        "country": "Equatorial Guinea",
        "country_code": "gq"
      },
      "address": "208, Área Presidencial, Malabo, Distrito de Malabo, Bioko Norte, 80628 Región Insular, Equatorial Guinea"
    },
    {
      "lat": 3.799744682772148,
      "lon": 8.786695870676942,
      "geoinfo": {
        "display_name": "Malabo II, Distrito de Malabo, Bioko Norte, Región Insular, Equatorial Guinea",
        "road": null,
        "house_number": null,
        "neighbourhood": null,
        "suburb": null,
        "city_district": null,
        "city": "Malabo II",
        "state": "Bioko Norte",
        "postcode": null,
        "country": "Equatorial Guinea",
        "country_code": "gq"
      },
      "address": "131, Malabo II, Distrito de Malabo, Bioko Norte, 18841 Región Insular, Equatorial Guinea"
    },
    {
      "lat": 3.730350000288556,
      "lon": 8.752966419272276,
      "geoinfo": {
        "display_name": "Malabo II, Distrito de Malabo, Bioko Norte, Región Insular, Equatorial Guinea",
        "road": null,
        "house_number": null,
        "neighbourhood": null,
        "suburb": null,
        "city_district": null,
        "city": "Malabo II",
        "state": "Bioko Norte",
        "postcode": null,
        "country": "Equatorial Guinea",
        "country_code": "gq"
      },
      "address": "475, Malabo II, Distrito de Malabo, Bioko Norte, 07978 Región Insular, Equatorial Guinea"
    },
    {
      "lat": 3.7935104886059787,
      "lon": 8.787334903065922,
      "geoinfo": {
        "display_name": "Área Presidencial, Malabo, Distrito de Malabo, Bioko Norte, Región Insular, Equatorial Guinea",
        "road": null,
        "house_number": null,
        "neighbourhood": null,
        "suburb": "Área Presidencial",
        "city_district": null,
        "city": "Malabo",
        "state": "Bioko Norte",
        "postcode": null,
        "country": "Equatorial Guinea",
        "country_code": "gq"
      },
      "address": "607, Área Presidencial, Malabo, Distrito de Malabo, Bioko Norte, 18688 Región Insular, Equatorial Guinea"
    },
    {
      "lat": 3.767860293483751,
      "lon": 8.752970882834662,
      "geoinfo": {
        "display_name": "Santa Isabel, Malabo, Distrito de Malabo, Bioko Norte, Región Insular, Equatorial Guinea",
        "road": null,
        "house_number": null,
        "neighbourhood": null,
        "suburb": "Santa Isabel",
        "city_district": null,
        "city": "Malabo",
        "state": "Bioko Norte",
        "postcode": null,
        "country": "Equatorial Guinea",
        "country_code": "gq"
      },
      "address": "140, Santa Isabel, Malabo, Distrito de Malabo, Bioko Norte, 79280 Región Insular, Equatorial Guinea"
    },
    {
      "lat": 3.723506249488238,
      "lon": 8.785158802288864,
      "geoinfo": {
        "display_name": "Semu, Malabo, Distrito de Malabo, Bioko Norte, Región Insular, Equatorial Guinea",
        "road": null,
        "house_number": null,
        "neighbourhood": null,
        "suburb": "Semu",
        "city_district": null,
        "city": "Malabo",
        "state": "Bioko Norte",
        "postcode": null,
        "country": "Equatorial Guinea",
        "country_code": "gq"
      },
      "address": "214, Semu, Malabo, Distrito de Malabo, Bioko Norte, 31156 Región Insular, Equatorial Guinea"
    },
    {
      "lat": 3.7658170440200087,
      "lon": 8.765393679878597,
      "geoinfo": {
        "display_name": "Puerto Nuevo, Santa Isabel, Malabo, Distrito de Malabo, Bioko Norte, Región Insular, Equatorial Guinea",
        "road": null,
        "house_number": null,
        "neighbourhood": null,
        "suburb": "Santa Isabel",
        "city_district": null,
        "city": "Malabo",
        "state": "Bioko Norte",
        "postcode": null,
        "country": "Equatorial Guinea",
        "country_code": "gq"
      },
      "address": "598, Puerto Nuevo, Santa Isabel, Malabo, Distrito de Malabo, Bioko Norte, 71832 Región Insular, Equatorial Guinea"
    },
    {
      "lat": 3.744930224526611,
      "lon": 8.808749037184809,
      "geoinfo": {
        "display_name": "Carretera Malabo - Rebola, Urbanización Buena Esperanza, Rebola, Distrito de Baney, Bioko Norte, Región Insular, Equatorial Guinea",
        "road": "Carretera Malabo - Rebola",
        "house_number": null,
        "neighbourhood": null,
        "suburb": null,
        "city_district": null,
        "city": "Rebola",
        "state": "Bioko Norte",
        "postcode": null,
        "country": "Equatorial Guinea",
        "country_code": "gq"
      },
      "address": "724, Carretera Malabo - Rebola, Urbanización Buena Esperanza, Rebola, Distrito de Baney, Bioko Norte, 32262 Región Insular, Equatorial Guinea"
    },
    {
      "lat": 3.792622530788925,
      "lon": 8.798533090477045,
      "geoinfo": {
        "display_name": "Ela Nguema, Malabo, Distrito de Malabo, Bioko Norte, Región Insular, Equatorial Guinea",
        "road": null,
        "house_number": null,
        "neighbourhood": null,
        "suburb": "Ela Nguema",
        "city_district": null,
        "city": "Malabo",
        "state": "Bioko Norte",
        "postcode": null,
        "country": "Equatorial Guinea",
        "country_code": "gq"
      },
      "address": "761, Ela Nguema, Malabo, Distrito de Malabo, Bioko Norte, 27905 Región Insular, Equatorial Guinea"
    },
    {
      "lat": 3.7490081400419992,
      "lon": 8.760047022926045,
      "geoinfo": {
        "display_name": "Santa María, Malabo, Distrito de Malabo, Bioko Norte, Región Insular, Equatorial Guinea",
        "road": null,
        "house_number": null,
        "neighbourhood": null,
        "suburb": "Santa María",
        "city_district": null,
        "city": "Malabo",
        "state": "Bioko Norte",
        "postcode": null,
        "country": "Equatorial Guinea",
        "country_code": "gq"
      },
      "address": "913, Santa María, Malabo, Distrito de Malabo, Bioko Norte, 42035 Región Insular, Equatorial Guinea"
    },
    {
      "lat": 3.7548375185488942,
      "lon": 8.800688877034826,
      "geoinfo": {
        "display_name": "Calle Moka Bioko, Ela Nguema, Malabo, Distrito de Malabo, Bioko Norte, Región Insular, Equatorial Guinea",
        "road": "Calle Moka Bioko",
        "house_number": null,
        "neighbourhood": null,
        "suburb": "Ela Nguema",
        "city_district": null,
        "city": "Malabo",
        "state": "Bioko Norte",
        "postcode": null,
        "country": "Equatorial Guinea",
        "country_code": "gq"
      },
      "address": "466, Calle Moka Bioko, Ela Nguema, Malabo, Distrito de Malabo, Bioko Norte, 62191 Región Insular, Equatorial Guinea"
    },
    {
      "lat": 3.7727317418816138,
      "lon": 8.791345454514087,
      "geoinfo": {
        "display_name": "Puerto Viejo, Área Presidencial, Malabo, Distrito de Malabo, Bioko Norte, Región Insular, Equatorial Guinea",
        "road": null,
        "house_number": null,
        "neighbourhood": null,
        "suburb": "Área Presidencial",
        "city_district": null,
        "city": "Malabo",
        "state": "Bioko Norte",
        "postcode": null,
        "country": "Equatorial Guinea",
        "country_code": "gq"
      },
      "address": "138, Puerto Viejo, Área Presidencial, Malabo, Distrito de Malabo, Bioko Norte, 14179 Región Insular, Equatorial Guinea"
    },
    {
      "lat": 3.767350835061046,
      "lon": 8.818335211507456,
      "geoinfo": {
        "display_name": "Ela Nguema, Malabo, Distrito de Malabo, Bioko Norte, Región Insular, Equatorial Guinea",
        "road": null,
        "house_number": null,
        "neighbourhood": null,
        "suburb": "Ela Nguema",
        "city_district": null,
        "city": "Malabo",
        "state": "Bioko Norte",
        "postcode": null,
        "country": "Equatorial Guinea",
        "country_code": "gq"
      },
      "address": "253, Ela Nguema, Malabo, Distrito de Malabo, Bioko Norte, 88668 Región Insular, Equatorial Guinea"
    },
    {
      "lat": 3.732811654538487,
      "lon": 8.804108509161598,
      "geoinfo": {
        "display_name": "Malabo, Distrito de Malabo, Bioko Norte, Región Insular, Equatorial Guinea",
        "road": null,
        "house_number": null,
        "neighbourhood": null,
        "suburb": null,
        "city_district": null,
        "city": "Malabo",
        "state": "Bioko Norte",
        "postcode": null,
        "country": "Equatorial Guinea",
        "country_code": "gq"
      },
      "address": "229, Malabo, Distrito de Malabo, Bioko Norte, 71099 Región Insular, Equatorial Guinea"
    },
    {
      "lat": 3.7231342722995713,
      "lon": 8.792080260668008,
      "geoinfo": {
        "display_name": "Malabo, Distrito de Malabo, Bioko Norte, Región Insular, Equatorial Guinea",
        "road": null,
        "house_number": null,
        "neighbourhood": null,
        "suburb": null,
        "city_district": null,
        "city": "Malabo",
        "state": "Bioko Norte",
        "postcode": null,
        "country": "Equatorial Guinea",
        "country_code": "gq"
      },
      "address": "322, Malabo, Distrito de Malabo, Bioko Norte, 10639 Región Insular, Equatorial Guinea"
    },
    {
      "lat": 3.7290602276862495,
      "lon": 8.75674467297819,
      "geoinfo": {
        "display_name": "Santa María, Malabo, Distrito de Malabo, Bioko Norte, Región Insular, Equatorial Guinea",
        "road": null,
        "house_number": null,
        "neighbourhood": null,
        "suburb": "Santa María",
        "city_district": null,
        "city": "Malabo",
        "state": "Bioko Norte",
        "postcode": null,
        "country": "Equatorial Guinea",
        "country_code": "gq"
      },
      "address": "488, Santa María, Malabo, Distrito de Malabo, Bioko Norte, 99530 Región Insular, Equatorial Guinea"
    },
    {
      "lat": 3.7921293959442233,
      "lon": 8.791594626628973,
      "geoinfo": {
        "display_name": "Área Presidencial, Malabo, Distrito de Malabo, Bioko Norte, Región Insular, Equatorial Guinea",
        "road": null,
        "house_number": null,
        "neighbourhood": null,
        "suburb": "Área Presidencial",
        "city_district": null,
        "city": "Malabo",
        "state": "Bioko Norte",
        "postcode": null,
        "country": "Equatorial Guinea",
        "country_code": "gq"
      },
      "address": "673, Área Presidencial, Malabo, Distrito de Malabo, Bioko Norte, 41739 Región Insular, Equatorial Guinea"
    },
    {
      "lat": 3.7696425336131383,
      "lon": 8.788309959982954,
      "geoinfo": {
        "display_name": "Puerto Viejo, Área Presidencial, Malabo, Distrito de Malabo, Bioko Norte, Región Insular, Equatorial Guinea",
        "road": null,
        "house_number": null,
        "neighbourhood": null,
        "suburb": "Área Presidencial",
        "city_district": null,
        "city": "Malabo",
        "state": "Bioko Norte",
        "postcode": null,
        "country": "Equatorial Guinea",
        "country_code": "gq"
      },
      "address": "530, Puerto Viejo, Área Presidencial, Malabo, Distrito de Malabo, Bioko Norte, 49962 Región Insular, Equatorial Guinea"
    },
    {
      "lat": 3.7454388567598316,
      "lon": 8.776263610252723,
      "geoinfo": {
        "display_name": "Los Ángeles, Santa María, Malabo, Distrito de Malabo, Bioko Norte, Región Insular, Equatorial Guinea",
        "road": null,
        "house_number": null,
        "neighbourhood": "Los Ángeles",
        "suburb": "Santa María",
        "city_district": null,
        "city": "Malabo",
        "state": "Bioko Norte",
        "postcode": null,
        "country": "Equatorial Guinea",
        "country_code": "gq"
      },
      "address": "866, Los Ángeles, Santa María, Malabo, Distrito de Malabo, Bioko Norte, 39523 Región Insular, Equatorial Guinea"
    },
    {
      "lat": 3.742230096899475,
      "lon": 8.77706469084066,
      "geoinfo": {
        "display_name": "Los Ángeles, Semu, Malabo, Distrito de Malabo, Bioko Norte, Región Insular, Equatorial Guinea",
        "road": null,
        "house_number": null,
        "neighbourhood": "Los Ángeles",
        "suburb": "Semu",
        "city_district": null,
        "city": "Malabo",
        "state": "Bioko Norte",
        "postcode": null,
        "country": "Equatorial Guinea",
        "country_code": "gq"
      },
      "address": "780, Los Ángeles, Semu, Malabo, Distrito de Malabo, Bioko Norte, 37031 Región Insular, Equatorial Guinea"
    },
    {
      "lat": 3.7410447973147773,
      "lon": 8.767768697461568,
      "geoinfo": {
        "display_name": "Santa María, Malabo, Distrito de Malabo, Bioko Norte, Región Insular, Equatorial Guinea",
        "road": null,
        "house_number": null,
        "neighbourhood": null,
        "suburb": "Santa María",
        "city_district": null,
        "city": "Malabo",
        "state": "Bioko Norte",
        "postcode": null,
        "country": "Equatorial Guinea",
        "country_code": "gq"
      },
      "address": "716, Santa María, Malabo, Distrito de Malabo, Bioko Norte, 21861 Región Insular, Equatorial Guinea"
    },
    {
      "lat": 3.7659314838816096,
      "lon": 8.77852978683384,
      "geoinfo": {
        "display_name": "Punto de la Unidad Africana, Área Presidencial, Malabo, Distrito de Malabo, Bioko Norte, Región Insular, Equatorial Guinea",
        "road": "Punto de la Unidad Africana",
        "house_number": null,
        "neighbourhood": null,
        "suburb": "Área Presidencial",
        "city_district": null,
        "city": "Malabo",
        "state": "Bioko Norte",
        "postcode": null,
        "country": "Equatorial Guinea",
        "country_code": "gq"
      },
      "address": "458, Punto de la Unidad Africana, Área Presidencial, Malabo, Distrito de Malabo, Bioko Norte, 16605 Región Insular, Equatorial Guinea"
    },
    {
      "lat": 3.72410046925455,
      "lon": 8.793190771740992,
      "geoinfo": {
        "display_name": "Malabo, Distrito de Malabo, Bioko Norte, Región Insular, Equatorial Guinea",
        "road": null,
        "house_number": null,
        "neighbourhood": null,
        "suburb": null,
        "city_district": null,
        "city": "Malabo",
        "state": "Bioko Norte",
        "postcode": null,
        "country": "Equatorial Guinea",
        "country_code": "gq"
      },
      "address": "249, Malabo, Distrito de Malabo, Bioko Norte, 20570 Región Insular, Equatorial Guinea"
    },
    {
      "lat": 3.7492080442258757,
      "lon": 8.780773739649192,
      "geoinfo": {
        "display_name": "Calle de Patricio Lumumba, Los Ángeles, Santa Isabel, Malabo, Distrito de Malabo, Bioko Norte, Región Insular, Equatorial Guinea",
        "road": "Calle de Patricio Lumumba",
        "house_number": null,
        "neighbourhood": "Los Ángeles",
        "suburb": "Santa Isabel",
        "city_district": null,
        "city": "Malabo",
        "state": "Bioko Norte",
        "postcode": null,
        "country": "Equatorial Guinea",
        "country_code": "gq"
      },
      "address": "477, Calle de Patricio Lumumba, Los Ángeles, Santa Isabel, Malabo, Distrito de Malabo, Bioko Norte, 14881 Región Insular, Equatorial Guinea"
    },
    {
      "lat": 3.759867918706296,
      "lon": 8.787774525087597,
      "geoinfo": {
        "display_name": "Prisión de Playa Negra, Carretera del Puerto Viejo, Área Presidencial, Malabo, Distrito de Malabo, Bioko Norte, Región Insular, Equatorial Guinea",
        "road": "Carretera del Puerto Viejo",
        "house_number": null,
        "neighbourhood": null,
        "suburb": "Área Presidencial",
        "city_district": null,
        "city": "Malabo",
        "state": "Bioko Norte",
        "postcode": null,
        "country": "Equatorial Guinea",
        "country_code": "gq"
      },
      "address": "832, Carretera del Puerto Viejo, Malabo, 56081 Bioko Norte, Equatorial Guinea"
    },
    {
      "lat": 3.731071470720037,
      "lon": 8.767526020143613,
      "geoinfo": {
        "display_name": "Avenida Hasán II, Santa María, Malabo, Distrito de Malabo, Bioko Norte, Región Insular, Equatorial Guinea",
        "road": "Avenida Hasán II",
        "house_number": null,
        "neighbourhood": null,
        "suburb": "Santa María",
        "city_district": null,
        "city": "Malabo",
        "state": "Bioko Norte",
        "postcode": null,
        "country": "Equatorial Guinea",
        "country_code": "gq"
      },
      "address": "464, Avenida Hasán II, Santa María, Malabo, Distrito de Malabo, Bioko Norte, 42972 Región Insular, Equatorial Guinea"
    },
    {
      "lat": 3.751845428262797,
      "lon": 8.769739203258032,
      "geoinfo": {
        "display_name": "Santa Isabel, Malabo, Distrito de Malabo, Bioko Norte, Región Insular, Equatorial Guinea",
        "road": null,
        "house_number": null,
        "neighbourhood": null,
        "suburb": "Santa Isabel",
        "city_district": null,
        "city": "Malabo",
        "state": "Bioko Norte",
        "postcode": null,
        "country": "Equatorial Guinea",
        "country_code": "gq"
      },
      "address": "906, Santa Isabel, Malabo, Distrito de Malabo, Bioko Norte, 61663 Región Insular, Equatorial Guinea"
    },
    {
      "lat": 3.750493537372292,
      "lon": 8.758658469067969,
      "geoinfo": {
        "display_name": "Santa María, Malabo, Distrito de Malabo, Bioko Norte, Región Insular, Equatorial Guinea",
        "road": null,
        "house_number": null,
        "neighbourhood": null,
        "suburb": "Santa María",
        "city_district": null,
        "city": "Malabo",
        "state": "Bioko Norte",
        "postcode": null,
        "country": "Equatorial Guinea",
        "country_code": "gq"
      },
      "address": "273, Santa María, Malabo, Distrito de Malabo, Bioko Norte, 46254 Región Insular, Equatorial Guinea"
    },
    {
      "lat": 3.7883185176058407,
      "lon": 8.805678995741859,
      "geoinfo": {
        "display_name": "Ela Nguema, Malabo, Distrito de Malabo, Bioko Norte, Región Insular, Equatorial Guinea",
        "road": null,
        "house_number": null,
        "neighbourhood": null,
        "suburb": "Ela Nguema",
        "city_district": null,
        "city": "Malabo",
        "state": "Bioko Norte",
        "postcode": null,
        "country": "Equatorial Guinea",
        "country_code": "gq"
      },
      "address": "047, Ela Nguema, Malabo, Distrito de Malabo, Bioko Norte, 37832 Región Insular, Equatorial Guinea"
    },
    {
      "lat": 3.7339174302589835,
      "lon": 8.756652988491862,
      "geoinfo": {
        "display_name": "Calle de Servicio, Santa María, Malabo, Distrito de Malabo, Bioko Norte, Región Insular, Equatorial Guinea",
        "road": "Calle de Servicio",
        "house_number": null,
        "neighbourhood": null,
        "suburb": "Santa María",
        "city_district": null,
        "city": "Malabo",
        "state": "Bioko Norte",
        "postcode": null,
        "country": "Equatorial Guinea",
        "country_code": "gq"
      },
      "address": "335, Calle de Servicio, Santa María, Malabo, Distrito de Malabo, Bioko Norte, 64847 Región Insular, Equatorial Guinea"
    },
    {
      "lat": 3.753247253889208,
      "lon": 8.772211434158187,
      "geoinfo": {
        "display_name": "Los Ángeles, Santa Isabel, Malabo, Distrito de Malabo, Bioko Norte, Región Insular, Equatorial Guinea",
        "road": null,
        "house_number": null,
        "neighbourhood": "Los Ángeles",
        "suburb": "Santa Isabel",
        "city_district": null,
        "city": "Malabo",
        "state": "Bioko Norte",
        "postcode": null,
        "country": "Equatorial Guinea",
        "country_code": "gq"
      },
      "address": "426, Los Ángeles, Santa Isabel, Malabo, Distrito de Malabo, Bioko Norte, 64495 Región Insular, Equatorial Guinea"
    }
  ],
  "updated_at": "2025-10-19T05:47:57.482941+00:00",
  "_kind": "geo_samples"
}