{
  "country_code": "SG",
  "country": "Singapore",
  "city": "Bukit Merah Estate",
  "geonameid": 1880750,
  "target_addresses": 5,
  "samples": [
    {
      "lat": 1.2799997278770154,
      "lon": 103.85356930166984,
      "geoinfo": {
        "display_name": "Marina Bay Link Mall, Straits View, Marina Bay, Downtown Core, Central, Singapore, 018984, Singapore",
        "road": "Straits View",
        "house_number": null,
        "neighbourhood": "Marina Bay",
        "suburb": "Downtown Core",
        "city_district": "Central",
        "city": "Singapore",
        "state": null,
        "postcode": "018984",
        "country": "Singapore",
        "country_code": "sg"
      },
      "address": "Marina Bay Link Mall, Straits View, Marina Bay, Downtown Core, Central, Singapore, 018984, Singapore"
    },
    {
      "lat": 1.2849988432486128,
      "lon": 103.86251594579872,
      "geoinfo": {
        "display_name": "Sheares Avenue, Bayfront, Marina Bay, Marina South, Central, Singapore, 018971, Singapore",
        "road": "Sheares Avenue",
        "house_number": null,
        "neighbourhood": "Bayfront",
        "suburb": "Marina South",
        "city_district": "Central",
        "city": "Singapore",
        "state": null,
        "postcode": "018971",
        "country": "Singapore",
        "country_code": "sg"
      },
      "address": "Sheares Avenue, Bayfront, Marina Bay, Marina South, Central, Singapore, 018971, Singapore"
    },
    {
      "lat": 1.2701102871953815,
      "lon": 103.8333723056767,
      "geoinfo": {
        "display_name": "Keppel Terminal Avenue, Southern Waterfront, Bukit Merah, Central, Singapore, 099418, Singapore",
        "road": "Keppel Terminal Avenue",
        "house_number": null,
        "neighbourhood": "Southern Waterfront",
        "suburb": "Bukit Merah",
        "city_district": "Central",
        "city": "Singapore",
        "state": null,
        "postcode": "099418",
        "country": "Singapore",
        "country_code": "sg"
      },
      "address": "922, Keppel Terminal Avenue, Southern Waterfront, Bukit Merah, Central, Singapore, 099418, Singapore"
    },
    {
      "lat": 1.2788992897908988,
      "lon": 103.8381190913005,
      "geoinfo": {
        "display_name": "Singapore General Hospital, Jalan Bukit Merah, Radin Mas, Bukit Merah, Central, Singapore, 160143, Singapore",
        "road": "Jalan Bukit Merah",
        "house_number": null,
        "neighbourhood": "Radin Mas",
        "suburb": "Bukit Merah",
        "city_district": "Central",
        "city": "Singapore",
        "state": null,
        "postcode": "160143",
        "country": "Singapore",
        "country_code": "sg"
      },
      "address": "037, Jalan Bukit Merah, 160143 Bukit Merah Estate, Singapore"
    },
    {
      "lat": 1.2475264085167512,
      "lon": 103.80328973194626,
      "geoinfo": {
        "display_name": "Fort Siloso, Southern Islands, Central, Singapore, 098970, Singapore",
        "road": null,
        "house_number": null,
        "neighbourhood": null,
        "suburb": "Southern Islands",
        "city_district": "Central",
        "city": "Singapore",
        "state": null,
        "postcode": "098970",
        "country": "Singapore",
        "country_code": "sg"
      },
      "address": "603, Fort Siloso, Southern Islands, Central, Singapore, 098970, Singapore"
    },
    {
      "lat": 1.317181598186583,
      "lon": 103.8347786505245,
      "geoinfo": {
        "display_name": "Balmoral Road, Tanglin, Central, Singapore, 259708, Singapore",
        "road": "Balmoral Road",
        "house_number": null,
        "neighbourhood": null,
        "suburb": "Tanglin",
        "city_district": "Central",
        "city": "Singapore",
        "state": null,
        "postcode": "259708",
        "country": "Singapore",
        "country_code": "sg"
      },
      "address": "550, Balmoral Road, Tanglin, Central, Singapore, 259708, Singapore"
    }
  ],
  "updated_at": "2025-10-19T06:15:25.105494+00:00",
  "_kind": "geo_samples"
}