{
  "country_code": "SG",
  "country": "Singapore",
  "city": "Jurong Town",
  "geonameid": 1881953,
  "target_addresses": 2,
  "samples": [
    {
      "lat": 1.3193867837627313,
      "lon": 103.74935582681073,
      "geoinfo": {
        "display_name": "Pandan Gardens, Jurong East, Southwest, Singapore, 600415, Singapore",
        "road": "Pandan Gardens",
        "house_number": null,
        "neighbourhood": null,
        "suburb": "Jurong East",
        "city_district": "Southwest",
        "city": "Singapore",
        "state": null,
        "postcode": "600415",
        "country": "Singapore",
        "country_code": "sg"
      },
      "address": "Pandan Gardens, Jurong Town, Singapore"
    },
    {
      "lat": 1.302369879880699,
      "lon": 103.71892234628658,
      "geoinfo": {
        "display_name": "Jurong Port, Jurong East, Southwest, Singapore, 619175, Singapore",
        "road": null,
        "house_number": null,
        "neighbourhood": null,
        "suburb": "Jurong East",
        "city_district": "Southwest",
        "city": "Singapore",
        "state": null,
        "postcode": "619175",
        "country": "Singapore",
        "country_code": "sg"
      },
      "address": "Jurong East, Jurong Town, Singapore"
    },
    {
      "lat": 1.3076118986114422,
      "lon": 103.73415950974662,
      "geoinfo": {
        "display_name": "Eurokars Aftersales Centre, 27A, Tanjong Penjuru, Jurong East, Southwest, Singapore, 609042, Singapore",
        "road": "Tanjong Penjuru",
        "house_number": "27A",
        "neighbourhood": null,
        "suburb": "Jurong East",
        "city_district": "Southwest",
        "city": "Singapore",
        "state": null,
        "postcode": "609042",
        "country": "Singapore",
        "country_code": "sg"
      },
      "address": "Eurokars Aftersales Centre, 27A, Tanjong Penjuru, Jurong East, Southwest, Singapore, 609042, Singapore"
    },
    {
      "lat": 1.3480087504141534,
      "lon": 103.7063522014255,
      "geoinfo": {
        "display_name": "Jurong West Avenue 2, Boon Lay Place, Jurong West, Southwest, Singapore, 641268, Singapore",
        "road": "Jurong West Avenue 2",
        "house_number": null,
        "neighbourhood": null,
        "suburb": "Jurong West",
        "city_district": "Southwest",
        "city": "Singapore",
        "state": null,
        "postcode": "641268",
        "country": "Singapore",
        "country_code": "sg"
      },
      "address": "Jurong West Avenue 2, Boon Lay Place, Jurong West, Southwest, Singapore, 641268, Singapore"
    }
  ],
  "updated_at": "2025-10-19T04:42:48.937427+00:00",
  "_kind": "geo_samples"
}