{
  "country_code": "SG",
  "country": "Singapore",
  "city": "Kallang",
  "geonameid": 1880628,
  "target_addresses": 2,
  "samples": [
    {
      "lat": 1.3575771820930367,
      "lon": 103.85634279257734,
      "geoinfo": {
        "display_name": "Central Expressway, Ang Mo Kio, Central, Singapore, 569643, Singapore",
        "road": "Central Expressway",
        "house_number": null,
        "neighbourhood": null,
        "suburb": "Ang Mo Kio",
        "city_district": "Central",
        "city": "Singapore",
        "state": null,
        "postcode": "569643",
        "country": "Singapore",
        "country_code": "sg"
      },
      "address": "Central Expressway, Kallang, Singapore"
    },
    {
      "lat": 1.2976798465448511,
      "lon": 103.8547878248078,
      "geoinfo": {
        "display_name": "National Library, 100, Victoria Street, Selegie, Orchard Road, Rochor, Central, Singapore, 188064, Singapore",
        "road": "Victoria Street",
        "house_number": "100",
        "neighbourhood": "Selegie",
        "suburb": "Rochor",
        "city_district": "Central",
        "city": "Singapore",
        "state": null,
        "postcode": "188064",
        "country": "Singapore",
        "country_code": "sg"
      },
      "address": "100 Victoria Street, Kallang, Singapore"
    },
    {
      "lat": 1.355887312179135,
      "lon": 103.85122954127787,
      "geoinfo": {
        "display_name": "Bishan Sports Hall and Recreation Centre, Kallang Park Connector, Marymount, Bishan, Central, Singapore, 579782, Singapore",
        "road": "Kallang Park Connector",
        "house_number": null,
        "neighbourhood": null,
        "suburb": "Bishan",
        "city_district": "Central",
        "city": "Singapore",
        "state": null,
        "postcode": "579782",
        "country": "Singapore",
        "country_code": "sg"
      },
      "address": "754, Kallang Park Connector, 579782 Kallang, Singapore"
    },
    {
      "lat": 1.3049252995611613,
      "lon": 103.86462965345412,
      "geoinfo": {
        "display_name": "21, Crawford Street, Crawford, Bugis, Central, Singapore, 190021, Singapore",
        "road": "Crawford Street",
        "house_number": "21",
        "neighbourhood": null,
        "suburb": "Crawford",
        "city_district": "Central",
        "city": "Singapore",
        "state": null,
        "postcode": "190021",
        "country": "Singapore",
        "country_code": "sg"
      },
      "address": "21, Crawford Street, Crawford, Bugis, Central, Singapore, 190021, Singapore"
    }
  ],
  "updated_at": "2025-10-19T06:34:26.694988+00:00",
  "_kind": "geo_samples"
}