{
  "country_code": "SG",
  "country": "Singapore",
  "city": "Punggol",
  "geonameid": 1880348,
  "target_addresses": 2,
  "samples": [
    {
      "lat": 1.422428433959736,
      "lon": 103.90410546091492,
      "geoinfo": {
        "display_name": "Punggol Park Connector, Singapur East, Punggol, Northeast, Singapore, 823420, Singapore",
        "road": "Punggol Park Connector",
        "house_number": null,
        "neighbourhood": "Singapur East",
        "suburb": "Punggol",
        "city_district": "Northeast",
        "city": "Singapore",
        "state": null,
        "postcode": "823420",
        "country": "Singapore",
        "country_code": "sg"
      },
      "address": "Punggol Park Connector, Punggol, Singapore"
    },
    {
      "lat": 1.3989452437303633,
      "lon": 103.87179437326277,
      "geoinfo": {
        "display_name": "31, Jalan Tari Piring, Sengkang, Singapur East, Central, Singapore, 799257, Singapore",
        "road": "Jalan Tari Piring",
        "house_number": "31",
        "neighbourhood": "Singapur East",
        "suburb": "Sengkang",
        "city_district": "Central",
        "city": "Singapore",
        "state": null,
        "postcode": "799257",
        "country": "Singapore",
        "country_code": "sg"
      },
      "address": "31, Jalan Tari Piring, Sengkang, Singapur East, Central, Singapore, 799257, Singapore"
    },
    {
      "lat": 1.3896684474344163,
      "lon": 103.87868570788866,
      "geoinfo": {
        "display_name": "413B, Fernvale Link, Sengkang, Singapur East, Central, Singapore, 792413, Singapore",
        "road": "Fernvale Link",
        "house_number": "413B",
        "neighbourhood": "Singapur East",
        "suburb": "Sengkang",
        "city_district": "Central",
        "city": "Singapore",
        "state": null,
        "postcode": "792413",
        "country": "Singapore",
        "country_code": "sg"
      },
      "address": "413B, Fernvale Link, Sengkang, Singapur East, Central, Singapore, 792413, Singapore"
    }
  ],
  "updated_at": "2025-10-19T06:34:06.850537+00:00",
  "_kind": "geo_samples"
}