{
  "country_code": "SG",
  "country": "Singapore",
  "city": "Saujana",
  "geonameid": 13100483,
  "target_addresses": 2,
  "samples": [
    {
      "lat": 1.3848908559461814,
      "lon": 103.76682166569178,
      "geoinfo": {
        "display_name": "Jelapang Road, Saujana, BPanjangSG, Northwest, Singapore, 671524, Singapore",
        "road": "Jelapang Road",
        "house_number": null,
        "neighbourhood": null,
        "suburb": "BPanjangSG",
        "city_district": "Northwest",
        "city": "Singapore",
        "state": null,
        "postcode": "671524",
        "country": "Singapore",
        "country_code": "sg"
      },
      "address": "Jelapang Road, Saujana, Singapore"
    },
    {
      "lat": 1.3837314367692912,
      "lon": 103.77284927686712,
      "geoinfo": {
        "display_name": "Blk 449A MSCP, Bukit Panjang Ring Road, Fajar, BPanjangSG, Northwest, Singapore, 679944, Singapore",
        "road": "Bukit Panjang Ring Road",
        "house_number": null,
        "neighbourhood": null,
        "suburb": "BPanjangSG",
        "city_district": "Northwest",
        "city": "Singapore",
        "state": null,
        "postcode": "679944",
        "country": "Singapore",
        "country_code": "sg"
      },
      "address": "Bukit Panjang Ring Road, Saujana, Singapore"
    },
    {
      "lat": 1.3875021599475494,
      "lon": 103.75972581882232,
      "geoinfo": {
        "display_name": "West Spring Secondary School, 61, Senja Road, Senja, BPanjangSG, Northwest, Singapore, 677737, Singapore",
        "road": "Senja Road",
        "house_number": "61",
        "neighbourhood": null,
        "suburb": "BPanjangSG",
        "city_district": "Northwest",
        "city": "Singapore",
        "state": null,
        "postcode": "677737",
        "country": "Singapore",
        "country_code": "sg"
      },
      "address": "61, Senja Road, 677737 Saujana, Singapore"
    },
    {
      "lat": 1.3944939724718475,
      "lon": 103.80540723815176,
      "geoinfo": {
        "display_name": "SAF Nee Soon Range I, Mandai Road Track 7, Central Water Catchment, Northwest, Singapore, 779953, Singapore",
        "road": "Mandai Road Track 7",
        "house_number": null,
        "neighbourhood": null,
        "suburb": "Central Water Catchment",
        "city_district": "Northwest",
        "city": "Singapore",
        "state": null,
        "postcode": "779953",
        "country": "Singapore",
        "country_code": "sg"
      },
      "address": "SAF Nee Soon Range I, Mandai Road Track 7, Central Water Catchment, Northwest, Singapore, 779953, Singapore"
    }
  ],
  "updated_at": "2025-10-19T04:43:26.808759+00:00",
  "_kind": "geo_samples"
}