{
  "country_code": "SG",
  "country": "Singapore",
  "city": "Senja",
  "geonameid": 13118136,
  "target_addresses": 2,
  "samples": [
    {
      "lat": 1.386828691291088,
      "lon": 103.75821965765807,
      "geoinfo": {
        "display_name": "Blk 636A, 636A, Senja Road, Senja, BPanjangSG, Northwest, Singapore, 670629, Singapore",
        "road": "Senja Road",
        "house_number": "636A",
        "neighbourhood": null,
        "suburb": "BPanjangSG",
        "city_district": "Northwest",
        "city": "Singapore",
        "state": null,
        "postcode": "670629",
        "country": "Singapore",
        "country_code": "sg"
      },
      "address": "636A Senja Road, Senja, Singapore"
    },
    {
      "lat": 1.3505457285462523,
      "lon": 103.73688778480106,
      "geoinfo": {
        "display_name": "Tengah Plantation, Tengah, Southwest, Singapore, 692106, Singapore",
        "road": null,
        "house_number": null,
        "neighbourhood": null,
        "suburb": "Tengah",
        "city_district": "Southwest",
        "city": "Singapore",
        "state": null,
        "postcode": "692106",
        "country": "Singapore",
        "country_code": "sg"
      },
      "address": "598, Tengah Plantation, Tengah, Southwest, Singapore, 692106, Singapore"
    },
    {
      "lat": 1.363918389934721,
      "lon": 103.72714904603522,
      "geoinfo": {
        "display_name": "Tengah Central, Tengah Garden, Tengah, Southwest, Singapore, 699891, Singapore",
        "road": "Tengah Central",
        "house_number": null,
        "neighbourhood": null,
        "suburb": "Tengah",
        "city_district": "Southwest",
        "city": "Singapore",
        "state": null,
        "postcode": "699891",
        "country": "Singapore",
        "country_code": "sg"
      },
      "address": "633, Tengah Central, Tengah Garden, Tengah, Southwest, Singapore, 699891, Singapore"
    }
  ],
  "updated_at": "2025-10-19T06:57:53.712010+00:00",
  "_kind": "geo_samples"
}