{
  "country_code": "SG",
  "country": "Singapore",
  "city": "Teck Whye",
  "geonameid": 13118140,
  "target_addresses": 2,
  "samples": [
    {
      "lat": 1.4050831381269706,
      "lon": 103.74745298541319,
      "geoinfo": {
        "display_name": "Pang Sua Park Connector, Yew Tee, Choa Chu Kang, Southwest, Singapore, 682691, Singapore",
        "road": "Pang Sua Park Connector",
        "house_number": null,
        "neighbourhood": null,
        "suburb": "Choa Chu Kang",
        "city_district": "Southwest",
        "city": "Singapore",
        "state": null,
        "postcode": "682691",
        "country": "Singapore",
        "country_code": "sg"
      },
      "address": "Pang Sua Park Connector, Teck Whye, Singapore"
    },
    {
      "lat": 1.380155846546892,
      "lon": 103.74059539609779,
      "geoinfo": {
        "display_name": "408, Choa Chu Kang Avenue 3, Peng Siang, Choa Chu Kang, Southwest, Singapore, 680408, Singapore",
        "road": "Choa Chu Kang Avenue 3",
        "house_number": "408",
        "neighbourhood": null,
        "suburb": "Choa Chu Kang",
        "city_district": "Southwest",
        "city": "Singapore",
        "state": null,
        "postcode": "680408",
        "country": "Singapore",
        "country_code": "sg"
      },
      "address": "408 Choa Chu Kang Avenue 3, Teck Whye, Singapore"
    },
    {
      "lat": 1.4171873781066886,
      "lon": 103.72780967179835,
      "geoinfo": {
        "display_name": "Kranji Marshes, Neo Tiew Harvest Lane, Lim Chu Kang, Southwest, Singapore, 718814, Singapore",
        "road": "Neo Tiew Harvest Lane",
        "house_number": null,
        "neighbourhood": null,
        "suburb": "Lim Chu Kang",
        "city_district": "Southwest",
        "city": "Singapore",
        "state": null,
        "postcode": "718814",
        "country": "Singapore",
        "country_code": "sg"
      },
      "address": "Kranji Marshes, Neo Tiew Harvest Lane, Lim Chu Kang, Southwest, Singapore, 718814, Singapore"
    },
    {
      "lat": 1.3803750736112115,
      "lon": 103.73816027683898,
      "geoinfo": {
        "display_name": "426, Choa Chu Kang Avenue 4, Peng Siang, Choa Chu Kang, Southwest, Singapore, 680426, Singapore",
        "road": "Choa Chu Kang Avenue 4",
        "house_number": "426",
        "neighbourhood": null,
        "suburb": "Choa Chu Kang",
        "city_district": "Southwest",
        "city": "Singapore",
        "state": null,
        "postcode": "680426",
        "country": "Singapore",
        "country_code": "sg"
      },
      "address": "426, Choa Chu Kang Avenue 4, Peng Siang, Choa Chu Kang, Southwest, Singapore, 680426, Singapore"
    },
    {
      "lat": 1.3629443870045674,
      "lon": 103.71234722439424,
      "geoinfo": {
        "display_name": "Tengah Close, Tengah, Southwest, Singapore, 699859, Singapore",
        "road": "Tengah Close",
        "house_number": null,
        "neighbourhood": null,
        "suburb": "Tengah",
        "city_district": "Southwest",
        "city": "Singapore",
        "state": null,
        "postcode": "699859",
        "country": "Singapore",
        "country_code": "sg"
      },
      "address": "643, Tengah Close, Tengah, Southwest, Singapore, 699859, Singapore"
    },
    {
      "lat": 1.3976629087771058,
      "lon": 103.7149004082265,
      "geoinfo": {
        "display_name": "Lorong Ayam Hutan, Western Water Catchment, Southwest, Singapore, 709831, Singapore",
        "road": "Lorong Ayam Hutan",
        "house_number": null,
        "neighbourhood": null,
        "suburb": "Western Water Catchment",
        "city_district": "Southwest",
        "city": "Singapore",
        "state": null,
        "postcode": "709831",
        "country": "Singapore",
        "country_code": "sg"
      },
      "address": "037, Lorong Ayam Hutan, Western Water Catchment, Southwest, Singapore, 709831, Singapore"
    }
  ],
  "updated_at": "2025-10-19T03:22:06.898250+00:00",
  "_kind": "geo_samples"
}