{
  "country_code": "SG",
  "country": "Singapore",
  "city": "Telok Blangah",
  "geonameid": 1884403,
  "target_addresses": 2,
  "samples": [
    {
      "lat": 1.2928446890005783,
      "lon": 103.80953944098705,
      "geoinfo": {
        "display_name": "Princess House, 332, Alexandra Road, Dawson, Queenstown, Central, Singapore, 159945, Singapore",
        "road": "Alexandra Road",
        "house_number": "332",
        "neighbourhood": null,
        "suburb": "Queenstown",
        "city_district": "Central",
        "city": "Singapore",
        "state": null,
        "postcode": "159945",
        "country": "Singapore",
        "country_code": "sg"
      },
      "address": "332 Alexandra Road, Telok Blangah, Singapore"
    },
    {
      "lat": 1.2773516217722107,
      "lon": 103.78086770047673,
      "geoinfo": {
        "display_name": "Pasir Panjang Terminal, Queenstown, Southwest, Singapore, 118604, Singapore",
        "road": null,
        "house_number": null,
        "neighbourhood": null,
        "suburb": "Queenstown",
        "city_district": "Southwest",
        "city": "Singapore",
        "state": null,
        "postcode": "118604",
        "country": "Singapore",
        "country_code": "sg"
      },
      "address": "Queenstown, Telok Blangah, Singapore"
    },
    {
      "lat": 1.2908974962155657,
      "lon": 103.81536629918648,
      "geoinfo": {
        "display_name": "Tiong Bahru Road, Bukit Merah, Central, Singapore, 159085, Singapore",
        "road": "Tiong Bahru Road",
        "house_number": null,
        "neighbourhood": null,
        "suburb": "Bukit Merah",
        "city_district": "Central",
        "city": "Singapore",
        "state": null,
        "postcode": "159085",
        "country": "Singapore",
        "country_code": "sg"
      },
      "address": "862, Tiong Bahru Road, Bukit Merah, Central, Singapore, 159085, Singapore"
    },
    {
      "lat": 1.2683133206271853,
      "lon": 103.79834867031454,
      "geoinfo": {
        "display_name": "Pasir Panjang Power Station B, 25, Pasir Panjang Road, Southern Waterfront, Queenstown, Central, Singapore, 117537, Singapore",
        "road": "Pasir Panjang Road",
        "house_number": "25",
        "neighbourhood": "Southern Waterfront",
        "suburb": "Queenstown",
        "city_district": "Central",
        "city": "Singapore",
        "state": null,
        "postcode": "117537",
        "country": "Singapore",
        "country_code": "sg"
      },
      "address": "Pasir Panjang Power Station B, 25, Pasir Panjang Road, Southern Waterfront, Queenstown, Central, Singapore, 117537, Singapore"
    }
  ],
  "updated_at": "2025-10-19T04:43:08.192399+00:00",
  "_kind": "geo_samples"
}