{
  "country_code": "AT",
  "country": "Austria",
  "city": "Alsergrund",
  "geonameid": 12214080,
  "target_addresses": 8,
  "samples": [
    {
      "lat": 48.24329927192847,
      "lon": 16.3617811129876,
      "geoinfo": {
        "display_name": "McDonald's, 66-68, Heiligenstädter Straße, KG Heiligenstadt, Döbling, Vienna, 1190, Austria",
        "road": "Heiligenstädter Straße",
        "house_number": "66-68",
        "neighbourhood": null,
        "suburb": "KG Heiligenstadt",
        "city_district": "Döbling",
        "city": "Vienna",
        "state": null,
        "postcode": "1190",
        "country": "Austria",
        "country_code": "at"
      },
      "address": "66-68 Heiligenstädter Straße, Alsergrund, Austria"
    },
    {
      "lat": 48.22911725818985,
      "lon": 16.363137800631595,
      "geoinfo": {
        "display_name": "Spittelauer Lände, Althangrund, KG Alsergrund, Alsergrund, Vienna, 1090, Austria",
        "road": "Spittelauer Lände",
        "house_number": null,
        "neighbourhood": null,
        "suburb": "Althangrund",
        "city_district": "Alsergrund",
        "city": "Vienna",
        "state": null,
        "postcode": "1090",
        "country": "Austria",
        "country_code": "at"
      },
      "address": "Spittelauer Lände, Alsergrund, Austria"
    },
    {
      "lat": 48.26279824453358,
      "lon": 16.365844412138017,
      "geoinfo": {
        "display_name": "22, Hackhofergasse, KG Nussdorf, Döbling, Vienna, 1190, Austria",
        "road": "Hackhofergasse",
        "house_number": "22",
        "neighbourhood": null,
        "suburb": "KG Nussdorf",
        "city_district": "Döbling",
        "city": "Vienna",
        "state": null,
        "postcode": "1190",
        "country": "Austria",
        "country_code": "at"
      },
      "address": "22, Hackhofergasse, KG Nussdorf, Döbling, Vienna, 1190, Austria"
    },
    {
      "lat": 48.213621766418264,
      "lon": 16.293425450988245,
      "geoinfo": {
        "display_name": "Johann-Staud-Straße, KG Ottakring, Ottakring, Vienna, 1160, Austria",
        "road": "Johann-Staud-Straße",
        "house_number": null,
        "neighbourhood": null,
        "suburb": "KG Ottakring",
        "city_district": "Ottakring",
        "city": "Vienna",
        "state": null,
        "postcode": "1160",
        "country": "Austria",
        "country_code": "at"
      },
      "address": "129, Johann-Staud-Straße, KG Ottakring, Ottakring, Vienna, 1160, Austria"
    },
    {
      "lat": 48.19265992074131,
      "lon": 16.397066232591392,
      "geoinfo": {
        "display_name": "Oberzellergasse, KG Landstraße, Landstraße, Vienna, 1030, Austria",
        "road": "Oberzellergasse",
        "house_number": null,
        "neighbourhood": null,
        "suburb": "KG Landstraße",
        "city_district": "Landstraße",
        "city": "Vienna",
        "state": null,
        "postcode": "1030",
        "country": "Austria",
        "country_code": "at"
      },
      "address": "085, Oberzellergasse, KG Landstraße, Landstraße, Vienna, 1030, Austria"
    },
    {
      "lat": 48.22780809411897,
      "lon": 16.32076868121831,
      "geoinfo": {
        "display_name": "57, Czartoryskigasse, KG Hernals, Hernals, Vienna, 1170, Austria",
        "road": "Czartoryskigasse",
        "house_number": "57",
        "neighbourhood": null,
        "suburb": "KG Hernals",
        "city_district": "Hernals",
        "city": "Vienna",
        "state": null,
        "postcode": "1170",
        "country": "Austria",
        "country_code": "at"
      },
      "address": "57, Czartoryskigasse, KG Hernals, Hernals, Vienna, 1170, Austria"
    },
    {
      "lat": 48.24048620568893,
      "lon": 16.41711525234229,
      "geoinfo": {
        "display_name": "Franziska-Donner-Rhee-Weg, KG Kaisermühlen, Donaustadt, Vienna, 1220, Austria",
        "road": "Franziska-Donner-Rhee-Weg",
        "house_number": null,
        "neighbourhood": null,
        "suburb": "KG Kaisermühlen",
        "city_district": "Donaustadt",
        "city": "Vienna",
        "state": null,
        "postcode": "1220",
        "country": "Austria",
        "country_code": "at"
      },
      "address": "804, Franziska-Donner-Rhee-Weg, KG Kaisermühlen, Donaustadt, Vienna, 1220, Austria"
    },
    {
      "lat": 48.195393079166514,
      "lon": 16.327689572444132,
      "geoinfo": {
        "display_name": "62, Felberstraße, Neu-Rudolfsheim, KG Rudolfsheim, Rudolfsheim-Fünfhaus, Vienna, 1150, Austria",
        "road": "Felberstraße",
        "house_number": "62",
        "neighbourhood": "Neu-Rudolfsheim",
        "suburb": "KG Rudolfsheim",
        "city_district": "Rudolfsheim-Fünfhaus",
        "city": "Vienna",
        "state": null,
        "postcode": "1150",
        "country": "Austria",
        "country_code": "at"
      },
      "address": "62, Felberstraße, Neu-Rudolfsheim, KG Rudolfsheim, Rudolfsheim-Fünfhaus, Vienna, 1150, Austria"
    }
  ],
  "updated_at": "2025-10-19T03:16:13.210462+00:00",
  "_kind": "geo_samples"
}