{
  "country_code": "AT",
  "country": "Austria",
  "city": "Aspern",
  "geonameid": 2782315,
  "target_addresses": 2,
  "samples": [
    {
      "lat": 48.19844864126781,
      "lon": 16.510178469752315,
      "geoinfo": {
        "display_name": "Lannesstraße, KG Essling, Donaustadt, Vienna, 1220, Austria",
        "road": "Lannesstraße",
        "house_number": null,
        "neighbourhood": null,
        "suburb": "KG Essling",
        "city_district": "Donaustadt",
        "city": "Vienna",
        "state": null,
        "postcode": "1220",
        "country": "Austria",
        "country_code": "at"
      },
      "address": "Lannesstraße, Aspern, Austria"
    },
    {
      "lat": 48.19825800086994,
      "lon": 16.502084217970648,
      "geoinfo": {
        "display_name": "Lobauwegerl, KG Aspern, Donaustadt, Vienna, 1220, Austria",
        "road": "Lobauwegerl",
        "house_number": null,
        "neighbourhood": null,
        "suburb": "KG Aspern",
        "city_district": "Donaustadt",
        "city": "Vienna",
        "state": null,
        "postcode": "1220",
        "country": "Austria",
        "country_code": "at"
      },
      "address": "Lobauwegerl, Aspern, Austria"
    },
    {
      "lat": 48.22926956609469,
      "lon": 16.485165590339033,
      "geoinfo": {
        "display_name": "Clara-Schumann-Gasse, Oberes Hausfeld, KG Aspern, Donaustadt, Vienna, 1220, Austria",
        "road": "Clara-Schumann-Gasse",
        "house_number": null,
        "neighbourhood": "Oberes Hausfeld",
        "suburb": "KG Aspern",
        "city_district": "Donaustadt",
        "city": "Vienna",
        "state": null,
        "postcode": "1220",
        "country": "Austria",
        "country_code": "at"
      },
      "address": "884, Clara-Schumann-Gasse, Oberes Hausfeld, KG Aspern, Donaustadt, Vienna, 1220, Austria"
    },
    {
      "lat": 48.22608523615325,
      "lon": 16.527327072181457,
      "geoinfo": {
        "display_name": "Niklas-Eslarn-Straße, KG Essling, Donaustadt, Vienna, 1220, Austria",
        "road": "Niklas-Eslarn-Straße",
        "house_number": null,
        "neighbourhood": null,
        "suburb": "KG Essling",
        "city_district": "Donaustadt",
        "city": "Vienna",
        "state": null,
        "postcode": "1220",
        "country": "Austria",
        "country_code": "at"
      },
      "address": "097, Niklas-Eslarn-Straße, KG Essling, Donaustadt, Vienna, 1220, Austria"
    }
  ],
  "updated_at": "2025-10-19T02:29:15.504074+00:00",
  "_kind": "geo_samples"
}