{
  "country_code": "AT",
  "country": "Austria",
  "city": "Bregenz",
  "geonameid": 2781503,
  "target_addresses": 2,
  "samples": [
    {
      "lat": 47.52787894919196,
      "lon": 9.724840762793576,
      "geoinfo": {
        "display_name": "Bregenz, Bezirk Bregenz, Vorarlberg, Austria",
        "road": null,
        "house_number": null,
        "neighbourhood": null,
        "suburb": null,
        "city_district": null,
        "city": "Bregenz",
        "state": "Vorarlberg",
        "postcode": null,
        "country": "Austria",
        "country_code": "at"
      },
      "address": "Bregenz, Vorarlberg, Austria"
    },
    {
      "lat": 47.500050277823085,
      "lon": 9.69875400712059,
      "geoinfo": {
        "display_name": "Unterer Achdamm, Hard, Bezirk Bregenz, Vorarlberg, 6971, Austria",
        "road": "Unterer Achdamm",
        "house_number": null,
        "neighbourhood": null,
        "suburb": null,
        "city_district": null,
        "city": "Hard",
        "state": "Vorarlberg",
        "postcode": "6971",
        "country": "Austria",
        "country_code": "at"
      },
      "address": "Unterer Achdamm, Bregenz, Vorarlberg, Austria"
    },
    {
      "lat": 47.498812108208,
      "lon": 9.75486294475872,
      "geoinfo": {
        "display_name": "17, Mildenbergstraße, Bregenz, Bezirk Bregenz, Vorarlberg, 6900, Austria",
        "road": "Mildenbergstraße",
        "house_number": "17",
        "neighbourhood": null,
        "suburb": null,
        "city_district": null,
        "city": "Bregenz",
        "state": "Vorarlberg",
        "postcode": "6900",
        "country": "Austria",
        "country_code": "at"
      },
      "address": "17, Mildenbergstraße, Bregenz, Bezirk Bregenz, Vorarlberg, 6900, Austria"
    },
    {
      "lat": 47.50912945673763,
      "lon": 9.755186573505625,
      "geoinfo": {
        "display_name": "7, Gehren, Tannenbach, Lochau, Bezirk Bregenz, Vorarlberg, 6900, Austria",
        "road": "Gehren",
        "house_number": "7",
        "neighbourhood": null,
        "suburb": null,
        "city_district": null,
        "city": "Lochau",
        "state": "Vorarlberg",
        "postcode": "6900",
        "country": "Austria",
        "country_code": "at"
      },
      "address": "7, Gehren, Tannenbach, Lochau, Bezirk Bregenz, Vorarlberg, 6900, Austria"
    }
  ],
  "updated_at": "2025-10-19T00:54:39.704831+00:00",
  "_kind": "geo_samples"
}