{
  "country_code": "AT",
  "country": "Austria",
  "city": "Döbling",
  "geonameid": 2600996,
  "target_addresses": 2,
  "samples": [
    {
      "lat": 48.25145984523907,
      "lon": 16.325515753553418,
      "geoinfo": {
        "display_name": "41, Bellevuestraße, Sievering, Lower Sievering, Döbling, Vienna, 1190, Austria",
        "road": "Bellevuestraße",
        "house_number": "41",
        "neighbourhood": null,
        "suburb": "Sievering",
        "city_district": "Döbling",
        "city": "Vienna",
        "state": null,
        "postcode": "1190",
        "country": "Austria",
        "country_code": "at"
      },
      "address": "41 Bellevuestraße, Döbling, Austria"
    },
    {
      "lat": 48.27661315245236,
      "lon": 16.35700037543609,
      "geoinfo": {
        "display_name": "Kuchelauer Hafenstraße, KG Kahlenbergerdorf, Döbling, Vienna, 1190, Austria",
        "road": "Kuchelauer Hafenstraße",
        "house_number": null,
        "neighbourhood": null,
        "suburb": "KG Kahlenbergerdorf",
        "city_district": "Döbling",
        "city": "Vienna",
        "state": null,
        "postcode": "1190",
        "country": "Austria",
        "country_code": "at"
      },
      "address": "Kuchelauer Hafenstraße, Döbling, Austria"
    },
    {
      "lat": 48.24924332196774,
      "lon": 16.268013984898626,
      "geoinfo": {
        "display_name": "Hameauweg, KG Neuwaldegg, Hernals, Vienna, 1170, Austria",
        "road": "Hameauweg",
        "house_number": null,
        "neighbourhood": null,
        "suburb": "KG Neuwaldegg",
        "city_district": "Hernals",
        "city": "Vienna",
        "state": null,
        "postcode": "1170",
        "country": "Austria",
        "country_code": "at"
      },
      "address": "972, Hameauweg, KG Neuwaldegg, Hernals, Vienna, 1170, Austria"
    },
    {
      "lat": 48.28341264514414,
      "lon": 16.33511060080561,
      "geoinfo": {
        "display_name": "Parcours #1, Katastralgemeinde Klosterneuburg, Klosterneuburg, Bezirk Tulln, Lower Austria, 3400, Austria",
        "road": "Parcours #1",
        "house_number": null,
        "neighbourhood": null,
        "suburb": "Katastralgemeinde Klosterneuburg",
        "city_district": null,
        "city": "Klosterneuburg",
        "state": "Lower Austria",
        "postcode": "3400",
        "country": "Austria",
        "country_code": "at"
      },
      "address": "Parcours #1, Katastralgemeinde Klosterneuburg, Klosterneuburg, Bezirk Tulln, Lower Austria, 3400, Austria"
    }
  ],
  "updated_at": "2025-10-19T02:32:51.368648+00:00",
  "_kind": "geo_samples"
}