{
  "country_code": "AT",
  "country": "Austria",
  "city": "Favoriten",
  "geonameid": 8063098,
  "target_addresses": 2,
  "samples": [
    {
      "lat": 48.18120301638243,
      "lon": 16.40291179227546,
      "geoinfo": {
        "display_name": "Hochstraße St. Marx, KG Simmering, Simmering, Vienna, 1110, Austria",
        "road": "Hochstraße St. Marx",
        "house_number": null,
        "neighbourhood": null,
        "suburb": "KG Simmering",
        "city_district": "Simmering",
        "city": "Vienna",
        "state": null,
        "postcode": "1110",
        "country": "Austria",
        "country_code": "at"
      },
      "address": "Hochstraße St. Marx, Favoriten, Austria"
    },
    {
      "lat": 48.13490487510746,
      "lon": 16.431918763169435,
      "geoinfo": {
        "display_name": "Wald Aktiv, Ackergasse, KG Unterlaa, Favoriten, Vienna, Bezirk Bruck an der Leitha, Lower Austria, 1100, Austria",
        "road": "Ackergasse",
        "house_number": null,
        "neighbourhood": null,
        "suburb": "KG Unterlaa",
        "city_district": "Favoriten",
        "city": "Vienna",
        "state": "Lower Austria",
        "postcode": "1100",
        "country": "Austria",
        "country_code": "at"
      },
      "address": "Ackergasse, Favoriten, Lower Austria, Austria"
    },
    {
      "lat": 48.15056647523391,
      "lon": 16.39681181371156,
      "geoinfo": {
        "display_name": "Restaurantbrücke, Per-Albin-Hansson-Siedlung Ost, KG Oberlaa Stadt, Favoriten, Vienna, 1100, Austria",
        "road": "Restaurantbrücke",
        "house_number": null,
        "neighbourhood": "Per-Albin-Hansson-Siedlung Ost",
        "suburb": "KG Oberlaa Stadt",
        "city_district": "Favoriten",
        "city": "Vienna",
        "state": null,
        "postcode": "1100",
        "country": "Austria",
        "country_code": "at"
      },
      "address": "508, Restaurantbrücke, Per-Albin-Hansson-Siedlung Ost, KG Oberlaa Stadt, Favoriten, Vienna, 1100, Austria"
    },
    {
      "lat": 48.16475330295796,
      "lon": 16.39659786917295,
      "geoinfo": {
        "display_name": "Moselgasse, Monte Laa, KG Oberlaa Stadt, Favoriten, Vienna, 1100, Austria",
        "road": "Moselgasse",
        "house_number": null,
        "neighbourhood": "Monte Laa",
        "suburb": "KG Oberlaa Stadt",
        "city_district": "Favoriten",
        "city": "Vienna",
        "state": null,
        "postcode": "1100",
        "country": "Austria",
        "country_code": "at"
      },
      "address": "109, Moselgasse, Monte Laa, KG Oberlaa Stadt, Favoriten, Vienna, 1100, Austria"
    }
  ],
  "updated_at": "2025-10-19T02:32:28.786814+00:00",
  "_kind": "geo_samples"
}