{
  "country_code": "AT",
  "country": "Austria",
  "city": "Floridsdorf",
  "geonameid": 2779469,
  "target_addresses": 2,
  "samples": [
    {
      "lat": 48.26265825201169,
      "lon": 16.419450477350757,
      "geoinfo": {
        "display_name": "5, Ferdinand-Platzer-Gasse, Am Park, KG Leopoldau, Floridsdorf, Vienna, 1210, Austria",
        "road": "Ferdinand-Platzer-Gasse",
        "house_number": "5",
        "neighbourhood": null,
        "suburb": "KG Leopoldau",
        "city_district": "Floridsdorf",
        "city": "Vienna",
        "state": null,
        "postcode": "1210",
        "country": "Austria",
        "country_code": "at"
      },
      "address": "5 Ferdinand-Platzer-Gasse, Floridsdorf, Austria"
    },
    {
      "lat": 48.28149199614223,
      "lon": 16.40257523350277,
      "geoinfo": {
        "display_name": "Dragoungasse, KG Großjedlersdorf I, Floridsdorf, Vienna, 1210, Austria",
        "road": "Dragoungasse",
        "house_number": null,
        "neighbourhood": null,
        "suburb": "KG Großjedlersdorf I",
        "city_district": "Floridsdorf",
        "city": "Vienna",
        "state": null,
        "postcode": "1210",
        "country": "Austria",
        "country_code": "at"
      },
      "address": "Dragoungasse, Floridsdorf, Austria"
    },
    {
      "lat": 48.286666815053366,
      "lon": 16.3992773608111,
      "geoinfo": {
        "display_name": "Strebersdorfer Straße, KG Strebersdorf, Floridsdorf, Vienna, 1210, Austria",
        "road": "Strebersdorfer Straße",
        "house_number": null,
        "neighbourhood": null,
        "suburb": "KG Strebersdorf",
        "city_district": "Floridsdorf",
        "city": "Vienna",
        "state": null,
        "postcode": "1210",
        "country": "Austria",
        "country_code": "at"
      },
      "address": "252, Strebersdorfer Straße, KG Strebersdorf, Floridsdorf, Vienna, 1210, Austria"
    },
    {
      "lat": 48.24129313448375,
      "lon": 16.33803910805197,
      "geoinfo": {
        "display_name": "6, Saileräckergasse, Upper Döbling, Döbling, Vienna, 1190, Austria",
        "road": "Saileräckergasse",
        "house_number": "6",
        "neighbourhood": null,
        "suburb": "Upper Döbling",
        "city_district": "Döbling",
        "city": "Vienna",
        "state": null,
        "postcode": "1190",
        "country": "Austria",
        "country_code": "at"
      },
      "address": "6, Saileräckergasse, Upper Döbling, Döbling, Vienna, 1190, Austria"
    }
  ],
  "updated_at": "2025-10-19T02:47:04.130680+00:00",
  "_kind": "geo_samples"
}