{
  "country_code": "AT",
  "country": "Austria",
  "city": "Innsbruck",
  "geonameid": 2775220,
  "target_addresses": 10,
  "samples": [
    {
      "lat": 47.27250326994083,
      "lon": 11.431140386320351,
      "geoinfo": {
        "display_name": "Freiwillige Feuerwehr Reichenau, 4, Roßaugasse, Gewerbegebiet Rossau, Amras, Innsbruck, Tyrol, 6020, Austria",
        "road": "Roßaugasse",
        "house_number": "4",
        "neighbourhood": null,
        "suburb": "Gewerbegebiet Rossau",
        "city_district": "Amras",
        "city": "Innsbruck",
        "state": "Tyrol",
        "postcode": "6020",
        "country": "Austria",
        "country_code": "at"
      },
      "address": "4 Roßaugasse, Innsbruck, Tyrol, Austria"
    },
    {
      "lat": 47.25521853245206,
      "lon": 11.44908089379734,
      "geoinfo": {
        "display_name": "Senderweg, Aldrans, Bezirk Innsbruck-Land, Tyrol, 6071, Austria",
        "road": "Senderweg",
        "house_number": null,
        "neighbourhood": null,
        "suburb": null,
        "city_district": null,
        "city": "Aldrans",
        "state": "Tyrol",
        "postcode": "6071",
        "country": "Austria",
        "country_code": "at"
      },
      "address": "Senderweg, Innsbruck, Tyrol, Austria"
    },
    {
      "lat": 47.29146901840435,
      "lon": 11.360010455338243,
      "geoinfo": {
        "display_name": "Achselwaldweg, Hötting, Innsbruck, Tyrol, 6020, Austria",
        "road": "Achselwaldweg",
        "house_number": null,
        "neighbourhood": null,
        "suburb": null,
        "city_district": "Hötting",
        "city": "Innsbruck",
        "state": "Tyrol",
        "postcode": "6020",
        "country": "Austria",
        "country_code": "at"
      },
      "address": "Achselwaldweg, Innsbruck, 55419 Tyrol, Austria"
    },
    {
      "lat": 47.30660524542827,
      "lon": 11.401820461714102,
      "geoinfo": {
        "display_name": "Arzler Horn, Hornsteig, Arzl, Mühlau, Innsbruck, Tyrol, 6020, Austria",
        "road": "Hornsteig",
        "house_number": null,
        "neighbourhood": null,
        "suburb": "Arzl",
        "city_district": "Mühlau",
        "city": "Innsbruck",
        "state": "Tyrol",
        "postcode": "6020",
        "country": "Austria",
        "country_code": "at"
      },
      "address": "Hornsteig, Innsbruck, 46501 Tyrol, Austria"
    },
    {
      "lat": 47.29513324156064,
      "lon": 11.427066305786584,
      "geoinfo": {
        "display_name": "Garneid, Rum, Bezirk Innsbruck-Land, Tyrol, 6063, Austria",
        "road": "Garneid",
        "house_number": null,
        "neighbourhood": null,
        "suburb": null,
        "city_district": null,
        "city": "Rum",
        "state": "Tyrol",
        "postcode": "6063",
        "country": "Austria",
        "country_code": "at"
      },
      "address": "044, Garneid, Innsbruck, 6063 Tyrol, Austria"
    },
    {
      "lat": 47.29883425950504,
      "lon": 11.423906626656441,
      "geoinfo": {
        "display_name": "Rumer-Alm-Weg, Rum, Bezirk Innsbruck-Land, Tyrol, 6063, Austria",
        "road": "Rumer-Alm-Weg",
        "house_number": null,
        "neighbourhood": null,
        "suburb": null,
        "city_district": null,
        "city": "Rum",
        "state": "Tyrol",
        "postcode": "6063",
        "country": "Austria",
        "country_code": "at"
      },
      "address": "065, Rumer-Alm-Weg, Innsbruck, 6063 Tyrol, Austria"
    },
    {
      "lat": 47.283014198559634,
      "lon": 11.339302105174283,
      "geoinfo": {
        "display_name": "Söldensteig, Hötting, Innsbruck, Tyrol, 6020, Austria",
        "road": "Söldensteig",
        "house_number": null,
        "neighbourhood": null,
        "suburb": null,
        "city_district": "Hötting",
        "city": "Innsbruck",
        "state": "Tyrol",
        "postcode": "6020",
        "country": "Austria",
        "country_code": "at"
      },
      "address": "786, Söldensteig, Hötting, Innsbruck, Tyrol, 6020, Austria"
    },
    {
      "lat": 47.26592711476935,
      "lon": 11.458713821766723,
      "geoinfo": {
        "display_name": "Inntal Autobahn, Deml, Ampass, Bezirk Innsbruck-Land, Tyrol, 6070, Austria",
        "road": "Inntal Autobahn",
        "house_number": null,
        "neighbourhood": "Deml",
        "suburb": null,
        "city_district": null,
        "city": "Ampass",
        "state": "Tyrol",
        "postcode": "6070",
        "country": "Austria",
        "country_code": "at"
      },
      "address": "669, Inntal Autobahn, Innsbruck, 6070 Tyrol, Austria"
    },
    {
      "lat": 47.30013380290488,
      "lon": 11.379079019030568,
      "geoinfo": {
        "display_name": "Gersteig, Hötting, Innsbruck, Tyrol, 6020, Austria",
        "road": "Gersteig",
        "house_number": null,
        "neighbourhood": null,
        "suburb": null,
        "city_district": "Hötting",
        "city": "Innsbruck",
        "state": "Tyrol",
        "postcode": "6020",
        "country": "Austria",
        "country_code": "at"
      },
      "address": "329, Gersteig, Hötting, Innsbruck, Tyrol, 6020, Austria"
    },
    {
      "lat": 47.2567802068096,
      "lon": 11.350915988342422,
      "geoinfo": {
        "display_name": "Parkhaus, Mietwagenrückgabe, Höttinger Au, Hötting, Innsbruck, Tyrol, 6020, Austria",
        "road": "Mietwagenrückgabe",
        "house_number": null,
        "neighbourhood": null,
        "suburb": "Höttinger Au",
        "city_district": "Hötting",
        "city": "Innsbruck",
        "state": "Tyrol",
        "postcode": "6020",
        "country": "Austria",
        "country_code": "at"
      },
      "address": "688, Mietwagenrückgabe, Innsbruck, 6020 Tyrol, Austria"
    }
  ],
  "updated_at": "2025-10-19T03:15:08.199536+00:00",
  "_kind": "geo_samples"
}