{
  "country_code": "AT",
  "country": "Austria",
  "city": "Klagenfurt am Wörthersee",
  "geonameid": 2774326,
  "target_addresses": 2,
  "samples": [
    {
      "lat": 46.638473209406875,
      "lon": 14.314742212745333,
      "geoinfo": {
        "display_name": "15, Heidengasse, Annabichl, Klagenfurt, Carinthia, 9020, Austria",
        "road": "Heidengasse",
        "house_number": "15",
        "neighbourhood": null,
        "suburb": "Annabichl",
        "city_district": null,
        "city": "Klagenfurt",
        "state": "Carinthia",
        "postcode": "9020",
        "country": "Austria",
        "country_code": "at"
      },
      "address": "15 Heidengasse, Klagenfurt am Wörthersee, Carinthia, Austria"
    },
    {
      "lat": 46.61140864290109,
      "lon": 14.337647972788002,
      "geoinfo": {
        "display_name": "Odörfer Haustechnik, 1, Fallegasse, St. Ruprecht, Klagenfurt, Carinthia, 9020, Austria",
        "road": "Fallegasse",
        "house_number": "1",
        "neighbourhood": null,
        "suburb": "St. Ruprecht",
        "city_district": null,
        "city": "Klagenfurt",
        "state": "Carinthia",
        "postcode": "9020",
        "country": "Austria",
        "country_code": "at"
      },
      "address": "1 Fallegasse, Klagenfurt am Wörthersee, Carinthia, Austria"
    },
    {
      "lat": 46.581805662550266,
      "lon": 14.300637155386003,
      "geoinfo": {
        "display_name": "Stiftkogelstraße, Viktring, Klagenfurt, Carinthia, 9073, Austria",
        "road": "Stiftkogelstraße",
        "house_number": null,
        "neighbourhood": null,
        "suburb": "Viktring",
        "city_district": null,
        "city": "Klagenfurt",
        "state": "Carinthia",
        "postcode": "9073",
        "country": "Austria",
        "country_code": "at"
      },
      "address": "634, Stiftkogelstraße, Klagenfurt am Wörthersee, 9073 Carinthia, Austria"
    },
    {
      "lat": 46.652932205247424,
      "lon": 14.352289035408038,
      "geoinfo": {
        "display_name": "184, Nessendorfer Straße, Nessendorf, Hörtendorf, Klagenfurt, Carinthia, 9020, Austria",
        "road": "Nessendorfer Straße",
        "house_number": "184",
        "neighbourhood": null,
        "suburb": null,
        "city_district": null,
        "city": "Klagenfurt",
        "state": "Carinthia",
        "postcode": "9020",
        "country": "Austria",
        "country_code": "at"
      },
      "address": "184, Nessendorfer Straße, Nessendorf, Hörtendorf, Klagenfurt, Carinthia, 9020, Austria"
    }
  ],
  "updated_at": "2025-10-19T02:33:21.244658+00:00",
  "_kind": "geo_samples"
}