{
  "country_code": "AT",
  "country": "Austria",
  "city": "Linz",
  "geonameid": 2772400,
  "target_addresses": 10,
  "samples": [
    {
      "lat": 48.292940850433205,
      "lon": 14.26096674453893,
      "geoinfo": {
        "display_name": "22, Auf der Halde, Buchberg, Gaumberg, Holzheim, Leonding, Bezirk Linz-Land, Upper Austria, 4060, Austria",
        "road": "Auf der Halde",
        "house_number": "22",
        "neighbourhood": "Buchberg",
        "suburb": "Gaumberg",
        "city_district": null,
        "city": "Leonding",
        "state": "Upper Austria",
        "postcode": "4060",
        "country": "Austria",
        "country_code": "at"
      },
      "address": "22 Auf der Halde, Linz, Upper Austria, Austria"
    },
    {
      "lat": 48.30817995674802,
      "lon": 14.295217834008904,
      "geoinfo": {
        "display_name": "constantin bike, 25, Kaisergasse, Innere Stadt, Linz, Upper Austria, 4020, Austria",
        "road": "Kaisergasse",
        "house_number": "25",
        "neighbourhood": null,
        "suburb": "Innere Stadt",
        "city_district": null,
        "city": "Linz",
        "state": "Upper Austria",
        "postcode": "4020",
        "country": "Austria",
        "country_code": "at"
      },
      "address": "25 Kaisergasse, Linz, Upper Austria, Austria"
    },
    {
      "lat": 48.31683374756334,
      "lon": 14.323941823571495,
      "geoinfo": {
        "display_name": "33b, Industriezeile, Industriegelände, Industriegebiet-Hafen, Linz, Upper Austria, 4020, Austria",
        "road": "Industriezeile",
        "house_number": "33b",
        "neighbourhood": null,
        "suburb": "Industriegelände",
        "city_district": null,
        "city": "Linz",
        "state": "Upper Austria",
        "postcode": "4020",
        "country": "Austria",
        "country_code": "at"
      },
      "address": "33b Industriezeile, Linz, 58100 Upper Austria, Austria"
    },
    {
      "lat": 48.303229802562456,
      "lon": 14.344969584566677,
      "geoinfo": {
        "display_name": "L569, Windegg, Steyregg, Bezirk Urfahr-Umgebung, Upper Austria, 4221, Austria",
        "road": "L569",
        "house_number": null,
        "neighbourhood": null,
        "suburb": null,
        "city_district": null,
        "city": "Steyregg",
        "state": "Upper Austria",
        "postcode": "4221",
        "country": "Austria",
        "country_code": "at"
      },
      "address": "L569, Linz, 09346 Upper Austria, Austria"
    },
    {
      "lat": 48.31801224413317,
      "lon": 14.321275165280628,
      "geoinfo": {
        "display_name": "Industriezeile, Industriegelände, Industriegebiet-Hafen, Linz, Upper Austria, 4020, Austria",
        "road": "Industriezeile",
        "house_number": null,
        "neighbourhood": null,
        "suburb": "Industriegelände",
        "city_district": null,
        "city": "Linz",
        "state": "Upper Austria",
        "postcode": "4020",
        "country": "Austria",
        "country_code": "at"
      },
      "address": "274, Industriezeile, Industriegelände, Industriegebiet-Hafen, Linz, Upper Austria, 4020, Austria"
    },
    {
      "lat": 48.30355677885877,
      "lon": 14.24385881037417,
      "geoinfo": {
        "display_name": "Friesenegger Straße, Zaubertal, Friesenegg, Holzheim, Leonding, Bezirk Linz-Land, Upper Austria, 4060, Austria",
        "road": "Friesenegger Straße",
        "house_number": null,
        "neighbourhood": "Zaubertal",
        "suburb": null,
        "city_district": null,
        "city": "Leonding",
        "state": "Upper Austria",
        "postcode": "4060",
        "country": "Austria",
        "country_code": "at"
      },
      "address": "689, Friesenegger Straße, Zaubertal, Friesenegg, Holzheim, Leonding, Bezirk Linz-Land, Upper Austria, 4060, Austria"
    },
    {
      "lat": 48.29571954746671,
      "lon": 14.291416745996528,
      "geoinfo": {
        "display_name": "Ankerhof, 2, Stelzhamerstraße, Innere Stadt, Linz, Upper Austria, 4020, Austria",
        "road": "Stelzhamerstraße",
        "house_number": "2",
        "neighbourhood": null,
        "suburb": "Innere Stadt",
        "city_district": null,
        "city": "Linz",
        "state": "Upper Austria",
        "postcode": "4020",
        "country": "Austria",
        "country_code": "at"
      },
      "address": "Ankerhof, 2, Stelzhamerstraße, Innere Stadt, Linz, Upper Austria, 4020, Austria"
    },
    {
      "lat": 48.304196526476375,
      "lon": 14.300311377239206,
      "geoinfo": {
        "display_name": "71, Gruberstraße, Kaplanhof, Linz, Upper Austria, 4020, Austria",
        "road": "Gruberstraße",
        "house_number": "71",
        "neighbourhood": null,
        "suburb": "Kaplanhof",
        "city_district": null,
        "city": "Linz",
        "state": "Upper Austria",
        "postcode": "4020",
        "country": "Austria",
        "country_code": "at"
      },
      "address": "71, Gruberstraße, Kaplanhof, Linz, Upper Austria, 4020, Austria"
    },
    {
      "lat": 48.31570937879323,
      "lon": 14.300363293218245,
      "geoinfo": {
        "display_name": "Hofmann Personal Stadion, Straßerau, Kaplanhof, Linz, Upper Austria, 4020, Austria",
        "road": "Straßerau",
        "house_number": null,
        "neighbourhood": null,
        "suburb": "Kaplanhof",
        "city_district": null,
        "city": "Linz",
        "state": "Upper Austria",
        "postcode": "4020",
        "country": "Austria",
        "country_code": "at"
      },
      "address": "690, Straßerau, Linz, 4020 Upper Austria, Austria"
    },
    {
      "lat": 48.32774860837631,
      "lon": 14.27204611197286,
      "geoinfo": {
        "display_name": "17, Depinystraße, Pöstlingberg, Linz, Upper Austria, 4040, Austria",
        "road": "Depinystraße",
        "house_number": "17",
        "neighbourhood": null,
        "suburb": "Pöstlingberg",
        "city_district": null,
        "city": "Linz",
        "state": "Upper Austria",
        "postcode": "4040",
        "country": "Austria",
        "country_code": "at"
      },
      "address": "17, Depinystraße, Pöstlingberg, Linz, Upper Austria, 4040, Austria"
    }
  ],
  "updated_at": "2025-10-19T03:14:50.815830+00:00",
  "_kind": "geo_samples"
}