{
  "country_code": "AT",
  "country": "Austria",
  "city": "Margareten",
  "geonameid": 12214070,
  "target_addresses": 7,
  "samples": [
    {
      "lat": 48.195587728032216,
      "lon": 16.361834502379015,
      "geoinfo": {
        "display_name": "TTTech, 2, Schönbrunner Straße, Freihausviertel, Wieden, Vienna, 1040, Austria",
        "road": "Schönbrunner Straße",
        "house_number": "2",
        "neighbourhood": "Freihausviertel",
        "suburb": "Wieden",
        "city_district": "Wieden",
        "city": "Vienna",
        "state": null,
        "postcode": "1040",
        "country": "Austria",
        "country_code": "at"
      },
      "address": "2 Schönbrunner Straße, Margareten, Austria"
    },
    {
      "lat": 48.16218646032475,
      "lon": 16.303538041487702,
      "geoinfo": {
        "display_name": "21, Hervicusgasse, KG Hetzendorf, Meidling, Vienna, 1120, Austria",
        "road": "Hervicusgasse",
        "house_number": "21",
        "neighbourhood": null,
        "suburb": "KG Hetzendorf",
        "city_district": "Meidling",
        "city": "Vienna",
        "state": null,
        "postcode": "1120",
        "country": "Austria",
        "country_code": "at"
      },
      "address": "21, Hervicusgasse, KG Hetzendorf, Meidling, Vienna, 1120, Austria"
    },
    {
      "lat": 48.18689959066974,
      "lon": 16.29652946058189,
      "geoinfo": {
        "display_name": "36, Hietzinger Hauptstraße, KG Hietzing, Hietzing, Vienna, 1130, Austria",
        "road": "Hietzinger Hauptstraße",
        "house_number": "36",
        "neighbourhood": null,
        "suburb": "KG Hietzing",
        "city_district": "Hietzing",
        "city": "Vienna",
        "state": null,
        "postcode": "1130",
        "country": "Austria",
        "country_code": "at"
      },
      "address": "36, Hietzinger Hauptstraße, KG Hietzing, Hietzing, Vienna, 1130, Austria"
    },
    {
      "lat": 48.1758980276215,
      "lon": 16.405352945362345,
      "geoinfo": {
        "display_name": "11-17, Brehmstraße, KG Simmering, Simmering, Vienna, 1110, Austria",
        "road": "Brehmstraße",
        "house_number": "11-17",
        "neighbourhood": null,
        "suburb": "KG Simmering",
        "city_district": "Simmering",
        "city": "Vienna",
        "state": null,
        "postcode": "1110",
        "country": "Austria",
        "country_code": "at"
      },
      "address": "11-17, Brehmstraße, KG Simmering, Simmering, Vienna, 1110, Austria"
    },
    {
      "lat": 48.22117370115811,
      "lon": 16.392774526856037,
      "geoinfo": {
        "display_name": "Jakov-Lind-Straße, Austria Campus, KG Leopoldstadt, Leopoldstadt, Vienna, 1020, Austria",
        "road": "Jakov-Lind-Straße",
        "house_number": null,
        "neighbourhood": null,
        "suburb": "KG Leopoldstadt",
        "city_district": "Leopoldstadt",
        "city": "Vienna",
        "state": null,
        "postcode": "1020",
        "country": "Austria",
        "country_code": "at"
      },
      "address": "201, Jakov-Lind-Straße, Austria Campus, KG Leopoldstadt, Leopoldstadt, Vienna, 1020, Austria"
    },
    {
      "lat": 48.19127796774865,
      "lon": 16.414168580948548,
      "geoinfo": {
        "display_name": "Hochstraße St. Marx, Erdberger Mais, KG Landstraße, Landstraße, Vienna, 1030, Austria",
        "road": "Hochstraße St. Marx",
        "house_number": null,
        "neighbourhood": "Erdberger Mais",
        "suburb": "KG Landstraße",
        "city_district": "Landstraße",
        "city": "Vienna",
        "state": null,
        "postcode": "1030",
        "country": "Austria",
        "country_code": "at"
      },
      "address": "811, Hochstraße St. Marx, Erdberger Mais, KG Landstraße, Landstraße, Vienna, 1030, Austria"
    },
    {
      "lat": 48.194558054863286,
      "lon": 16.300664340379434,
      "geoinfo": {
        "display_name": "197-199, Goldschlagstraße, KG Penzing, Penzing, Vienna, 1140, Austria",
        "road": "Goldschlagstraße",
        "house_number": "197-199",
        "neighbourhood": null,
        "suburb": "KG Penzing",
        "city_district": "Penzing",
        "city": "Vienna",
        "state": null,
        "postcode": "1140",
        "country": "Austria",
        "country_code": "at"
      },
      "address": "197-199, Goldschlagstraße, KG Penzing, Penzing, Vienna, 1140, Austria"
    }
  ],
  "updated_at": "2025-10-19T03:15:56.198542+00:00",
  "_kind": "geo_samples"
}