{
  "country_code": "AT",
  "country": "Austria",
  "city": "Mödling",
  "geonameid": 2771335,
  "target_addresses": 2,
  "samples": [
    {
      "lat": 48.10804947834581,
      "lon": 16.27522699365294,
      "geoinfo": {
        "display_name": "4, Kesslerweg, Brunn am Gebirge, Bezirk Mödling, Lower Austria, 2345, Austria",
        "road": "Kesslerweg",
        "house_number": "4",
        "neighbourhood": null,
        "suburb": null,
        "city_district": null,
        "city": "Brunn am Gebirge",
        "state": "Lower Austria",
        "postcode": "2345",
        "country": "Austria",
        "country_code": "at"
      },
      "address": "4 Kesslerweg, Mödling, Lower Austria, Austria"
    },
    {
      "lat": 48.095101637506254,
      "lon": 16.296774805560283,
      "geoinfo": {
        "display_name": "Buchhandlung Kral St. Gabriel, 171, Gabrieler Straße, Südstadt, Maria Enzersdorf, Bezirk Mödling, Lower Austria, 2344, Austria",
        "road": "Gabrieler Straße",
        "house_number": "171",
        "neighbourhood": null,
        "suburb": null,
        "city_district": null,
        "city": "Südstadt",
        "state": "Lower Austria",
        "postcode": "2344",
        "country": "Austria",
        "country_code": "at"
      },
      "address": "171 Gabrieler Straße, Mödling, Lower Austria, Austria"
    },
    {
      "lat": 48.11017076209782,
      "lon": 16.269874012174064,
      "geoinfo": {
        "display_name": "Wiener Außenring Autobahn, Brunn am Gebirge, Bezirk Mödling, Lower Austria, 2345, Austria",
        "road": "Wiener Außenring Autobahn",
        "house_number": null,
        "neighbourhood": null,
        "suburb": null,
        "city_district": null,
        "city": "Brunn am Gebirge",
        "state": "Lower Austria",
        "postcode": "2345",
        "country": "Austria",
        "country_code": "at"
      },
      "address": "856, Wiener Außenring Autobahn, Brunn am Gebirge, Bezirk Mödling, Lower Austria, 2345, Austria"
    },
    {
      "lat": 48.1080727452966,
      "lon": 16.271074557736657,
      "geoinfo": {
        "display_name": "10, Blaumenweg, Brunn am Gebirge, Bezirk Mödling, Lower Austria, 2345, Austria",
        "road": "Blaumenweg",
        "house_number": "10",
        "neighbourhood": null,
        "suburb": null,
        "city_district": null,
        "city": "Brunn am Gebirge",
        "state": "Lower Austria",
        "postcode": "2345",
        "country": "Austria",
        "country_code": "at"
      },
      "address": "10, Blaumenweg, Brunn am Gebirge, Bezirk Mödling, Lower Austria, 2345, Austria"
    }
  ],
  "updated_at": "2025-10-19T02:29:08.493570+00:00",
  "_kind": "geo_samples"
}