{
  "country_code": "VG",
  "country": "British Virgin Islands",
  "city": "Road Town",
  "geonameid": 3577430,
  "target_addresses": 300,
  "samples": [
    {
      "lat": 18.445640095916175,
      "lon": -64.61962643286832,
      "geoinfo": {
        "display_name": "Cooper Bay Road, Road Town, Tortola, VG1110, British Virgin Islands",
        "road": "Cooper Bay Road",
        "house_number": null,
        "neighbourhood": null,
        "suburb": null,
        "city_district": null,
        "city": "Road Town",
        "state": null,
        "postcode": "VG1110",
        "country": "British Virgin Islands",
        "country_code": "vg"
      },
      "address": "Cooper Bay Road, Road Town, British Virgin Islands"
    },
    {
      "lat": 18.392831062789043,
      "lon": -64.5997186106076,
      "geoinfo": {
        "display_name": "Parham Town, Tortola, VG1120, British Virgin Islands",
        "road": null,
        "house_number": null,
        "neighbourhood": null,
        "suburb": null,
        "city_district": null,
        "city": "Parham Town",
        "state": null,
        "postcode": "VG1120",
        "country": "British Virgin Islands",
        "country_code": "vg"
      },
      "address": "Road Town, British Virgin Islands"
    },
    {
      "lat": 18.447030136396158,
      "lon": -64.60063356661684,
      "geoinfo": {
        "display_name": "Carot Bay Road, Wesley Hill, Road Town, Tortola, VG1110, British Virgin Islands",
        "road": "Carot Bay Road",
        "house_number": null,
        "neighbourhood": null,
        "suburb": null,
        "city_district": null,
        "city": "Road Town",
        "state": null,
        "postcode": "VG1110",
        "country": "British Virgin Islands",
        "country_code": "vg"
      },
      "address": "Carot Bay Road, Road Town, British Virgin Islands"
    },
    {
      "lat": 18.457617859827,
      "lon": -64.60330388840767,
      "geoinfo": {
        "display_name": "Rouge's Bay Road, Wesley Hill, Road Town, Tortola, VG1110, British Virgin Islands",
        "road": "Rouge's Bay Road",
        "house_number": null,
        "neighbourhood": null,
        "suburb": null,
        "city_district": null,
        "city": "Road Town",
        "state": null,
        "postcode": "VG1110",
        "country": "British Virgin Islands",
        "country_code": "vg"
      },
      "address": "Rouge's Bay Road, Road Town, British Virgin Islands"
    },
    {
      "lat": 18.406833117694028,
      "lon": -64.62276630599136,
      "geoinfo": {
        "display_name": "Slaney Hill Road, Road Town, Tortola, VG1110, British Virgin Islands",
        "road": "Slaney Hill Road",
        "house_number": null,
        "neighbourhood": null,
        "suburb": null,
        "city_district": null,
        "city": "Road Town",
        "state": null,
        "postcode": "VG1110",
        "country": "British Virgin Islands",
        "country_code": "vg"
      },
      "address": "Slaney Hill Road, Road Town, British Virgin Islands"
    },
    {
      "lat": 18.430618126621912,
      "lon": -64.5992839399943,
      "geoinfo": {
        "display_name": "Jean Hill Road, Road Town, Tortola, VG1110, British Virgin Islands",
        "road": "Jean Hill Road",
        "house_number": null,
        "neighbourhood": null,
        "suburb": null,
        "city_district": null,
        "city": "Road Town",
        "state": null,
        "postcode": "VG1110",
        "country": "British Virgin Islands",
        "country_code": "vg"
      },
      "address": "Jean Hill Road, Road Town, British Virgin Islands"
    },
    {
      "lat": 18.45137134450072,
      "lon": -64.64005901108115,
      "geoinfo": {
        "display_name": "Mount Healthy Drive, Road Town, Tortola, VG1110, British Virgin Islands",
        "road": "Mount Healthy Drive",
        "house_number": null,
        "neighbourhood": null,
        "suburb": null,
        "city_district": null,
        "city": "Road Town",
        "state": null,
        "postcode": "VG1110",
        "country": "British Virgin Islands",
        "country_code": "vg"
      },
      "address": "Mount Healthy Drive, Road Town, British Virgin Islands"
    },
    {
      "lat": 18.410132388733164,
      "lon": -64.62281839062435,
      "geoinfo": {
        "display_name": "Duffs Bottom Road, Road Town, Tortola, VG1110, British Virgin Islands",
        "road": "Duffs Bottom Road",
        "house_number": null,
        "neighbourhood": null,
        "suburb": null,
        "city_district": null,
        "city": "Road Town",
        "state": null,
        "postcode": "VG1110",
        "country": "British Virgin Islands",
        "country_code": "vg"
      },
      "address": "Duffs Bottom Road, Road Town, British Virgin Islands"
    },
    {
      "lat": 18.3922680630245,
      "lon": -64.64515898809903,
      "geoinfo": {
        "display_name": "Sir Francis Drake Highway, Hannah, Road Town, Tortola, VG1110, British Virgin Islands",
        "road": "Sir Francis Drake Highway",
        "house_number": null,
        "neighbourhood": null,
        "suburb": null,
        "city_district": null,
        "city": "Road Town",
        "state": null,
        "postcode": "VG1110",
        "country": "British Virgin Islands",
        "country_code": "vg"
      },
      "address": "Sir Francis Drake Highway, Road Town, British Virgin Islands"
    },
    {
      "lat": 18.417389540058295,
      "lon": -64.60315141453285,
      "geoinfo": {
        "display_name": "Blackburn Highway, Wickhams Cay II, Purcell, Parham Town, Tortola, VG1110, British Virgin Islands",
        "road": "Blackburn Highway",
        "house_number": null,
        "neighbourhood": "Wickhams Cay II",
        "suburb": null,
        "city_district": null,
        "city": "Parham Town",
        "state": null,
        "postcode": "VG1110",
        "country": "British Virgin Islands",
        "country_code": "vg"
      },
      "address": "Blackburn Highway, Road Town, British Virgin Islands"
    },
    {
      "lat": 18.39971129263204,
      "lon": -64.63452315836342,
      "geoinfo": {
        "display_name": "Nanny Cay Resort and Marina, Nanny Cay Road, Hannah, Road Town, Tortola, VG1110, British Virgin Islands",
        "road": "Nanny Cay Road",
        "house_number": null,
        "neighbourhood": null,
        "suburb": null,
        "city_district": null,
        "city": "Road Town",
        "state": null,
        "postcode": "VG1110",
        "country": "British Virgin Islands",
        "country_code": "vg"
      },
      "address": "Nanny Cay Road, Road Town, British Virgin Islands"
    },
    {
      "lat": 18.405395681996236,
      "lon": -64.60973964462259,
      "geoinfo": {
        "display_name": "Wickhams Cay I, Road Town, Tortola, VG1110, British Virgin Islands",
        "road": null,
        "house_number": null,
        "neighbourhood": "Wickhams Cay I",
        "suburb": null,
        "city_district": null,
        "city": "Road Town",
        "state": null,
        "postcode": "VG1110",
        "country": "British Virgin Islands",
        "country_code": "vg"
      },
      "address": "Wickhams Cay I, Road Town, British Virgin Islands"
    },
    {
      "lat": 18.414754089405292,
      "lon": -64.63638498529676,
      "geoinfo": {
        "display_name": "Nibbs Estate Road, Threllfall, Road Town, Tortola, VG1110, British Virgin Islands",
        "road": "Nibbs Estate Road",
        "house_number": null,
        "neighbourhood": null,
        "suburb": null,
        "city_district": null,
        "city": "Road Town",
        "state": null,
        "postcode": "VG1110",
        "country": "British Virgin Islands",
        "country_code": "vg"
      },
      "address": "Nibbs Estate Road, Road Town, British Virgin Islands"
    },
    {
      "lat": 18.406431071524374,
      "lon": -64.61319240838802,
      "geoinfo": {
        "display_name": "Hotel Prospect Reef, Waterfront Drive, Wickhams Cay I, Road Town, Tortola, VG1110, British Virgin Islands",
        "road": "Waterfront Drive",
        "house_number": null,
        "neighbourhood": "Wickhams Cay I",
        "suburb": null,
        "city_district": null,
        "city": "Road Town",
        "state": null,
        "postcode": "VG1110",
        "country": "British Virgin Islands",
        "country_code": "vg"
      },
      "address": "Waterfront Drive, Road Town, British Virgin Islands"
    },
    {
      "lat": 18.404480486850062,
      "lon": -64.64039751936457,
      "geoinfo": {
        "display_name": "Pleasant Valley Road, Hannah, Road Town, Tortola, VG1110, British Virgin Islands",
        "road": "Pleasant Valley Road",
        "house_number": null,
        "neighbourhood": null,
        "suburb": null,
        "city_district": null,
        "city": "Road Town",
        "state": null,
        "postcode": "VG1110",
        "country": "British Virgin Islands",
        "country_code": "vg"
      },
      "address": "Pleasant Valley Road, Road Town, British Virgin Islands"
    },
    {
      "lat": 18.417585453170158,
      "lon": -64.65630644016429,
      "geoinfo": {
        "display_name": "Ridge Road, Doty, Road Town, Tortola, VG1130, British Virgin Islands",
        "road": "Ridge Road",
        "house_number": null,
        "neighbourhood": null,
        "suburb": null,
        "city_district": null,
        "city": "Road Town",
        "state": null,
        "postcode": "VG1130",
        "country": "British Virgin Islands",
        "country_code": "vg"
      },
      "address": "Ridge Road, Road Town, British Virgin Islands"
    },
    {
      "lat": 18.429940498178567,
      "lon": -64.64176226374653,
      "geoinfo": {
        "display_name": "Meyers Road, Greenbank Estate, Road Town, Tortola, VG1110, British Virgin Islands",
        "road": "Meyers Road",
        "house_number": null,
        "neighbourhood": null,
        "suburb": null,
        "city_district": null,
        "city": "Road Town",
        "state": null,
        "postcode": "VG1110",
        "country": "British Virgin Islands",
        "country_code": "vg"
      },
      "address": "Meyers Road, Road Town, British Virgin Islands"
    },
    {
      "lat": 18.42683676268861,
      "lon": -64.59719715867689,
      "geoinfo": {
        "display_name": "Jennings Hill Road, Parham Town, Tortola, VG1110, British Virgin Islands",
        "road": "Jennings Hill Road",
        "house_number": null,
        "neighbourhood": null,
        "suburb": null,
        "city_district": null,
        "city": "Parham Town",
        "state": null,
        "postcode": "VG1110",
        "country": "British Virgin Islands",
        "country_code": "vg"
      },
      "address": "Jennings Hill Road, Road Town, British Virgin Islands"
    },
    {
      "lat": 18.4053355304063,
      "lon": -64.6569949929564,
      "geoinfo": {
        "display_name": "Central Trail, Mount Sage Road, Doty, Road Town, Tortola, VG1130, British Virgin Islands",
        "road": "Mount Sage Road",
        "house_number": null,
        "neighbourhood": null,
        "suburb": null,
        "city_district": null,
        "city": "Road Town",
        "state": null,
        "postcode": "VG1130",
        "country": "British Virgin Islands",
        "country_code": "vg"
      },
      "address": "Mount Sage Road, Road Town, British Virgin Islands"
    },
    {
      "lat": 18.42004064382536,
      "lon": -64.61988639622832,
      "geoinfo": {
        "display_name": "Russell Hill Road, Wickhams Cay I, Road Town, Tortola, VG1110, British Virgin Islands",
        "road": "Russell Hill Road",
        "house_number": null,
        "neighbourhood": "Wickhams Cay I",
        "suburb": null,
        "city_district": null,
        "city": "Road Town",
        "state": null,
        "postcode": "VG1110",
        "country": "British Virgin Islands",
        "country_code": "vg"
      },
      "address": "Russell Hill Road, Road Town, British Virgin Islands"
    },
    {
      "lat": 18.43234006541228,
      "lon": -64.60447910754131,
      "geoinfo": {
        "display_name": "Mount Butu Drive, Purcell, Road Town, Tortola, VG1110, British Virgin Islands",
        "road": "Mount Butu Drive",
        "house_number": null,
        "neighbourhood": null,
        "suburb": null,
        "city_district": null,
        "city": "Road Town",
        "state": null,
        "postcode": "VG1110",
        "country": "British Virgin Islands",
        "country_code": "vg"
      },
      "address": "Mount Butu Drive, Road Town, British Virgin Islands"
    },
    {
      "lat": 18.42122555537699,
      "lon": -64.63182028590136,
      "geoinfo": {
        "display_name": "Fort Charolette Road, Long Bush, Road Town, Tortola, VG1110, British Virgin Islands",
        "road": "Fort Charolette Road",
        "house_number": null,
        "neighbourhood": null,
        "suburb": null,
        "city_district": null,
        "city": "Road Town",
        "state": null,
        "postcode": "VG1110",
        "country": "British Virgin Islands",
        "country_code": "vg"
      },
      "address": "Fort Charolette Road, Road Town, British Virgin Islands"
    },
    {
      "lat": 18.436522856554458,
      "lon": -64.63971934067433,
      "geoinfo": {
        "display_name": "Todman Drive, Leonards, Road Town, Tortola, VG1110, British Virgin Islands",
        "road": "Todman Drive",
        "house_number": null,
        "neighbourhood": null,
        "suburb": null,
        "city_district": null,
        "city": "Road Town",
        "state": null,
        "postcode": "VG1110",
        "country": "British Virgin Islands",
        "country_code": "vg"
      },
      "address": "Todman Drive, Road Town, British Virgin Islands"
    },
    {
      "lat": 18.428082802348552,
      "lon": -64.6361095700133,
      "geoinfo": {
        "display_name": "Diamond Estate Road, Leonards, Road Town, Tortola, VG1110, British Virgin Islands",
        "road": "Diamond Estate Road",
        "house_number": null,
        "neighbourhood": null,
        "suburb": null,
        "city_district": null,
        "city": "Road Town",
        "state": null,
        "postcode": "VG1110",
        "country": "British Virgin Islands",
        "country_code": "vg"
      },
      "address": "Diamond Estate Road, Road Town, British Virgin Islands"
    },
    {
      "lat": 18.427646142252016,
      "lon": -64.61352820984771,
      "geoinfo": {
        "display_name": "Burke's Garage Ltd., Wickhams Cay II Road, Wickhams Cay I, Pasea, Road Town, Tortola, VG1110, British Virgin Islands",
        "road": "Wickhams Cay II Road",
        "house_number": null,
        "neighbourhood": "Wickhams Cay I",
        "suburb": null,
        "city_district": null,
        "city": "Road Town",
        "state": null,
        "postcode": "VG1110",
        "country": "British Virgin Islands",
        "country_code": "vg"
      },
      "address": "Wickhams Cay II Road, Road Town, British Virgin Islands"
    },
    {
      "lat": 18.429558580837128,
      "lon": -64.6286582521869,
      "geoinfo": {
        "display_name": "Pickering Estate Drive, Long Bush, Road Town, Tortola, VG1110, British Virgin Islands",
        "road": "Pickering Estate Drive",
        "house_number": null,
        "neighbourhood": null,
        "suburb": null,
        "city_district": null,
        "city": "Road Town",
        "state": null,
        "postcode": "VG1110",
        "country": "British Virgin Islands",
        "country_code": "vg"
      },
      "address": "Pickering Estate Drive, Road Town, British Virgin Islands"
    },
    {
      "lat": 18.416616861103872,
      "lon": -64.6198531102597,
      "geoinfo": {
        "display_name": "Peebles Hospital, Hospital Road, Wickhams Cay I, Road Town, Tortola, VG1110, British Virgin Islands",
        "road": "Hospital Road",
        "house_number": null,
        "neighbourhood": "Wickhams Cay I",
        "suburb": null,
        "city_district": null,
        "city": "Road Town",
        "state": null,
        "postcode": "VG1110",
        "country": "British Virgin Islands",
        "country_code": "vg"
      },
      "address": "Hospital Road, Road Town, British Virgin Islands"
    },
    {
      "lat": 18.418169074577182,
      "lon": -64.6094527785694,
      "geoinfo": {
        "display_name": "Fishers Lane, Road Town, Tortola, VG1110, British Virgin Islands",
        "road": "Fishers Lane",
        "house_number": null,
        "neighbourhood": null,
        "suburb": null,
        "city_district": null,
        "city": "Road Town",
        "state": null,
        "postcode": "VG1110",
        "country": "British Virgin Islands",
        "country_code": "vg"
      },
      "address": "Fishers Lane, Road Town, British Virgin Islands"
    },
    {
      "lat": 18.4336538170962,
      "lon": -64.59687057330352,
      "geoinfo": {
        "display_name": "Sabbath Hill Drive, Parham Town, Tortola, VG1110, British Virgin Islands",
        "road": "Sabbath Hill Drive",
        "house_number": null,
        "neighbourhood": null,
        "suburb": null,
        "city_district": null,
        "city": "Parham Town",
        "state": null,
        "postcode": "VG1110",
        "country": "British Virgin Islands",
        "country_code": "vg"
      },
      "address": "Sabbath Hill Drive, Road Town, British Virgin Islands"
    },
    {
      "lat": 18.409346887475927,
      "lon": -64.5828807357996,
      "geoinfo": {
        "display_name": "Half Moon Bay Road, Parham Town, Tortola, VG1110, British Virgin Islands",
        "road": "Half Moon Bay Road",
        "house_number": null,
        "neighbourhood": null,
        "suburb": null,
        "city_district": null,
        "city": "Parham Town",
        "state": null,
        "postcode": "VG1110",
        "country": "British Virgin Islands",
        "country_code": "vg"
      },
      "address": "Half Moon Bay Road, Road Town, British Virgin Islands"
    },
    {
      "lat": 18.41300588597647,
      "lon": -64.63826517534156,
      "geoinfo": {
        "display_name": "Elevator Road, Threllfall, Road Town, Tortola, VG1110, British Virgin Islands",
        "road": "Elevator Road",
        "house_number": null,
        "neighbourhood": null,
        "suburb": null,
        "city_district": null,
        "city": "Road Town",
        "state": null,
        "postcode": "VG1110",
        "country": "British Virgin Islands",
        "country_code": "vg"
      },
      "address": "Elevator Road, Road Town, British Virgin Islands"
    },
    {
      "lat": 18.41316789934529,
      "lon": -64.62118486570773,
      "geoinfo": {
        "display_name": "Walling Road, Road Town, Tortola, VG1110, British Virgin Islands",
        "road": "Walling Road",
        "house_number": null,
        "neighbourhood": null,
        "suburb": null,
        "city_district": null,
        "city": "Road Town",
        "state": null,
        "postcode": "VG1110",
        "country": "British Virgin Islands",
        "country_code": "vg"
      },
      "address": "Walling Road, Road Town, British Virgin Islands"
    },
    {
      "lat": 18.440576972432346,
      "lon": -64.64723876116066,
      "geoinfo": {
        "display_name": "Brewer's Bay Road, Road Town, Tortola, British Virgin Islands",
        "road": "Brewer's Bay Road",
        "house_number": null,
        "neighbourhood": null,
        "suburb": null,
        "city_district": null,
        "city": "Road Town",
        "state": null,
        "postcode": null,
        "country": "British Virgin Islands",
        "country_code": "vg"
      },
      "address": "Brewer's Bay Road, Road Town, British Virgin Islands"
    },
    {
      "lat": 18.425259194861656,
      "lon": -64.62697337086921,
      "geoinfo": {
        "display_name": "Farara Road, Long Bush, Road Town, Tortola, VG1110, British Virgin Islands",
        "road": "Farara Road",
        "house_number": null,
        "neighbourhood": null,
        "suburb": null,
        "city_district": null,
        "city": "Road Town",
        "state": null,
        "postcode": "VG1110",
        "country": "British Virgin Islands",
        "country_code": "vg"
      },
      "address": "Farara Road, Road Town, British Virgin Islands"
    },
    {
      "lat": 18.41416307049431,
      "lon": -64.64283470003093,
      "geoinfo": {
        "display_name": "Hannahs Road, Doty, Road Town, Tortola, VG1110, British Virgin Islands",
        "road": "Hannahs Road",
        "house_number": null,
        "neighbourhood": null,
        "suburb": null,
        "city_district": null,
        "city": "Road Town",
        "state": null,
        "postcode": "VG1110",
        "country": "British Virgin Islands",
        "country_code": "vg"
      },
      "address": "Hannahs Road, Road Town, British Virgin Islands"
    },
    {
      "lat": 18.42636675950133,
      "lon": -64.60648619121174,
      "geoinfo": {
        "display_name": "Bellevue Road, Wickhams Cay II, Purcell, Road Town, Tortola, VG1110, British Virgin Islands",
        "road": "Bellevue Road",
        "house_number": null,
        "neighbourhood": "Wickhams Cay II",
        "suburb": null,
        "city_district": null,
        "city": "Road Town",
        "state": null,
        "postcode": "VG1110",
        "country": "British Virgin Islands",
        "country_code": "vg"
      },
      "address": "Bellevue Road, Road Town, British Virgin Islands"
    },
    {
      "lat": 18.423957608267116,
      "lon": -64.657219999057,
      "geoinfo": {
        "display_name": "Cane Garden Bay Cottages, Cane Garden Bay Road, Chalwell, Road Town, Tortola, VG1130, British Virgin Islands",
        "road": "Cane Garden Bay Road",
        "house_number": null,
        "neighbourhood": null,
        "suburb": null,
        "city_district": null,
        "city": "Road Town",
        "state": null,
        "postcode": "VG1130",
        "country": "British Virgin Islands",
        "country_code": "vg"
      },
      "address": "Cane Garden Bay Road, Road Town, British Virgin Islands"
    },
    {
      "lat": 18.426971881038472,
      "lon": -64.62043234349369,
      "geoinfo": {
        "display_name": "Station Avenue, Wickhams Cay I, Horsepath, Road Town, Tortola, VG1110, British Virgin Islands",
        "road": "Station Avenue",
        "house_number": null,
        "neighbourhood": "Wickhams Cay I",
        "suburb": null,
        "city_district": null,
        "city": "Road Town",
        "state": null,
        "postcode": "VG1110",
        "country": "British Virgin Islands",
        "country_code": "vg"
      },
      "address": "Station Avenue, Road Town, British Virgin Islands"
    },
    {
      "lat": 18.452279253633556,
      "lon": -64.60703506093755,
      "geoinfo": {
        "display_name": "Rouge's Bay Beach Road, Wesley Hill, Road Town, Tortola, VG1110, British Virgin Islands",
        "road": "Rouge's Bay Beach Road",
        "house_number": null,
        "neighbourhood": null,
        "suburb": null,
        "city_district": null,
        "city": "Road Town",
        "state": null,
        "postcode": "VG1110",
        "country": "British Virgin Islands",
        "country_code": "vg"
      },
      "address": "Rouge's Bay Beach Road, Road Town, British Virgin Islands"
    },
    {
      "lat": 18.40184073300379,
      "lon": -64.62497181283824,
      "geoinfo": {
        "display_name": "Smith Road, Road Town, Tortola, VG1110, British Virgin Islands",
        "road": "Smith Road",
        "house_number": null,
        "neighbourhood": null,
        "suburb": null,
        "city_district": null,
        "city": "Road Town",
        "state": null,
        "postcode": "VG1110",
        "country": "British Virgin Islands",
        "country_code": "vg"
      },
      "address": "Smith Road, Road Town, British Virgin Islands"
    },
    {
      "lat": 18.41755412423623,
      "lon": -64.64281377323809,
      "geoinfo": {
        "display_name": "Chawell Estate Road, Doty, Road Town, Tortola, VG1110, British Virgin Islands",
        "road": "Chawell Estate Road",
        "house_number": null,
        "neighbourhood": null,
        "suburb": null,
        "city_district": null,
        "city": "Road Town",
        "state": null,
        "postcode": "VG1110",
        "country": "British Virgin Islands",
        "country_code": "vg"
      },
      "address": "Chawell Estate Road, Road Town, British Virgin Islands"
    },
    {
      "lat": 18.408727336847765,
      "lon": -64.61706394429596,
      "geoinfo": {
        "display_name": "George's Lane, Road Town, Tortola, VG1110, British Virgin Islands",
        "road": "George's Lane",
        "house_number": null,
        "neighbourhood": null,
        "suburb": null,
        "city_district": null,
        "city": "Road Town",
        "state": null,
        "postcode": "VG1110",
        "country": "British Virgin Islands",
        "country_code": "vg"
      },
      "address": "George's Lane, Road Town, British Virgin Islands"
    },
    {
      "lat": 18.438447017657854,
      "lon": -64.57607681594475,
      "geoinfo": {
        "display_name": "Little Dix Road, Parham Town, Tortola, VG1120, British Virgin Islands",
        "road": "Little Dix Road",
        "house_number": null,
        "neighbourhood": null,
        "suburb": null,
        "city_district": null,
        "city": "Parham Town",
        "state": null,
        "postcode": "VG1120",
        "country": "British Virgin Islands",
        "country_code": "vg"
      },
      "address": "Little Dix Road, Road Town, British Virgin Islands"
    },
    {
      "lat": 18.447770547044037,
      "lon": -64.58224062074811,
      "geoinfo": {
        "display_name": "Lambert Road, Parham Town, Tortola, VG1120, British Virgin Islands",
        "road": "Lambert Road",
        "house_number": null,
        "neighbourhood": null,
        "suburb": null,
        "city_district": null,
        "city": "Parham Town",
        "state": null,
        "postcode": "VG1120",
        "country": "British Virgin Islands",
        "country_code": "vg"
      },
      "address": "Lambert Road, Road Town, British Virgin Islands"
    },
    {
      "lat": 18.41930307567956,
      "lon": -64.65006409112299,
      "geoinfo": {
        "display_name": "Shannon Estate Drive, Doty, Road Town, Tortola, VG1130, British Virgin Islands",
        "road": "Shannon Estate Drive",
        "house_number": null,
        "neighbourhood": null,
        "suburb": null,
        "city_district": null,
        "city": "Road Town",
        "state": null,
        "postcode": "VG1130",
        "country": "British Virgin Islands",
        "country_code": "vg"
      },
      "address": "Shannon Estate Drive, Road Town, British Virgin Islands"
    },
    {
      "lat": 18.43705782187826,
      "lon": -64.61081226704489,
      "geoinfo": {
        "display_name": "Johnson Ghut Road, Purcell, Road Town, Tortola, VG1110, British Virgin Islands",
        "road": "Johnson Ghut Road",
        "house_number": null,
        "neighbourhood": null,
        "suburb": null,
        "city_district": null,
        "city": "Road Town",
        "state": null,
        "postcode": "VG1110",
        "country": "British Virgin Islands",
        "country_code": "vg"
      },
      "address": "Johnson Ghut Road, Road Town, British Virgin Islands"
    },
    {
      "lat": 18.433696337892822,
      "lon": -64.6116381015969,
      "geoinfo": {
        "display_name": "Shirley Road, Wickhams Cay II, Purcell, Road Town, Tortola, VG1110, British Virgin Islands",
        "road": "Shirley Road",
        "house_number": null,
        "neighbourhood": "Wickhams Cay II",
        "suburb": null,
        "city_district": null,
        "city": "Road Town",
        "state": null,
        "postcode": "VG1110",
        "country": "British Virgin Islands",
        "country_code": "vg"
      },
      "address": "Shirley Road, Road Town, British Virgin Islands"
    },
    {
      "lat": 18.4438669360997,
      "lon": -64.62917587876161,
      "geoinfo": {
        "display_name": "Turnbull Hill Road, Road Town, Tortola, VG1110, British Virgin Islands",
        "road": "Turnbull Hill Road",
        "house_number": null,
        "neighbourhood": null,
        "suburb": null,
        "city_district": null,
        "city": "Road Town",
        "state": null,
        "postcode": "VG1110",
        "country": "British Virgin Islands",
        "country_code": "vg"
      },
      "address": "Turnbull Hill Road, Road Town, British Virgin Islands"
    },
    {
      "lat": 18.430197146806115,
      "lon": -64.62216133639703,
      "geoinfo": {
        "display_name": "Hasbad Road, Wickhams Cay I, Horsepath, Road Town, Tortola, VG1110, British Virgin Islands",
        "road": "Hasbad Road",
        "house_number": null,
        "neighbourhood": "Wickhams Cay I",
        "suburb": null,
        "city_district": null,
        "city": "Road Town",
        "state": null,
        "postcode": "VG1110",
        "country": "British Virgin Islands",
        "country_code": "vg"
      },
      "address": "Hasbad Road, Road Town, British Virgin Islands"
    },
    {
      "lat": 18.416175566368086,
      "lon": -64.62265916172453,
      "geoinfo": {
        "display_name": "Fort Charlotte Road, Road Town, Tortola, VG1110, British Virgin Islands",
        "road": "Fort Charlotte Road",
        "house_number": null,
        "neighbourhood": null,
        "suburb": null,
        "city_district": null,
        "city": "Road Town",
        "state": null,
        "postcode": "VG1110",
        "country": "British Virgin Islands",
        "country_code": "vg"
      },
      "address": "Fort Charlotte Road, Road Town, British Virgin Islands"
    },
    {
      "lat": 18.430433479299502,
      "lon": -64.6097119785619,
      "geoinfo": {
        "display_name": "Canaan Road, Wickhams Cay II, Purcell, Road Town, Tortola, VG1110, British Virgin Islands",
        "road": "Canaan Road",
        "house_number": null,
        "neighbourhood": "Wickhams Cay II",
        "suburb": null,
        "city_district": null,
        "city": "Road Town",
        "state": null,
        "postcode": "VG1110",
        "country": "British Virgin Islands",
        "country_code": "vg"
      },
      "address": "Canaan Road, Road Town, British Virgin Islands"
    },
    {
      "lat": 18.426211985418206,
      "lon": -64.63765434141895,
      "geoinfo": {
        "display_name": "Joe's Hill Road, Leonards, Road Town, Tortola, VG1110, British Virgin Islands",
        "road": "Joe's Hill Road",
        "house_number": null,
        "neighbourhood": null,
        "suburb": null,
        "city_district": null,
        "city": "Road Town",
        "state": null,
        "postcode": "VG1110",
        "country": "British Virgin Islands",
        "country_code": "vg"
      },
      "address": "Joe's Hill Road, Road Town, British Virgin Islands"
    },
    {
      "lat": 18.436135734306156,
      "lon": -64.62490881915345,
      "geoinfo": {
        "display_name": "Wetland Road, Horsepath, Road Town, Tortola, VG1110, British Virgin Islands",
        "road": "Wetland Road",
        "house_number": null,
        "neighbourhood": null,
        "suburb": null,
        "city_district": null,
        "city": "Road Town",
        "state": null,
        "postcode": "VG1110",
        "country": "British Virgin Islands",
        "country_code": "vg"
      },
      "address": "Wetland Road, Road Town, British Virgin Islands"
    },
    {
      "lat": 18.425336195658105,
      "lon": -64.62233094126243,
      "geoinfo": {
        "display_name": "Elmore Stoutt High School, Main Street, Horsepath, Road Town, Tortola, VG1110, British Virgin Islands",
        "road": "Main Street",
        "house_number": null,
        "neighbourhood": null,
        "suburb": null,
        "city_district": null,
        "city": "Road Town",
        "state": null,
        "postcode": "VG1110",
        "country": "British Virgin Islands",
        "country_code": "vg"
      },
      "address": "Main Street, Road Town, British Virgin Islands"
    },
    {
      "lat": 18.41078039148432,
      "lon": -64.5935605101572,
      "geoinfo": {
        "display_name": "Bay Lane, Parham Town, Tortola, VG1110, British Virgin Islands",
        "road": "Bay Lane",
        "house_number": null,
        "neighbourhood": null,
        "suburb": null,
        "city_district": null,
        "city": "Parham Town",
        "state": null,
        "postcode": "VG1110",
        "country": "British Virgin Islands",
        "country_code": "vg"
      },
      "address": "Bay Lane, Road Town, British Virgin Islands"
    },
    {
      "lat": 18.408882024438565,
      "lon": -64.61906528150558,
      "geoinfo": {
        "display_name": "Plum Ridge Road, Road Town, Tortola, VG1110, British Virgin Islands",
        "road": "Plum Ridge Road",
        "house_number": null,
        "neighbourhood": null,
        "suburb": null,
        "city_district": null,
        "city": "Road Town",
        "state": null,
        "postcode": "VG1110",
        "country": "British Virgin Islands",
        "country_code": "vg"
      },
      "address": "Plum Ridge Road, Road Town, British Virgin Islands"
    },
    {
      "lat": 18.432208347327478,
      "lon": -64.62436242049772,
      "geoinfo": {
        "display_name": "Evans Road, Horsepath, Road Town, Tortola, VG1110, British Virgin Islands",
        "road": "Evans Road",
        "house_number": null,
        "neighbourhood": null,
        "suburb": null,
        "city_district": null,
        "city": "Road Town",
        "state": null,
        "postcode": "VG1110",
        "country": "British Virgin Islands",
        "country_code": "vg"
      },
      "address": "Evans Road, Road Town, British Virgin Islands"
    },
    {
      "lat": 18.437939452435838,
      "lon": -64.62887382699216,
      "geoinfo": {
        "display_name": "Great Mountain Road, Horsepath, Road Town, Tortola, VG1110, British Virgin Islands",
        "road": "Great Mountain Road",
        "house_number": null,
        "neighbourhood": null,
        "suburb": null,
        "city_district": null,
        "city": "Road Town",
        "state": null,
        "postcode": "VG1110",
        "country": "British Virgin Islands",
        "country_code": "vg"
      },
      "address": "Great Mountain Road, Road Town, British Virgin Islands"
    },
    {
      "lat": 18.42394155973428,
      "lon": -64.61959880401756,
      "geoinfo": {
        "display_name": "De Castro Street, Wickhams Cay I, Road Town, Tortola, VG1110, British Virgin Islands",
        "road": "De Castro Street",
        "house_number": null,
        "neighbourhood": "Wickhams Cay I",
        "suburb": null,
        "city_district": null,
        "city": "Road Town",
        "state": null,
        "postcode": "VG1110",
        "country": "British Virgin Islands",
        "country_code": "vg"
      },
      "address": "De Castro Street, Road Town, British Virgin Islands"
    },
    {
      "lat": 18.43270869355414,
      "lon": -64.60657794713244,
      "geoinfo": {
        "display_name": "Free Bottom Road, Wickhams Cay II, Purcell, Road Town, Tortola, VG1110, British Virgin Islands",
        "road": "Free Bottom Road",
        "house_number": null,
        "neighbourhood": "Wickhams Cay II",
        "suburb": null,
        "city_district": null,
        "city": "Road Town",
        "state": null,
        "postcode": "VG1110",
        "country": "British Virgin Islands",
        "country_code": "vg"
      },
      "address": "Free Bottom Road, Road Town, British Virgin Islands"
    },
    {
      "lat": 18.414311404437317,
      "lon": -64.62903823048237,
      "geoinfo": {
        "display_name": "Albion Road, Threllfall, Road Town, Tortola, VG1110, British Virgin Islands",
        "road": "Albion Road",
        "house_number": null,
        "neighbourhood": null,
        "suburb": null,
        "city_district": null,
        "city": "Road Town",
        "state": null,
        "postcode": "VG1110",
        "country": "British Virgin Islands",
        "country_code": "vg"
      },
      "address": "Albion Road, Road Town, British Virgin Islands"
    },
    {
      "lat": 18.43766569768337,
      "lon": -64.60776234190666,
      "geoinfo": {
        "display_name": "Blunt Road, Purcell, Road Town, Tortola, VG1110, British Virgin Islands",
        "road": "Blunt Road",
        "house_number": null,
        "neighbourhood": null,
        "suburb": null,
        "city_district": null,
        "city": "Road Town",
        "state": null,
        "postcode": "VG1110",
        "country": "British Virgin Islands",
        "country_code": "vg"
      },
      "address": "Blunt Road, Road Town, British Virgin Islands"
    },
    {
      "lat": 18.42799474383651,
      "lon": -64.6511259606339,
      "geoinfo": {
        "display_name": "Mayaba Road, Chalwell, Road Town, Tortola, VG1110, British Virgin Islands",
        "road": "Mayaba Road",
        "house_number": null,
        "neighbourhood": null,
        "suburb": null,
        "city_district": null,
        "city": "Road Town",
        "state": null,
        "postcode": "VG1110",
        "country": "British Virgin Islands",
        "country_code": "vg"
      },
      "address": "Mayaba Road, Road Town, British Virgin Islands"
    },
    {
      "lat": 18.427126034018748,
      "lon": -64.62771815550288,
      "geoinfo": {
        "display_name": "Dungeon Road, Long Bush, Road Town, Tortola, VG1110, British Virgin Islands",
        "road": "Dungeon Road",
        "house_number": null,
        "neighbourhood": null,
        "suburb": null,
        "city_district": null,
        "city": "Road Town",
        "state": null,
        "postcode": "VG1110",
        "country": "British Virgin Islands",
        "country_code": "vg"
      },
      "address": "Dungeon Road, Road Town, British Virgin Islands"
    },
    {
      "lat": 18.41264019847922,
      "lon": -64.62939668436147,
      "geoinfo": {
        "display_name": "Bound Tree Road, Threllfall, Road Town, Tortola, VG1110, British Virgin Islands",
        "road": "Bound Tree Road",
        "house_number": null,
        "neighbourhood": null,
        "suburb": null,
        "city_district": null,
        "city": "Road Town",
        "state": null,
        "postcode": "VG1110",
        "country": "British Virgin Islands",
        "country_code": "vg"
      },
      "address": "Bound Tree Road, Road Town, British Virgin Islands"
    },
    {
      "lat": 18.419020950839137,
      "lon": -64.59486839118011,
      "geoinfo": {
        "display_name": "Kingstown Road, Parham Town, Tortola, VG1110, British Virgin Islands",
        "road": "Kingstown Road",
        "house_number": null,
        "neighbourhood": null,
        "suburb": null,
        "city_district": null,
        "city": "Parham Town",
        "state": null,
        "postcode": "VG1110",
        "country": "British Virgin Islands",
        "country_code": "vg"
      },
      "address": "Kingstown Road, Road Town, British Virgin Islands"
    },
    {
      "lat": 18.410270546885204,
      "lon": -64.6368137589232,
      "geoinfo": {
        "display_name": "Jabbot Hill Road, Threllfall, Road Town, Tortola, VG1110, British Virgin Islands",
        "road": "Jabbot Hill Road",
        "house_number": null,
        "neighbourhood": null,
        "suburb": null,
        "city_district": null,
        "city": "Road Town",
        "state": null,
        "postcode": "VG1110",
        "country": "British Virgin Islands",
        "country_code": "vg"
      },
      "address": "Jabbot Hill Road, Road Town, British Virgin Islands"
    },
    {
      "lat": 18.40694800708379,
      "lon": -64.63078639385492,
      "geoinfo": {
        "display_name": "Ocean Lane, Threllfall, Road Town, Tortola, VG1110, British Virgin Islands",
        "road": "Ocean Lane",
        "house_number": null,
        "neighbourhood": null,
        "suburb": null,
        "city_district": null,
        "city": "Road Town",
        "state": null,
        "postcode": "VG1110",
        "country": "British Virgin Islands",
        "country_code": "vg"
      },
      "address": "Ocean Lane, Road Town, British Virgin Islands"
    },
    {
      "lat": 18.43440094464265,
      "lon": -64.61875890535491,
      "geoinfo": {
        "display_name": "Combi Road, Wickhams Cay II, Horsepath, Road Town, Tortola, VG1110, British Virgin Islands",
        "road": "Combi Road",
        "house_number": null,
        "neighbourhood": "Wickhams Cay II",
        "suburb": null,
        "city_district": null,
        "city": "Road Town",
        "state": null,
        "postcode": "VG1110",
        "country": "British Virgin Islands",
        "country_code": "vg"
      },
      "address": "Combi Road, Road Town, British Virgin Islands"
    },
    {
      "lat": 18.407455181600717,
      "lon": -64.61483007770805,
      "geoinfo": {
        "display_name": "Hotel Prospect Reef, Prospect Reef Road, Road Town, Tortola, VG1110, British Virgin Islands",
        "road": "Prospect Reef Road",
        "house_number": null,
        "neighbourhood": null,
        "suburb": null,
        "city_district": null,
        "city": "Road Town",
        "state": null,
        "postcode": "VG1110",
        "country": "British Virgin Islands",
        "country_code": "vg"
      },
      "address": "Prospect Reef Road, Road Town, British Virgin Islands"
    },
    {
      "lat": 18.435768899471928,
      "lon": -64.60237927661188,
      "geoinfo": {
        "display_name": "Butu Mountain Road, Purcell, Road Town, Tortola, VG1110, British Virgin Islands",
        "road": "Butu Mountain Road",
        "house_number": null,
        "neighbourhood": null,
        "suburb": null,
        "city_district": null,
        "city": "Road Town",
        "state": null,
        "postcode": "VG1110",
        "country": "British Virgin Islands",
        "country_code": "vg"
      },
      "address": "Butu Mountain Road, Road Town, British Virgin Islands"
    },
    {
      "lat": 18.42901336078568,
      "lon": -64.62094667160544,
      "geoinfo": {
        "display_name": "Roy Road, Wickhams Cay I, Horsepath, Road Town, Tortola, VG1110, British Virgin Islands",
        "road": "Roy Road",
        "house_number": null,
        "neighbourhood": "Wickhams Cay I",
        "suburb": null,
        "city_district": null,
        "city": "Road Town",
        "state": null,
        "postcode": "VG1110",
        "country": "British Virgin Islands",
        "country_code": "vg"
      },
      "address": "Roy Road, Road Town, British Virgin Islands"
    },
    {
      "lat": 18.429580792529034,
      "lon": -64.596164210343,
      "geoinfo": {
        "display_name": "Hope Estate Road, Parham Town, Tortola, VG1110, British Virgin Islands",
        "road": "Hope Estate Road",
        "house_number": null,
        "neighbourhood": null,
        "suburb": null,
        "city_district": null,
        "city": "Parham Town",
        "state": null,
        "postcode": "VG1110",
        "country": "British Virgin Islands",
        "country_code": "vg"
      },
      "address": "Hope Estate Road, Road Town, British Virgin Islands"
    },
    {
      "lat": 18.425708773525603,
      "lon": -64.62676952878617,
      "geoinfo": {
        "display_name": "Farara Drive, Long Bush, Road Town, Tortola, VG1110, British Virgin Islands",
        "road": "Farara Drive",
        "house_number": null,
        "neighbourhood": null,
        "suburb": null,
        "city_district": null,
        "city": "Road Town",
        "state": null,
        "postcode": "VG1110",
        "country": "British Virgin Islands",
        "country_code": "vg"
      },
      "address": "Farara Drive, Road Town, British Virgin Islands"
    },
    {
      "lat": 18.451122287093845,
      "lon": -64.59237030457369,
      "geoinfo": {
        "display_name": "Parham Town, Tortola, VG1110, British Virgin Islands",
        "road": null,
        "house_number": null,
        "neighbourhood": null,
        "suburb": null,
        "city_district": null,
        "city": "Parham Town",
        "state": null,
        "postcode": "VG1110",
        "country": "British Virgin Islands",
        "country_code": "vg"
      },
      "address": "310, Parham Town, Tortola, VG1110, British Virgin Islands"
    },
    {
      "lat": 18.41909544488064,
      "lon": -64.59379439027734,
      "geoinfo": {
        "display_name": "Kingstown Road, Parham Town, Tortola, VG1110, British Virgin Islands",
        "road": "Kingstown Road",
        "house_number": null,
        "neighbourhood": null,
        "suburb": null,
        "city_district": null,
        "city": "Parham Town",
        "state": null,
        "postcode": "VG1110",
        "country": "British Virgin Islands",
        "country_code": "vg"
      },
      "address": "193, Kingstown Road, Parham Town, Tortola, VG1110, British Virgin Islands"
    },
    {
      "lat": 18.413089624991812,
      "lon": -64.61116496082813,
      "geoinfo": {
        "display_name": "Fishers Lane, Road Town, Tortola, VG1110, British Virgin Islands",
        "road": "Fishers Lane",
        "house_number": null,
        "neighbourhood": null,
        "suburb": null,
        "city_district": null,
        "city": "Road Town",
        "state": null,
        "postcode": "VG1110",
        "country": "British Virgin Islands",
        "country_code": "vg"
      },
      "address": "778, Fishers Lane, Road Town, Tortola, VG1110, British Virgin Islands"
    },
    {
      "lat": 18.462541614426026,
      "lon": -64.59609082314176,
      "geoinfo": {
        "display_name": "Wesley Hill, Road Town, Tortola, VG1110, British Virgin Islands",
        "road": null,
        "house_number": null,
        "neighbourhood": null,
        "suburb": null,
        "city_district": null,
        "city": "Road Town",
        "state": null,
        "postcode": "VG1110",
        "country": "British Virgin Islands",
        "country_code": "vg"
      },
      "address": "385, Wesley Hill, Road Town, Tortola, VG1110, British Virgin Islands"
    },
    {
      "lat": 18.437515262784228,
      "lon": -64.5919030363636,
      "geoinfo": {
        "display_name": "Ridge Road, Parham Town, Tortola, VG1110, British Virgin Islands",
        "road": "Ridge Road",
        "house_number": null,
        "neighbourhood": null,
        "suburb": null,
        "city_district": null,
        "city": "Parham Town",
        "state": null,
        "postcode": "VG1110",
        "country": "British Virgin Islands",
        "country_code": "vg"
      },
      "address": "758, Ridge Road, Parham Town, Tortola, VG1110, British Virgin Islands"
    },
    {
      "lat": 18.432455868355987,
      "lon": -64.63235614412204,
      "geoinfo": {
        "display_name": "Long Bush, Road Town, Tortola, VG1110, British Virgin Islands",
        "road": null,
        "house_number": null,
        "neighbourhood": null,
        "suburb": null,
        "city_district": null,
        "city": "Road Town",
        "state": null,
        "postcode": "VG1110",
        "country": "British Virgin Islands",
        "country_code": "vg"
      },
      "address": "181, Long Bush, Road Town, Tortola, VG1110, British Virgin Islands"
    },
    {
      "lat": 18.457050221016445,
      "lon": -64.62027008387373,
      "geoinfo": {
        "display_name": "Parham Town, Tortola, VG1120, British Virgin Islands",
        "road": null,
        "house_number": null,
        "neighbourhood": null,
        "suburb": null,
        "city_district": null,
        "city": "Parham Town",
        "state": null,
        "postcode": "VG1120",
        "country": "British Virgin Islands",
        "country_code": "vg"
      },
      "address": "847, Parham Town, Tortola, VG1120, British Virgin Islands"
    },
    {
      "lat": 18.47150708671513,
      "lon": -64.61669674016802,
      "geoinfo": {
        "display_name": "Parham Town, Tortola, VG1120, British Virgin Islands",
        "road": null,
        "house_number": null,
        "neighbourhood": null,
        "suburb": null,
        "city_district": null,
        "city": "Parham Town",
        "state": null,
        "postcode": "VG1120",
        "country": "British Virgin Islands",
        "country_code": "vg"
      },
      "address": "866, Parham Town, Tortola, VG1120, British Virgin Islands"
    },
    {
      "lat": 18.452231118804455,
      "lon": -64.59638326650487,
      "geoinfo": {
        "display_name": "Carot Bay Road, Wesley Hill, Road Town, Tortola, VG1110, British Virgin Islands",
        "road": "Carot Bay Road",
        "house_number": null,
        "neighbourhood": null,
        "suburb": null,
        "city_district": null,
        "city": "Road Town",
        "state": null,
        "postcode": "VG1110",
        "country": "British Virgin Islands",
        "country_code": "vg"
      },
      "address": "782, Carot Bay Road, Wesley Hill, Road Town, Tortola, VG1110, British Virgin Islands"
    },
    {
      "lat": 18.460965693598716,
      "lon": -64.60130616135953,
      "geoinfo": {
        "display_name": "Wesley Hill, Road Town, Tortola, VG1110, British Virgin Islands",
        "road": null,
        "house_number": null,
        "neighbourhood": null,
        "suburb": null,
        "city_district": null,
        "city": "Road Town",
        "state": null,
        "postcode": "VG1110",
        "country": "British Virgin Islands",
        "country_code": "vg"
      },
      "address": "817, Wesley Hill, Road Town, Tortola, VG1110, British Virgin Islands"
    },
    {
      "lat": 18.392149847852366,
      "lon": -64.64572106699292,
      "geoinfo": {
        "display_name": "Sir Francis Drake Highway, Hannah, Road Town, Tortola, VG1110, British Virgin Islands",
        "road": "Sir Francis Drake Highway",
        "house_number": null,
        "neighbourhood": null,
        "suburb": null,
        "city_district": null,
        "city": "Road Town",
        "state": null,
        "postcode": "VG1110",
        "country": "British Virgin Islands",
        "country_code": "vg"
      },
      "address": "091, Sir Francis Drake Highway, Hannah, Road Town, Tortola, VG1110, British Virgin Islands"
    },
    {
      "lat": 18.449962382052462,
      "lon": -64.6353244552074,
      "geoinfo": {
        "display_name": "Road Town, Tortola, VG1110, British Virgin Islands",
        "road": null,
        "house_number": null,
        "neighbourhood": null,
        "suburb": null,
        "city_district": null,
        "city": "Road Town",
        "state": null,
        "postcode": "VG1110",
        "country": "British Virgin Islands",
        "country_code": "vg"
      },
      "address": "042, Road Town, Tortola, VG1110, British Virgin Islands"
    },
    {
      "lat": 18.417004378758385,
      "lon": -64.63318289750113,
      "geoinfo": {
        "display_name": "Racetrack Road, Threllfall, Road Town, Tortola, VG1110, British Virgin Islands",
        "road": "Racetrack Road",
        "house_number": null,
        "neighbourhood": null,
        "suburb": null,
        "city_district": null,
        "city": "Road Town",
        "state": null,
        "postcode": "VG1110",
        "country": "British Virgin Islands",
        "country_code": "vg"
      },
      "address": "664, Racetrack Road, Threllfall, Road Town, Tortola, VG1110, British Virgin Islands"
    },
    {
      "lat": 18.38770666728516,
      "lon": -64.62032174369095,
      "geoinfo": {
        "display_name": "Parham Town, Tortola, VG1120, British Virgin Islands",
        "road": null,
        "house_number": null,
        "neighbourhood": null,
        "suburb": null,
        "city_district": null,
        "city": "Parham Town",
        "state": null,
        "postcode": "VG1120",
        "country": "British Virgin Islands",
        "country_code": "vg"
      },
      "address": "729, Parham Town, Tortola, VG1120, British Virgin Islands"
    },
    {
      "lat": 18.450237391969996,
      "lon": -64.60995246028178,
      "geoinfo": {
        "display_name": "Wesley Hill, Road Town, Tortola, VG1110, British Virgin Islands",
        "road": null,
        "house_number": null,
        "neighbourhood": null,
        "suburb": null,
        "city_district": null,
        "city": "Road Town",
        "state": null,
        "postcode": "VG1110",
        "country": "British Virgin Islands",
        "country_code": "vg"
      },
      "address": "312, Wesley Hill, Road Town, Tortola, VG1110, British Virgin Islands"
    },
    {
      "lat": 18.42068644553422,
      "lon": -64.61587903619869,
      "geoinfo": {
        "display_name": "Wickhams Cay I, Road Town, Tortola, VG1110, British Virgin Islands",
        "road": null,
        "house_number": null,
        "neighbourhood": "Wickhams Cay I",
        "suburb": null,
        "city_district": null,
        "city": "Road Town",
        "state": null,
        "postcode": "VG1110",
        "country": "British Virgin Islands",
        "country_code": "vg"
      },
      "address": "532, Wickhams Cay I, Road Town, Tortola, VG1110, British Virgin Islands"
    },
    {
      "lat": 18.43386260455569,
      "lon": -64.5965160212489,
      "geoinfo": {
        "display_name": "Sabbath Hill Drive, Parham Town, Tortola, VG1110, British Virgin Islands",
        "road": "Sabbath Hill Drive",
        "house_number": null,
        "neighbourhood": null,
        "suburb": null,
        "city_district": null,
        "city": "Parham Town",
        "state": null,
        "postcode": "VG1110",
        "country": "British Virgin Islands",
        "country_code": "vg"
      },
      "address": "176, Sabbath Hill Drive, Parham Town, Tortola, VG1110, British Virgin Islands"
    },
    {
      "lat": 18.404976024455824,
      "lon": -64.63055743044832,
      "geoinfo": {
        "display_name": "Ocean Lane, Threllfall, Road Town, Tortola, VG1110, British Virgin Islands",
        "road": "Ocean Lane",
        "house_number": null,
        "neighbourhood": null,
        "suburb": null,
        "city_district": null,
        "city": "Road Town",
        "state": null,
        "postcode": "VG1110",
        "country": "British Virgin Islands",
        "country_code": "vg"
      },
      "address": "520, Ocean Lane, Threllfall, Road Town, Tortola, VG1110, British Virgin Islands"
    },
    {
      "lat": 18.39612774011004,
      "lon": -64.59742014980267,
      "geoinfo": {
        "display_name": "Parham Town, Tortola, VG1120, British Virgin Islands",
        "road": null,
        "house_number": null,
        "neighbourhood": null,
        "suburb": null,
        "city_district": null,
        "city": "Parham Town",
        "state": null,
        "postcode": "VG1120",
        "country": "British Virgin Islands",
        "country_code": "vg"
      },
      "address": "606, Parham Town, Tortola, VG1120, British Virgin Islands"
    },
    {
      "lat": 18.46443185039154,
      "lon": -64.59901426199119,
      "geoinfo": {
        "display_name": "Wesley Hill, Road Town, Tortola, VG1110, British Virgin Islands",
        "road": null,
        "house_number": null,
        "neighbourhood": null,
        "suburb": null,
        "city_district": null,
        "city": "Road Town",
        "state": null,
        "postcode": "VG1110",
        "country": "British Virgin Islands",
        "country_code": "vg"
      },
      "address": "003, Wesley Hill, Road Town, Tortola, VG1110, British Virgin Islands"
    },
    {
      "lat": 18.446610443080093,
      "lon": -64.62656764978912,
      "geoinfo": {
        "display_name": "Road Town, Tortola, VG1110, British Virgin Islands",
        "road": null,
        "house_number": null,
        "neighbourhood": null,
        "suburb": null,
        "city_district": null,
        "city": "Road Town",
        "state": null,
        "postcode": "VG1110",
        "country": "British Virgin Islands",
        "country_code": "vg"
      },
      "address": "886, Road Town, Tortola, VG1110, British Virgin Islands"
    },
    {
      "lat": 18.464087380568888,
      "lon": -64.63706883914206,
      "geoinfo": {
        "display_name": "Parham Town, Tortola, VG1120, British Virgin Islands",
        "road": null,
        "house_number": null,
        "neighbourhood": null,
        "suburb": null,
        "city_district": null,
        "city": "Parham Town",
        "state": null,
        "postcode": "VG1120",
        "country": "British Virgin Islands",
        "country_code": "vg"
      },
      "address": "294, Parham Town, Tortola, VG1120, British Virgin Islands"
    },
    {
      "lat": 18.394995124464586,
      "lon": -64.6205768184927,
      "geoinfo": {
        "display_name": "Hannah, Road Town, Tortola, VG1110, British Virgin Islands",
        "road": null,
        "house_number": null,
        "neighbourhood": null,
        "suburb": null,
        "city_district": null,
        "city": "Road Town",
        "state": null,
        "postcode": "VG1110",
        "country": "British Virgin Islands",
        "country_code": "vg"
      },
      "address": "009, Hannah, Road Town, Tortola, VG1110, British Virgin Islands"
    },
    {
      "lat": 18.41794972621594,
      "lon": -64.6002457500531,
      "geoinfo": {
        "display_name": "Blackburn Highway, Wickhams Cay II, Purcell, Parham Town, Tortola, VG1110, British Virgin Islands",
        "road": "Blackburn Highway",
        "house_number": null,
        "neighbourhood": "Wickhams Cay II",
        "suburb": null,
        "city_district": null,
        "city": "Parham Town",
        "state": null,
        "postcode": "VG1110",
        "country": "British Virgin Islands",
        "country_code": "vg"
      },
      "address": "219, Blackburn Highway, Wickhams Cay II, Purcell, Parham Town, Tortola, VG1110, British Virgin Islands"
    },
    {
      "lat": 18.453007694857646,
      "lon": -64.616070479256,
      "geoinfo": {
        "display_name": "Cooper Bay Road, Road Town, Tortola, VG1110, British Virgin Islands",
        "road": "Cooper Bay Road",
        "house_number": null,
        "neighbourhood": null,
        "suburb": null,
        "city_district": null,
        "city": "Road Town",
        "state": null,
        "postcode": "VG1110",
        "country": "British Virgin Islands",
        "country_code": "vg"
      },
      "address": "809, Cooper Bay Road, Road Town, Tortola, VG1110, British Virgin Islands"
    },
    {
      "lat": 18.389197748051103,
      "lon": -64.62501541562789,
      "geoinfo": {
        "display_name": "Hannah, Road Town, Tortola, VG1110, British Virgin Islands",
        "road": null,
        "house_number": null,
        "neighbourhood": null,
        "suburb": null,
        "city_district": null,
        "city": "Road Town",
        "state": null,
        "postcode": "VG1110",
        "country": "British Virgin Islands",
        "country_code": "vg"
      },
      "address": "464, Hannah, Road Town, Tortola, VG1110, British Virgin Islands"
    },
    {
      "lat": 18.44109366012772,
      "lon": -64.62332551562267,
      "geoinfo": {
        "display_name": "Ridge Road, Pasea, Road Town, Tortola, VG1110, British Virgin Islands",
        "road": "Ridge Road",
        "house_number": null,
        "neighbourhood": null,
        "suburb": null,
        "city_district": null,
        "city": "Road Town",
        "state": null,
        "postcode": "VG1110",
        "country": "British Virgin Islands",
        "country_code": "vg"
      },
      "address": "484, Ridge Road, Pasea, Road Town, Tortola, VG1110, British Virgin Islands"
    },
    {
      "lat": 18.42999135219183,
      "lon": -64.64494140175506,
      "geoinfo": {
        "display_name": "Meyers Road, Greenbank Estate, Road Town, Tortola, VG1110, British Virgin Islands",
        "road": "Meyers Road",
        "house_number": null,
        "neighbourhood": null,
        "suburb": null,
        "city_district": null,
        "city": "Road Town",
        "state": null,
        "postcode": "VG1110",
        "country": "British Virgin Islands",
        "country_code": "vg"
      },
      "address": "122, Meyers Road, Greenbank Estate, Road Town, Tortola, VG1110, British Virgin Islands"
    },
    {
      "lat": 18.40251064583133,
      "lon": -64.58294548950829,
      "geoinfo": {
        "display_name": "Parham Town, Tortola, VG1120, British Virgin Islands",
        "road": null,
        "house_number": null,
        "neighbourhood": null,
        "suburb": null,
        "city_district": null,
        "city": "Parham Town",
        "state": null,
        "postcode": "VG1120",
        "country": "British Virgin Islands",
        "country_code": "vg"
      },
      "address": "935, Parham Town, Tortola, VG1120, British Virgin Islands"
    },
    {
      "lat": 18.443336857372458,
      "lon": -64.6434989354629,
      "geoinfo": {
        "display_name": "Brewer's Bay Road, Road Town, Tortola, VG1110, British Virgin Islands",
        "road": "Brewer's Bay Road",
        "house_number": null,
        "neighbourhood": null,
        "suburb": null,
        "city_district": null,
        "city": "Road Town",
        "state": null,
        "postcode": "VG1110",
        "country": "British Virgin Islands",
        "country_code": "vg"
      },
      "address": "123, Brewer's Bay Road, Road Town, Tortola, VG1110, British Virgin Islands"
    },
    {
      "lat": 18.398277543119605,
      "lon": -64.61235205824762,
      "geoinfo": {
        "display_name": "Parham Town, Tortola, VG1120, British Virgin Islands",
        "road": null,
        "house_number": null,
        "neighbourhood": null,
        "suburb": null,
        "city_district": null,
        "city": "Parham Town",
        "state": null,
        "postcode": "VG1120",
        "country": "British Virgin Islands",
        "country_code": "vg"
      },
      "address": "751, Parham Town, Tortola, VG1120, British Virgin Islands"
    },
    {
      "lat": 18.451594653309712,
      "lon": -64.63752273484967,
      "geoinfo": {
        "display_name": "Mount Healthy Drive, Road Town, Tortola, VG1110, British Virgin Islands",
        "road": "Mount Healthy Drive",
        "house_number": null,
        "neighbourhood": null,
        "suburb": null,
        "city_district": null,
        "city": "Road Town",
        "state": null,
        "postcode": "VG1110",
        "country": "British Virgin Islands",
        "country_code": "vg"
      },
      "address": "542, Mount Healthy Drive, Road Town, Tortola, VG1110, British Virgin Islands"
    },
    {
      "lat": 18.434142553026486,
      "lon": -64.63710740641511,
      "geoinfo": {
        "display_name": "Leonards, Road Town, Tortola, VG1110, British Virgin Islands",
        "road": null,
        "house_number": null,
        "neighbourhood": null,
        "suburb": null,
        "city_district": null,
        "city": "Road Town",
        "state": null,
        "postcode": "VG1110",
        "country": "British Virgin Islands",
        "country_code": "vg"
      },
      "address": "266, Leonards, Road Town, Tortola, VG1110, British Virgin Islands"
    },
    {
      "lat": 18.4642798512629,
      "lon": -64.64537387959707,
      "geoinfo": {
        "display_name": "Parham Town, Tortola, VG1120, British Virgin Islands",
        "road": null,
        "house_number": null,
        "neighbourhood": null,
        "suburb": null,
        "city_district": null,
        "city": "Parham Town",
        "state": null,
        "postcode": "VG1120",
        "country": "British Virgin Islands",
        "country_code": "vg"
      },
      "address": "089, Parham Town, Tortola, VG1120, British Virgin Islands"
    },
    {
      "lat": 18.419114376654043,
      "lon": -64.6470872956282,
      "geoinfo": {
        "display_name": "Doty, Road Town, Tortola, VG1110, British Virgin Islands",
        "road": null,
        "house_number": null,
        "neighbourhood": null,
        "suburb": null,
        "city_district": null,
        "city": "Road Town",
        "state": null,
        "postcode": "VG1110",
        "country": "British Virgin Islands",
        "country_code": "vg"
      },
      "address": "795, Doty, Road Town, Tortola, VG1110, British Virgin Islands"
    },
    {
      "lat": 18.454031307683877,
      "lon": -64.64974505975718,
      "geoinfo": {
        "display_name": "Road Town, Tortola, VG1110, British Virgin Islands",
        "road": null,
        "house_number": null,
        "neighbourhood": null,
        "suburb": null,
        "city_district": null,
        "city": "Road Town",
        "state": null,
        "postcode": "VG1110",
        "country": "British Virgin Islands",
        "country_code": "vg"
      },
      "address": "435, Road Town, Tortola, VG1110, British Virgin Islands"
    },
    {
      "lat": 18.419835672698987,
      "lon": -64.63436705462264,
      "geoinfo": {
        "display_name": "Threllfall, Road Town, Tortola, VG1110, British Virgin Islands",
        "road": null,
        "house_number": null,
        "neighbourhood": null,
        "suburb": null,
        "city_district": null,
        "city": "Road Town",
        "state": null,
        "postcode": "VG1110",
        "country": "British Virgin Islands",
        "country_code": "vg"
      },
      "address": "081, Threllfall, Road Town, Tortola, VG1110, British Virgin Islands"
    },
    {
      "lat": 18.402459398888798,
      "lon": -64.64876843376179,
      "geoinfo": {
        "display_name": "Havers Road, East Havers, Tortola, VG1130, British Virgin Islands",
        "road": "Havers Road",
        "house_number": null,
        "neighbourhood": null,
        "suburb": null,
        "city_district": null,
        "city": null,
        "state": null,
        "postcode": "VG1130",
        "country": "British Virgin Islands",
        "country_code": "vg"
      },
      "address": "053, Havers Road, East Havers, Tortola, VG1130, British Virgin Islands"
    },
    {
      "lat": 18.4307702056266,
      "lon": -64.6595282442488,
      "geoinfo": {
        "display_name": "Cane Garden Bay Road, Chalwell, Road Town, Tortola, British Virgin Islands",
        "road": "Cane Garden Bay Road",
        "house_number": null,
        "neighbourhood": null,
        "suburb": null,
        "city_district": null,
        "city": "Road Town",
        "state": null,
        "postcode": null,
        "country": "British Virgin Islands",
        "country_code": "vg"
      },
      "address": "364, Cane Garden Bay Road, Chalwell, Road Town, 47344 Tortola, British Virgin Islands"
    },
    {
      "lat": 18.4220953517443,
      "lon": -64.64823632876981,
      "geoinfo": {
        "display_name": "Chalwell, Road Town, Tortola, VG1110, British Virgin Islands",
        "road": null,
        "house_number": null,
        "neighbourhood": null,
        "suburb": null,
        "city_district": null,
        "city": "Road Town",
        "state": null,
        "postcode": "VG1110",
        "country": "British Virgin Islands",
        "country_code": "vg"
      },
      "address": "612, Chalwell, Road Town, Tortola, VG1110, British Virgin Islands"
    },
    {
      "lat": 18.410400346240436,
      "lon": -64.62783190672218,
      "geoinfo": {
        "display_name": "Forbes Road, Road Town, Tortola, VG1110, British Virgin Islands",
        "road": "Forbes Road",
        "house_number": null,
        "neighbourhood": null,
        "suburb": null,
        "city_district": null,
        "city": "Road Town",
        "state": null,
        "postcode": "VG1110",
        "country": "British Virgin Islands",
        "country_code": "vg"
      },
      "address": "664, Forbes Road, Road Town, Tortola, VG1110, British Virgin Islands"
    },
    {
      "lat": 18.434692492494445,
      "lon": -64.58652400162019,
      "geoinfo": {
        "display_name": "Parham Town, Tortola, VG1110, British Virgin Islands",
        "road": null,
        "house_number": null,
        "neighbourhood": null,
        "suburb": null,
        "city_district": null,
        "city": "Parham Town",
        "state": null,
        "postcode": "VG1110",
        "country": "British Virgin Islands",
        "country_code": "vg"
      },
      "address": "921, Parham Town, Tortola, VG1110, British Virgin Islands"
    },
    {
      "lat": 18.390616612943308,
      "lon": -64.6158152054907,
      "geoinfo": {
        "display_name": "Parham Town, Tortola, VG1120, British Virgin Islands",
        "road": null,
        "house_number": null,
        "neighbourhood": null,
        "suburb": null,
        "city_district": null,
        "city": "Parham Town",
        "state": null,
        "postcode": "VG1120",
        "country": "British Virgin Islands",
        "country_code": "vg"
      },
      "address": "928, Parham Town, Tortola, VG1120, British Virgin Islands"
    },
    {
      "lat": 18.436021087893568,
      "lon": -64.6026011302533,
      "geoinfo": {
        "display_name": "Butu Mountain Road, Purcell, Road Town, Tortola, VG1110, British Virgin Islands",
        "road": "Butu Mountain Road",
        "house_number": null,
        "neighbourhood": null,
        "suburb": null,
        "city_district": null,
        "city": "Road Town",
        "state": null,
        "postcode": "VG1110",
        "country": "British Virgin Islands",
        "country_code": "vg"
      },
      "address": "671, Butu Mountain Road, Purcell, Road Town, Tortola, VG1110, British Virgin Islands"
    },
    {
      "lat": 18.4341371895213,
      "lon": -64.64712601637915,
      "geoinfo": {
        "display_name": "Greenbank Estate, Road Town, Tortola, VG1110, British Virgin Islands",
        "road": null,
        "house_number": null,
        "neighbourhood": null,
        "suburb": null,
        "city_district": null,
        "city": "Road Town",
        "state": null,
        "postcode": "VG1110",
        "country": "British Virgin Islands",
        "country_code": "vg"
      },
      "address": "591, Greenbank Estate, Road Town, Tortola, VG1110, British Virgin Islands"
    },
    {
      "lat": 18.435616216234354,
      "lon": -64.63060741556971,
      "geoinfo": {
        "display_name": "Great Mountain Road, Horsepath, Road Town, Tortola, VG1110, British Virgin Islands",
        "road": "Great Mountain Road",
        "house_number": null,
        "neighbourhood": null,
        "suburb": null,
        "city_district": null,
        "city": "Road Town",
        "state": null,
        "postcode": "VG1110",
        "country": "British Virgin Islands",
        "country_code": "vg"
      },
      "address": "520, Great Mountain Road, Horsepath, Road Town, Tortola, VG1110, British Virgin Islands"
    },
    {
      "lat": 18.42798297862314,
      "lon": -64.58050794305288,
      "geoinfo": {
        "display_name": "Parham Town, Tortola, VG1120, British Virgin Islands",
        "road": null,
        "house_number": null,
        "neighbourhood": null,
        "suburb": null,
        "city_district": null,
        "city": "Parham Town",
        "state": null,
        "postcode": "VG1120",
        "country": "British Virgin Islands",
        "country_code": "vg"
      },
      "address": "955, Parham Town, Tortola, VG1120, British Virgin Islands"
    },
    {
      "lat": 18.41778350229877,
      "lon": -64.63541622492744,
      "geoinfo": {
        "display_name": "Threllfall, Road Town, Tortola, VG1110, British Virgin Islands",
        "road": null,
        "house_number": null,
        "neighbourhood": null,
        "suburb": null,
        "city_district": null,
        "city": "Road Town",
        "state": null,
        "postcode": "VG1110",
        "country": "British Virgin Islands",
        "country_code": "vg"
      },
      "address": "668, Threllfall, Road Town, Tortola, VG1110, British Virgin Islands"
    },
    {
      "lat": 18.437874248016456,
      "lon": -64.63518130021842,
      "geoinfo": {
        "display_name": "Brewer's Bay Road, Road Town, Tortola, VG1110, British Virgin Islands",
        "road": "Brewer's Bay Road",
        "house_number": null,
        "neighbourhood": null,
        "suburb": null,
        "city_district": null,
        "city": "Road Town",
        "state": null,
        "postcode": "VG1110",
        "country": "British Virgin Islands",
        "country_code": "vg"
      },
      "address": "962, Brewer's Bay Road, Road Town, Tortola, VG1110, British Virgin Islands"
    },
    {
      "lat": 18.38349281885214,
      "lon": -64.61018623077196,
      "geoinfo": {
        "display_name": "Parham Town, Tortola, VG1120, British Virgin Islands",
        "road": null,
        "house_number": null,
        "neighbourhood": null,
        "suburb": null,
        "city_district": null,
        "city": "Parham Town",
        "state": null,
        "postcode": "VG1120",
        "country": "British Virgin Islands",
        "country_code": "vg"
      },
      "address": "280, Parham Town, Tortola, VG1120, British Virgin Islands"
    },
    {
      "lat": 18.403648915514193,
      "lon": -64.60372410333174,
      "geoinfo": {
        "display_name": "Parham Town, Tortola, VG1120, British Virgin Islands",
        "road": null,
        "house_number": null,
        "neighbourhood": null,
        "suburb": null,
        "city_district": null,
        "city": "Parham Town",
        "state": null,
        "postcode": "VG1120",
        "country": "British Virgin Islands",
        "country_code": "vg"
      },
      "address": "502, Parham Town, Tortola, VG1120, British Virgin Islands"
    },
    {
      "lat": 18.41755704973157,
      "lon": -64.62490699536453,
      "geoinfo": {
        "display_name": "Fort Charolette Road, Long Bush, Road Town, Tortola, VG1110, British Virgin Islands",
        "road": "Fort Charolette Road",
        "house_number": null,
        "neighbourhood": null,
        "suburb": null,
        "city_district": null,
        "city": "Road Town",
        "state": null,
        "postcode": "VG1110",
        "country": "British Virgin Islands",
        "country_code": "vg"
      },
      "address": "600, Fort Charolette Road, Long Bush, Road Town, Tortola, VG1110, British Virgin Islands"
    },
    {
      "lat": 18.415465612350456,
      "lon": -64.59787474313164,
      "geoinfo": {
        "display_name": "Blackburn Highway, Wickhams Cay II, Purcell, Parham Town, Tortola, VG1110, British Virgin Islands",
        "road": "Blackburn Highway",
        "house_number": null,
        "neighbourhood": "Wickhams Cay II",
        "suburb": null,
        "city_district": null,
        "city": "Parham Town",
        "state": null,
        "postcode": "VG1110",
        "country": "British Virgin Islands",
        "country_code": "vg"
      },
      "address": "510, Blackburn Highway, Wickhams Cay II, Purcell, Parham Town, Tortola, VG1110, British Virgin Islands"
    },
    {
      "lat": 18.419388478591816,
      "lon": -64.63645055316827,
      "geoinfo": {
        "display_name": "Threllfall, Road Town, Tortola, VG1110, British Virgin Islands",
        "road": null,
        "house_number": null,
        "neighbourhood": null,
        "suburb": null,
        "city_district": null,
        "city": "Road Town",
        "state": null,
        "postcode": "VG1110",
        "country": "British Virgin Islands",
        "country_code": "vg"
      },
      "address": "794, Threllfall, Road Town, Tortola, VG1110, British Virgin Islands"
    },
    {
      "lat": 18.46417512702599,
      "lon": -64.60515474730833,
      "geoinfo": {
        "display_name": "Wesley Hill, Road Town, Tortola, VG1110, British Virgin Islands",
        "road": null,
        "house_number": null,
        "neighbourhood": null,
        "suburb": null,
        "city_district": null,
        "city": "Road Town",
        "state": null,
        "postcode": "VG1110",
        "country": "British Virgin Islands",
        "country_code": "vg"
      },
      "address": "898, Wesley Hill, Road Town, Tortola, VG1110, British Virgin Islands"
    },
    {
      "lat": 18.42988999647811,
      "lon": -64.5782824598183,
      "geoinfo": {
        "display_name": "Parham Town, Tortola, VG1120, British Virgin Islands",
        "road": null,
        "house_number": null,
        "neighbourhood": null,
        "suburb": null,
        "city_district": null,
        "city": "Parham Town",
        "state": null,
        "postcode": "VG1120",
        "country": "British Virgin Islands",
        "country_code": "vg"
      },
      "address": "333, Parham Town, Tortola, VG1120, British Virgin Islands"
    },
    {
      "lat": 18.4706018011694,
      "lon": -64.61861692583142,
      "geoinfo": {
        "display_name": "Parham Town, Tortola, VG1120, British Virgin Islands",
        "road": null,
        "house_number": null,
        "neighbourhood": null,
        "suburb": null,
        "city_district": null,
        "city": "Parham Town",
        "state": null,
        "postcode": "VG1120",
        "country": "British Virgin Islands",
        "country_code": "vg"
      },
      "address": "984, Parham Town, Tortola, VG1120, British Virgin Islands"
    },
    {
      "lat": 18.42507426553157,
      "lon": -64.64836236374776,
      "geoinfo": {
        "display_name": "Mayaba Road, Chalwell, Road Town, Tortola, VG1110, British Virgin Islands",
        "road": "Mayaba Road",
        "house_number": null,
        "neighbourhood": null,
        "suburb": null,
        "city_district": null,
        "city": "Road Town",
        "state": null,
        "postcode": "VG1110",
        "country": "British Virgin Islands",
        "country_code": "vg"
      },
      "address": "197, Mayaba Road, Chalwell, Road Town, Tortola, VG1110, British Virgin Islands"
    },
    {
      "lat": 18.43446180458209,
      "lon": -64.60906922628666,
      "geoinfo": {
        "display_name": "Purcell Road, Wickhams Cay II, Purcell, Road Town, Tortola, VG1110, British Virgin Islands",
        "road": "Purcell Road",
        "house_number": null,
        "neighbourhood": "Wickhams Cay II",
        "suburb": null,
        "city_district": null,
        "city": "Road Town",
        "state": null,
        "postcode": "VG1110",
        "country": "British Virgin Islands",
        "country_code": "vg"
      },
      "address": "950, Purcell Road, Wickhams Cay II, Purcell, Road Town, Tortola, VG1110, British Virgin Islands"
    },
    {
      "lat": 18.457757757181845,
      "lon": -64.60461422905401,
      "geoinfo": {
        "display_name": "Rouge's Bay Road, Wesley Hill, Road Town, Tortola, VG1110, British Virgin Islands",
        "road": "Rouge's Bay Road",
        "house_number": null,
        "neighbourhood": null,
        "suburb": null,
        "city_district": null,
        "city": "Road Town",
        "state": null,
        "postcode": "VG1110",
        "country": "British Virgin Islands",
        "country_code": "vg"
      },
      "address": "180, Rouge's Bay Road, Wesley Hill, Road Town, Tortola, VG1110, British Virgin Islands"
    },
    {
      "lat": 18.42767463630862,
      "lon": -64.5858411352556,
      "geoinfo": {
        "display_name": "Parham Town, Tortola, VG1110, British Virgin Islands",
        "road": null,
        "house_number": null,
        "neighbourhood": null,
        "suburb": null,
        "city_district": null,
        "city": "Parham Town",
        "state": null,
        "postcode": "VG1110",
        "country": "British Virgin Islands",
        "country_code": "vg"
      },
      "address": "384, Parham Town, Tortola, VG1110, British Virgin Islands"
    },
    {
      "lat": 18.453788984714464,
      "lon": -64.64653662704853,
      "geoinfo": {
        "display_name": "Parham Town, Tortola, VG1120, British Virgin Islands",
        "road": null,
        "house_number": null,
        "neighbourhood": null,
        "suburb": null,
        "city_district": null,
        "city": "Parham Town",
        "state": null,
        "postcode": "VG1120",
        "country": "British Virgin Islands",
        "country_code": "vg"
      },
      "address": "448, Parham Town, Tortola, VG1120, British Virgin Islands"
    },
    {
      "lat": 18.431961223133367,
      "lon": -64.65877793112726,
      "geoinfo": {
        "display_name": "Cane Garden Bay Road, Chalwell, Road Town, Tortola, British Virgin Islands",
        "road": "Cane Garden Bay Road",
        "house_number": null,
        "neighbourhood": null,
        "suburb": null,
        "city_district": null,
        "city": "Road Town",
        "state": null,
        "postcode": null,
        "country": "British Virgin Islands",
        "country_code": "vg"
      },
      "address": "437, Cane Garden Bay Road, Chalwell, Road Town, 54259 Tortola, British Virgin Islands"
    },
    {
      "lat": 18.438853166683202,
      "lon": -64.6016794400147,
      "geoinfo": {
        "display_name": "Purcell, Road Town, Tortola, VG1110, British Virgin Islands",
        "road": null,
        "house_number": null,
        "neighbourhood": null,
        "suburb": null,
        "city_district": null,
        "city": "Road Town",
        "state": null,
        "postcode": "VG1110",
        "country": "British Virgin Islands",
        "country_code": "vg"
      },
      "address": "922, Purcell, Road Town, Tortola, VG1110, British Virgin Islands"
    },
    {
      "lat": 18.399801877483014,
      "lon": -64.59951803973836,
      "geoinfo": {
        "display_name": "Parham Town, Tortola, VG1120, British Virgin Islands",
        "road": null,
        "house_number": null,
        "neighbourhood": null,
        "suburb": null,
        "city_district": null,
        "city": "Parham Town",
        "state": null,
        "postcode": "VG1120",
        "country": "British Virgin Islands",
        "country_code": "vg"
      },
      "address": "558, Parham Town, Tortola, VG1120, British Virgin Islands"
    },
    {
      "lat": 18.40272316778465,
      "lon": -64.61514241982924,
      "geoinfo": {
        "display_name": "Sir Francis Drake Highway, Hannah, Road Town, Tortola, VG1110, British Virgin Islands",
        "road": "Sir Francis Drake Highway",
        "house_number": null,
        "neighbourhood": null,
        "suburb": null,
        "city_district": null,
        "city": "Road Town",
        "state": null,
        "postcode": "VG1110",
        "country": "British Virgin Islands",
        "country_code": "vg"
      },
      "address": "175, Sir Francis Drake Highway, Hannah, Road Town, Tortola, VG1110, British Virgin Islands"
    },
    {
      "lat": 18.416575161218102,
      "lon": -64.61763195980541,
      "geoinfo": {
        "display_name": "Waterfront Drive, Wickhams Cay I, Road Town, Tortola, VG1110, British Virgin Islands",
        "road": "Waterfront Drive",
        "house_number": null,
        "neighbourhood": "Wickhams Cay I",
        "suburb": null,
        "city_district": null,
        "city": "Road Town",
        "state": null,
        "postcode": "VG1110",
        "country": "British Virgin Islands",
        "country_code": "vg"
      },
      "address": "936, Waterfront Drive, Wickhams Cay I, Road Town, Tortola, VG1110, British Virgin Islands"
    },
    {
      "lat": 18.467103542025676,
      "lon": -64.61225538968786,
      "geoinfo": {
        "display_name": "Parham Town, Tortola, VG1120, British Virgin Islands",
        "road": null,
        "house_number": null,
        "neighbourhood": null,
        "suburb": null,
        "city_district": null,
        "city": "Parham Town",
        "state": null,
        "postcode": "VG1120",
        "country": "British Virgin Islands",
        "country_code": "vg"
      },
      "address": "469, Parham Town, Tortola, VG1120, British Virgin Islands"
    },
    {
      "lat": 18.403992593305126,
      "lon": -64.59391747283438,
      "geoinfo": {
        "display_name": "Parham Town, Tortola, VG1120, British Virgin Islands",
        "road": null,
        "house_number": null,
        "neighbourhood": null,
        "suburb": null,
        "city_district": null,
        "city": "Parham Town",
        "state": null,
        "postcode": "VG1120",
        "country": "British Virgin Islands",
        "country_code": "vg"
      },
      "address": "619, Parham Town, Tortola, VG1120, British Virgin Islands"
    },
    {
      "lat": 18.406640805621073,
      "lon": -64.62509285127395,
      "geoinfo": {
        "display_name": "Smith Road, Road Town, Tortola, VG1110, British Virgin Islands",
        "road": "Smith Road",
        "house_number": null,
        "neighbourhood": null,
        "suburb": null,
        "city_district": null,
        "city": "Road Town",
        "state": null,
        "postcode": "VG1110",
        "country": "British Virgin Islands",
        "country_code": "vg"
      },
      "address": "127, Smith Road, Road Town, Tortola, VG1110, British Virgin Islands"
    },
    {
      "lat": 18.414441248945934,
      "lon": -64.65075745575056,
      "geoinfo": {
        "display_name": "Mount Sage Road, Doty, Road Town, Tortola, VG1130, British Virgin Islands",
        "road": "Mount Sage Road",
        "house_number": null,
        "neighbourhood": null,
        "suburb": null,
        "city_district": null,
        "city": "Road Town",
        "state": null,
        "postcode": "VG1130",
        "country": "British Virgin Islands",
        "country_code": "vg"
      },
      "address": "054, Mount Sage Road, Doty, Road Town, Tortola, VG1130, British Virgin Islands"
    },
    {
      "lat": 18.42921077978434,
      "lon": -64.65649639890506,
      "geoinfo": {
        "display_name": "Cane Garden Bay Road, Chalwell, Road Town, Tortola, VG1130, British Virgin Islands",
        "road": "Cane Garden Bay Road",
        "house_number": null,
        "neighbourhood": null,
        "suburb": null,
        "city_district": null,
        "city": "Road Town",
        "state": null,
        "postcode": "VG1130",
        "country": "British Virgin Islands",
        "country_code": "vg"
      },
      "address": "023, Cane Garden Bay Road, Chalwell, Road Town, Tortola, VG1130, British Virgin Islands"
    },
    {
      "lat": 18.469395770805214,
      "lon": -64.63494587879427,
      "geoinfo": {
        "display_name": "Parham Town, Tortola, VG1120, British Virgin Islands",
        "road": null,
        "house_number": null,
        "neighbourhood": null,
        "suburb": null,
        "city_district": null,
        "city": "Parham Town",
        "state": null,
        "postcode": "VG1120",
        "country": "British Virgin Islands",
        "country_code": "vg"
      },
      "address": "017, Parham Town, Tortola, VG1120, British Virgin Islands"
    },
    {
      "lat": 18.429290275617447,
      "lon": -64.61737637880043,
      "geoinfo": {
        "display_name": "Pasea Road, Wickhams Cay I, Pasea, Road Town, Tortola, VG1110, British Virgin Islands",
        "road": "Pasea Road",
        "house_number": null,
        "neighbourhood": "Wickhams Cay I",
        "suburb": null,
        "city_district": null,
        "city": "Road Town",
        "state": null,
        "postcode": "VG1110",
        "country": "British Virgin Islands",
        "country_code": "vg"
      },
      "address": "049, Pasea Road, Wickhams Cay I, Pasea, Road Town, Tortola, VG1110, British Virgin Islands"
    },
    {
      "lat": 18.43995490876332,
      "lon": -64.63445573487274,
      "geoinfo": {
        "display_name": "Road Town, Tortola, VG1110, British Virgin Islands",
        "road": null,
        "house_number": null,
        "neighbourhood": null,
        "suburb": null,
        "city_district": null,
        "city": "Road Town",
        "state": null,
        "postcode": "VG1110",
        "country": "British Virgin Islands",
        "country_code": "vg"
      },
      "address": "884, Road Town, Tortola, VG1110, British Virgin Islands"
    },
    {
      "lat": 18.419053966340318,
      "lon": -64.62028029547284,
      "geoinfo": {
        "display_name": "Paul P. Wattley Drive, Wickhams Cay I, Road Town, Tortola, VG1110, British Virgin Islands",
        "road": "Paul P. Wattley Drive",
        "house_number": null,
        "neighbourhood": "Wickhams Cay I",
        "suburb": null,
        "city_district": null,
        "city": "Road Town",
        "state": null,
        "postcode": "VG1110",
        "country": "British Virgin Islands",
        "country_code": "vg"
      },
      "address": "782, Paul P. Wattley Drive, Wickhams Cay I, Road Town, Tortola, VG1110, British Virgin Islands"
    },
    {
      "lat": 18.444980567133676,
      "lon": -64.62331644598028,
      "geoinfo": {
        "display_name": "Road Town, Tortola, VG1110, British Virgin Islands",
        "road": null,
        "house_number": null,
        "neighbourhood": null,
        "suburb": null,
        "city_district": null,
        "city": "Road Town",
        "state": null,
        "postcode": "VG1110",
        "country": "British Virgin Islands",
        "country_code": "vg"
      },
      "address": "226, Road Town, Tortola, VG1110, British Virgin Islands"
    },
    {
      "lat": 18.409151084551038,
      "lon": -64.63540712484014,
      "geoinfo": {
        "display_name": "St. Paul's Church, Sir Francis Drake Highway, Hannah, Road Town, Tortola, VG1110, British Virgin Islands",
        "road": "Sir Francis Drake Highway",
        "house_number": null,
        "neighbourhood": null,
        "suburb": null,
        "city_district": null,
        "city": "Road Town",
        "state": null,
        "postcode": "VG1110",
        "country": "British Virgin Islands",
        "country_code": "vg"
      },
      "address": "407, Sir Francis Drake Highway, VG1110 Road Town, British Virgin Islands"
    },
    {
      "lat": 18.457892366236397,
      "lon": -64.62497538073397,
      "geoinfo": {
        "display_name": "Parham Town, Tortola, VG1120, British Virgin Islands",
        "road": null,
        "house_number": null,
        "neighbourhood": null,
        "suburb": null,
        "city_district": null,
        "city": "Parham Town",
        "state": null,
        "postcode": "VG1120",
        "country": "British Virgin Islands",
        "country_code": "vg"
      },
      "address": "244, Parham Town, Tortola, VG1120, British Virgin Islands"
    },
    {
      "lat": 18.437173546872415,
      "lon": -64.6492090732453,
      "geoinfo": {
        "display_name": "Brewer's Bay Road, Road Town, Tortola, British Virgin Islands",
        "road": "Brewer's Bay Road",
        "house_number": null,
        "neighbourhood": null,
        "suburb": null,
        "city_district": null,
        "city": "Road Town",
        "state": null,
        "postcode": null,
        "country": "British Virgin Islands",
        "country_code": "vg"
      },
      "address": "903, Brewer's Bay Road, Road Town, 19564 Tortola, British Virgin Islands"
    },
    {
      "lat": 18.434233297353675,
      "lon": -64.60630319897442,
      "geoinfo": {
        "display_name": "Free Bottom Road, Wickhams Cay II, Purcell, Road Town, Tortola, VG1110, British Virgin Islands",
        "road": "Free Bottom Road",
        "house_number": null,
        "neighbourhood": "Wickhams Cay II",
        "suburb": null,
        "city_district": null,
        "city": "Road Town",
        "state": null,
        "postcode": "VG1110",
        "country": "British Virgin Islands",
        "country_code": "vg"
      },
      "address": "792, Free Bottom Road, Wickhams Cay II, Purcell, Road Town, Tortola, VG1110, British Virgin Islands"
    },
    {
      "lat": 18.454169188291083,
      "lon": -64.65629004550668,
      "geoinfo": {
        "display_name": "Road Town, Tortola, VG1110, British Virgin Islands",
        "road": null,
        "house_number": null,
        "neighbourhood": null,
        "suburb": null,
        "city_district": null,
        "city": "Road Town",
        "state": null,
        "postcode": "VG1110",
        "country": "British Virgin Islands",
        "country_code": "vg"
      },
      "address": "465, Road Town, Tortola, VG1110, British Virgin Islands"
    },
    {
      "lat": 18.436790394246742,
      "lon": -64.60918789774347,
      "geoinfo": {
        "display_name": "Blunt Road, Purcell, Road Town, Tortola, VG1110, British Virgin Islands",
        "road": "Blunt Road",
        "house_number": null,
        "neighbourhood": null,
        "suburb": null,
        "city_district": null,
        "city": "Road Town",
        "state": null,
        "postcode": "VG1110",
        "country": "British Virgin Islands",
        "country_code": "vg"
      },
      "address": "498, Blunt Road, Purcell, Road Town, Tortola, VG1110, British Virgin Islands"
    },
    {
      "lat": 18.419304446805548,
      "lon": -64.59250632907316,
      "geoinfo": {
        "display_name": "Kenneth Maduro Road, Parham Town, Tortola, VG1110, British Virgin Islands",
        "road": "Kenneth Maduro Road",
        "house_number": null,
        "neighbourhood": null,
        "suburb": null,
        "city_district": null,
        "city": "Parham Town",
        "state": null,
        "postcode": "VG1110",
        "country": "British Virgin Islands",
        "country_code": "vg"
      },
      "address": "130, Kenneth Maduro Road, Parham Town, Tortola, VG1110, British Virgin Islands"
    },
    {
      "lat": 18.413119202887476,
      "lon": -64.60946970502336,
      "geoinfo": {
        "display_name": "Fishers Lane, Road Town, Tortola, VG1110, British Virgin Islands",
        "road": "Fishers Lane",
        "house_number": null,
        "neighbourhood": null,
        "suburb": null,
        "city_district": null,
        "city": "Road Town",
        "state": null,
        "postcode": "VG1110",
        "country": "British Virgin Islands",
        "country_code": "vg"
      },
      "address": "342, Fishers Lane, Road Town, Tortola, VG1110, British Virgin Islands"
    },
    {
      "lat": 18.395437061819926,
      "lon": -64.64319149333424,
      "geoinfo": {
        "display_name": "Havers Road, East Havers, Tortola, VG1130, British Virgin Islands",
        "road": "Havers Road",
        "house_number": null,
        "neighbourhood": null,
        "suburb": null,
        "city_district": null,
        "city": null,
        "state": null,
        "postcode": "VG1130",
        "country": "British Virgin Islands",
        "country_code": "vg"
      },
      "address": "052, Havers Road, East Havers, Tortola, VG1130, British Virgin Islands"
    },
    {
      "lat": 18.412555236733844,
      "lon": -64.61180484531363,
      "geoinfo": {
        "display_name": "Fishers Lane, Road Town, Tortola, VG1110, British Virgin Islands",
        "road": "Fishers Lane",
        "house_number": null,
        "neighbourhood": null,
        "suburb": null,
        "city_district": null,
        "city": "Road Town",
        "state": null,
        "postcode": "VG1110",
        "country": "British Virgin Islands",
        "country_code": "vg"
      },
      "address": "643, Fishers Lane, Road Town, Tortola, VG1110, British Virgin Islands"
    },
    {
      "lat": 18.41332015180093,
      "lon": -64.61193069514137,
      "geoinfo": {
        "display_name": "Fishers Lane, Road Town, Tortola, VG1110, British Virgin Islands",
        "road": "Fishers Lane",
        "house_number": null,
        "neighbourhood": null,
        "suburb": null,
        "city_district": null,
        "city": "Road Town",
        "state": null,
        "postcode": "VG1110",
        "country": "British Virgin Islands",
        "country_code": "vg"
      },
      "address": "068, Fishers Lane, Road Town, Tortola, VG1110, British Virgin Islands"
    },
    {
      "lat": 18.44939737217145,
      "lon": -64.60451006398398,
      "geoinfo": {
        "display_name": "Rouge's Bay Road, Wesley Hill, Road Town, Tortola, VG1110, British Virgin Islands",
        "road": "Rouge's Bay Road",
        "house_number": null,
        "neighbourhood": null,
        "suburb": null,
        "city_district": null,
        "city": "Road Town",
        "state": null,
        "postcode": "VG1110",
        "country": "British Virgin Islands",
        "country_code": "vg"
      },
      "address": "719, Rouge's Bay Road, Wesley Hill, Road Town, Tortola, VG1110, British Virgin Islands"
    },
    {
      "lat": 18.404523260518907,
      "lon": -64.59956129306441,
      "geoinfo": {
        "display_name": "Parham Town, Tortola, VG1120, British Virgin Islands",
        "road": null,
        "house_number": null,
        "neighbourhood": null,
        "suburb": null,
        "city_district": null,
        "city": "Parham Town",
        "state": null,
        "postcode": "VG1120",
        "country": "British Virgin Islands",
        "country_code": "vg"
      },
      "address": "266, Parham Town, Tortola, VG1120, British Virgin Islands"
    },
    {
      "lat": 18.45637473704487,
      "lon": -64.60854618546917,
      "geoinfo": {
        "display_name": "Rouge's Bay Road, Wesley Hill, Road Town, Tortola, VG1110, British Virgin Islands",
        "road": "Rouge's Bay Road",
        "house_number": null,
        "neighbourhood": null,
        "suburb": null,
        "city_district": null,
        "city": "Road Town",
        "state": null,
        "postcode": "VG1110",
        "country": "British Virgin Islands",
        "country_code": "vg"
      },
      "address": "824, Rouge's Bay Road, Wesley Hill, Road Town, Tortola, VG1110, British Virgin Islands"
    },
    {
      "lat": 18.4211378701401,
      "lon": -64.64581229002734,
      "geoinfo": {
        "display_name": "Doty, Road Town, Tortola, VG1110, British Virgin Islands",
        "road": null,
        "house_number": null,
        "neighbourhood": null,
        "suburb": null,
        "city_district": null,
        "city": "Road Town",
        "state": null,
        "postcode": "VG1110",
        "country": "British Virgin Islands",
        "country_code": "vg"
      },
      "address": "938, Doty, Road Town, Tortola, VG1110, British Virgin Islands"
    },
    {
      "lat": 18.44771253448562,
      "lon": -64.61206198324373,
      "geoinfo": {
        "display_name": "Cooper Bay Road, Road Town, Tortola, VG1110, British Virgin Islands",
        "road": "Cooper Bay Road",
        "house_number": null,
        "neighbourhood": null,
        "suburb": null,
        "city_district": null,
        "city": "Road Town",
        "state": null,
        "postcode": "VG1110",
        "country": "British Virgin Islands",
        "country_code": "vg"
      },
      "address": "797, Cooper Bay Road, Road Town, Tortola, VG1110, British Virgin Islands"
    },
    {
      "lat": 18.418716868692066,
      "lon": -64.59488286636125,
      "geoinfo": {
        "display_name": "Kingstown Road, Parham Town, Tortola, VG1110, British Virgin Islands",
        "road": "Kingstown Road",
        "house_number": null,
        "neighbourhood": null,
        "suburb": null,
        "city_district": null,
        "city": "Parham Town",
        "state": null,
        "postcode": "VG1110",
        "country": "British Virgin Islands",
        "country_code": "vg"
      },
      "address": "914, Kingstown Road, Parham Town, Tortola, VG1110, British Virgin Islands"
    },
    {
      "lat": 18.402772565677918,
      "lon": -64.59875877636952,
      "geoinfo": {
        "display_name": "Parham Town, Tortola, VG1120, British Virgin Islands",
        "road": null,
        "house_number": null,
        "neighbourhood": null,
        "suburb": null,
        "city_district": null,
        "city": "Parham Town",
        "state": null,
        "postcode": "VG1120",
        "country": "British Virgin Islands",
        "country_code": "vg"
      },
      "address": "277, Parham Town, Tortola, VG1120, British Virgin Islands"
    },
    {
      "lat": 18.423252003790676,
      "lon": -64.58780813750286,
      "geoinfo": {
        "display_name": "Highland Grove Drive, Parham Town, Tortola, VG1110, British Virgin Islands",
        "road": "Highland Grove Drive",
        "house_number": null,
        "neighbourhood": null,
        "suburb": null,
        "city_district": null,
        "city": "Parham Town",
        "state": null,
        "postcode": "VG1110",
        "country": "British Virgin Islands",
        "country_code": "vg"
      },
      "address": "065, Highland Grove Drive, Parham Town, Tortola, VG1110, British Virgin Islands"
    },
    {
      "lat": 18.445081938890176,
      "lon": -64.62744209373348,
      "geoinfo": {
        "display_name": "Road Town, Tortola, VG1110, British Virgin Islands",
        "road": null,
        "house_number": null,
        "neighbourhood": null,
        "suburb": null,
        "city_district": null,
        "city": "Road Town",
        "state": null,
        "postcode": "VG1110",
        "country": "British Virgin Islands",
        "country_code": "vg"
      },
      "address": "301, Road Town, Tortola, VG1110, British Virgin Islands"
    },
    {
      "lat": 18.426125936935435,
      "lon": -64.58153904939635,
      "geoinfo": {
        "display_name": "Paraquita Bay Farm Road, Parham Town, Tortola, VG1110, British Virgin Islands",
        "road": "Paraquita Bay Farm Road",
        "house_number": null,
        "neighbourhood": null,
        "suburb": null,
        "city_district": null,
        "city": "Parham Town",
        "state": null,
        "postcode": "VG1110",
        "country": "British Virgin Islands",
        "country_code": "vg"
      },
      "address": "160, Paraquita Bay Farm Road, Parham Town, Tortola, VG1110, British Virgin Islands"
    },
    {
      "lat": 18.434406003832574,
      "lon": -64.62945645788162,
      "geoinfo": {
        "display_name": "Horsepath, Road Town, Tortola, VG1110, British Virgin Islands",
        "road": null,
        "house_number": null,
        "neighbourhood": null,
        "suburb": null,
        "city_district": null,
        "city": "Road Town",
        "state": null,
        "postcode": "VG1110",
        "country": "British Virgin Islands",
        "country_code": "vg"
      },
      "address": "051, Horsepath, Road Town, Tortola, VG1110, British Virgin Islands"
    },
    {
      "lat": 18.422743153008504,
      "lon": -64.6600438889389,
      "geoinfo": {
        "display_name": "Cane Garden Bay Road, Arundell, Tortola, VG1130, British Virgin Islands",
        "road": "Cane Garden Bay Road",
        "house_number": null,
        "neighbourhood": null,
        "suburb": null,
        "city_district": null,
        "city": null,
        "state": null,
        "postcode": "VG1130",
        "country": "British Virgin Islands",
        "country_code": "vg"
      },
      "address": "591, Cane Garden Bay Road, Arundell, Tortola, VG1130, British Virgin Islands"
    },
    {
      "lat": 18.41167454854372,
      "lon": -64.58219964490551,
      "geoinfo": {
        "display_name": "Half Moon Bay Road, Parham Town, Tortola, VG1110, British Virgin Islands",
        "road": "Half Moon Bay Road",
        "house_number": null,
        "neighbourhood": null,
        "suburb": null,
        "city_district": null,
        "city": "Parham Town",
        "state": null,
        "postcode": "VG1110",
        "country": "British Virgin Islands",
        "country_code": "vg"
      },
      "address": "350, Half Moon Bay Road, Parham Town, Tortola, VG1110, British Virgin Islands"
    },
    {
      "lat": 18.415747228561617,
      "lon": -64.6411383301146,
      "geoinfo": {
        "display_name": "Nibbs Estate Road, Threllfall, Road Town, Tortola, VG1110, British Virgin Islands",
        "road": "Nibbs Estate Road",
        "house_number": null,
        "neighbourhood": null,
        "suburb": null,
        "city_district": null,
        "city": "Road Town",
        "state": null,
        "postcode": "VG1110",
        "country": "British Virgin Islands",
        "country_code": "vg"
      },
      "address": "801, Nibbs Estate Road, Threllfall, Road Town, Tortola, VG1110, British Virgin Islands"
    },
    {
      "lat": 18.458093956398436,
      "lon": -64.63072036872525,
      "geoinfo": {
        "display_name": "Parham Town, Tortola, VG1120, British Virgin Islands",
        "road": null,
        "house_number": null,
        "neighbourhood": null,
        "suburb": null,
        "city_district": null,
        "city": "Parham Town",
        "state": null,
        "postcode": "VG1120",
        "country": "British Virgin Islands",
        "country_code": "vg"
      },
      "address": "662, Parham Town, Tortola, VG1120, British Virgin Islands"
    },
    {
      "lat": 18.422018185911114,
      "lon": -64.584741414541,
      "geoinfo": {
        "display_name": "Highland Grove Drive, Parham Town, Tortola, VG1110, British Virgin Islands",
        "road": "Highland Grove Drive",
        "house_number": null,
        "neighbourhood": null,
        "suburb": null,
        "city_district": null,
        "city": "Parham Town",
        "state": null,
        "postcode": "VG1110",
        "country": "British Virgin Islands",
        "country_code": "vg"
      },
      "address": "758, Highland Grove Drive, Parham Town, Tortola, VG1110, British Virgin Islands"
    },
    {
      "lat": 18.426060087845958,
      "lon": -64.58772382036494,
      "geoinfo": {
        "display_name": "Highland Grove Drive, Parham Town, Tortola, VG1110, British Virgin Islands",
        "road": "Highland Grove Drive",
        "house_number": null,
        "neighbourhood": null,
        "suburb": null,
        "city_district": null,
        "city": "Parham Town",
        "state": null,
        "postcode": "VG1110",
        "country": "British Virgin Islands",
        "country_code": "vg"
      },
      "address": "854, Highland Grove Drive, Parham Town, Tortola, VG1110, British Virgin Islands"
    },
    {
      "lat": 18.38997225554857,
      "lon": -64.63969552255243,
      "geoinfo": {
        "display_name": "Sir Francis Drake Highway, Hannah, Road Town, Tortola, VG1110, British Virgin Islands",
        "road": "Sir Francis Drake Highway",
        "house_number": null,
        "neighbourhood": null,
        "suburb": null,
        "city_district": null,
        "city": "Road Town",
        "state": null,
        "postcode": "VG1110",
        "country": "British Virgin Islands",
        "country_code": "vg"
      },
      "address": "738, Sir Francis Drake Highway, Hannah, Road Town, Tortola, VG1110, British Virgin Islands"
    },
    {
      "lat": 18.41199535961651,
      "lon": -64.61951728916996,
      "geoinfo": {
        "display_name": "Walling Road, Road Town, Tortola, VG1110, British Virgin Islands",
        "road": "Walling Road",
        "house_number": null,
        "neighbourhood": null,
        "suburb": null,
        "city_district": null,
        "city": "Road Town",
        "state": null,
        "postcode": "VG1110",
        "country": "British Virgin Islands",
        "country_code": "vg"
      },
      "address": "352, Walling Road, Road Town, Tortola, VG1110, British Virgin Islands"
    },
    {
      "lat": 18.443084424019677,
      "lon": -64.58162704451613,
      "geoinfo": {
        "display_name": "Parham Town, Tortola, VG1120, British Virgin Islands",
        "road": null,
        "house_number": null,
        "neighbourhood": null,
        "suburb": null,
        "city_district": null,
        "city": "Parham Town",
        "state": null,
        "postcode": "VG1120",
        "country": "British Virgin Islands",
        "country_code": "vg"
      },
      "address": "065, Parham Town, Tortola, VG1120, British Virgin Islands"
    },
    {
      "lat": 18.449587755161865,
      "lon": -64.59068901485327,
      "geoinfo": {
        "display_name": "Parham Town, Tortola, VG1110, British Virgin Islands",
        "road": null,
        "house_number": null,
        "neighbourhood": null,
        "suburb": null,
        "city_district": null,
        "city": "Parham Town",
        "state": null,
        "postcode": "VG1110",
        "country": "British Virgin Islands",
        "country_code": "vg"
      },
      "address": "880, Parham Town, Tortola, VG1110, British Virgin Islands"
    },
    {
      "lat": 18.43810871048872,
      "lon": -64.63446919352168,
      "geoinfo": {
        "display_name": "Ridge Road, Road Town, Tortola, VG1110, British Virgin Islands",
        "road": "Ridge Road",
        "house_number": null,
        "neighbourhood": null,
        "suburb": null,
        "city_district": null,
        "city": "Road Town",
        "state": null,
        "postcode": "VG1110",
        "country": "British Virgin Islands",
        "country_code": "vg"
      },
      "address": "447, Ridge Road, Road Town, Tortola, VG1110, British Virgin Islands"
    },
    {
      "lat": 18.42354283219942,
      "lon": -64.62771559983318,
      "geoinfo": {
        "display_name": "Joe's Hill Road, Long Bush, Road Town, Tortola, VG1110, British Virgin Islands",
        "road": "Joe's Hill Road",
        "house_number": null,
        "neighbourhood": null,
        "suburb": null,
        "city_district": null,
        "city": "Road Town",
        "state": null,
        "postcode": "VG1110",
        "country": "British Virgin Islands",
        "country_code": "vg"
      },
      "address": "654, Joe's Hill Road, Long Bush, Road Town, Tortola, VG1110, British Virgin Islands"
    },
    {
      "lat": 18.455586806442394,
      "lon": -64.59707199596903,
      "geoinfo": {
        "display_name": "Wesley Hill, Road Town, Tortola, VG1110, British Virgin Islands",
        "road": null,
        "house_number": null,
        "neighbourhood": null,
        "suburb": null,
        "city_district": null,
        "city": "Road Town",
        "state": null,
        "postcode": "VG1110",
        "country": "British Virgin Islands",
        "country_code": "vg"
      },
      "address": "543, Wesley Hill, Road Town, Tortola, VG1110, British Virgin Islands"
    },
    {
      "lat": 18.457484982739157,
      "lon": -64.64375504743548,
      "geoinfo": {
        "display_name": "Parham Town, Tortola, VG1120, British Virgin Islands",
        "road": null,
        "house_number": null,
        "neighbourhood": null,
        "suburb": null,
        "city_district": null,
        "city": "Parham Town",
        "state": null,
        "postcode": "VG1120",
        "country": "British Virgin Islands",
        "country_code": "vg"
      },
      "address": "201, Parham Town, Tortola, VG1120, British Virgin Islands"
    },
    {
      "lat": 18.430190492538518,
      "lon": -64.62745106290325,
      "geoinfo": {
        "display_name": "Ritter Road, Horsepath, Road Town, Tortola, VG1110, British Virgin Islands",
        "road": "Ritter Road",
        "house_number": null,
        "neighbourhood": null,
        "suburb": null,
        "city_district": null,
        "city": "Road Town",
        "state": null,
        "postcode": "VG1110",
        "country": "British Virgin Islands",
        "country_code": "vg"
      },
      "address": "333, Ritter Road, Horsepath, Road Town, Tortola, VG1110, British Virgin Islands"
    },
    {
      "lat": 18.434070814627777,
      "lon": -64.57862677939782,
      "geoinfo": {
        "display_name": "Parham Town, Tortola, VG1120, British Virgin Islands",
        "road": null,
        "house_number": null,
        "neighbourhood": null,
        "suburb": null,
        "city_district": null,
        "city": "Parham Town",
        "state": null,
        "postcode": "VG1120",
        "country": "British Virgin Islands",
        "country_code": "vg"
      },
      "address": "722, Parham Town, Tortola, VG1120, British Virgin Islands"
    },
    {
      "lat": 18.438010335989063,
      "lon": -64.60429697026187,
      "geoinfo": {
        "display_name": "Wesley Hill, Road Town, Tortola, VG1110, British Virgin Islands",
        "road": null,
        "house_number": null,
        "neighbourhood": null,
        "suburb": null,
        "city_district": null,
        "city": "Road Town",
        "state": null,
        "postcode": "VG1110",
        "country": "British Virgin Islands",
        "country_code": "vg"
      },
      "address": "159, Wesley Hill, Road Town, Tortola, VG1110, British Virgin Islands"
    },
    {
      "lat": 18.461591485053148,
      "lon": -64.59164293921673,
      "geoinfo": {
        "display_name": "Parham Town, Tortola, VG1120, British Virgin Islands",
        "road": null,
        "house_number": null,
        "neighbourhood": null,
        "suburb": null,
        "city_district": null,
        "city": "Parham Town",
        "state": null,
        "postcode": "VG1120",
        "country": "British Virgin Islands",
        "country_code": "vg"
      },
      "address": "836, Parham Town, Tortola, VG1120, British Virgin Islands"
    },
    {
      "lat": 18.432315974202346,
      "lon": -64.61629132453719,
      "geoinfo": {
        "display_name": "Tamerind Tree Road, Wickhams Cay II, Pasea, Road Town, Tortola, VG1110, British Virgin Islands",
        "road": "Tamerind Tree Road",
        "house_number": null,
        "neighbourhood": "Wickhams Cay II",
        "suburb": null,
        "city_district": null,
        "city": "Road Town",
        "state": null,
        "postcode": "VG1110",
        "country": "British Virgin Islands",
        "country_code": "vg"
      },
      "address": "121, Tamerind Tree Road, Wickhams Cay II, Pasea, Road Town, Tortola, VG1110, British Virgin Islands"
    },
    {
      "lat": 18.447985756210894,
      "lon": -64.62928949975507,
      "geoinfo": {
        "display_name": "Road Town, Tortola, VG1110, British Virgin Islands",
        "road": null,
        "house_number": null,
        "neighbourhood": null,
        "suburb": null,
        "city_district": null,
        "city": "Road Town",
        "state": null,
        "postcode": "VG1110",
        "country": "British Virgin Islands",
        "country_code": "vg"
      },
      "address": "424, Road Town, Tortola, VG1110, British Virgin Islands"
    },
    {
      "lat": 18.442661313624853,
      "lon": -64.64980305872143,
      "geoinfo": {
        "display_name": "Brewer's Bay Road, Road Town, Tortola, British Virgin Islands",
        "road": "Brewer's Bay Road",
        "house_number": null,
        "neighbourhood": null,
        "suburb": null,
        "city_district": null,
        "city": "Road Town",
        "state": null,
        "postcode": null,
        "country": "British Virgin Islands",
        "country_code": "vg"
      },
      "address": "915, Brewer's Bay Road, Road Town, 29352 Tortola, British Virgin Islands"
    },
    {
      "lat": 18.46094156258534,
      "lon": -64.59898310405008,
      "geoinfo": {
        "display_name": "Wesley Hill, Road Town, Tortola, VG1110, British Virgin Islands",
        "road": null,
        "house_number": null,
        "neighbourhood": null,
        "suburb": null,
        "city_district": null,
        "city": "Road Town",
        "state": null,
        "postcode": "VG1110",
        "country": "British Virgin Islands",
        "country_code": "vg"
      },
      "address": "254, Wesley Hill, Road Town, Tortola, VG1110, British Virgin Islands"
    },
    {
      "lat": 18.44352674341071,
      "lon": -64.6460953033529,
      "geoinfo": {
        "display_name": "Brewer's Bay Road, Road Town, Tortola, VG1110, British Virgin Islands",
        "road": "Brewer's Bay Road",
        "house_number": null,
        "neighbourhood": null,
        "suburb": null,
        "city_district": null,
        "city": "Road Town",
        "state": null,
        "postcode": "VG1110",
        "country": "British Virgin Islands",
        "country_code": "vg"
      },
      "address": "400, Brewer's Bay Road, Road Town, Tortola, VG1110, British Virgin Islands"
    },
    {
      "lat": 18.402584302512395,
      "lon": -64.64664097258724,
      "geoinfo": {
        "display_name": "Havers Road, East Havers, Tortola, VG1130, British Virgin Islands",
        "road": "Havers Road",
        "house_number": null,
        "neighbourhood": null,
        "suburb": null,
        "city_district": null,
        "city": null,
        "state": null,
        "postcode": "VG1130",
        "country": "British Virgin Islands",
        "country_code": "vg"
      },
      "address": "035, Havers Road, East Havers, Tortola, VG1130, British Virgin Islands"
    },
    {
      "lat": 18.423688947770845,
      "lon": -64.617732059929,
      "geoinfo": {
        "display_name": "Village Cay Hotel & Restaurant, Pelican Drive, Wickhams Cay I, Road Town, Tortola, VG1110, British Virgin Islands",
        "road": "Pelican Drive",
        "house_number": null,
        "neighbourhood": "Wickhams Cay I",
        "suburb": null,
        "city_district": null,
        "city": "Road Town",
        "state": null,
        "postcode": "VG1110",
        "country": "British Virgin Islands",
        "country_code": "vg"
      },
      "address": "327, Pelican Drive, VG1110 Road Town, British Virgin Islands"
    },
    {
      "lat": 18.454659619662035,
      "lon": -64.58517675863742,
      "geoinfo": {
        "display_name": "Parham Town, Tortola, VG1120, British Virgin Islands",
        "road": null,
        "house_number": null,
        "neighbourhood": null,
        "suburb": null,
        "city_district": null,
        "city": "Parham Town",
        "state": null,
        "postcode": "VG1120",
        "country": "British Virgin Islands",
        "country_code": "vg"
      },
      "address": "927, Parham Town, Tortola, VG1120, British Virgin Islands"
    },
    {
      "lat": 18.441454470912166,
      "lon": -64.61464479783352,
      "geoinfo": {
        "display_name": "Road Town, Tortola, VG1110, British Virgin Islands",
        "road": null,
        "house_number": null,
        "neighbourhood": null,
        "suburb": null,
        "city_district": null,
        "city": "Road Town",
        "state": null,
        "postcode": "VG1110",
        "country": "British Virgin Islands",
        "country_code": "vg"
      },
      "address": "858, Road Town, Tortola, VG1110, British Virgin Islands"
    },
    {
      "lat": 18.41264945507422,
      "lon": -64.65792681674394,
      "geoinfo": {
        "display_name": "Mount Sage Road, Doty, Road Town, Tortola, VG1130, British Virgin Islands",
        "road": "Mount Sage Road",
        "house_number": null,
        "neighbourhood": null,
        "suburb": null,
        "city_district": null,
        "city": "Road Town",
        "state": null,
        "postcode": "VG1130",
        "country": "British Virgin Islands",
        "country_code": "vg"
      },
      "address": "689, Mount Sage Road, Doty, Road Town, Tortola, VG1130, British Virgin Islands"
    },
    {
      "lat": 18.446097612249275,
      "lon": -64.61638657919289,
      "geoinfo": {
        "display_name": "Road Town, Tortola, VG1110, British Virgin Islands",
        "road": null,
        "house_number": null,
        "neighbourhood": null,
        "suburb": null,
        "city_district": null,
        "city": "Road Town",
        "state": null,
        "postcode": "VG1110",
        "country": "British Virgin Islands",
        "country_code": "vg"
      },
      "address": "698, Road Town, Tortola, VG1110, British Virgin Islands"
    },
    {
      "lat": 18.469123995011646,
      "lon": -64.62801548048967,
      "geoinfo": {
        "display_name": "Parham Town, Tortola, VG1120, British Virgin Islands",
        "road": null,
        "house_number": null,
        "neighbourhood": null,
        "suburb": null,
        "city_district": null,
        "city": "Parham Town",
        "state": null,
        "postcode": "VG1120",
        "country": "British Virgin Islands",
        "country_code": "vg"
      },
      "address": "102, Parham Town, Tortola, VG1120, British Virgin Islands"
    },
    {
      "lat": 18.410064539699757,
      "lon": -64.5984436965363,
      "geoinfo": {
        "display_name": "Venzen Road, Parham Town, Tortola, VG1110, British Virgin Islands",
        "road": "Venzen Road",
        "house_number": null,
        "neighbourhood": null,
        "suburb": null,
        "city_district": null,
        "city": "Parham Town",
        "state": null,
        "postcode": "VG1110",
        "country": "British Virgin Islands",
        "country_code": "vg"
      },
      "address": "789, Venzen Road, Parham Town, Tortola, VG1110, British Virgin Islands"
    },
    {
      "lat": 18.416146226055545,
      "lon": -64.60290711534995,
      "geoinfo": {
        "display_name": "Blackburn Highway, Wickhams Cay II, Purcell, Parham Town, Tortola, VG1110, British Virgin Islands",
        "road": "Blackburn Highway",
        "house_number": null,
        "neighbourhood": "Wickhams Cay II",
        "suburb": null,
        "city_district": null,
        "city": "Parham Town",
        "state": null,
        "postcode": "VG1110",
        "country": "British Virgin Islands",
        "country_code": "vg"
      },
      "address": "978, Blackburn Highway, Wickhams Cay II, Purcell, Parham Town, Tortola, VG1110, British Virgin Islands"
    },
    {
      "lat": 18.465886895532257,
      "lon": -64.60314926747867,
      "geoinfo": {
        "display_name": "Parham Town, Tortola, VG1120, British Virgin Islands",
        "road": null,
        "house_number": null,
        "neighbourhood": null,
        "suburb": null,
        "city_district": null,
        "city": "Parham Town",
        "state": null,
        "postcode": "VG1120",
        "country": "British Virgin Islands",
        "country_code": "vg"
      },
      "address": "094, Parham Town, Tortola, VG1120, British Virgin Islands"
    },
    {
      "lat": 18.429116181825098,
      "lon": -64.5806276465686,
      "geoinfo": {
        "display_name": "Parham Town, Tortola, VG1120, British Virgin Islands",
        "road": null,
        "house_number": null,
        "neighbourhood": null,
        "suburb": null,
        "city_district": null,
        "city": "Parham Town",
        "state": null,
        "postcode": "VG1120",
        "country": "British Virgin Islands",
        "country_code": "vg"
      },
      "address": "392, Parham Town, Tortola, VG1120, British Virgin Islands"
    },
    {
      "lat": 18.392110602336036,
      "lon": -64.6435499516351,
      "geoinfo": {
        "display_name": "Sir Francis Drake Highway, Hannah, Road Town, Tortola, VG1110, British Virgin Islands",
        "road": "Sir Francis Drake Highway",
        "house_number": null,
        "neighbourhood": null,
        "suburb": null,
        "city_district": null,
        "city": "Road Town",
        "state": null,
        "postcode": "VG1110",
        "country": "British Virgin Islands",
        "country_code": "vg"
      },
      "address": "375, Sir Francis Drake Highway, Hannah, Road Town, Tortola, VG1110, British Virgin Islands"
    },
    {
      "lat": 18.418520405390943,
      "lon": -64.64662834498056,
      "geoinfo": {
        "display_name": "Ridge Road, Doty, Road Town, Tortola, VG1110, British Virgin Islands",
        "road": "Ridge Road",
        "house_number": null,
        "neighbourhood": null,
        "suburb": null,
        "city_district": null,
        "city": "Road Town",
        "state": null,
        "postcode": "VG1110",
        "country": "British Virgin Islands",
        "country_code": "vg"
      },
      "address": "109, Ridge Road, Doty, Road Town, Tortola, VG1110, British Virgin Islands"
    },
    {
      "lat": 18.449546352544882,
      "lon": -64.6509341251337,
      "geoinfo": {
        "display_name": "Road Town, Tortola, VG1110, British Virgin Islands",
        "road": null,
        "house_number": null,
        "neighbourhood": null,
        "suburb": null,
        "city_district": null,
        "city": "Road Town",
        "state": null,
        "postcode": "VG1110",
        "country": "British Virgin Islands",
        "country_code": "vg"
      },
      "address": "441, Road Town, Tortola, VG1110, British Virgin Islands"
    },
    {
      "lat": 18.42886338892398,
      "lon": -64.65032116145561,
      "geoinfo": {
        "display_name": "Mayaba Road, Chalwell, Road Town, Tortola, VG1110, British Virgin Islands",
        "road": "Mayaba Road",
        "house_number": null,
        "neighbourhood": null,
        "suburb": null,
        "city_district": null,
        "city": "Road Town",
        "state": null,
        "postcode": "VG1110",
        "country": "British Virgin Islands",
        "country_code": "vg"
      },
      "address": "395, Mayaba Road, Chalwell, Road Town, Tortola, VG1110, British Virgin Islands"
    },
    {
      "lat": 18.449357764252813,
      "lon": -64.61257590603287,
      "geoinfo": {
        "display_name": "Cooper Bay Road, Road Town, Tortola, VG1110, British Virgin Islands",
        "road": "Cooper Bay Road",
        "house_number": null,
        "neighbourhood": null,
        "suburb": null,
        "city_district": null,
        "city": "Road Town",
        "state": null,
        "postcode": "VG1110",
        "country": "British Virgin Islands",
        "country_code": "vg"
      },
      "address": "093, Cooper Bay Road, Road Town, Tortola, VG1110, British Virgin Islands"
    },
    {
      "lat": 18.40007876873838,
      "lon": -64.58402500064722,
      "geoinfo": {
        "display_name": "Parham Town, Tortola, VG1120, British Virgin Islands",
        "road": null,
        "house_number": null,
        "neighbourhood": null,
        "suburb": null,
        "city_district": null,
        "city": "Parham Town",
        "state": null,
        "postcode": "VG1120",
        "country": "British Virgin Islands",
        "country_code": "vg"
      },
      "address": "766, Parham Town, Tortola, VG1120, British Virgin Islands"
    },
    {
      "lat": 18.410039414614182,
      "lon": -64.63185326536679,
      "geoinfo": {
        "display_name": "Sir Francis Drake Highway, Hannah, Road Town, Tortola, VG1110, British Virgin Islands",
        "road": "Sir Francis Drake Highway",
        "house_number": null,
        "neighbourhood": null,
        "suburb": null,
        "city_district": null,
        "city": "Road Town",
        "state": null,
        "postcode": "VG1110",
        "country": "British Virgin Islands",
        "country_code": "vg"
      },
      "address": "052, Sir Francis Drake Highway, Hannah, Road Town, Tortola, VG1110, British Virgin Islands"
    },
    {
      "lat": 18.45165002745427,
      "lon": -64.62016677711058,
      "geoinfo": {
        "display_name": "Cooper Bay Road, Road Town, Tortola, VG1110, British Virgin Islands",
        "road": "Cooper Bay Road",
        "house_number": null,
        "neighbourhood": null,
        "suburb": null,
        "city_district": null,
        "city": "Road Town",
        "state": null,
        "postcode": "VG1110",
        "country": "British Virgin Islands",
        "country_code": "vg"
      },
      "address": "457, Cooper Bay Road, Road Town, Tortola, VG1110, British Virgin Islands"
    },
    {
      "lat": 18.407448465593333,
      "lon": -64.57923951279844,
      "geoinfo": {
        "display_name": "Parham Town, Tortola, VG1120, British Virgin Islands",
        "road": null,
        "house_number": null,
        "neighbourhood": null,
        "suburb": null,
        "city_district": null,
        "city": "Parham Town",
        "state": null,
        "postcode": "VG1120",
        "country": "British Virgin Islands",
        "country_code": "vg"
      },
      "address": "051, Parham Town, Tortola, VG1120, British Virgin Islands"
    },
    {
      "lat": 18.409362503096876,
      "lon": -64.6570666347873,
      "geoinfo": {
        "display_name": "North Trail, Mount Sage Road, Doty, Road Town, Tortola, VG1130, British Virgin Islands",
        "road": "Mount Sage Road",
        "house_number": null,
        "neighbourhood": null,
        "suburb": null,
        "city_district": null,
        "city": "Road Town",
        "state": null,
        "postcode": "VG1130",
        "country": "British Virgin Islands",
        "country_code": "vg"
      },
      "address": "558, Mount Sage Road, VG1130 Road Town, British Virgin Islands"
    },
    {
      "lat": 18.434136144043165,
      "lon": -64.57689123244378,
      "geoinfo": {
        "display_name": "Nottingham Circle, Parham Town, Tortola, VG1120, British Virgin Islands",
        "road": "Nottingham Circle",
        "house_number": null,
        "neighbourhood": null,
        "suburb": null,
        "city_district": null,
        "city": "Parham Town",
        "state": null,
        "postcode": "VG1120",
        "country": "British Virgin Islands",
        "country_code": "vg"
      },
      "address": "073, Nottingham Circle, Parham Town, Tortola, VG1120, British Virgin Islands"
    },
    {
      "lat": 18.45951571985884,
      "lon": -64.62947841046079,
      "geoinfo": {
        "display_name": "Parham Town, Tortola, VG1120, British Virgin Islands",
        "road": null,
        "house_number": null,
        "neighbourhood": null,
        "suburb": null,
        "city_district": null,
        "city": "Parham Town",
        "state": null,
        "postcode": "VG1120",
        "country": "British Virgin Islands",
        "country_code": "vg"
      },
      "address": "553, Parham Town, Tortola, VG1120, British Virgin Islands"
    },
    {
      "lat": 18.396249250069147,
      "lon": -64.62882406955407,
      "geoinfo": {
        "display_name": "Nanny Cay Resort and Marina, Nanny Cay Road, Hannah, Road Town, Tortola, VG1110, British Virgin Islands",
        "road": "Nanny Cay Road",
        "house_number": null,
        "neighbourhood": null,
        "suburb": null,
        "city_district": null,
        "city": "Road Town",
        "state": null,
        "postcode": "VG1110",
        "country": "British Virgin Islands",
        "country_code": "vg"
      },
      "address": "889, Nanny Cay Road, VG1110 Road Town, British Virgin Islands"
    },
    {
      "lat": 18.43571261478959,
      "lon": -64.60160774269472,
      "geoinfo": {
        "display_name": "Bellevue Road, Purcell, Road Town, Tortola, VG1110, British Virgin Islands",
        "road": "Bellevue Road",
        "house_number": null,
        "neighbourhood": null,
        "suburb": null,
        "city_district": null,
        "city": "Road Town",
        "state": null,
        "postcode": "VG1110",
        "country": "British Virgin Islands",
        "country_code": "vg"
      },
      "address": "516, Bellevue Road, Purcell, Road Town, Tortola, VG1110, British Virgin Islands"
    },
    {
      "lat": 18.456359757689825,
      "lon": -64.6265996251327,
      "geoinfo": {
        "display_name": "Parham Town, Tortola, VG1120, British Virgin Islands",
        "road": null,
        "house_number": null,
        "neighbourhood": null,
        "suburb": null,
        "city_district": null,
        "city": "Parham Town",
        "state": null,
        "postcode": "VG1120",
        "country": "British Virgin Islands",
        "country_code": "vg"
      },
      "address": "685, Parham Town, Tortola, VG1120, British Virgin Islands"
    },
    {
      "lat": 18.44336373209678,
      "lon": -64.63219048234701,
      "geoinfo": {
        "display_name": "Road Town, Tortola, VG1110, British Virgin Islands",
        "road": null,
        "house_number": null,
        "neighbourhood": null,
        "suburb": null,
        "city_district": null,
        "city": "Road Town",
        "state": null,
        "postcode": "VG1110",
        "country": "British Virgin Islands",
        "country_code": "vg"
      },
      "address": "620, Road Town, Tortola, VG1110, British Virgin Islands"
    },
    {
      "lat": 18.458862232320033,
      "lon": -64.63221914393921,
      "geoinfo": {
        "display_name": "Parham Town, Tortola, VG1120, British Virgin Islands",
        "road": null,
        "house_number": null,
        "neighbourhood": null,
        "suburb": null,
        "city_district": null,
        "city": "Parham Town",
        "state": null,
        "postcode": "VG1120",
        "country": "British Virgin Islands",
        "country_code": "vg"
      },
      "address": "041, Parham Town, Tortola, VG1120, British Virgin Islands"
    },
    {
      "lat": 18.459604276013078,
      "lon": -64.61337306662584,
      "geoinfo": {
        "display_name": "Wesley Hill, Road Town, Tortola, VG1110, British Virgin Islands",
        "road": null,
        "house_number": null,
        "neighbourhood": null,
        "suburb": null,
        "city_district": null,
        "city": "Road Town",
        "state": null,
        "postcode": "VG1110",
        "country": "British Virgin Islands",
        "country_code": "vg"
      },
      "address": "049, Wesley Hill, Road Town, Tortola, VG1110, British Virgin Islands"
    },
    {
      "lat": 18.406122409769697,
      "lon": -64.63273702133768,
      "geoinfo": {
        "display_name": "Ocean Lane, Threllfall, Road Town, Tortola, VG1110, British Virgin Islands",
        "road": "Ocean Lane",
        "house_number": null,
        "neighbourhood": null,
        "suburb": null,
        "city_district": null,
        "city": "Road Town",
        "state": null,
        "postcode": "VG1110",
        "country": "British Virgin Islands",
        "country_code": "vg"
      },
      "address": "724, Ocean Lane, Threllfall, Road Town, Tortola, VG1110, British Virgin Islands"
    },
    {
      "lat": 18.412770513504164,
      "lon": -64.58212760812613,
      "geoinfo": {
        "display_name": "Half Moon Bay Road, Parham Town, Tortola, VG1110, British Virgin Islands",
        "road": "Half Moon Bay Road",
        "house_number": null,
        "neighbourhood": null,
        "suburb": null,
        "city_district": null,
        "city": "Parham Town",
        "state": null,
        "postcode": "VG1110",
        "country": "British Virgin Islands",
        "country_code": "vg"
      },
      "address": "773, Half Moon Bay Road, Parham Town, Tortola, VG1110, British Virgin Islands"
    },
    {
      "lat": 18.443811802629146,
      "lon": -64.57729685438551,
      "geoinfo": {
        "display_name": "Jennings Hill Road, Parham Town, Tortola, VG1120, British Virgin Islands",
        "road": "Jennings Hill Road",
        "house_number": null,
        "neighbourhood": null,
        "suburb": null,
        "city_district": null,
        "city": "Parham Town",
        "state": null,
        "postcode": "VG1120",
        "country": "British Virgin Islands",
        "country_code": "vg"
      },
      "address": "240, Jennings Hill Road, Parham Town, Tortola, VG1120, British Virgin Islands"
    },
    {
      "lat": 18.423560539887426,
      "lon": -64.6049807750898,
      "geoinfo": {
        "display_name": "Blackburn Highway, Wickhams Cay II, Purcell, Parham Town, Tortola, VG1110, British Virgin Islands",
        "road": "Blackburn Highway",
        "house_number": null,
        "neighbourhood": "Wickhams Cay II",
        "suburb": null,
        "city_district": null,
        "city": "Parham Town",
        "state": null,
        "postcode": "VG1110",
        "country": "British Virgin Islands",
        "country_code": "vg"
      },
      "address": "679, Blackburn Highway, Wickhams Cay II, Purcell, Parham Town, Tortola, VG1110, British Virgin Islands"
    },
    {
      "lat": 18.46511260777545,
      "lon": -64.62875135336661,
      "geoinfo": {
        "display_name": "Parham Town, Tortola, VG1120, British Virgin Islands",
        "road": null,
        "house_number": null,
        "neighbourhood": null,
        "suburb": null,
        "city_district": null,
        "city": "Parham Town",
        "state": null,
        "postcode": "VG1120",
        "country": "British Virgin Islands",
        "country_code": "vg"
      },
      "address": "641, Parham Town, Tortola, VG1120, British Virgin Islands"
    },
    {
      "lat": 18.393374631738407,
      "lon": -64.61462760319328,
      "geoinfo": {
        "display_name": "Parham Town, Tortola, VG1120, British Virgin Islands",
        "road": null,
        "house_number": null,
        "neighbourhood": null,
        "suburb": null,
        "city_district": null,
        "city": "Parham Town",
        "state": null,
        "postcode": "VG1120",
        "country": "British Virgin Islands",
        "country_code": "vg"
      },
      "address": "844, Parham Town, Tortola, VG1120, British Virgin Islands"
    },
    {
      "lat": 18.399565275451863,
      "lon": -64.58462058149603,
      "geoinfo": {
        "display_name": "Parham Town, Tortola, VG1120, British Virgin Islands",
        "road": null,
        "house_number": null,
        "neighbourhood": null,
        "suburb": null,
        "city_district": null,
        "city": "Parham Town",
        "state": null,
        "postcode": "VG1120",
        "country": "British Virgin Islands",
        "country_code": "vg"
      },
      "address": "100, Parham Town, Tortola, VG1120, British Virgin Islands"
    },
    {
      "lat": 18.459296969203468,
      "lon": -64.5922550658726,
      "geoinfo": {
        "display_name": "Wesley Hill, Road Town, Tortola, VG1110, British Virgin Islands",
        "road": null,
        "house_number": null,
        "neighbourhood": null,
        "suburb": null,
        "city_district": null,
        "city": "Road Town",
        "state": null,
        "postcode": "VG1110",
        "country": "British Virgin Islands",
        "country_code": "vg"
      },
      "address": "735, Wesley Hill, Road Town, Tortola, VG1110, British Virgin Islands"
    },
    {
      "lat": 18.46747038479805,
      "lon": -64.61064531551429,
      "geoinfo": {
        "display_name": "Parham Town, Tortola, VG1120, British Virgin Islands",
        "road": null,
        "house_number": null,
        "neighbourhood": null,
        "suburb": null,
        "city_district": null,
        "city": "Parham Town",
        "state": null,
        "postcode": "VG1120",
        "country": "British Virgin Islands",
        "country_code": "vg"
      },
      "address": "768, Parham Town, Tortola, VG1120, British Virgin Islands"
    },
    {
      "lat": 18.41798976366198,
      "lon": -64.6540877168093,
      "geoinfo": {
        "display_name": "Shannon Estate Drive, Doty, Road Town, Tortola, VG1130, British Virgin Islands",
        "road": "Shannon Estate Drive",
        "house_number": null,
        "neighbourhood": null,
        "suburb": null,
        "city_district": null,
        "city": "Road Town",
        "state": null,
        "postcode": "VG1130",
        "country": "British Virgin Islands",
        "country_code": "vg"
      },
      "address": "031, Shannon Estate Drive, Doty, Road Town, Tortola, VG1130, British Virgin Islands"
    },
    {
      "lat": 18.434313266509967,
      "lon": -64.64977935299434,
      "geoinfo": {
        "display_name": "Greenbank Estate, Road Town, Tortola, VG1110, British Virgin Islands",
        "road": null,
        "house_number": null,
        "neighbourhood": null,
        "suburb": null,
        "city_district": null,
        "city": "Road Town",
        "state": null,
        "postcode": "VG1110",
        "country": "British Virgin Islands",
        "country_code": "vg"
      },
      "address": "955, Greenbank Estate, Road Town, Tortola, VG1110, British Virgin Islands"
    },
    {
      "lat": 18.4163582660172,
      "lon": -64.64535033310894,
      "geoinfo": {
        "display_name": "Hannahs Road, Doty, Road Town, Tortola, VG1110, British Virgin Islands",
        "road": "Hannahs Road",
        "house_number": null,
        "neighbourhood": null,
        "suburb": null,
        "city_district": null,
        "city": "Road Town",
        "state": null,
        "postcode": "VG1110",
        "country": "British Virgin Islands",
        "country_code": "vg"
      },
      "address": "821, Hannahs Road, Doty, Road Town, Tortola, VG1110, British Virgin Islands"
    },
    {
      "lat": 18.386653023304042,
      "lon": -64.60185178558334,
      "geoinfo": {
        "display_name": "Parham Town, Tortola, VG1120, British Virgin Islands",
        "road": null,
        "house_number": null,
        "neighbourhood": null,
        "suburb": null,
        "city_district": null,
        "city": "Parham Town",
        "state": null,
        "postcode": "VG1120",
        "country": "British Virgin Islands",
        "country_code": "vg"
      },
      "address": "152, Parham Town, Tortola, VG1120, British Virgin Islands"
    },
    {
      "lat": 18.431966422977183,
      "lon": -64.58694812210307,
      "geoinfo": {
        "display_name": "Parham Town, Tortola, VG1110, British Virgin Islands",
        "road": null,
        "house_number": null,
        "neighbourhood": null,
        "suburb": null,
        "city_district": null,
        "city": "Parham Town",
        "state": null,
        "postcode": "VG1110",
        "country": "British Virgin Islands",
        "country_code": "vg"
      },
      "address": "762, Parham Town, Tortola, VG1110, British Virgin Islands"
    },
    {
      "lat": 18.459097597535816,
      "lon": -64.63627197628458,
      "geoinfo": {
        "display_name": "Parham Town, Tortola, VG1120, British Virgin Islands",
        "road": null,
        "house_number": null,
        "neighbourhood": null,
        "suburb": null,
        "city_district": null,
        "city": "Parham Town",
        "state": null,
        "postcode": "VG1120",
        "country": "British Virgin Islands",
        "country_code": "vg"
      },
      "address": "543, Parham Town, Tortola, VG1120, British Virgin Islands"
    },
    {
      "lat": 18.410405224141293,
      "lon": -64.6645665167605,
      "geoinfo": {
        "display_name": "Garden Road, Tortola, VG1130, British Virgin Islands",
        "road": "Garden Road",
        "house_number": null,
        "neighbourhood": null,
        "suburb": null,
        "city_district": null,
        "city": null,
        "state": null,
        "postcode": "VG1130",
        "country": "British Virgin Islands",
        "country_code": "vg"
      },
      "address": "840, Garden Road, Tortola, VG1130, British Virgin Islands"
    },
    {
      "lat": 18.395791260175745,
      "lon": -64.6431496700889,
      "geoinfo": {
        "display_name": "Havers Road, East Havers, Tortola, VG1130, British Virgin Islands",
        "road": "Havers Road",
        "house_number": null,
        "neighbourhood": null,
        "suburb": null,
        "city_district": null,
        "city": null,
        "state": null,
        "postcode": "VG1130",
        "country": "British Virgin Islands",
        "country_code": "vg"
      },
      "address": "398, Havers Road, East Havers, Tortola, VG1130, British Virgin Islands"
    },
    {
      "lat": 18.41926203698103,
      "lon": -64.59555449518359,
      "geoinfo": {
        "display_name": "Parham Town, Tortola, VG1110, British Virgin Islands",
        "road": null,
        "house_number": null,
        "neighbourhood": null,
        "suburb": null,
        "city_district": null,
        "city": "Parham Town",
        "state": null,
        "postcode": "VG1110",
        "country": "British Virgin Islands",
        "country_code": "vg"
      },
      "address": "287, Parham Town, Tortola, VG1110, British Virgin Islands"
    },
    {
      "lat": 18.394072992065883,
      "lon": -64.60119123316053,
      "geoinfo": {
        "display_name": "Parham Town, Tortola, VG1120, British Virgin Islands",
        "road": null,
        "house_number": null,
        "neighbourhood": null,
        "suburb": null,
        "city_district": null,
        "city": "Parham Town",
        "state": null,
        "postcode": "VG1120",
        "country": "British Virgin Islands",
        "country_code": "vg"
      },
      "address": "268, Parham Town, Tortola, VG1120, British Virgin Islands"
    },
    {
      "lat": 18.432996818687737,
      "lon": -64.62414262837386,
      "geoinfo": {
        "display_name": "Ben John Road, Horsepath, Road Town, Tortola, VG1110, British Virgin Islands",
        "road": "Ben John Road",
        "house_number": null,
        "neighbourhood": null,
        "suburb": null,
        "city_district": null,
        "city": "Road Town",
        "state": null,
        "postcode": "VG1110",
        "country": "British Virgin Islands",
        "country_code": "vg"
      },
      "address": "089, Ben John Road, Horsepath, Road Town, Tortola, VG1110, British Virgin Islands"
    },
    {
      "lat": 18.437595517640002,
      "lon": -64.64942661068012,
      "geoinfo": {
        "display_name": "Brewer's Bay Road, Road Town, Tortola, British Virgin Islands",
        "road": "Brewer's Bay Road",
        "house_number": null,
        "neighbourhood": null,
        "suburb": null,
        "city_district": null,
        "city": "Road Town",
        "state": null,
        "postcode": null,
        "country": "British Virgin Islands",
        "country_code": "vg"
      },
      "address": "852, Brewer's Bay Road, Road Town, 11012 Tortola, British Virgin Islands"
    },
    {
      "lat": 18.460483987525997,
      "lon": -64.59309586985817,
      "geoinfo": {
        "display_name": "Wesley Hill, Road Town, Tortola, VG1110, British Virgin Islands",
        "road": null,
        "house_number": null,
        "neighbourhood": null,
        "suburb": null,
        "city_district": null,
        "city": "Road Town",
        "state": null,
        "postcode": "VG1110",
        "country": "British Virgin Islands",
        "country_code": "vg"
      },
      "address": "029, Wesley Hill, Road Town, Tortola, VG1110, British Virgin Islands"
    },
    {
      "lat": 18.460419847588714,
      "lon": -64.65123721868389,
      "geoinfo": {
        "display_name": "Road Town, Tortola, VG1110, British Virgin Islands",
        "road": null,
        "house_number": null,
        "neighbourhood": null,
        "suburb": null,
        "city_district": null,
        "city": "Road Town",
        "state": null,
        "postcode": "VG1110",
        "country": "British Virgin Islands",
        "country_code": "vg"
      },
      "address": "475, Road Town, Tortola, VG1110, British Virgin Islands"
    },
    {
      "lat": 18.40865491142824,
      "lon": -64.62718544205568,
      "geoinfo": {
        "display_name": "Forbes Road, Road Town, Tortola, VG1110, British Virgin Islands",
        "road": "Forbes Road",
        "house_number": null,
        "neighbourhood": null,
        "suburb": null,
        "city_district": null,
        "city": "Road Town",
        "state": null,
        "postcode": "VG1110",
        "country": "British Virgin Islands",
        "country_code": "vg"
      },
      "address": "621, Forbes Road, Road Town, Tortola, VG1110, British Virgin Islands"
    },
    {
      "lat": 18.4579257753319,
      "lon": -64.58916929401698,
      "geoinfo": {
        "display_name": "Wesley Hill, Road Town, Tortola, VG1110, British Virgin Islands",
        "road": null,
        "house_number": null,
        "neighbourhood": null,
        "suburb": null,
        "city_district": null,
        "city": "Road Town",
        "state": null,
        "postcode": "VG1110",
        "country": "British Virgin Islands",
        "country_code": "vg"
      },
      "address": "997, Wesley Hill, Road Town, Tortola, VG1110, British Virgin Islands"
    },
    {
      "lat": 18.44812287576496,
      "lon": -64.61160065001965,
      "geoinfo": {
        "display_name": "Wesley Hill, Road Town, Tortola, VG1110, British Virgin Islands",
        "road": null,
        "house_number": null,
        "neighbourhood": null,
        "suburb": null,
        "city_district": null,
        "city": "Road Town",
        "state": null,
        "postcode": "VG1110",
        "country": "British Virgin Islands",
        "country_code": "vg"
      },
      "address": "494, Wesley Hill, Road Town, Tortola, VG1110, British Virgin Islands"
    },
    {
      "lat": 18.42095994600665,
      "lon": -64.60564802385586,
      "geoinfo": {
        "display_name": "Blackburn Highway, Wickhams Cay II, Purcell, Parham Town, Tortola, VG1110, British Virgin Islands",
        "road": "Blackburn Highway",
        "house_number": null,
        "neighbourhood": "Wickhams Cay II",
        "suburb": null,
        "city_district": null,
        "city": "Parham Town",
        "state": null,
        "postcode": "VG1110",
        "country": "British Virgin Islands",
        "country_code": "vg"
      },
      "address": "643, Blackburn Highway, Wickhams Cay II, Purcell, Parham Town, Tortola, VG1110, British Virgin Islands"
    },
    {
      "lat": 18.43657157496602,
      "lon": -64.63105279588666,
      "geoinfo": {
        "display_name": "Road Town, Tortola, VG1110, British Virgin Islands",
        "road": null,
        "house_number": null,
        "neighbourhood": null,
        "suburb": null,
        "city_district": null,
        "city": "Road Town",
        "state": null,
        "postcode": "VG1110",
        "country": "British Virgin Islands",
        "country_code": "vg"
      },
      "address": "785, Road Town, Tortola, VG1110, British Virgin Islands"
    },
    {
      "lat": 18.43961911107534,
      "lon": -64.59622955098651,
      "geoinfo": {
        "display_name": "Wesley Hill, Road Town, Tortola, VG1110, British Virgin Islands",
        "road": null,
        "house_number": null,
        "neighbourhood": null,
        "suburb": null,
        "city_district": null,
        "city": "Road Town",
        "state": null,
        "postcode": "VG1110",
        "country": "British Virgin Islands",
        "country_code": "vg"
      },
      "address": "799, Wesley Hill, Road Town, Tortola, VG1110, British Virgin Islands"
    },
    {
      "lat": 18.445258867016587,
      "lon": -64.62786888800787,
      "geoinfo": {
        "display_name": "Road Town, Tortola, VG1110, British Virgin Islands",
        "road": null,
        "house_number": null,
        "neighbourhood": null,
        "suburb": null,
        "city_district": null,
        "city": "Road Town",
        "state": null,
        "postcode": "VG1110",
        "country": "British Virgin Islands",
        "country_code": "vg"
      },
      "address": "212, Road Town, Tortola, VG1110, British Virgin Islands"
    },
    {
      "lat": 18.447299881712944,
      "lon": -64.59283768735882,
      "geoinfo": {
        "display_name": "Josiah's Bay Road, Parham Town, Tortola, VG1110, British Virgin Islands",
        "road": "Josiah's Bay Road",
        "house_number": null,
        "neighbourhood": null,
        "suburb": null,
        "city_district": null,
        "city": "Parham Town",
        "state": null,
        "postcode": "VG1110",
        "country": "British Virgin Islands",
        "country_code": "vg"
      },
      "address": "309, Josiah's Bay Road, Parham Town, Tortola, VG1110, British Virgin Islands"
    },
    {
      "lat": 18.399335935856836,
      "lon": -64.60601959221272,
      "geoinfo": {
        "display_name": "Parham Town, Tortola, VG1120, British Virgin Islands",
        "road": null,
        "house_number": null,
        "neighbourhood": null,
        "suburb": null,
        "city_district": null,
        "city": "Parham Town",
        "state": null,
        "postcode": "VG1120",
        "country": "British Virgin Islands",
        "country_code": "vg"
      },
      "address": "839, Parham Town, Tortola, VG1120, British Virgin Islands"
    },
    {
      "lat": 18.43149149679515,
      "lon": -64.63703516321118,
      "geoinfo": {
        "display_name": "Diamond Estate Road, Leonards, Road Town, Tortola, VG1110, British Virgin Islands",
        "road": "Diamond Estate Road",
        "house_number": null,
        "neighbourhood": null,
        "suburb": null,
        "city_district": null,
        "city": "Road Town",
        "state": null,
        "postcode": "VG1110",
        "country": "British Virgin Islands",
        "country_code": "vg"
      },
      "address": "981, Diamond Estate Road, Leonards, Road Town, Tortola, VG1110, British Virgin Islands"
    },
    {
      "lat": 18.403203960100093,
      "lon": -64.60544285548241,
      "geoinfo": {
        "display_name": "Parham Town, Tortola, VG1120, British Virgin Islands",
        "road": null,
        "house_number": null,
        "neighbourhood": null,
        "suburb": null,
        "city_district": null,
        "city": "Parham Town",
        "state": null,
        "postcode": "VG1120",
        "country": "British Virgin Islands",
        "country_code": "vg"
      },
      "address": "881, Parham Town, Tortola, VG1120, British Virgin Islands"
    },
    {
      "lat": 18.40504681000412,
      "lon": -64.63777112195699,
      "geoinfo": {
        "display_name": "Hannah, Road Town, Tortola, VG1110, British Virgin Islands",
        "road": null,
        "house_number": null,
        "neighbourhood": null,
        "suburb": null,
        "city_district": null,
        "city": "Road Town",
        "state": null,
        "postcode": "VG1110",
        "country": "British Virgin Islands",
        "country_code": "vg"
      },
      "address": "849, Hannah, Road Town, Tortola, VG1110, British Virgin Islands"
    },
    {
      "lat": 18.456458347251083,
      "lon": -64.65410250174227,
      "geoinfo": {
        "display_name": "Road Town, Tortola, VG1110, British Virgin Islands",
        "road": null,
        "house_number": null,
        "neighbourhood": null,
        "suburb": null,
        "city_district": null,
        "city": "Road Town",
        "state": null,
        "postcode": "VG1110",
        "country": "British Virgin Islands",
        "country_code": "vg"
      },
      "address": "749, Road Town, Tortola, VG1110, British Virgin Islands"
    },
    {
      "lat": 18.44954836802424,
      "lon": -64.6001234927105,
      "geoinfo": {
        "display_name": "Carot Bay Road, Wesley Hill, Road Town, Tortola, VG1110, British Virgin Islands",
        "road": "Carot Bay Road",
        "house_number": null,
        "neighbourhood": null,
        "suburb": null,
        "city_district": null,
        "city": "Road Town",
        "state": null,
        "postcode": "VG1110",
        "country": "British Virgin Islands",
        "country_code": "vg"
      },
      "address": "453, Carot Bay Road, Wesley Hill, Road Town, Tortola, VG1110, British Virgin Islands"
    },
    {
      "lat": 18.451532878338178,
      "lon": -64.61035725016004,
      "geoinfo": {
        "display_name": "Wesley Hill, Road Town, Tortola, VG1110, British Virgin Islands",
        "road": null,
        "house_number": null,
        "neighbourhood": null,
        "suburb": null,
        "city_district": null,
        "city": "Road Town",
        "state": null,
        "postcode": "VG1110",
        "country": "British Virgin Islands",
        "country_code": "vg"
      },
      "address": "631, Wesley Hill, Road Town, Tortola, VG1110, British Virgin Islands"
    },
    {
      "lat": 18.447003932484122,
      "lon": -64.61359963748404,
      "geoinfo": {
        "display_name": "Cooper Bay Road, Road Town, Tortola, VG1110, British Virgin Islands",
        "road": "Cooper Bay Road",
        "house_number": null,
        "neighbourhood": null,
        "suburb": null,
        "city_district": null,
        "city": "Road Town",
        "state": null,
        "postcode": "VG1110",
        "country": "British Virgin Islands",
        "country_code": "vg"
      },
      "address": "318, Cooper Bay Road, Road Town, Tortola, VG1110, British Virgin Islands"
    },
    {
      "lat": 18.433426305400378,
      "lon": -64.60675465449825,
      "geoinfo": {
        "display_name": "Free Bottom Road, Wickhams Cay II, Purcell, Road Town, Tortola, VG1110, British Virgin Islands",
        "road": "Free Bottom Road",
        "house_number": null,
        "neighbourhood": "Wickhams Cay II",
        "suburb": null,
        "city_district": null,
        "city": "Road Town",
        "state": null,
        "postcode": "VG1110",
        "country": "British Virgin Islands",
        "country_code": "vg"
      },
      "address": "866, Free Bottom Road, Wickhams Cay II, Purcell, Road Town, Tortola, VG1110, British Virgin Islands"
    },
    {
      "lat": 18.446413428560053,
      "lon": -64.57877659197044,
      "geoinfo": {
        "display_name": "Lambert Road, Parham Town, Tortola, VG1120, British Virgin Islands",
        "road": "Lambert Road",
        "house_number": null,
        "neighbourhood": null,
        "suburb": null,
        "city_district": null,
        "city": "Parham Town",
        "state": null,
        "postcode": "VG1120",
        "country": "British Virgin Islands",
        "country_code": "vg"
      },
      "address": "527, Lambert Road, Parham Town, Tortola, VG1120, British Virgin Islands"
    },
    {
      "lat": 18.463310088529596,
      "lon": -64.64764939470585,
      "geoinfo": {
        "display_name": "Road Town, Tortola, VG1110, British Virgin Islands",
        "road": null,
        "house_number": null,
        "neighbourhood": null,
        "suburb": null,
        "city_district": null,
        "city": "Road Town",
        "state": null,
        "postcode": "VG1110",
        "country": "British Virgin Islands",
        "country_code": "vg"
      },
      "address": "209, Road Town, Tortola, VG1110, British Virgin Islands"
    },
    {
      "lat": 18.40369580528305,
      "lon": -64.61809293113913,
      "geoinfo": {
        "display_name": "Sir Francis Drake Highway, Hannah, Road Town, Tortola, VG1110, British Virgin Islands",
        "road": "Sir Francis Drake Highway",
        "house_number": null,
        "neighbourhood": null,
        "suburb": null,
        "city_district": null,
        "city": "Road Town",
        "state": null,
        "postcode": "VG1110",
        "country": "British Virgin Islands",
        "country_code": "vg"
      },
      "address": "993, Sir Francis Drake Highway, Hannah, Road Town, Tortola, VG1110, British Virgin Islands"
    },
    {
      "lat": 18.45208337978639,
      "lon": -64.6143617126204,
      "geoinfo": {
        "display_name": "Cooper Bay Road, Road Town, Tortola, VG1110, British Virgin Islands",
        "road": "Cooper Bay Road",
        "house_number": null,
        "neighbourhood": null,
        "suburb": null,
        "city_district": null,
        "city": "Road Town",
        "state": null,
        "postcode": "VG1110",
        "country": "British Virgin Islands",
        "country_code": "vg"
      },
      "address": "339, Cooper Bay Road, Road Town, Tortola, VG1110, British Virgin Islands"
    },
    {
      "lat": 18.418833027408528,
      "lon": -64.64931253842207,
      "geoinfo": {
        "display_name": "Shannon Estate Drive, Doty, Road Town, Tortola, VG1130, British Virgin Islands",
        "road": "Shannon Estate Drive",
        "house_number": null,
        "neighbourhood": null,
        "suburb": null,
        "city_district": null,
        "city": "Road Town",
        "state": null,
        "postcode": "VG1130",
        "country": "British Virgin Islands",
        "country_code": "vg"
      },
      "address": "384, Shannon Estate Drive, Doty, Road Town, Tortola, VG1130, British Virgin Islands"
    },
    {
      "lat": 18.443432541276902,
      "lon": -64.63643512346145,
      "geoinfo": {
        "display_name": "Road Town, Tortola, VG1110, British Virgin Islands",
        "road": null,
        "house_number": null,
        "neighbourhood": null,
        "suburb": null,
        "city_district": null,
        "city": "Road Town",
        "state": null,
        "postcode": "VG1110",
        "country": "British Virgin Islands",
        "country_code": "vg"
      },
      "address": "792, Road Town, Tortola, VG1110, British Virgin Islands"
    },
    {
      "lat": 18.384990299600837,
      "lon": -64.60946245913631,
      "geoinfo": {
        "display_name": "Parham Town, Tortola, VG1120, British Virgin Islands",
        "road": null,
        "house_number": null,
        "neighbourhood": null,
        "suburb": null,
        "city_district": null,
        "city": "Parham Town",
        "state": null,
        "postcode": "VG1120",
        "country": "British Virgin Islands",
        "country_code": "vg"
      },
      "address": "259, Parham Town, Tortola, VG1120, British Virgin Islands"
    },
    {
      "lat": 18.427233492815144,
      "lon": -64.61940405066034,
      "geoinfo": {
        "display_name": "Station Avenue, Wickhams Cay I, Horsepath, Road Town, Tortola, VG1110, British Virgin Islands",
        "road": "Station Avenue",
        "house_number": null,
        "neighbourhood": "Wickhams Cay I",
        "suburb": null,
        "city_district": null,
        "city": "Road Town",
        "state": null,
        "postcode": "VG1110",
        "country": "British Virgin Islands",
        "country_code": "vg"
      },
      "address": "624, Station Avenue, Wickhams Cay I, Horsepath, Road Town, Tortola, VG1110, British Virgin Islands"
    },
    {
      "lat": 18.447870489465554,
      "lon": -64.61732013994639,
      "geoinfo": {
        "display_name": "Cooper Bay Road, Road Town, Tortola, VG1110, British Virgin Islands",
        "road": "Cooper Bay Road",
        "house_number": null,
        "neighbourhood": null,
        "suburb": null,
        "city_district": null,
        "city": "Road Town",
        "state": null,
        "postcode": "VG1110",
        "country": "British Virgin Islands",
        "country_code": "vg"
      },
      "address": "043, Cooper Bay Road, Road Town, Tortola, VG1110, British Virgin Islands"
    },
    {
      "lat": 18.45306566122485,
      "lon": -64.59335133245885,
      "geoinfo": {
        "display_name": "Wesley Hill, Road Town, Tortola, VG1110, British Virgin Islands",
        "road": null,
        "house_number": null,
        "neighbourhood": null,
        "suburb": null,
        "city_district": null,
        "city": "Road Town",
        "state": null,
        "postcode": "VG1110",
        "country": "British Virgin Islands",
        "country_code": "vg"
      },
      "address": "221, Wesley Hill, Road Town, Tortola, VG1110, British Virgin Islands"
    },
    {
      "lat": 18.405424446320076,
      "lon": -64.5992500154969,
      "geoinfo": {
        "display_name": "Parham Town, Tortola, VG1120, British Virgin Islands",
        "road": null,
        "house_number": null,
        "neighbourhood": null,
        "suburb": null,
        "city_district": null,
        "city": "Parham Town",
        "state": null,
        "postcode": "VG1120",
        "country": "British Virgin Islands",
        "country_code": "vg"
      },
      "address": "474, Parham Town, Tortola, VG1120, British Virgin Islands"
    },
    {
      "lat": 18.4141820305538,
      "lon": -64.62636595375143,
      "geoinfo": {
        "display_name": "Bound Tree Road, Threllfall, Road Town, Tortola, VG1110, British Virgin Islands",
        "road": "Bound Tree Road",
        "house_number": null,
        "neighbourhood": null,
        "suburb": null,
        "city_district": null,
        "city": "Road Town",
        "state": null,
        "postcode": "VG1110",
        "country": "British Virgin Islands",
        "country_code": "vg"
      },
      "address": "801, Bound Tree Road, Threllfall, Road Town, Tortola, VG1110, British Virgin Islands"
    },
    {
      "lat": 18.404214766297134,
      "lon": -64.64381225079059,
      "geoinfo": {
        "display_name": "Pleasant Valley Road, Hannah, Road Town, Tortola, VG1110, British Virgin Islands",
        "road": "Pleasant Valley Road",
        "house_number": null,
        "neighbourhood": null,
        "suburb": null,
        "city_district": null,
        "city": "Road Town",
        "state": null,
        "postcode": "VG1110",
        "country": "British Virgin Islands",
        "country_code": "vg"
      },
      "address": "530, Pleasant Valley Road, Hannah, Road Town, Tortola, VG1110, British Virgin Islands"
    },
    {
      "lat": 18.420105796299236,
      "lon": -64.59947942885061,
      "geoinfo": {
        "display_name": "Blackburn Highway, Wickhams Cay II, Purcell, Parham Town, Tortola, VG1110, British Virgin Islands",
        "road": "Blackburn Highway",
        "house_number": null,
        "neighbourhood": "Wickhams Cay II",
        "suburb": null,
        "city_district": null,
        "city": "Parham Town",
        "state": null,
        "postcode": "VG1110",
        "country": "British Virgin Islands",
        "country_code": "vg"
      },
      "address": "688, Blackburn Highway, Wickhams Cay II, Purcell, Parham Town, Tortola, VG1110, British Virgin Islands"
    },
    {
      "lat": 18.418381225667137,
      "lon": -64.58417730416983,
      "geoinfo": {
        "display_name": "Parham Town, Tortola, VG1110, British Virgin Islands",
        "road": null,
        "house_number": null,
        "neighbourhood": null,
        "suburb": null,
        "city_district": null,
        "city": "Parham Town",
        "state": null,
        "postcode": "VG1110",
        "country": "British Virgin Islands",
        "country_code": "vg"
      },
      "address": "575, Parham Town, Tortola, VG1110, British Virgin Islands"
    },
    {
      "lat": 18.44904101823638,
      "lon": -64.6512496622989,
      "geoinfo": {
        "display_name": "Road Town, Tortola, VG1110, British Virgin Islands",
        "road": null,
        "house_number": null,
        "neighbourhood": null,
        "suburb": null,
        "city_district": null,
        "city": "Road Town",
        "state": null,
        "postcode": "VG1110",
        "country": "British Virgin Islands",
        "country_code": "vg"
      },
      "address": "172, Road Town, Tortola, VG1110, British Virgin Islands"
    },
    {
      "lat": 18.437923500222837,
      "lon": -64.62107853925876,
      "geoinfo": {
        "display_name": "Ridge Road, Pasea, Road Town, Tortola, VG1110, British Virgin Islands",
        "road": "Ridge Road",
        "house_number": null,
        "neighbourhood": null,
        "suburb": null,
        "city_district": null,
        "city": "Road Town",
        "state": null,
        "postcode": "VG1110",
        "country": "British Virgin Islands",
        "country_code": "vg"
      },
      "address": "123, Ridge Road, Pasea, Road Town, Tortola, VG1110, British Virgin Islands"
    },
    {
      "lat": 18.406300767781065,
      "lon": -64.61848945929415,
      "geoinfo": {
        "display_name": "Road Town, Tortola, VG1110, British Virgin Islands",
        "road": null,
        "house_number": null,
        "neighbourhood": null,
        "suburb": null,
        "city_district": null,
        "city": "Road Town",
        "state": null,
        "postcode": "VG1110",
        "country": "British Virgin Islands",
        "country_code": "vg"
      },
      "address": "905, Road Town, Tortola, VG1110, British Virgin Islands"
    },
    {
      "lat": 18.415542998941465,
      "lon": -64.62617933127774,
      "geoinfo": {
        "display_name": "Bound Tree Road, Threllfall, Road Town, Tortola, VG1110, British Virgin Islands",
        "road": "Bound Tree Road",
        "house_number": null,
        "neighbourhood": null,
        "suburb": null,
        "city_district": null,
        "city": "Road Town",
        "state": null,
        "postcode": "VG1110",
        "country": "British Virgin Islands",
        "country_code": "vg"
      },
      "address": "456, Bound Tree Road, Threllfall, Road Town, Tortola, VG1110, British Virgin Islands"
    },
    {
      "lat": 18.435337936156298,
      "lon": -64.60663841313968,
      "geoinfo": {
        "display_name": "Blunt Road, Purcell, Road Town, Tortola, VG1110, British Virgin Islands",
        "road": "Blunt Road",
        "house_number": null,
        "neighbourhood": null,
        "suburb": null,
        "city_district": null,
        "city": "Road Town",
        "state": null,
        "postcode": "VG1110",
        "country": "British Virgin Islands",
        "country_code": "vg"
      },
      "address": "787, Blunt Road, Purcell, Road Town, Tortola, VG1110, British Virgin Islands"
    },
    {
      "lat": 18.39456601438678,
      "lon": -64.60172734867717,
      "geoinfo": {
        "display_name": "Parham Town, Tortola, VG1120, British Virgin Islands",
        "road": null,
        "house_number": null,
        "neighbourhood": null,
        "suburb": null,
        "city_district": null,
        "city": "Parham Town",
        "state": null,
        "postcode": "VG1120",
        "country": "British Virgin Islands",
        "country_code": "vg"
      },
      "address": "056, Parham Town, Tortola, VG1120, British Virgin Islands"
    }
  ],
  "updated_at": "2025-10-19T06:36:55.455543+00:00",
  "_kind": "geo_samples"
}