{
  "country_code": "HR",
  "country": "Croatia",
  "city": "Požega",
  "geonameid": 3190589,
  "target_addresses": 4,
  "samples": [
    {
      "lat": 45.30812340890398,
      "lon": 17.689871162955793,
      "geoinfo": {
        "display_name": "Komušina, Grad Požega, Požega-Slavonia County, 34000, Croatia",
        "road": null,
        "house_number": null,
        "neighbourhood": null,
        "suburb": null,
        "city_district": null,
        "city": "Grad Požega",
        "state": null,
        "postcode": "34000",
        "country": "Croatia",
        "country_code": "hr"
      },
      "address": "Požega, Croatia"
    },
    {
      "lat": 45.335470481887,
      "lon": 17.707657380555002,
      "geoinfo": {
        "display_name": "Dubrovačka ulica, Gospino brdo, Mjesni odbor Arslanovci, Vranduk, Požega, Grad Požega, Požega-Slavonia County, 34000, Croatia",
        "road": "Dubrovačka ulica",
        "house_number": null,
        "neighbourhood": null,
        "suburb": "Vranduk",
        "city_district": "Požega",
        "city": "Grad Požega",
        "state": null,
        "postcode": "34000",
        "country": "Croatia",
        "country_code": "hr"
      },
      "address": "Dubrovačka ulica, Požega, Croatia"
    },
    {
      "lat": 45.32506116723266,
      "lon": 17.714897538795903,
      "geoinfo": {
        "display_name": "Ulica Stjepana Ferića, Vidovci, Grad Požega, Požega-Slavonia County, 34000, Croatia",
        "road": "Ulica Stjepana Ferića",
        "house_number": null,
        "neighbourhood": null,
        "suburb": null,
        "city_district": null,
        "city": "Grad Požega",
        "state": null,
        "postcode": "34000",
        "country": "Croatia",
        "country_code": "hr"
      },
      "address": "Ulica Stjepana Ferića, Požega, Croatia"
    },
    {
      "lat": 45.32928672983019,
      "lon": 17.72287129468487,
      "geoinfo": {
        "display_name": "Školska ulica, Vidovci, Grad Požega, Požega-Slavonia County, 34310, Croatia",
        "road": "Školska ulica",
        "house_number": null,
        "neighbourhood": null,
        "suburb": null,
        "city_district": null,
        "city": "Grad Požega",
        "state": null,
        "postcode": "34310",
        "country": "Croatia",
        "country_code": "hr"
      },
      "address": "Školska ulica, Požega, Croatia"
    },
    {
      "lat": 45.332004844727905,
      "lon": 17.69405970233423,
      "geoinfo": {
        "display_name": "Ulica Tome Matića, Mjesni odbor Arslanovci, Vranduk, Požega, Grad Požega, Požega-Slavonia County, 34000, Croatia",
        "road": "Ulica Tome Matića",
        "house_number": null,
        "neighbourhood": null,
        "suburb": "Vranduk",
        "city_district": "Požega",
        "city": "Grad Požega",
        "state": null,
        "postcode": "34000",
        "country": "Croatia",
        "country_code": "hr"
      },
      "address": "043, Ulica Tome Matića, Mjesni odbor Arslanovci, Vranduk, Požega, Grad Požega, Požega-Slavonia County, 34000, Croatia"
    },
    {
      "lat": 45.29761497048315,
      "lon": 17.696295610349516,
      "geoinfo": {
        "display_name": "Ćosine Laze, Grad Požega, Požega-Slavonia County, 34000, Croatia",
        "road": null,
        "house_number": null,
        "neighbourhood": null,
        "suburb": null,
        "city_district": null,
        "city": "Grad Požega",
        "state": null,
        "postcode": "34000",
        "country": "Croatia",
        "country_code": "hr"
      },
      "address": "968, Ćosine Laze, Grad Požega, Požega-Slavonia County, 34000, Croatia"
    },
    {
      "lat": 45.30823875197623,
      "lon": 17.726402757336604,
      "geoinfo": {
        "display_name": "NC5, Vasine Laze, Grad Požega, Grad Pleternica, Požega-Slavonia County, 34000, Croatia",
        "road": "NC5",
        "house_number": null,
        "neighbourhood": null,
        "suburb": null,
        "city_district": null,
        "city": "Grad Požega",
        "state": null,
        "postcode": "34000",
        "country": "Croatia",
        "country_code": "hr"
      },
      "address": "NC5, Vasine Laze, Grad Požega, Grad Pleternica, Požega-Slavonia County, 34000, Croatia"
    },
    {
      "lat": 45.32405061968302,
      "lon": 17.722006519132844,
      "geoinfo": {
        "display_name": "Školska ulica, Dervišaga, Grad Požega, Požega-Slavonia County, 34310, Croatia",
        "road": "Školska ulica",
        "house_number": null,
        "neighbourhood": null,
        "suburb": null,
        "city_district": null,
        "city": "Grad Požega",
        "state": null,
        "postcode": "34310",
        "country": "Croatia",
        "country_code": "hr"
      },
      "address": "977, Školska ulica, Dervišaga, Grad Požega, Požega-Slavonia County, 34310, Croatia"
    }
  ],
  "updated_at": "2025-10-19T04:40:50.525523+00:00",
  "_kind": "geo_samples"
}