{
  "country_code": "HR",
  "country": "Croatia",
  "city": "Pula",
  "geonameid": 3192224,
  "target_addresses": 4,
  "samples": [
    {
      "lat": 44.86084484069529,
      "lon": 13.836676122198103,
      "geoinfo": {
        "display_name": "Mornarička bolnica, 6, Negrijeva, Monterizzi, Veruda, Pula, Grad Pula, Istria County, 52100, Croatia",
        "road": "Negrijeva",
        "house_number": "6",
        "neighbourhood": "Monterizzi",
        "suburb": "Veruda",
        "city_district": "Pula",
        "city": "Grad Pula",
        "state": null,
        "postcode": "52100",
        "country": "Croatia",
        "country_code": "hr"
      },
      "address": "6 Negrijeva, Pula, Croatia"
    },
    {
      "lat": 44.85346925232193,
      "lon": 13.806681152129975,
      "geoinfo": {
        "display_name": "Sunset View, Dirt Road, Pula, Grad Pula, Istria County, 52106, Croatia",
        "road": "Dirt Road",
        "house_number": null,
        "neighbourhood": null,
        "suburb": null,
        "city_district": "Pula",
        "city": "Grad Pula",
        "state": null,
        "postcode": "52106",
        "country": "Croatia",
        "country_code": "hr"
      },
      "address": "Dirt Road, Pula, Croatia"
    },
    {
      "lat": 44.89368216904303,
      "lon": 13.809873637373965,
      "geoinfo": {
        "display_name": "Štinjan, Pula, Grad Pula, Istria County, 52212, Croatia",
        "road": null,
        "house_number": null,
        "neighbourhood": null,
        "suburb": "Štinjan",
        "city_district": "Pula",
        "city": "Grad Pula",
        "state": null,
        "postcode": "52212",
        "country": "Croatia",
        "country_code": "hr"
      },
      "address": "Štinjan, Pula, Croatia"
    },
    {
      "lat": 44.83571801040998,
      "lon": 13.833976478801212,
      "geoinfo": {
        "display_name": "Restaurant Boschetto, Verudela, Veruda Porat, Pula, Grad Pula, Istria County, 52105, Croatia",
        "road": "Verudela",
        "house_number": null,
        "neighbourhood": null,
        "suburb": "Veruda Porat",
        "city_district": "Pula",
        "city": "Grad Pula",
        "state": null,
        "postcode": "52105",
        "country": "Croatia",
        "country_code": "hr"
      },
      "address": "Verudela, Pula, Croatia"
    },
    {
      "lat": 44.880354270274545,
      "lon": 13.823966856099238,
      "geoinfo": {
        "display_name": "Vallelunga, Štinjan, Pula, Grad Pula, Istria County, 52106, Croatia",
        "road": "Vallelunga",
        "house_number": null,
        "neighbourhood": null,
        "suburb": "Štinjan",
        "city_district": "Pula",
        "city": "Grad Pula",
        "state": null,
        "postcode": "52106",
        "country": "Croatia",
        "country_code": "hr"
      },
      "address": "093, Vallelunga, Štinjan, Pula, Grad Pula, Istria County, 52106, Croatia"
    },
    {
      "lat": 44.897319565644636,
      "lon": 13.8364313416052,
      "geoinfo": {
        "display_name": "Fažanska cesta, Padulj, Veli Vrh, Pula, Grad Pula, Istria County, 52107, Croatia",
        "road": "Fažanska cesta",
        "house_number": null,
        "neighbourhood": "Padulj",
        "suburb": "Veli Vrh",
        "city_district": "Pula",
        "city": "Grad Pula",
        "state": null,
        "postcode": "52107",
        "country": "Croatia",
        "country_code": "hr"
      },
      "address": "884, Fažanska cesta, Padulj, Veli Vrh, Pula, Grad Pula, Istria County, 52107, Croatia"
    },
    {
      "lat": 44.84553812575156,
      "lon": 13.87924401904375,
      "geoinfo": {
        "display_name": "Šantamarina, Valdebek, Pula, Grad Pula, Istria County, 25100, Croatia",
        "road": "Šantamarina",
        "house_number": null,
        "neighbourhood": null,
        "suburb": "Valdebek",
        "city_district": "Pula",
        "city": "Grad Pula",
        "state": null,
        "postcode": "25100",
        "country": "Croatia",
        "country_code": "hr"
      },
      "address": "357, Šantamarina, Valdebek, Pula, Grad Pula, Istria County, 25100, Croatia"
    },
    {
      "lat": 44.84807514872967,
      "lon": 13.897925935676618,
      "geoinfo": {
        "display_name": "Medulinska cesta, Škatari, Mjesni odbor Busoler, Pula, Grad Pula, Istria County, 55203, Croatia",
        "road": "Medulinska cesta",
        "house_number": null,
        "neighbourhood": null,
        "suburb": "Škatari",
        "city_district": "Pula",
        "city": "Grad Pula",
        "state": null,
        "postcode": "55203",
        "country": "Croatia",
        "country_code": "hr"
      },
      "address": "264, Medulinska cesta, Škatari, Mjesni odbor Busoler, Pula, Grad Pula, Istria County, 55203, Croatia"
    }
  ],
  "updated_at": "2025-10-19T02:57:20.796581+00:00",
  "_kind": "geo_samples"
}