{
  "country_code": "HR",
  "country": "Croatia",
  "city": "Rijeka",
  "geonameid": 3191648,
  "target_addresses": 4,
  "samples": [
    {
      "lat": 45.351697491425796,
      "lon": 14.46689081212093,
      "geoinfo": {
        "display_name": "Svilno, Grbaste, Mjesni odbor Svilno, Rijeka, Grad Rijeka, Primorje-Gorski Kotar County, 51110, Croatia",
        "road": "Svilno",
        "house_number": null,
        "neighbourhood": null,
        "suburb": "Mjesni odbor Svilno",
        "city_district": "Rijeka",
        "city": "Grad Rijeka",
        "state": null,
        "postcode": "51110",
        "country": "Croatia",
        "country_code": "hr"
      },
      "address": "Svilno, Rijeka, Croatia"
    },
    {
      "lat": 45.29645706196708,
      "lon": 14.458759656841618,
      "geoinfo": {
        "display_name": "Primorje-Gorski Kotar County, Croatia",
        "road": null,
        "house_number": null,
        "neighbourhood": null,
        "suburb": null,
        "city_district": null,
        "city": null,
        "state": null,
        "postcode": null,
        "country": "Croatia",
        "country_code": "hr"
      },
      "address": "Rijeka, Croatia"
    },
    {
      "lat": 45.326249034688274,
      "lon": 14.474947762844911,
      "geoinfo": {
        "display_name": "32, Kačjak, Marči, Mjesni odbor Gornja Vežica, Rijeka, Grad Rijeka, Primorje-Gorski Kotar County, 51111, Croatia",
        "road": "Kačjak",
        "house_number": "32",
        "neighbourhood": "Marči",
        "suburb": "Mjesni odbor Gornja Vežica",
        "city_district": "Rijeka",
        "city": "Grad Rijeka",
        "state": null,
        "postcode": "51111",
        "country": "Croatia",
        "country_code": "hr"
      },
      "address": "32 Kačjak, Rijeka, Croatia"
    },
    {
      "lat": 45.33668252375703,
      "lon": 14.437955275095867,
      "geoinfo": {
        "display_name": "Park za pse Kozala, Petra Kobeka, Mjesni odbor Škurinjska Draga, Rijeka, Grad Rijeka, Primorje-Gorski Kotar County, 51104, Croatia",
        "road": "Petra Kobeka",
        "house_number": null,
        "neighbourhood": null,
        "suburb": "Mjesni odbor Škurinjska Draga",
        "city_district": "Rijeka",
        "city": "Grad Rijeka",
        "state": null,
        "postcode": "51104",
        "country": "Croatia",
        "country_code": "hr"
      },
      "address": "Petra Kobeka, Rijeka, Croatia"
    },
    {
      "lat": 45.3570855405298,
      "lon": 14.448823723052307,
      "geoinfo": {
        "display_name": "Ulica Balde Fućka, Mjesni odbor Pašac, Rijeka, Grad Rijeka, Primorje-Gorski Kotar County, 51112, Croatia",
        "road": "Ulica Balde Fućka",
        "house_number": null,
        "neighbourhood": null,
        "suburb": "Mjesni odbor Pašac",
        "city_district": "Rijeka",
        "city": "Grad Rijeka",
        "state": null,
        "postcode": "51112",
        "country": "Croatia",
        "country_code": "hr"
      },
      "address": "402, Ulica Balde Fućka, Mjesni odbor Pašac, Rijeka, Grad Rijeka, Primorje-Gorski Kotar County, 51112, Croatia"
    },
    {
      "lat": 45.304771583785644,
      "lon": 14.454602282984006,
      "geoinfo": {
        "display_name": "Piramida, Mjesni odbor Centar-Sušak, Rijeka, Grad Rijeka, Primorje-Gorski Kotar County, 51103, Croatia",
        "road": null,
        "house_number": null,
        "neighbourhood": "Piramida",
        "suburb": "Mjesni odbor Centar-Sušak",
        "city_district": "Rijeka",
        "city": "Grad Rijeka",
        "state": null,
        "postcode": "51103",
        "country": "Croatia",
        "country_code": "hr"
      },
      "address": "998, Piramida, Mjesni odbor Centar-Sušak, Rijeka, Grad Rijeka, Primorje-Gorski Kotar County, 51103, Croatia"
    },
    {
      "lat": 45.33914013565218,
      "lon": 14.411307851182428,
      "geoinfo": {
        "display_name": "Turnić, Mjesni odbor Turnić, Rijeka, Grad Rijeka, Primorje-Gorski Kotar County, 51000, Croatia",
        "road": "Turnić",
        "house_number": null,
        "neighbourhood": null,
        "suburb": "Mjesni odbor Turnić",
        "city_district": "Rijeka",
        "city": "Grad Rijeka",
        "state": null,
        "postcode": "51000",
        "country": "Croatia",
        "country_code": "hr"
      },
      "address": "645, Turnić, Mjesni odbor Turnić, Rijeka, Grad Rijeka, Primorje-Gorski Kotar County, 51000, Croatia"
    },
    {
      "lat": 45.33828241937241,
      "lon": 14.388484703079982,
      "geoinfo": {
        "display_name": "Ulica Vere Bratonje, Mjesni odbor Kantrida, Rijeka, Grad Rijeka, Primorje-Gorski Kotar County, 51105, Croatia",
        "road": "Ulica Vere Bratonje",
        "house_number": null,
        "neighbourhood": null,
        "suburb": "Mjesni odbor Kantrida",
        "city_district": "Rijeka",
        "city": "Grad Rijeka",
        "state": null,
        "postcode": "51105",
        "country": "Croatia",
        "country_code": "hr"
      },
      "address": "057, Ulica Vere Bratonje, Mjesni odbor Kantrida, Rijeka, Grad Rijeka, Primorje-Gorski Kotar County, 51105, Croatia"
    }
  ],
  "updated_at": "2025-10-19T04:17:27.928458+00:00",
  "_kind": "geo_samples"
}