{
  "country_code": "HR",
  "country": "Croatia",
  "city": "Sesvete",
  "geonameid": 3190966,
  "target_addresses": 4,
  "samples": [
    {
      "lat": 45.86866334004325,
      "lon": 16.115636232509633,
      "geoinfo": {
        "display_name": "Zlatarska ulica, Mjesni odbor Vugrovec, Gradska četvrt Sesvete, Markovo Polje, City of Zagreb, 10360, Croatia",
        "road": "Zlatarska ulica",
        "house_number": null,
        "neighbourhood": "Mjesni odbor Vugrovec",
        "suburb": null,
        "city_district": "Markovo Polje",
        "city": "City of Zagreb",
        "state": null,
        "postcode": "10360",
        "country": "Croatia",
        "country_code": "hr"
      },
      "address": "Zlatarska ulica, Sesvete, Croatia"
    },
    {
      "lat": 45.82519502156754,
      "lon": 16.090732987934846,
      "geoinfo": {
        "display_name": "Ulica Ivana Sandelića, Mjesni odbor Sesvetska Sopnica, Gradska četvrt Sesvete, Sesvete, City of Zagreb, 10174, Croatia",
        "road": "Ulica Ivana Sandelića",
        "house_number": null,
        "neighbourhood": null,
        "suburb": null,
        "city_district": "Sesvete",
        "city": "City of Zagreb",
        "state": null,
        "postcode": "10174",
        "country": "Croatia",
        "country_code": "hr"
      },
      "address": "Ulica Ivana Sandelića, Sesvete, Croatia"
    },
    {
      "lat": 45.843977914013124,
      "lon": 16.088916578118063,
      "geoinfo": {
        "display_name": "Teniski centar Kontent, 257, Brestovečka ulica, Delec, Mjesni odbor Staro Brestje, Gradska četvrt Sesvete, Sesvete, City of Zagreb, 10174, Croatia",
        "road": "Brestovečka ulica",
        "house_number": "257",
        "neighbourhood": "Delec",
        "suburb": null,
        "city_district": "Sesvete",
        "city": "City of Zagreb",
        "state": null,
        "postcode": "10174",
        "country": "Croatia",
        "country_code": "hr"
      },
      "address": "257 Brestovečka ulica, Sesvete, Croatia"
    },
    {
      "lat": 45.833715614453645,
      "lon": 16.15099733761417,
      "geoinfo": {
        "display_name": "Mjesni odbor Kraljevački Novaki, Gradska četvrt Sesvete, Sesvete, City of Zagreb, 10361, Croatia",
        "road": null,
        "house_number": null,
        "neighbourhood": null,
        "suburb": null,
        "city_district": "Sesvete",
        "city": "City of Zagreb",
        "state": null,
        "postcode": "10361",
        "country": "Croatia",
        "country_code": "hr"
      },
      "address": "Sesvete, Sesvete, Croatia"
    },
    {
      "lat": 45.816606004138805,
      "lon": 16.15939138374456,
      "geoinfo": {
        "display_name": "Dumovečka ulica, Mjesni odbor Kobiljak, Gradska četvrt Sesvete, Sesvete, City of Zagreb, 10361, Croatia",
        "road": "Dumovečka ulica",
        "house_number": null,
        "neighbourhood": null,
        "suburb": null,
        "city_district": "Sesvete",
        "city": "City of Zagreb",
        "state": null,
        "postcode": "10361",
        "country": "Croatia",
        "country_code": "hr"
      },
      "address": "379, Dumovečka ulica, Mjesni odbor Kobiljak, Gradska četvrt Sesvete, Sesvete, City of Zagreb, 10361, Croatia"
    },
    {
      "lat": 45.82384651649461,
      "lon": 16.17012537425375,
      "geoinfo": {
        "display_name": "Dječji vrtić Šegrt Hlapić (objekt Sesvetski Kraljevec), 42, Ulica Augusta Šenoe, Mjesni odbor Sesvetski Kraljevec, Gradska četvrt Sesvete, Sesvete, City of Zagreb, 10361, Croatia",
        "road": "Ulica Augusta Šenoe",
        "house_number": "42",
        "neighbourhood": null,
        "suburb": null,
        "city_district": "Sesvete",
        "city": "City of Zagreb",
        "state": null,
        "postcode": "10361",
        "country": "Croatia",
        "country_code": "hr"
      },
      "address": "Dječji vrtić Šegrt Hlapić (objekt Sesvetski Kraljevec), 42, Ulica Augusta Šenoe, Mjesni odbor Sesvetski Kraljevec, Gradska četvrt Sesvete, Sesvete, City of Zagreb, 10361, Croatia"
    },
    {
      "lat": 45.8192093162011,
      "lon": 16.174340500786478,
      "geoinfo": {
        "display_name": "Ulica Dragutina Domjanića, Mjesni odbor Sesvetski Kraljevec, Gradska četvrt Sesvete, Sesvete, City of Zagreb, 10361, Croatia",
        "road": "Ulica Dragutina Domjanića",
        "house_number": null,
        "neighbourhood": null,
        "suburb": null,
        "city_district": "Sesvete",
        "city": "City of Zagreb",
        "state": null,
        "postcode": "10361",
        "country": "Croatia",
        "country_code": "hr"
      },
      "address": "018, Ulica Dragutina Domjanića, Mjesni odbor Sesvetski Kraljevec, Gradska četvrt Sesvete, Sesvete, City of Zagreb, 10361, Croatia"
    },
    {
      "lat": 45.81829313066942,
      "lon": 16.087281244324185,
      "geoinfo": {
        "display_name": "Vrinice, Mjesni odbor Stari Retkovec, Gradska četvrt Donja Dubrava, Zagreb, City of Zagreb, 10174, Croatia",
        "road": "Vrinice",
        "house_number": null,
        "neighbourhood": null,
        "suburb": "Gradska četvrt Donja Dubrava",
        "city_district": "Zagreb",
        "city": "City of Zagreb",
        "state": null,
        "postcode": "10174",
        "country": "Croatia",
        "country_code": "hr"
      },
      "address": "788, Vrinice, Mjesni odbor Stari Retkovec, Gradska četvrt Donja Dubrava, Zagreb, City of Zagreb, 10174, Croatia"
    }
  ],
  "updated_at": "2025-10-19T04:38:05.957006+00:00",
  "_kind": "geo_samples"
}