{
  "country_code": "HR",
  "country": "Croatia",
  "city": "Varaždin",
  "geonameid": 3188383,
  "target_addresses": 4,
  "samples": [
    {
      "lat": 46.32218286633356,
      "lon": 16.29883000233858,
      "geoinfo": {
        "display_name": "Ulica Petra Zrinskog, Hrašćica, City of Varaždin, Varaždin County, 42209, Croatia",
        "road": "Ulica Petra Zrinskog",
        "house_number": null,
        "neighbourhood": null,
        "suburb": null,
        "city_district": null,
        "city": "City of Varaždin",
        "state": null,
        "postcode": "42209",
        "country": "Croatia",
        "country_code": "hr"
      },
      "address": "Ulica Petra Zrinskog, Varaždin, Croatia"
    },
    {
      "lat": 46.30342261993389,
      "lon": 16.343552684640397,
      "geoinfo": {
        "display_name": "Ulica Otokara Keršovanija, Kozarčeva, Poklečan, Varaždin, City of Varaždin, Varaždin County, 42104, Croatia",
        "road": "Ulica Otokara Keršovanija",
        "house_number": null,
        "neighbourhood": null,
        "suburb": "Poklečan",
        "city_district": "Varaždin",
        "city": "City of Varaždin",
        "state": null,
        "postcode": "42104",
        "country": "Croatia",
        "country_code": "hr"
      },
      "address": "Ulica Otokara Keršovanija, Varaždin, Croatia"
    },
    {
      "lat": 46.279923766893255,
      "lon": 16.352097673885776,
      "geoinfo": {
        "display_name": "Ulica Ivane Brlić-Mažuranić, Brezje, Varaždin, City of Varaždin, Varaždin County, 42104, Croatia",
        "road": "Ulica Ivane Brlić-Mažuranić",
        "house_number": null,
        "neighbourhood": null,
        "suburb": "Brezje",
        "city_district": "Varaždin",
        "city": "City of Varaždin",
        "state": null,
        "postcode": "42104",
        "country": "Croatia",
        "country_code": "hr"
      },
      "address": "Ulica Ivane Brlić-Mažuranić, Varaždin, Croatia"
    },
    {
      "lat": 46.317682522824974,
      "lon": 16.297594395411508,
      "geoinfo": {
        "display_name": "D2, Varaždin, City of Varaždin, Varaždin County, 42209, Croatia",
        "road": "D2",
        "house_number": null,
        "neighbourhood": null,
        "suburb": null,
        "city_district": "Varaždin",
        "city": "City of Varaždin",
        "state": null,
        "postcode": "42209",
        "country": "Croatia",
        "country_code": "hr"
      },
      "address": "D2, Varaždin, Croatia"
    },
    {
      "lat": 46.34576365530612,
      "lon": 16.338619201424443,
      "geoinfo": {
        "display_name": "Donje Macinke, Jadanščak, Banfica, Varaždin, City of Varaždin, Varaždin County, 42000, Croatia",
        "road": null,
        "house_number": null,
        "neighbourhood": "Jadanščak",
        "suburb": "Banfica",
        "city_district": "Varaždin",
        "city": "City of Varaždin",
        "state": null,
        "postcode": "42000",
        "country": "Croatia",
        "country_code": "hr"
      },
      "address": "494, Donje Macinke, Jadanščak, Banfica, Varaždin, City of Varaždin, Varaždin County, 42000, Croatia"
    },
    {
      "lat": 46.30247772245295,
      "lon": 16.32345184561289,
      "geoinfo": {
        "display_name": "70, Ulica braće Radić, Zdenčec, Centar, Varaždin, City of Varaždin, Varaždin County, 42000, Croatia",
        "road": "Ulica braće Radić",
        "house_number": "70",
        "neighbourhood": null,
        "suburb": "Centar",
        "city_district": "Varaždin",
        "city": "City of Varaždin",
        "state": null,
        "postcode": "42000",
        "country": "Croatia",
        "country_code": "hr"
      },
      "address": "70, Ulica braće Radić, Zdenčec, Centar, Varaždin, City of Varaždin, Varaždin County, 42000, Croatia"
    },
    {
      "lat": 46.32572410433339,
      "lon": 16.394701191094008,
      "geoinfo": {
        "display_name": "Glavna ulica, Kuršanec, Grad Čakovec, Međimurje County, 42202, Croatia",
        "road": "Glavna ulica",
        "house_number": null,
        "neighbourhood": null,
        "suburb": null,
        "city_district": null,
        "city": "Grad Čakovec",
        "state": null,
        "postcode": "42202",
        "country": "Croatia",
        "country_code": "hr"
      },
      "address": "635, Glavna ulica, Kuršanec, Grad Čakovec, Međimurje County, 42202, Croatia"
    },
    {
      "lat": 46.29357415230654,
      "lon": 16.283135554928176,
      "geoinfo": {
        "display_name": "Ulica kralja Tomislava, Nedeljanec, Općina Vidovec, Varaždin County, 42205, Croatia",
        "road": "Ulica kralja Tomislava",
        "house_number": null,
        "neighbourhood": null,
        "suburb": null,
        "city_district": null,
        "city": "Nedeljanec",
        "state": null,
        "postcode": "42205",
        "country": "Croatia",
        "country_code": "hr"
      },
      "address": "381, Ulica kralja Tomislava, Nedeljanec, Općina Vidovec, Varaždin County, 42205, Croatia"
    }
  ],
  "updated_at": "2025-10-19T02:36:05.277303+00:00",
  "_kind": "geo_samples"
}