{
  "country_code": "HR",
  "country": "Croatia",
  "city": "Velika Gorica",
  "geonameid": 3188244,
  "target_addresses": 4,
  "samples": [
    {
      "lat": 45.67957622644945,
      "lon": 16.045356559122933,
      "geoinfo": {
        "display_name": "Kušanec, Gradska četvrt Kurilovec, Velika Gorica, City of Velika Gorica, Zagreb County, 10410, Croatia",
        "road": null,
        "house_number": null,
        "neighbourhood": "Kušanec",
        "suburb": "Gradska četvrt Kurilovec",
        "city_district": "Velika Gorica",
        "city": "City of Velika Gorica",
        "state": null,
        "postcode": "10410",
        "country": "Croatia",
        "country_code": "hr"
      },
      "address": "Kušanec, Velika Gorica, Croatia"
    },
    {
      "lat": 45.70641069814137,
      "lon": 16.038453092523827,
      "geoinfo": {
        "display_name": "Primorska ulica, Gradići, City of Velika Gorica, Zagreb County, 10410, Croatia",
        "road": "Primorska ulica",
        "house_number": null,
        "neighbourhood": null,
        "suburb": null,
        "city_district": null,
        "city": "City of Velika Gorica",
        "state": null,
        "postcode": "10410",
        "country": "Croatia",
        "country_code": "hr"
      },
      "address": "Primorska ulica, Velika Gorica, Croatia"
    },
    {
      "lat": 45.718241545834005,
      "lon": 16.089564376337815,
      "geoinfo": {
        "display_name": "D30, Pjesničko naselje, Gradska četvrt Stari grad, Velika Gorica, City of Velika Gorica, Zagreb County, 10410, Croatia",
        "road": "D30",
        "house_number": null,
        "neighbourhood": "Pjesničko naselje",
        "suburb": "Gradska četvrt Stari grad",
        "city_district": "Velika Gorica",
        "city": "City of Velika Gorica",
        "state": null,
        "postcode": "10410",
        "country": "Croatia",
        "country_code": "hr"
      },
      "address": "D30, Velika Gorica, Croatia"
    },
    {
      "lat": 45.706219459912326,
      "lon": 16.064887720929963,
      "geoinfo": {
        "display_name": "89, Ulica Slavka Kolara, Kromosovo naselje, Gradska četvrt Kurilovec, Velika Gorica, City of Velika Gorica, Zagreb County, 10410, Croatia",
        "road": "Ulica Slavka Kolara",
        "house_number": "89",
        "neighbourhood": null,
        "suburb": "Gradska četvrt Kurilovec",
        "city_district": "Velika Gorica",
        "city": "City of Velika Gorica",
        "state": null,
        "postcode": "10410",
        "country": "Croatia",
        "country_code": "hr"
      },
      "address": "89 Ulica Slavka Kolara, Velika Gorica, Croatia"
    },
    {
      "lat": 45.72235778865367,
      "lon": 16.094874782610454,
      "geoinfo": {
        "display_name": "D30, Pjesničko naselje, Gradska četvrt Stari grad, Velika Gorica, City of Velika Gorica, Zagreb County, 10150, Croatia",
        "road": "D30",
        "house_number": null,
        "neighbourhood": "Pjesničko naselje",
        "suburb": "Gradska četvrt Stari grad",
        "city_district": "Velika Gorica",
        "city": "City of Velika Gorica",
        "state": null,
        "postcode": "10150",
        "country": "Croatia",
        "country_code": "hr"
      },
      "address": "D30, Pjesničko naselje, Gradska četvrt Stari grad, Velika Gorica, City of Velika Gorica, Zagreb County, 10150, Croatia"
    },
    {
      "lat": 45.74278435033177,
      "lon": 16.084236940453273,
      "geoinfo": {
        "display_name": "Public Car Park, Ulica Rudolfa Fizira, Gradska četvrt Pleso, Velika Gorica, City of Velika Gorica, Zagreb County, 10150, Croatia",
        "road": "Ulica Rudolfa Fizira",
        "house_number": null,
        "neighbourhood": null,
        "suburb": "Gradska četvrt Pleso",
        "city_district": "Velika Gorica",
        "city": "City of Velika Gorica",
        "state": null,
        "postcode": "10150",
        "country": "Croatia",
        "country_code": "hr"
      },
      "address": "998, Ulica Rudolfa Fizira, 10150 Velika Gorica, Croatia"
    },
    {
      "lat": 45.719508893785665,
      "lon": 16.054925857329458,
      "geoinfo": {
        "display_name": "Stihl, Ulica kneza Ljudevita Posavskog, Visoki brijeg, Gradska četvrt Miljenko Granić, Velika Gorica, City of Velika Gorica, Zagreb County, 10410, Croatia",
        "road": "Ulica kneza Ljudevita Posavskog",
        "house_number": null,
        "neighbourhood": null,
        "suburb": "Gradska četvrt Miljenko Granić",
        "city_district": "Velika Gorica",
        "city": "City of Velika Gorica",
        "state": null,
        "postcode": "10410",
        "country": "Croatia",
        "country_code": "hr"
      },
      "address": "199, Ulica kneza Ljudevita Posavskog, 10410 Velika Gorica, Croatia"
    },
    {
      "lat": 45.7406301762843,
      "lon": 16.055282569924945,
      "geoinfo": {
        "display_name": "Ulica Rudolfa Fizira, Gradska četvrt Pleso, Velika Gorica, City of Velika Gorica, Zagreb County, 10410, Croatia",
        "road": "Ulica Rudolfa Fizira",
        "house_number": null,
        "neighbourhood": null,
        "suburb": "Gradska četvrt Pleso",
        "city_district": "Velika Gorica",
        "city": "City of Velika Gorica",
        "state": null,
        "postcode": "10410",
        "country": "Croatia",
        "country_code": "hr"
      },
      "address": "680, Ulica Rudolfa Fizira, Gradska četvrt Pleso, Velika Gorica, City of Velika Gorica, Zagreb County, 10410, Croatia"
    }
  ],
  "updated_at": "2025-10-19T02:57:04.192684+00:00",
  "_kind": "geo_samples"
}