{
  "country_code": "HR",
  "country": "Croatia",
  "city": "Vinkovci",
  "geonameid": 3187719,
  "target_addresses": 4,
  "samples": [
    {
      "lat": 45.30021499802597,
      "lon": 18.746543888920502,
      "geoinfo": {
        "display_name": "Borinačka ulica, Borinci, Mjesni odbor \"Dvanaest redarstvenika\", Vinkovci, Vukovar-Srijem County, 32103, Croatia",
        "road": "Borinačka ulica",
        "house_number": null,
        "neighbourhood": null,
        "suburb": "Borinci",
        "city_district": "Vinkovci",
        "city": "Vinkovci",
        "state": null,
        "postcode": "32103",
        "country": "Croatia",
        "country_code": "hr"
      },
      "address": "Borinačka ulica, Vinkovci, Croatia"
    },
    {
      "lat": 45.30508772118405,
      "lon": 18.847333478525847,
      "geoinfo": {
        "display_name": "Ulica Alojzija Stepinca, Mala Bosna, Mjesni odbor \"Mala Bosna\", Vinkovci, Vukovar-Srijem County, 32240, Croatia",
        "road": "Ulica Alojzija Stepinca",
        "house_number": null,
        "neighbourhood": null,
        "suburb": "Mala Bosna",
        "city_district": "Vinkovci",
        "city": "Vinkovci",
        "state": null,
        "postcode": "32240",
        "country": "Croatia",
        "country_code": "hr"
      },
      "address": "Ulica Alojzija Stepinca, Vinkovci, Croatia"
    },
    {
      "lat": 45.26048821920715,
      "lon": 18.788519900984145,
      "geoinfo": {
        "display_name": "Ulica Hrvoja Vukčić Hrvatinića, Mjesni odbor \"Lenije\", Vinkovci, Vukovar-Srijem County, 32100, Croatia",
        "road": "Ulica Hrvoja Vukčić Hrvatinića",
        "house_number": null,
        "neighbourhood": null,
        "suburb": "Mjesni odbor \"Lenije\"",
        "city_district": "Vinkovci",
        "city": "Vinkovci",
        "state": null,
        "postcode": "32100",
        "country": "Croatia",
        "country_code": "hr"
      },
      "address": "Ulica Hrvoja Vukčić Hrvatinića, Vinkovci, Croatia"
    },
    {
      "lat": 45.255715838701384,
      "lon": 18.824757419891476,
      "geoinfo": {
        "display_name": "Vrapčana, Rudina Vrapčana, Mjesni odbor \"Mirkovci\", Mirkovci, Vinkovci, Vukovar-Srijem County, 32240, Croatia",
        "road": "Rudina Vrapčana",
        "house_number": null,
        "neighbourhood": null,
        "suburb": null,
        "city_district": "Mirkovci",
        "city": "Vinkovci",
        "state": null,
        "postcode": "32240",
        "country": "Croatia",
        "country_code": "hr"
      },
      "address": "Rudina Vrapčana, Vinkovci, Croatia"
    },
    {
      "lat": 45.264661721183664,
      "lon": 18.84985386981106,
      "geoinfo": {
        "display_name": "Ulica 9. svibnja, Mjesni odbor \"Mirkovci\", Mirkovci, Vinkovci, Vukovar-Srijem County, 32240, Croatia",
        "road": "Ulica 9. svibnja",
        "house_number": null,
        "neighbourhood": null,
        "suburb": null,
        "city_district": "Mirkovci",
        "city": "Vinkovci",
        "state": null,
        "postcode": "32240",
        "country": "Croatia",
        "country_code": "hr"
      },
      "address": "Ulica 9. svibnja, Mjesni odbor \"Mirkovci\", Mirkovci, Vinkovci, Vukovar-Srijem County, 32240, Croatia"
    },
    {
      "lat": 45.260609639631625,
      "lon": 18.829501970284053,
      "geoinfo": {
        "display_name": "Rudina Vrapčana, Mjesni odbor \"Mirkovci\", Mirkovci, Vinkovci, Vukovar-Srijem County, 32240, Croatia",
        "road": "Rudina Vrapčana",
        "house_number": null,
        "neighbourhood": null,
        "suburb": null,
        "city_district": "Mirkovci",
        "city": "Vinkovci",
        "state": null,
        "postcode": "32240",
        "country": "Croatia",
        "country_code": "hr"
      },
      "address": "913, Rudina Vrapčana, Mjesni odbor \"Mirkovci\", Mirkovci, Vinkovci, Vukovar-Srijem County, 32240, Croatia"
    },
    {
      "lat": 45.27355395466752,
      "lon": 18.852125182673877,
      "geoinfo": {
        "display_name": "Strma ulica, Mjesni odbor \"Mirkovci\", Mirkovci, Vinkovci, Vukovar-Srijem County, 32240, Croatia",
        "road": "Strma ulica",
        "house_number": null,
        "neighbourhood": null,
        "suburb": null,
        "city_district": "Mirkovci",
        "city": "Vinkovci",
        "state": null,
        "postcode": "32240",
        "country": "Croatia",
        "country_code": "hr"
      },
      "address": "490, Strma ulica, Mjesni odbor \"Mirkovci\", Mirkovci, Vinkovci, Vukovar-Srijem County, 32240, Croatia"
    },
    {
      "lat": 45.32147212699797,
      "lon": 18.84021585911562,
      "geoinfo": {
        "display_name": "Ulica Eugena Kvaternika, Nuštar, Općina Nuštar, Vukovar-Srijem County, 32221, Croatia",
        "road": "Ulica Eugena Kvaternika",
        "house_number": null,
        "neighbourhood": null,
        "suburb": null,
        "city_district": "Nuštar",
        "city": "Općina Nuštar",
        "state": null,
        "postcode": "32221",
        "country": "Croatia",
        "country_code": "hr"
      },
      "address": "852, Ulica Eugena Kvaternika, 32221 Vinkovci, Croatia"
    }
  ],
  "updated_at": "2025-10-19T04:40:15.039061+00:00",
  "_kind": "geo_samples"
}