{
  "country_code": "HR",
  "country": "Croatia",
  "city": "Zagreb",
  "geonameid": 3186886,
  "target_addresses": 4,
  "samples": [
    {
      "lat": 45.84829123107711,
      "lon": 15.952769228018521,
      "geoinfo": {
        "display_name": "Kulmerska ulica, Mjesni odbor Šestine, Gradska četvrt Podsljeme, Zagreb, City of Zagreb, 10168, Croatia",
        "road": "Kulmerska ulica",
        "house_number": null,
        "neighbourhood": null,
        "suburb": "Gradska četvrt Podsljeme",
        "city_district": "Zagreb",
        "city": "City of Zagreb",
        "state": null,
        "postcode": "10168",
        "country": "Croatia",
        "country_code": "hr"
      },
      "address": "Kulmerska ulica, Zagreb, Croatia"
    },
    {
      "lat": 45.834426843070055,
      "lon": 15.961228202633693,
      "geoinfo": {
        "display_name": "Pantovčak, Mjesni odbor \"Stjepan Radić\", Gradska četvrt Gornji grad - Medveščak, Zagreb, City of Zagreb, 10112, Croatia",
        "road": "Pantovčak",
        "house_number": null,
        "neighbourhood": "Mjesni odbor \"Stjepan Radić\"",
        "suburb": "Gradska četvrt Gornji grad - Medveščak",
        "city_district": "Zagreb",
        "city": "City of Zagreb",
        "state": null,
        "postcode": "10112",
        "country": "Croatia",
        "country_code": "hr"
      },
      "address": "Pantovčak, Zagreb, Croatia"
    },
    {
      "lat": 45.80744241603134,
      "lon": 16.01245087013665,
      "geoinfo": {
        "display_name": "Planinska ulica odvojak, Donje Svetice, Gradska četvrt Peščenica - Žitnjak, Zagreb, City of Zagreb, 10142, Croatia",
        "road": "Planinska ulica odvojak",
        "house_number": null,
        "neighbourhood": "Donje Svetice",
        "suburb": "Gradska četvrt Peščenica - Žitnjak",
        "city_district": "Zagreb",
        "city": "City of Zagreb",
        "state": null,
        "postcode": "10142",
        "country": "Croatia",
        "country_code": "hr"
      },
      "address": "Planinska ulica odvojak, Zagreb, Croatia"
    },
    {
      "lat": 45.82093681805075,
      "lon": 16.00389672315698,
      "geoinfo": {
        "display_name": "Mirnovac, Jordanovac, Mjesni odbor Dobri dol, Gradska četvrt Maksimir, Zagreb, City of Zagreb, 10123, Croatia",
        "road": "Mirnovac",
        "house_number": null,
        "neighbourhood": "Mjesni odbor Dobri dol",
        "suburb": "Gradska četvrt Maksimir",
        "city_district": "Zagreb",
        "city": "City of Zagreb",
        "state": null,
        "postcode": "10123",
        "country": "Croatia",
        "country_code": "hr"
      },
      "address": "Mirnovac, Zagreb, Croatia"
    },
    {
      "lat": 45.80308795270744,
      "lon": 15.947274061483538,
      "geoinfo": {
        "display_name": "45, Krapinska ulica, MO \"Silvije Strahimir Kranjčević\", Gradska četvrt Trešnjevka - sjever, Zagreb, City of Zagreb, 10110, Croatia",
        "road": "Krapinska ulica",
        "house_number": "45",
        "neighbourhood": "MO \"Silvije Strahimir Kranjčević\"",
        "suburb": "Gradska četvrt Trešnjevka - sjever",
        "city_district": "Zagreb",
        "city": "City of Zagreb",
        "state": null,
        "postcode": "10110",
        "country": "Croatia",
        "country_code": "hr"
      },
      "address": "45, Krapinska ulica, MO \"Silvije Strahimir Kranjčević\", Gradska četvrt Trešnjevka - sjever, Zagreb, City of Zagreb, 10110, Croatia"
    },
    {
      "lat": 45.781609243108015,
      "lon": 15.938969950541091,
      "geoinfo": {
        "display_name": "Jarunska obala, Jarun, Mjesni odbor Jarun, Gradska četvrt Trešnjevka - jug, Zagreb, City of Zagreb, 10000, Croatia",
        "road": "Jarunska obala",
        "house_number": null,
        "neighbourhood": "Mjesni odbor Jarun",
        "suburb": "Gradska četvrt Trešnjevka - jug",
        "city_district": "Zagreb",
        "city": "City of Zagreb",
        "state": null,
        "postcode": "10000",
        "country": "Croatia",
        "country_code": "hr"
      },
      "address": "907, Jarunska obala, Jarun, Mjesni odbor Jarun, Gradska četvrt Trešnjevka - jug, Zagreb, City of Zagreb, 10000, Croatia"
    },
    {
      "lat": 45.82390592801516,
      "lon": 15.973855987787182,
      "geoinfo": {
        "display_name": "Dubravkin put, Mjesni odbor Gornji grad, Gradska četvrt Gornji grad - Medveščak, Zagreb, City of Zagreb, 10112, Croatia",
        "road": "Dubravkin put",
        "house_number": null,
        "neighbourhood": null,
        "suburb": "Gradska četvrt Gornji grad - Medveščak",
        "city_district": "Zagreb",
        "city": "City of Zagreb",
        "state": null,
        "postcode": "10112",
        "country": "Croatia",
        "country_code": "hr"
      },
      "address": "270, Dubravkin put, Mjesni odbor Gornji grad, Gradska četvrt Gornji grad - Medveščak, Zagreb, City of Zagreb, 10112, Croatia"
    },
    {
      "lat": 45.80188553059142,
      "lon": 16.039161586511057,
      "geoinfo": {
        "display_name": "1B, Ulica Marijana Čavića, Borongaj, Borongaj - Lugovi, Gradska četvrt Peščenica - Žitnjak, Zagreb, City of Zagreb, 10148, Croatia",
        "road": "Ulica Marijana Čavića",
        "house_number": "1B",
        "neighbourhood": "Borongaj",
        "suburb": "Gradska četvrt Peščenica - Žitnjak",
        "city_district": "Zagreb",
        "city": "City of Zagreb",
        "state": null,
        "postcode": "10148",
        "country": "Croatia",
        "country_code": "hr"
      },
      "address": "1B, Ulica Marijana Čavića, Borongaj, Borongaj - Lugovi, Gradska četvrt Peščenica - Žitnjak, Zagreb, City of Zagreb, 10148, Croatia"
    }
  ],
  "updated_at": "2025-10-19T04:37:33.477291+00:00",
  "_kind": "geo_samples"
}