{
  "country_code": "HR",
  "country": "Croatia",
  "city": "Zaprešić",
  "geonameid": 3186781,
  "target_addresses": 4,
  "samples": [
    {
      "lat": 45.8674481790614,
      "lon": 15.777058817815764,
      "geoinfo": {
        "display_name": "Ulica braće Bukovina, Ravnice, Šibice, Town of Zaprešić, Zagreb County, 10290, Croatia",
        "road": "Ulica braće Bukovina",
        "house_number": null,
        "neighbourhood": null,
        "suburb": null,
        "city_district": "Šibice",
        "city": "Town of Zaprešić",
        "state": null,
        "postcode": "10290",
        "country": "Croatia",
        "country_code": "hr"
      },
      "address": "Ulica braće Bukovina, Zaprešić, Croatia"
    },
    {
      "lat": 45.81802577835782,
      "lon": 15.826049498563627,
      "geoinfo": {
        "display_name": "Zagrebačka obilaznica, Orešje, Grad Sveta Nedelja, Zagreb County, 10172, Croatia",
        "road": "Zagrebačka obilaznica",
        "house_number": null,
        "neighbourhood": null,
        "suburb": null,
        "city_district": null,
        "city": "Orešje",
        "state": null,
        "postcode": "10172",
        "country": "Croatia",
        "country_code": "hr"
      },
      "address": "Zagrebačka obilaznica, Zaprešić, Croatia"
    },
    {
      "lat": 45.891238442003676,
      "lon": 15.835950429030412,
      "geoinfo": {
        "display_name": "Bukovje Bistransko, Općina Bistra, Zagreb County, Croatia",
        "road": null,
        "house_number": null,
        "neighbourhood": null,
        "suburb": null,
        "city_district": null,
        "city": "Bukovje Bistransko",
        "state": null,
        "postcode": null,
        "country": "Croatia",
        "country_code": "hr"
      },
      "address": "Zaprešić, Croatia"
    },
    {
      "lat": 45.8669145898595,
      "lon": 15.83347299618993,
      "geoinfo": {
        "display_name": "A2, Jablanovec, Town of Zaprešić, Zagreb County, 10298, Croatia",
        "road": "A2",
        "house_number": null,
        "neighbourhood": null,
        "suburb": null,
        "city_district": null,
        "city": "Town of Zaprešić",
        "state": null,
        "postcode": "10298",
        "country": "Croatia",
        "country_code": "hr"
      },
      "address": "A2, Zaprešić, Croatia"
    }
  ],
  "updated_at": "2025-10-16T15:08:11.407183+00:00",
  "_kind": "geo_samples"
}