{
  "country_code": "HR",
  "country": "Croatia",
  "city": "Đakovo",
  "geonameid": 3202220,
  "target_addresses": 22,
  "samples": [
    {
      "lat": 45.325141873547075,
      "lon": 18.468722071224274,
      "geoinfo": {
        "display_name": "Viškovci, Općina Viškovci, Osijek-Baranja County, 31401, Croatia",
        "road": null,
        "house_number": null,
        "neighbourhood": null,
        "suburb": null,
        "city_district": "Viškovci",
        "city": "Općina Viškovci",
        "state": null,
        "postcode": "31401",
        "country": "Croatia",
        "country_code": "hr"
      },
      "address": "Viškovci, Đakovo, Croatia"
    },
    {
      "lat": 45.305509850242636,
      "lon": 18.415796132637574,
      "geoinfo": {
        "display_name": "Pavićeva ulica, Pazarište, Mjesni odbor Gabro Hes, Đakovo, Grad Đakovo, Osijek-Baranja County, 31405, Croatia",
        "road": "Pavićeva ulica",
        "house_number": null,
        "neighbourhood": null,
        "suburb": "Pazarište",
        "city_district": "Mjesni odbor Gabro Hes",
        "city": "Đakovo",
        "state": null,
        "postcode": "31405",
        "country": "Croatia",
        "country_code": "hr"
      },
      "address": "Pavićeva ulica, Đakovo, Croatia"
    },
    {
      "lat": 45.29999744623377,
      "lon": 18.390436057705955,
      "geoinfo": {
        "display_name": "Ulica biskupa Antuna Mandića, Groblje, Mjensi odbor Regal Vajs, Đakovo, Grad Đakovo, Osijek-Baranja County, 31400, Croatia",
        "road": "Ulica biskupa Antuna Mandića",
        "house_number": null,
        "neighbourhood": null,
        "suburb": "Groblje",
        "city_district": "Mjensi odbor Regal Vajs",
        "city": "Đakovo",
        "state": null,
        "postcode": "31400",
        "country": "Croatia",
        "country_code": "hr"
      },
      "address": "Ulica biskupa Antuna Mandića, Đakovo, Croatia"
    },
    {
      "lat": 45.29174294015038,
      "lon": 18.436406887388003,
      "geoinfo": {
        "display_name": "Reciklažno dvorište Vitika, D46, Budrovci, Grad Đakovo, Osijek-Baranja County, 31405, Croatia",
        "road": "D46",
        "house_number": null,
        "neighbourhood": null,
        "suburb": null,
        "city_district": null,
        "city": "Budrovci",
        "state": null,
        "postcode": "31405",
        "country": "Croatia",
        "country_code": "hr"
      },
      "address": "D46, Đakovo, Croatia"
    },
    {
      "lat": 45.31383506268124,
      "lon": 18.385548134372474,
      "geoinfo": {
        "display_name": "190, Ulica Franje Račkog, Vila, Mjensi odbor Regal Vajs, Đakovo, Grad Đakovo, Osijek-Baranja County, 31400, Croatia",
        "road": "Ulica Franje Račkog",
        "house_number": "190",
        "neighbourhood": null,
        "suburb": "Vila",
        "city_district": "Mjensi odbor Regal Vajs",
        "city": "Đakovo",
        "state": null,
        "postcode": "31400",
        "country": "Croatia",
        "country_code": "hr"
      },
      "address": "190 Ulica Franje Račkog, Đakovo, Croatia"
    },
    {
      "lat": 45.32462373962723,
      "lon": 18.43970328497693,
      "geoinfo": {
        "display_name": "Mjesni odbor Kolodvor, Đakovo, Grad Đakovo, Osijek-Baranja County, 31401, Croatia",
        "road": null,
        "house_number": null,
        "neighbourhood": null,
        "suburb": null,
        "city_district": "Mjesni odbor Kolodvor",
        "city": "Đakovo",
        "state": null,
        "postcode": "31401",
        "country": "Croatia",
        "country_code": "hr"
      },
      "address": "Mjesni odbor Kolodvor, Đakovo, Grad Đakovo, Osijek-Baranja County, 31401, Croatia"
    },
    {
      "lat": 45.28823142653517,
      "lon": 18.440393680038934,
      "geoinfo": {
        "display_name": "Budrovci, Grad Đakovo, Osijek-Baranja County, Croatia",
        "road": null,
        "house_number": null,
        "neighbourhood": null,
        "suburb": null,
        "city_district": null,
        "city": "Budrovci",
        "state": null,
        "postcode": null,
        "country": "Croatia",
        "country_code": "hr"
      },
      "address": "Budrovci, Grad Đakovo, 89367 Osijek-Baranja County, Croatia"
    },
    {
      "lat": 45.26944288425625,
      "lon": 18.419876233300023,
      "geoinfo": {
        "display_name": "Budrovci, Grad Đakovo, Osijek-Baranja County, Croatia",
        "road": null,
        "house_number": null,
        "neighbourhood": null,
        "suburb": null,
        "city_district": null,
        "city": "Budrovci",
        "state": null,
        "postcode": null,
        "country": "Croatia",
        "country_code": "hr"
      },
      "address": "961, Budrovci, Grad Đakovo, 57864 Osijek-Baranja County, Croatia"
    },
    {
      "lat": 45.29894232990168,
      "lon": 18.361042995546327,
      "geoinfo": {
        "display_name": "Selci Đakovački, Grad Đakovo, Osijek-Baranja County, 31400, Croatia",
        "road": null,
        "house_number": null,
        "neighbourhood": null,
        "suburb": null,
        "city_district": null,
        "city": "Selci Đakovački",
        "state": null,
        "postcode": "31400",
        "country": "Croatia",
        "country_code": "hr"
      },
      "address": "899, Selci Đakovački, Grad Đakovo, Osijek-Baranja County, 31400, Croatia"
    },
    {
      "lat": 45.29947196164536,
      "lon": 18.377542236224684,
      "geoinfo": {
        "display_name": "D7, Stočin, Mjensi odbor Regal Vajs, Đakovo, Grad Đakovo, Osijek-Baranja County, 31400, Croatia",
        "road": "D7",
        "house_number": null,
        "neighbourhood": null,
        "suburb": null,
        "city_district": "Mjensi odbor Regal Vajs",
        "city": "Đakovo",
        "state": null,
        "postcode": "31400",
        "country": "Croatia",
        "country_code": "hr"
      },
      "address": "D7, Stočin, Mjensi odbor Regal Vajs, Đakovo, Grad Đakovo, Osijek-Baranja County, 31400, Croatia"
    },
    {
      "lat": 45.32317223091483,
      "lon": 18.374624246262986,
      "geoinfo": {
        "display_name": "Mjesni odbor Braća Ribar, Đakovo, Grad Đakovo, Osijek-Baranja County, 31421, Croatia",
        "road": null,
        "house_number": null,
        "neighbourhood": null,
        "suburb": null,
        "city_district": "Mjesni odbor Braća Ribar",
        "city": "Đakovo",
        "state": null,
        "postcode": "31421",
        "country": "Croatia",
        "country_code": "hr"
      },
      "address": "514, Mjesni odbor Braća Ribar, Đakovo, Grad Đakovo, Osijek-Baranja County, 31421, Croatia"
    },
    {
      "lat": 45.33118261024812,
      "lon": 18.37692467861186,
      "geoinfo": {
        "display_name": "Mjesni odbor Braća Ribar, Đakovo, Grad Đakovo, Osijek-Baranja County, 31400, Croatia",
        "road": null,
        "house_number": null,
        "neighbourhood": null,
        "suburb": null,
        "city_district": "Mjesni odbor Braća Ribar",
        "city": "Đakovo",
        "state": null,
        "postcode": "31400",
        "country": "Croatia",
        "country_code": "hr"
      },
      "address": "313, Mjesni odbor Braća Ribar, Đakovo, Grad Đakovo, Osijek-Baranja County, 31400, Croatia"
    },
    {
      "lat": 45.31001560023223,
      "lon": 18.415452332944547,
      "geoinfo": {
        "display_name": "6, Ulica Pave Kraljevića, Centar, Mjesni odbor Centar, Đakovo, Grad Đakovo, Osijek-Baranja County, 31400, Croatia",
        "road": "Ulica Pave Kraljevića",
        "house_number": "6",
        "neighbourhood": null,
        "suburb": "Centar",
        "city_district": "Mjesni odbor Centar",
        "city": "Đakovo",
        "state": null,
        "postcode": "31400",
        "country": "Croatia",
        "country_code": "hr"
      },
      "address": "6, Ulica Pave Kraljevića, Centar, Mjesni odbor Centar, Đakovo, Grad Đakovo, Osijek-Baranja County, 31400, Croatia"
    },
    {
      "lat": 45.31588242128905,
      "lon": 18.35154556410585,
      "geoinfo": {
        "display_name": "Nova ulica, Selci Đakovački, Grad Đakovo, Osijek-Baranja County, 31421, Croatia",
        "road": "Nova ulica",
        "house_number": null,
        "neighbourhood": null,
        "suburb": null,
        "city_district": null,
        "city": "Selci Đakovački",
        "state": null,
        "postcode": "31421",
        "country": "Croatia",
        "country_code": "hr"
      },
      "address": "593, Nova ulica, Selci Đakovački, Grad Đakovo, Osijek-Baranja County, 31421, Croatia"
    },
    {
      "lat": 45.33307062301455,
      "lon": 18.36968648020385,
      "geoinfo": {
        "display_name": "Državna ergela lipicanaca Đakovo - Ivandvor, A5, Mjesni odbor Braća Ribar, Đakovo, Grad Đakovo, Osijek-Baranja County, 31421, Croatia",
        "road": "A5",
        "house_number": null,
        "neighbourhood": null,
        "suburb": null,
        "city_district": "Mjesni odbor Braća Ribar",
        "city": "Đakovo",
        "state": null,
        "postcode": "31421",
        "country": "Croatia",
        "country_code": "hr"
      },
      "address": "Državna ergela lipicanaca Đakovo - Ivandvor, A5, Mjesni odbor Braća Ribar, Đakovo, Grad Đakovo, Osijek-Baranja County, 31421, Croatia"
    },
    {
      "lat": 45.29933780178345,
      "lon": 18.361545152780945,
      "geoinfo": {
        "display_name": "A5, Selci Đakovački, Grad Đakovo, Osijek-Baranja County, 31400, Croatia",
        "road": "A5",
        "house_number": null,
        "neighbourhood": null,
        "suburb": null,
        "city_district": null,
        "city": "Selci Đakovački",
        "state": null,
        "postcode": "31400",
        "country": "Croatia",
        "country_code": "hr"
      },
      "address": "A5, Selci Đakovački, Grad Đakovo, Osijek-Baranja County, 31400, Croatia"
    },
    {
      "lat": 45.28740047888655,
      "lon": 18.423619505327082,
      "geoinfo": {
        "display_name": "Certiše, Mjesni odbor Gabro Hes, Đakovo, Grad Đakovo, Osijek-Baranja County, 31405, Croatia",
        "road": null,
        "house_number": null,
        "neighbourhood": null,
        "suburb": "Certiše",
        "city_district": "Mjesni odbor Gabro Hes",
        "city": "Đakovo",
        "state": null,
        "postcode": "31405",
        "country": "Croatia",
        "country_code": "hr"
      },
      "address": "092, Certiše, Mjesni odbor Gabro Hes, Đakovo, Grad Đakovo, Osijek-Baranja County, 31405, Croatia"
    },
    {
      "lat": 45.323813392700316,
      "lon": 18.39795380768606,
      "geoinfo": {
        "display_name": "Ulica Ante Starčevića, Novi Centar, Mjesni odbor Braća Ribar, Đakovo, Grad Đakovo, Osijek-Baranja County, 31400, Croatia",
        "road": "Ulica Ante Starčevića",
        "house_number": null,
        "neighbourhood": null,
        "suburb": null,
        "city_district": "Mjesni odbor Braća Ribar",
        "city": "Đakovo",
        "state": null,
        "postcode": "31400",
        "country": "Croatia",
        "country_code": "hr"
      },
      "address": "611, Ulica Ante Starčevića, Novi Centar, Mjesni odbor Braća Ribar, Đakovo, Grad Đakovo, Osijek-Baranja County, 31400, Croatia"
    },
    {
      "lat": 45.292348806420144,
      "lon": 18.466030002294055,
      "geoinfo": {
        "display_name": "Budrovačko brdo, Budrovci, Grad Đakovo, Osijek-Baranja County, Croatia",
        "road": "Budrovačko brdo",
        "house_number": null,
        "neighbourhood": null,
        "suburb": null,
        "city_district": null,
        "city": "Budrovci",
        "state": null,
        "postcode": null,
        "country": "Croatia",
        "country_code": "hr"
      },
      "address": "021, Budrovačko brdo, Budrovci, Grad Đakovo, 07334 Osijek-Baranja County, Croatia"
    },
    {
      "lat": 45.30839983825091,
      "lon": 18.390493650895277,
      "geoinfo": {
        "display_name": "153, Ulica Franje Račkog, Vila, Mjensi odbor Regal Vajs, Đakovo, Grad Đakovo, Osijek-Baranja County, 31400, Croatia",
        "road": "Ulica Franje Račkog",
        "house_number": "153",
        "neighbourhood": null,
        "suburb": "Vila",
        "city_district": "Mjensi odbor Regal Vajs",
        "city": "Đakovo",
        "state": null,
        "postcode": "31400",
        "country": "Croatia",
        "country_code": "hr"
      },
      "address": "153, Ulica Franje Račkog, Vila, Mjensi odbor Regal Vajs, Đakovo, Grad Đakovo, Osijek-Baranja County, 31400, Croatia"
    },
    {
      "lat": 45.336345767308515,
      "lon": 18.422726662005125,
      "geoinfo": {
        "display_name": "Ulica Nikole Tesle, Mjesni odbor Sjever-Dračice, Đakovo, Grad Đakovo, Osijek-Baranja County, 31400, Croatia",
        "road": "Ulica Nikole Tesle",
        "house_number": null,
        "neighbourhood": null,
        "suburb": null,
        "city_district": "Mjesni odbor Sjever-Dračice",
        "city": "Đakovo",
        "state": null,
        "postcode": "31400",
        "country": "Croatia",
        "country_code": "hr"
      },
      "address": "824, Ulica Nikole Tesle, Mjesni odbor Sjever-Dračice, Đakovo, Grad Đakovo, Osijek-Baranja County, 31400, Croatia"
    },
    {
      "lat": 45.30965275431804,
      "lon": 18.36007108933181,
      "geoinfo": {
        "display_name": "Ulica Vladimira Nazora, Selci Đakovački, Grad Đakovo, Osijek-Baranja County, 31421, Croatia",
        "road": "Ulica Vladimira Nazora",
        "house_number": null,
        "neighbourhood": null,
        "suburb": null,
        "city_district": null,
        "city": "Selci Đakovački",
        "state": null,
        "postcode": "31421",
        "country": "Croatia",
        "country_code": "hr"
      },
      "address": "008, Ulica Vladimira Nazora, Selci Đakovački, Grad Đakovo, Osijek-Baranja County, 31421, Croatia"
    },
    {
      "lat": 45.29494363902618,
      "lon": 18.46423043528284,
      "geoinfo": {
        "display_name": "Budrovačko brdo, Budrovci, Grad Đakovo, Osijek-Baranja County, Croatia",
        "road": "Budrovačko brdo",
        "house_number": null,
        "neighbourhood": null,
        "suburb": null,
        "city_district": null,
        "city": "Budrovci",
        "state": null,
        "postcode": null,
        "country": "Croatia",
        "country_code": "hr"
      },
      "address": "498, Budrovačko brdo, Budrovci, Grad Đakovo, 34415 Osijek-Baranja County, Croatia"
    }
  ],
  "updated_at": "2025-10-19T04:42:56.588034+00:00",
  "_kind": "geo_samples"
}