{
  "country_code": "KW",
  "country": "Kuwait",
  "city": "Al Jahrā’",
  "geonameid": 285799,
  "target_addresses": 6,
  "samples": [
    {
      "lat": 29.337767516248782,
      "lon": 47.62583039345113,
      "geoinfo": {
        "display_name": "Sabah Al Salem Al Sabah Street, Ar Ruhayya - Um Tawaynij, Jahra Governorate, 00003, Kuwait",
        "road": "Sabah Al Salem Al Sabah Street",
        "house_number": null,
        "neighbourhood": null,
        "suburb": null,
        "city_district": null,
        "city": "Ar Ruhayya - Um Tawaynij",
        "state": "Jahra Governorate",
        "postcode": "00003",
        "country": "Kuwait",
        "country_code": "kw"
      },
      "address": "Sabah Al Salem Al Sabah Street, Al Jahrā’, Jahra Governorate, Kuwait"
    },
    {
      "lat": 29.332019943796553,
      "lon": 47.70862005025248,
      "geoinfo": {
        "display_name": "Dhubaib Amash Alsuwaiha Alshammari Street, Qasr - Block 4, Saad Al-Abdulla, Jahra Governorate, 03200, Kuwait",
        "road": "Dhubaib Amash Alsuwaiha Alshammari Street",
        "house_number": null,
        "neighbourhood": "Qasr - Block 4",
        "suburb": null,
        "city_district": null,
        "city": "Saad Al-Abdulla",
        "state": "Jahra Governorate",
        "postcode": "03200",
        "country": "Kuwait",
        "country_code": "kw"
      },
      "address": "Dhubaib Amash Alsuwaiha Alshammari Street, Al Jahrā’, Jahra Governorate, Kuwait"
    },
    {
      "lat": 29.325203513665876,
      "lon": 47.69072188419861,
      "geoinfo": {
        "display_name": "Road 105, Taima - Block 5, Taima, Jahra Governorate, 03200, Kuwait",
        "road": "Road 105",
        "house_number": null,
        "neighbourhood": "Taima - Block 5",
        "suburb": "Taima",
        "city_district": null,
        "city": "Taima",
        "state": "Jahra Governorate",
        "postcode": "03200",
        "country": "Kuwait",
        "country_code": "kw"
      },
      "address": "Road 105, Al Jahrā’, Jahra Governorate, Kuwait"
    },
    {
      "lat": 29.30707442195646,
      "lon": 47.68435608891058,
      "geoinfo": {
        "display_name": "Street 13, Saad Al-Abdulla - Block 6, Saad Al-Abdulla, Jahra Governorate, 03200, Kuwait",
        "road": "Street 13",
        "house_number": null,
        "neighbourhood": "Saad Al-Abdulla - Block 6",
        "suburb": null,
        "city_district": null,
        "city": "Saad Al-Abdulla",
        "state": "Jahra Governorate",
        "postcode": "03200",
        "country": "Kuwait",
        "country_code": "kw"
      },
      "address": "Street 13, Al Jahrā’, Jahra Governorate, Kuwait"
    },
    {
      "lat": 29.338144908599745,
      "lon": 47.67804657511245,
      "geoinfo": {
        "display_name": "Jahra Road, Qasr - Block 2, Qasr, Jahra Governorate, 03200, Kuwait",
        "road": "Jahra Road",
        "house_number": null,
        "neighbourhood": "Qasr - Block 2",
        "suburb": null,
        "city_district": null,
        "city": "Qasr",
        "state": "Jahra Governorate",
        "postcode": "03200",
        "country": "Kuwait",
        "country_code": "kw"
      },
      "address": "Jahra Road, Al Jahrā’, Jahra Governorate, Kuwait"
    },
    {
      "lat": 29.36024097858402,
      "lon": 47.6863460807452,
      "geoinfo": {
        "display_name": "Bookable observation place, Golf Cart Tour Route, Jahra Camps, Jahra Governorate, 03200, Kuwait",
        "road": "Golf Cart Tour Route",
        "house_number": null,
        "neighbourhood": null,
        "suburb": null,
        "city_district": null,
        "city": "Jahra Camps",
        "state": "Jahra Governorate",
        "postcode": "03200",
        "country": "Kuwait",
        "country_code": "kw"
      },
      "address": "Golf Cart Tour Route, Al Jahrā’, Jahra Governorate, Kuwait"
    },
    {
      "lat": 29.369227977701925,
      "lon": 47.65289401948832,
      "geoinfo": {
        "display_name": "Jassim Mohammed Al Kharafi Road, South Mutlaa, Al Metlaa - Jal Al Atraf, Jahra Governorate, 00003, Kuwait",
        "road": "Jassim Mohammed Al Kharafi Road",
        "house_number": null,
        "neighbourhood": null,
        "suburb": null,
        "city_district": null,
        "city": "South Mutlaa",
        "state": "Jahra Governorate",
        "postcode": "00003",
        "country": "Kuwait",
        "country_code": "kw"
      },
      "address": "675, Jassim Mohammed Al Kharafi Road, South Mutlaa, Al Metlaa - Jal Al Atraf, Jahra Governorate, 00003, Kuwait"
    },
    {
      "lat": 29.348056167920184,
      "lon": 47.70017563129554,
      "geoinfo": {
        "display_name": "Jahra Expressway, Jahra Camps, Jahra Governorate, 03200, Kuwait",
        "road": "Jahra Expressway",
        "house_number": null,
        "neighbourhood": null,
        "suburb": null,
        "city_district": null,
        "city": "Jahra Camps",
        "state": "Jahra Governorate",
        "postcode": "03200",
        "country": "Kuwait",
        "country_code": "kw"
      },
      "address": "845, Jahra Expressway, Al Jahrā’, 03200 Jahra Governorate, Kuwait"
    },
    {
      "lat": 29.33501019022457,
      "lon": 47.68751491392265,
      "geoinfo": {
        "display_name": "5, Street 9, Naeem - Block 4, Naeem, Jahra Governorate, 03200, Kuwait",
        "road": "Street 9",
        "house_number": "5",
        "neighbourhood": "Naeem - Block 4",
        "suburb": "Naeem",
        "city_district": null,
        "city": null,
        "state": "Jahra Governorate",
        "postcode": "03200",
        "country": "Kuwait",
        "country_code": "kw"
      },
      "address": "Street 9, Al Jahrā’, 03200 Jahra Governorate, Kuwait"
    },
    {
      "lat": 29.373044210547665,
      "lon": 47.65154301182267,
      "geoinfo": {
        "display_name": "South Mutlaa, Al Metlaa - Jal Al Atraf, Jahra Governorate, 00032, Kuwait",
        "road": null,
        "house_number": null,
        "neighbourhood": null,
        "suburb": null,
        "city_district": null,
        "city": "South Mutlaa",
        "state": "Jahra Governorate",
        "postcode": "00032",
        "country": "Kuwait",
        "country_code": "kw"
      },
      "address": "835, South Mutlaa, Al Metlaa - Jal Al Atraf, Jahra Governorate, 00032, Kuwait"
    },
    {
      "lat": 29.330679998526346,
      "lon": 47.676299601931184,
      "geoinfo": {
        "display_name": "Road 102, Taima - Block 2, Taima, Jahra Governorate, 03200, Kuwait",
        "road": "Road 102",
        "house_number": null,
        "neighbourhood": "Taima - Block 2",
        "suburb": "Taima",
        "city_district": null,
        "city": "Taima",
        "state": "Jahra Governorate",
        "postcode": "03200",
        "country": "Kuwait",
        "country_code": "kw"
      },
      "address": "Road 102, Al Jahrā’, 03200 Jahra Governorate, Kuwait"
    },
    {
      "lat": 29.343086419323413,
      "lon": 47.66772943435573,
      "geoinfo": {
        "display_name": "محمد علي محمد الرطام, Street 1, Jahra - Block 4, Jahra, Jahra Governorate, 00003, Kuwait",
        "road": "Street 1",
        "house_number": null,
        "neighbourhood": "Jahra - Block 4",
        "suburb": null,
        "city_district": null,
        "city": "Jahra",
        "state": "Jahra Governorate",
        "postcode": "00003",
        "country": "Kuwait",
        "country_code": "kw"
      },
      "address": "Street 1, Al Jahrā’, 00003 Jahra Governorate, Kuwait"
    }
  ],
  "updated_at": "2025-10-19T05:45:04.339296+00:00",
  "_kind": "geo_samples"
}