{
  "country_code": "KW",
  "country": "Kuwait",
  "city": "JanÅ«b as Surrah",
  "geonameid": 285603,
  "target_addresses": 6,
  "samples": [
    {
      "lat": 29.258014416874133,
      "lon": 47.93859660210453,
      "geoinfo": {
        "display_name": "Street 5, Jileeb Al-Shuyoukh - Block 4, Jaleeb Al Shoyoukh, Farwaniya Governorate, 86355, Kuwait",
        "road": "Street 5",
        "house_number": null,
        "neighbourhood": null,
        "suburb": null,
        "city_district": "Jileeb Al-Shuyoukh - Block 4",
        "city": "Jaleeb Al Shoyoukh",
        "state": "Farwaniya Governorate",
        "postcode": "86355",
        "country": "Kuwait",
        "country_code": "kw"
      },
      "address": "Street 5, Jileeb Al-Shuyoukh - Block 4, Jaleeb Al Shoyoukh, Farwaniya Governorate, 86355, Kuwait"
    },
    {
      "lat": 29.269730140069424,
      "lon": 47.989165064619236,
      "geoinfo": {
        "display_name": "Faris Furaih Al Wagayan Street, Zahra - Block 7, Zahra, Hawalli Governorate, 20011, Kuwait",
        "road": "Faris Furaih Al Wagayan Street",
        "house_number": null,
        "neighbourhood": "Zahra - Block 7",
        "suburb": null,
        "city_district": null,
        "city": "Zahra",
        "state": "Hawalli Governorate",
        "postcode": "20011",
        "country": "Kuwait",
        "country_code": "kw"
      },
      "address": "Faris Furaih Al Wagayan Street, Zahra - Block 7, Zahra, Hawalli Governorate, 20011, Kuwait"
    },
    {
      "lat": 29.279099243002214,
      "lon": 48.00395814839476,
      "geoinfo": {
        "display_name": "Mijrin Ahmed Al Hamad Street, Zahra - Block 4, Zahra, Hawalli Governorate, 47706, Kuwait",
        "road": "Mijrin Ahmed Al Hamad Street",
        "house_number": null,
        "neighbourhood": "Zahra - Block 4",
        "suburb": null,
        "city_district": null,
        "city": "Zahra",
        "state": "Hawalli Governorate",
        "postcode": "47706",
        "country": "Kuwait",
        "country_code": "kw"
      },
      "address": "Mijrin Ahmed Al Hamad Street, Zahra - Block 4, Zahra, Hawalli Governorate, 47706, Kuwait"
    }
  ],
  "updated_at": "2025-10-19T03:37:56.255226+00:00",
  "_kind": "geo_samples"
}