{
  "country_code": "KW",
  "country": "Kuwait",
  "city": "Kuwait City",
  "geonameid": 285787,
  "target_addresses": 6,
  "samples": [
    {
      "lat": 29.391476192316183,
      "lon": 47.9347537033392,
      "geoinfo": {
        "display_name": "Southern Industrial Island, Capital Governorate, 15005, Kuwait",
        "road": null,
        "house_number": null,
        "neighbourhood": null,
        "suburb": null,
        "city_district": null,
        "city": null,
        "state": "Capital Governorate",
        "postcode": "15005",
        "country": "Kuwait",
        "country_code": "kw"
      },
      "address": "Kuwait City, Capital Governorate, Kuwait"
    },
    {
      "lat": 29.393327050844434,
      "lon": 47.94762053726836,
      "geoinfo": {
        "display_name": "Qibla, Kuwait City, Qibla, Capital Governorate, 12170, Kuwait",
        "road": null,
        "house_number": null,
        "neighbourhood": null,
        "suburb": "Qibla",
        "city_district": null,
        "city": "Kuwait City",
        "state": "Capital Governorate",
        "postcode": "12170",
        "country": "Kuwait",
        "country_code": "kw"
      },
      "address": "Qibla, Kuwait City, Capital Governorate, Kuwait"
    },
    {
      "lat": 29.3645255995645,
      "lon": 48.02222617251201,
      "geoinfo": {
        "display_name": "Arabian Gulf Street, Bnaid Al-Gar - Block 2, Di'iya - Block 5, Daiya, Capital Governorate, 35020, Kuwait",
        "road": "Arabian Gulf Street",
        "house_number": null,
        "neighbourhood": "Bnaid Al-Gar - Block 2",
        "suburb": null,
        "city_district": null,
        "city": "Di'iya - Block 5",
        "state": "Capital Governorate",
        "postcode": "35020",
        "country": "Kuwait",
        "country_code": "kw"
      },
      "address": "Arabian Gulf Street, Kuwait City, Capital Governorate, Kuwait"
    },
    {
      "lat": 29.361772059684707,
      "lon": 47.9821229180152,
      "geoinfo": {
        "display_name": "Al Soor Street, Shaheed Park - Phase 3, Al Sour Gardens, Capital Governorate, 15000, Kuwait",
        "road": "Al Soor Street",
        "house_number": null,
        "neighbourhood": "Shaheed Park - Phase 3",
        "suburb": null,
        "city_district": null,
        "city": null,
        "state": "Capital Governorate",
        "postcode": "15000",
        "country": "Kuwait",
        "country_code": "kw"
      },
      "address": "Al Soor Street, Kuwait City, Capital Governorate, Kuwait"
    },
    {
      "lat": 29.354940357849856,
      "lon": 48.0082337407908,
      "geoinfo": {
        "display_name": "14, Street 13, Di'iya - Block 1, Daiya, Capital Governorate, 25501, Kuwait",
        "road": "Street 13",
        "house_number": "14",
        "neighbourhood": "Di'iya - Block 1",
        "suburb": null,
        "city_district": null,
        "city": "Daiya",
        "state": "Capital Governorate",
        "postcode": "25501",
        "country": "Kuwait",
        "country_code": "kw"
      },
      "address": "14 Street 13, Kuwait City, Capital Governorate, Kuwait"
    },
    {
      "lat": 29.344415455452634,
      "lon": 47.93931471226736,
      "geoinfo": {
        "display_name": "Street 5, Shuwaikh Industrial 1 - Block 1, Shuwaikh Industrial 1, Capital Governorate, 13003, Kuwait",
        "road": "Street 5",
        "house_number": null,
        "neighbourhood": "Shuwaikh Industrial 1 - Block 1",
        "suburb": null,
        "city_district": null,
        "city": null,
        "state": "Capital Governorate",
        "postcode": "13003",
        "country": "Kuwait",
        "country_code": "kw"
      },
      "address": "Street 5, Kuwait City, Capital Governorate, Kuwait"
    },
    {
      "lat": 29.346336306915337,
      "lon": 47.934515060351856,
      "geoinfo": {
        "display_name": "Jamal Abdul Nasser Street, Shuwaikh Port, Capital Governorate, 70052, Kuwait",
        "road": "Jamal Abdul Nasser Street",
        "house_number": null,
        "neighbourhood": null,
        "suburb": null,
        "city_district": null,
        "city": "Shuwaikh Port",
        "state": "Capital Governorate",
        "postcode": "70052",
        "country": "Kuwait",
        "country_code": "kw"
      },
      "address": "260, Jamal Abdul Nasser Street, Kuwait City, 70052 Capital Governorate, Kuwait"
    },
    {
      "lat": 29.388134805451863,
      "lon": 47.99599804249742,
      "geoinfo": {
        "display_name": "Street 164, Dasman - Block 1, Dasman, Capital Governorate, 13021, Kuwait",
        "road": "Street 164",
        "house_number": null,
        "neighbourhood": "Dasman - Block 1",
        "suburb": "Dasman",
        "city_district": null,
        "city": "Dasman",
        "state": "Capital Governorate",
        "postcode": "13021",
        "country": "Kuwait",
        "country_code": "kw"
      },
      "address": "Street 164, Kuwait City, 13021 Capital Governorate, Kuwait"
    },
    {
      "lat": 29.353266108077232,
      "lon": 47.996040540742406,
      "geoinfo": {
        "display_name": "23, Street 28, Mansouriya - Block 2, Mansouriya, Capital Governorate, 25501, Kuwait",
        "road": "Street 28",
        "house_number": "23",
        "neighbourhood": "Mansouriya - Block 2",
        "suburb": null,
        "city_district": null,
        "city": "Mansouriya",
        "state": "Capital Governorate",
        "postcode": "25501",
        "country": "Kuwait",
        "country_code": "kw"
      },
      "address": "Street 28, Kuwait City, 25501 Capital Governorate, Kuwait"
    },
    {
      "lat": 29.33169996112046,
      "lon": 47.96400989869757,
      "geoinfo": {
        "display_name": "7, Street 21, Khaldiya 2, Khaldiya, Capital Governorate, 13005, Kuwait",
        "road": "Street 21",
        "house_number": "7",
        "neighbourhood": "Khaldiya 2",
        "suburb": null,
        "city_district": null,
        "city": "Khaldiya",
        "state": "Capital Governorate",
        "postcode": "13005",
        "country": "Kuwait",
        "country_code": "kw"
      },
      "address": "Street 21, Kuwait City, 13005 Capital Governorate, Kuwait"
    },
    {
      "lat": 29.33894577282468,
      "lon": 47.98620336319951,
      "geoinfo": {
        "display_name": "47, Abdulrahman Abdulwahab Al Fares Street, Nuzha - Block 2, Al Nuzha, Capital Governorate, 32003, Kuwait",
        "road": "Abdulrahman Abdulwahab Al Fares Street",
        "house_number": "47",
        "neighbourhood": "Nuzha - Block 2",
        "suburb": null,
        "city_district": null,
        "city": "Al Nuzha",
        "state": "Capital Governorate",
        "postcode": "32003",
        "country": "Kuwait",
        "country_code": "kw"
      },
      "address": "47, Abdulrahman Abdulwahab Al Fares Street, Nuzha - Block 2, Al Nuzha, Capital Governorate, 32003, Kuwait"
    },
    {
      "lat": 29.364900068719443,
      "lon": 47.98768047969053,
      "geoinfo": {
        "display_name": "Al Soor Street, Mirqab-Block 2, Mirqab, Capital Governorate, 13012, Kuwait",
        "road": "Al Soor Street",
        "house_number": null,
        "neighbourhood": "Mirqab-Block 2",
        "suburb": "Mirqab",
        "city_district": null,
        "city": "Mirqab",
        "state": "Capital Governorate",
        "postcode": "13012",
        "country": "Kuwait",
        "country_code": "kw"
      },
      "address": "Al Soor Street, Mirqab-Block 2, Mirqab, Capital Governorate, 13012, Kuwait"
    }
  ],
  "updated_at": "2025-10-19T07:56:49.392079+00:00",
  "_kind": "geo_samples"
}