{
  "country_code": "KW",
  "country": "Kuwait",
  "city": "Şabāḩ as Sālim",
  "geonameid": 412800,
  "target_addresses": 30,
  "samples": [
    {
      "lat": 29.236249287532456,
      "lon": 48.07895370037462,
      "geoinfo": {
        "display_name": "Al Qasour Co-op Society, Street 1, Block 7, Al-Adan, Mubarak al-Kabir Governorate, 47007, Kuwait",
        "road": "Street 1",
        "house_number": null,
        "neighbourhood": "Block 7",
        "suburb": "Al-Adan",
        "city_district": null,
        "city": "Al-Adan",
        "state": "Mubarak al-Kabir Governorate",
        "postcode": "47007",
        "country": "Kuwait",
        "country_code": "kw"
      },
      "address": "Al Qasour Co-op Society, Street 1, Block 7, Al-Adan, Mubarak al-Kabir Governorate, 47007, Kuwait"
    },
    {
      "lat": 29.263750651727296,
      "lon": 48.01759394848689,
      "geoinfo": {
        "display_name": "Jassim Mohammed Al Kharafi Road, Wista, Mubarak al-Kabir Governorate, 20011, Kuwait",
        "road": "Jassim Mohammed Al Kharafi Road",
        "house_number": null,
        "neighbourhood": null,
        "suburb": null,
        "city_district": null,
        "city": "Wista",
        "state": "Mubarak al-Kabir Governorate",
        "postcode": "20011",
        "country": "Kuwait",
        "country_code": "kw"
      },
      "address": "Jassim Mohammed Al Kharafi Road, Wista, Mubarak al-Kabir Governorate, 20011, Kuwait"
    },
    {
      "lat": 29.267003864365364,
      "lon": 48.078865270003874,
      "geoinfo": {
        "display_name": "Sabah Al-Salem - Block 1, Sabah Al Salem, Mubarak al-Kabir Governorate, 25600, Kuwait",
        "road": null,
        "house_number": null,
        "neighbourhood": "Sabah Al-Salem - Block 1",
        "suburb": "Sabah Al Salem",
        "city_district": null,
        "city": "Sabah Al Salem",
        "state": "Mubarak al-Kabir Governorate",
        "postcode": "25600",
        "country": "Kuwait",
        "country_code": "kw"
      },
      "address": "Sabah Al-Salem - Block 1, Sabah Al Salem, Mubarak al-Kabir Governorate, 25600, Kuwait"
    },
    {
      "lat": 29.248974241346858,
      "lon": 48.09538411092046,
      "geoinfo": {
        "display_name": "Street 25, Al Masayel, Mubarak al-Kabir Governorate, 47007, Kuwait",
        "road": "Street 25",
        "house_number": null,
        "neighbourhood": null,
        "suburb": "Al Masayel",
        "city_district": null,
        "city": null,
        "state": "Mubarak al-Kabir Governorate",
        "postcode": "47007",
        "country": "Kuwait",
        "country_code": "kw"
      },
      "address": "Street 25, Al Masayel, Mubarak al-Kabir Governorate, 47007, Kuwait"
    },
    {
      "lat": 29.250102117345058,
      "lon": 48.01275513456772,
      "geoinfo": {
        "display_name": "Kuwait Riding Center, Street 2, Wista, Mubarak al-Kabir Governorate, 46010, Kuwait",
        "road": "Street 2",
        "house_number": null,
        "neighbourhood": null,
        "suburb": null,
        "city_district": null,
        "city": "Wista",
        "state": "Mubarak al-Kabir Governorate",
        "postcode": "46010",
        "country": "Kuwait",
        "country_code": "kw"
      },
      "address": "Kuwait Riding Center, Street 2, Wista, Mubarak al-Kabir Governorate, 46010, Kuwait"
    },
    {
      "lat": 29.25616231715545,
      "lon": 48.07733250966773,
      "geoinfo": {
        "display_name": "30, Street 2 Lane 12, Block 7, Sabah Al Salem, Mubarak al-Kabir Governorate, 00965, Kuwait",
        "road": "Street 2 Lane 12",
        "house_number": "30",
        "neighbourhood": "Block 7",
        "suburb": "Sabah Al Salem",
        "city_district": null,
        "city": "Sabah Al Salem",
        "state": "Mubarak al-Kabir Governorate",
        "postcode": "00965",
        "country": "Kuwait",
        "country_code": "kw"
      },
      "address": "30, Street 2 Lane 12, Block 7, Sabah Al Salem, Mubarak al-Kabir Governorate, 00965, Kuwait"
    },
    {
      "lat": 29.26008930549411,
      "lon": 48.10711547783959,
      "geoinfo": {
        "display_name": "Al Masayel, Mubarak al-Kabir Governorate, 47007, Kuwait",
        "road": null,
        "house_number": null,
        "neighbourhood": null,
        "suburb": "Al Masayel",
        "city_district": null,
        "city": "Al Masayel",
        "state": "Mubarak al-Kabir Governorate",
        "postcode": "47007",
        "country": "Kuwait",
        "country_code": "kw"
      },
      "address": "232, Al Masayel, Mubarak al-Kabir Governorate, 47007, Kuwait"
    },
    {
      "lat": 29.25419404546892,
      "lon": 48.081204500444684,
      "geoinfo": {
        "display_name": "Street 304, Block 3, Sabah Al Salem, Mubarak al-Kabir Governorate, 47007, Kuwait",
        "road": "Street 304",
        "house_number": null,
        "neighbourhood": "Block 3",
        "suburb": null,
        "city_district": null,
        "city": "Sabah Al Salem",
        "state": "Mubarak al-Kabir Governorate",
        "postcode": "47007",
        "country": "Kuwait",
        "country_code": "kw"
      },
      "address": "Street 304, Block 3, Sabah Al Salem, Mubarak al-Kabir Governorate, 47007, Kuwait"
    },
    {
      "lat": 29.23244789552008,
      "lon": 48.0866151426581,
      "geoinfo": {
        "display_name": "Street 501, Block 5, Al Masayel, Mubarak al-Kabir Governorate, 47007, Kuwait",
        "road": "Street 501",
        "house_number": null,
        "neighbourhood": "Block 5",
        "suburb": "Al Masayel",
        "city_district": null,
        "city": "Al Masayel",
        "state": "Mubarak al-Kabir Governorate",
        "postcode": "47007",
        "country": "Kuwait",
        "country_code": "kw"
      },
      "address": "Street 501, Block 5, Al Masayel, Mubarak al-Kabir Governorate, 47007, Kuwait"
    },
    {
      "lat": 29.243674739899173,
      "lon": 48.0976682431149,
      "geoinfo": {
        "display_name": "Al Masayel, Mubarak al-Kabir Governorate, 47007, Kuwait",
        "road": null,
        "house_number": null,
        "neighbourhood": null,
        "suburb": "Al Masayel",
        "city_district": null,
        "city": null,
        "state": "Mubarak al-Kabir Governorate",
        "postcode": "47007",
        "country": "Kuwait",
        "country_code": "kw"
      },
      "address": "438, Al Masayel, Mubarak al-Kabir Governorate, 47007, Kuwait"
    },
    {
      "lat": 29.255110889562665,
      "lon": 48.05280082409953,
      "geoinfo": {
        "display_name": "Street 1, Block 10, Sabah Al Salem, Mubarak al-Kabir Governorate, 00965, Kuwait",
        "road": "Street 1",
        "house_number": null,
        "neighbourhood": "Block 10",
        "suburb": "Sabah Al Salem",
        "city_district": null,
        "city": "Sabah Al Salem",
        "state": "Mubarak al-Kabir Governorate",
        "postcode": "00965",
        "country": "Kuwait",
        "country_code": "kw"
      },
      "address": "Street 1, Block 10, Sabah Al Salem, Mubarak al-Kabir Governorate, 00965, Kuwait"
    },
    {
      "lat": 29.23911257955248,
      "lon": 48.04701038311394,
      "geoinfo": {
        "display_name": "Mohammad Al Hamadah Al Ajmi Street, Wista, Mubarak al-Kabir Governorate, 47001, Kuwait",
        "road": "Mohammad Al Hamadah Al Ajmi Street",
        "house_number": null,
        "neighbourhood": null,
        "suburb": null,
        "city_district": null,
        "city": "Wista",
        "state": "Mubarak al-Kabir Governorate",
        "postcode": "47001",
        "country": "Kuwait",
        "country_code": "kw"
      },
      "address": "725, Mohammad Al Hamadah Al Ajmi Street, Wista, Mubarak al-Kabir Governorate, 47001, Kuwait"
    },
    {
      "lat": 29.28105079789923,
      "lon": 48.07813402951861,
      "geoinfo": {
        "display_name": "King Abdulaziz Bin Abdulrahman Al Saud Expressway, Block 11, Salwa, Hawalli Governorate, 25600, Kuwait",
        "road": "King Abdulaziz Bin Abdulrahman Al Saud Expressway",
        "house_number": null,
        "neighbourhood": "Block 11",
        "suburb": "Salwa",
        "city_district": null,
        "city": "Salwa",
        "state": "Hawalli Governorate",
        "postcode": "25600",
        "country": "Kuwait",
        "country_code": "kw"
      },
      "address": "King Abdulaziz Bin Abdulrahman Al Saud Expressway, Block 11, Salwa, Hawalli Governorate, 25600, Kuwait"
    },
    {
      "lat": 29.247760796405522,
      "lon": 48.05037150280636,
      "geoinfo": {
        "display_name": "33, Street 1 Lane 1, Block 13, Sabah Al Salem, Mubarak al-Kabir Governorate, 00965, Kuwait",
        "road": "Street 1 Lane 1",
        "house_number": "33",
        "neighbourhood": "Block 13",
        "suburb": "Sabah Al Salem",
        "city_district": null,
        "city": "Sabah Al Salem",
        "state": "Mubarak al-Kabir Governorate",
        "postcode": "00965",
        "country": "Kuwait",
        "country_code": "kw"
      },
      "address": "33, Street 1 Lane 1, Block 13, Sabah Al Salem, Mubarak al-Kabir Governorate, 00965, Kuwait"
    },
    {
      "lat": 29.2435914330324,
      "lon": 48.104650533108746,
      "geoinfo": {
        "display_name": "Al Masayel, Mubarak al-Kabir Governorate, 47007, Kuwait",
        "road": null,
        "house_number": null,
        "neighbourhood": null,
        "suburb": "Al Masayel",
        "city_district": null,
        "city": "Al Masayel",
        "state": "Mubarak al-Kabir Governorate",
        "postcode": "47007",
        "country": "Kuwait",
        "country_code": "kw"
      },
      "address": "925, Al Masayel, Mubarak al-Kabir Governorate, 47007, Kuwait"
    },
    {
      "lat": 29.25535930332596,
      "lon": 48.10429846943436,
      "geoinfo": {
        "display_name": "Al Masayel, Mubarak al-Kabir Governorate, 47007, Kuwait",
        "road": null,
        "house_number": null,
        "neighbourhood": null,
        "suburb": "Al Masayel",
        "city_district": null,
        "city": "Al Masayel",
        "state": "Mubarak al-Kabir Governorate",
        "postcode": "47007",
        "country": "Kuwait",
        "country_code": "kw"
      },
      "address": "533, Al Masayel, Mubarak al-Kabir Governorate, 47007, Kuwait"
    },
    {
      "lat": 29.276983905215985,
      "lon": 48.02115768977976,
      "geoinfo": {
        "display_name": "Yousef Al Athbi Al Sabah Road, Ministries Area, Hawalli Governorate, 47705, Kuwait",
        "road": "Yousef Al Athbi Al Sabah Road",
        "house_number": null,
        "neighbourhood": null,
        "suburb": null,
        "city_district": null,
        "city": "Ministries Area",
        "state": "Hawalli Governorate",
        "postcode": "47705",
        "country": "Kuwait",
        "country_code": "kw"
      },
      "address": "801, Yousef Al Athbi Al Sabah Road, Ministries Area, Hawalli Governorate, 47705, Kuwait"
    },
    {
      "lat": 29.254606865411642,
      "lon": 48.028399008901694,
      "geoinfo": {
        "display_name": "Jassim Mohammed Al Kharafi Road, Wista, Mubarak al-Kabir Governorate, 20011, Kuwait",
        "road": "Jassim Mohammed Al Kharafi Road",
        "house_number": null,
        "neighbourhood": null,
        "suburb": null,
        "city_district": null,
        "city": "Wista",
        "state": "Mubarak al-Kabir Governorate",
        "postcode": "20011",
        "country": "Kuwait",
        "country_code": "kw"
      },
      "address": "742, Jassim Mohammed Al Kharafi Road, Wista, Mubarak al-Kabir Governorate, 20011, Kuwait"
    }
  ],
  "updated_at": "2025-10-19T05:23:48.120048+00:00",
  "_kind": "geo_samples"
}