{
  "country_code": "MN",
  "country": "Mongolia",
  "city": "Bayanhongor",
  "geonameid": 2032533,
  "target_addresses": 5,
  "samples": [
    {
      "lat": 46.193820717590434,
      "lon": 100.70628539354881,
      "geoinfo": {
        "display_name": "Bayankhongor-Jargalant, Bayankhongor, Mongolia",
        "road": "Bayankhongor-Jargalant",
        "house_number": null,
        "neighbourhood": null,
        "suburb": null,
        "city_district": null,
        "city": "Bayankhongor",
        "state": "Bayankhongor",
        "postcode": null,
        "country": "Mongolia",
        "country_code": "mn"
      },
      "address": "Bayankhongor-Jargalant, Bayanhongor, Bayankhongor, Mongolia"
    },
    {
      "lat": 46.190404660897535,
      "lon": 100.74692412097282,
      "geoinfo": {
        "display_name": "Bayankhongor, Mongolia",
        "road": null,
        "house_number": null,
        "neighbourhood": null,
        "suburb": null,
        "city_district": null,
        "city": "Bayankhongor",
        "state": "Bayankhongor",
        "postcode": null,
        "country": "Mongolia",
        "country_code": "mn"
      },
      "address": "Bayanhongor, Bayankhongor, Mongolia"
    },
    {
      "lat": 46.23086060243165,
      "lon": 100.72384909945212,
      "geoinfo": {
        "display_name": "Bayankhongor-Erdene-Tsogt, Bayankhongor, Bayan-Ovoo, Bayankhongor, Mongolia",
        "road": "Bayankhongor-Erdene-Tsogt",
        "house_number": null,
        "neighbourhood": null,
        "suburb": null,
        "city_district": null,
        "city": "Bayankhongor",
        "state": "Bayankhongor",
        "postcode": null,
        "country": "Mongolia",
        "country_code": "mn"
      },
      "address": "Bayankhongor-Erdene-Tsogt, Bayanhongor, Bayankhongor, Mongolia"
    },
    {
      "lat": 46.19194326775034,
      "lon": 100.6583430266587,
      "geoinfo": {
        "display_name": "Galuut -South Bayankhongor, Bayankhongor, Bayan-Ovoo, Bayankhongor, Mongolia",
        "road": "Galuut -South Bayankhongor",
        "house_number": null,
        "neighbourhood": null,
        "suburb": null,
        "city_district": null,
        "city": "Bayankhongor",
        "state": "Bayankhongor",
        "postcode": null,
        "country": "Mongolia",
        "country_code": "mn"
      },
      "address": "Galuut -South Bayankhongor, Bayanhongor, Bayankhongor, Mongolia"
    },
    {
      "lat": 46.2093526362774,
      "lon": 100.68868449546186,
      "geoinfo": {
        "display_name": "Galuut - Bayankhongor(Alt), Bayankhongor, Bayan-Ovoo, Bayankhongor, Mongolia",
        "road": "Galuut - Bayankhongor(Alt)",
        "house_number": null,
        "neighbourhood": null,
        "suburb": null,
        "city_district": null,
        "city": "Bayankhongor",
        "state": "Bayankhongor",
        "postcode": null,
        "country": "Mongolia",
        "country_code": "mn"
      },
      "address": "Galuut - Bayankhongor(Alt), Bayanhongor, Bayankhongor, Mongolia"
    },
    {
      "lat": 46.216521059725764,
      "lon": 100.73860926434926,
      "geoinfo": {
        "display_name": "Bayankhongor, Mongolia",
        "road": null,
        "house_number": null,
        "neighbourhood": null,
        "suburb": null,
        "city_district": null,
        "city": "Bayankhongor",
        "state": "Bayankhongor",
        "postcode": null,
        "country": "Mongolia",
        "country_code": "mn"
      },
      "address": "825, Bayanhongor, 87346 Bayankhongor, Mongolia"
    },
    {
      "lat": 46.19355536424794,
      "lon": 100.7098282162153,
      "geoinfo": {
        "display_name": "Bayankhongor, Mongolia",
        "road": null,
        "house_number": null,
        "neighbourhood": null,
        "suburb": null,
        "city_district": null,
        "city": "Bayankhongor",
        "state": "Bayankhongor",
        "postcode": null,
        "country": "Mongolia",
        "country_code": "mn"
      },
      "address": "861, Bayanhongor, 69229 Bayankhongor, Mongolia"
    },
    {
      "lat": 46.172898343514056,
      "lon": 100.72185313481879,
      "geoinfo": {
        "display_name": "Bayankhongor, Mongolia",
        "road": null,
        "house_number": null,
        "neighbourhood": null,
        "suburb": null,
        "city_district": null,
        "city": "Bayankhongor",
        "state": "Bayankhongor",
        "postcode": null,
        "country": "Mongolia",
        "country_code": "mn"
      },
      "address": "109, Bayanhongor, 37549 Bayankhongor, Mongolia"
    },
    {
      "lat": 46.22294179875797,
      "lon": 100.72961384455347,
      "geoinfo": {
        "display_name": "Bayankhongor-Erdene-Tsogt, Bayankhongor, Bayan-Ovoo, Bayankhongor, Mongolia",
        "road": "Bayankhongor-Erdene-Tsogt",
        "house_number": null,
        "neighbourhood": null,
        "suburb": null,
        "city_district": null,
        "city": "Bayankhongor",
        "state": "Bayankhongor",
        "postcode": null,
        "country": "Mongolia",
        "country_code": "mn"
      },
      "address": "215, Bayankhongor-Erdene-Tsogt, Bayanhongor, 34491 Bayankhongor, Mongolia"
    },
    {
      "lat": 46.195547887551115,
      "lon": 100.69607030314911,
      "geoinfo": {
        "display_name": "Bayankhongor, Mongolia",
        "road": null,
        "house_number": null,
        "neighbourhood": null,
        "suburb": null,
        "city_district": null,
        "city": "Bayankhongor",
        "state": "Bayankhongor",
        "postcode": null,
        "country": "Mongolia",
        "country_code": "mn"
      },
      "address": "353, Bayanhongor, 30116 Bayankhongor, Mongolia"
    }
  ],
  "updated_at": "2025-10-19T03:53:58.136801+00:00",
  "_kind": "geo_samples"
}