{
  "country_code": "MN",
  "country": "Mongolia",
  "city": "Dalandzadgad",
  "geonameid": 2032007,
  "target_addresses": 5,
  "samples": [
    {
      "lat": 43.590776819114716,
      "lon": 104.39137746629059,
      "geoinfo": {
        "display_name": "Dalanzadgad - Bulgan, Dalanzadgad, Bulgan, Ömnögovi, Mongolia",
        "road": "Dalanzadgad - Bulgan",
        "house_number": null,
        "neighbourhood": null,
        "suburb": null,
        "city_district": null,
        "city": "Dalanzadgad",
        "state": "Ömnögovi",
        "postcode": null,
        "country": "Mongolia",
        "country_code": "mn"
      },
      "address": "602, Dalanzadgad - Bulgan, Dalanzadgad, Bulgan, 32217 Ömnögovi, Mongolia"
    },
    {
      "lat": 43.591765780044625,
      "lon": 104.47042655883702,
      "geoinfo": {
        "display_name": "Mandalgovi - Dalanzadgad, Dalanzadgad, Khan khongor, Ömnögovi, Mongolia",
        "road": "Mandalgovi - Dalanzadgad",
        "house_number": null,
        "neighbourhood": null,
        "suburb": null,
        "city_district": null,
        "city": "Dalanzadgad",
        "state": "Ömnögovi",
        "postcode": null,
        "country": "Mongolia",
        "country_code": "mn"
      },
      "address": "937, Mandalgovi - Dalanzadgad, Dalanzadgad, Khan khongor, 16851 Ömnögovi, Mongolia"
    },
    {
      "lat": 43.57755292729116,
      "lon": 104.45313872843899,
      "geoinfo": {
        "display_name": "Mandalgovi - Dalanzadgad, Dalanzadgad, Khan khongor, Ömnögovi, Mongolia",
        "road": "Mandalgovi - Dalanzadgad",
        "house_number": null,
        "neighbourhood": null,
        "suburb": null,
        "city_district": null,
        "city": "Dalanzadgad",
        "state": "Ömnögovi",
        "postcode": null,
        "country": "Mongolia",
        "country_code": "mn"
      },
      "address": "438, Mandalgovi - Dalanzadgad, Dalanzadgad, Khan khongor, 36029 Ömnögovi, Mongolia"
    }
  ],
  "updated_at": "2025-10-19T08:17:04.903652+00:00",
  "_kind": "geo_samples"
}