{
  "country_code": "MN",
  "country": "Mongolia",
  "city": "Tsetserleg",
  "geonameid": 2028606,
  "target_addresses": 5,
  "samples": [
    {
      "lat": 47.44761153266705,
      "lon": 101.42325751985459,
      "geoinfo": {
        "display_name": "Khalzangiin tuv zam, Erdenebulgan, Arkhangai, 65000, Mongolia",
        "road": "Khalzangiin tuv zam",
        "house_number": null,
        "neighbourhood": null,
        "suburb": null,
        "city_district": null,
        "city": "Erdenebulgan",
        "state": "Arkhangai",
        "postcode": "65000",
        "country": "Mongolia",
        "country_code": "mn"
      },
      "address": "Khalzangiin tuv zam, Tsetserleg, Arkhangai, Mongolia"
    },
    {
      "lat": 47.49955758635979,
      "lon": 101.4461691005417,
      "geoinfo": {
        "display_name": "Erdenebulgan, Arkhangai, 65000, Mongolia",
        "road": null,
        "house_number": null,
        "neighbourhood": null,
        "suburb": null,
        "city_district": null,
        "city": "Erdenebulgan",
        "state": "Arkhangai",
        "postcode": "65000",
        "country": "Mongolia",
        "country_code": "mn"
      },
      "address": "Tsetserleg, Arkhangai, Mongolia"
    },
    {
      "lat": 47.49188510731345,
      "lon": 101.41705453948173,
      "geoinfo": {
        "display_name": "Ulaangom - Tsetserleg, Ikh-Tamir, Arkhangai, Mongolia",
        "road": "Ulaangom - Tsetserleg",
        "house_number": null,
        "neighbourhood": null,
        "suburb": null,
        "city_district": null,
        "city": null,
        "state": "Arkhangai",
        "postcode": null,
        "country": "Mongolia",
        "country_code": "mn"
      },
      "address": "Ulaangom - Tsetserleg, Tsetserleg, Arkhangai, Mongolia"
    },
    {
      "lat": 47.45623512342461,
      "lon": 101.47548308712285,
      "geoinfo": {
        "display_name": "Tsetserleg - Tsenkher Hot Spring, Erdenebulgan, Arkhangai, 65000, Mongolia",
        "road": "Tsetserleg - Tsenkher Hot Spring",
        "house_number": null,
        "neighbourhood": null,
        "suburb": null,
        "city_district": null,
        "city": "Erdenebulgan",
        "state": "Arkhangai",
        "postcode": "65000",
        "country": "Mongolia",
        "country_code": "mn"
      },
      "address": "Tsetserleg - Tsenkher Hot Spring, Tsetserleg, Arkhangai, Mongolia"
    },
    {
      "lat": 47.46322758234724,
      "lon": 101.47939927729657,
      "geoinfo": {
        "display_name": "tovchoo huuchin, засмал зам, Erdenebulgan, Arkhangai, 65000, Mongolia",
        "road": "засмал зам",
        "house_number": null,
        "neighbourhood": null,
        "suburb": null,
        "city_district": null,
        "city": "Erdenebulgan",
        "state": "Arkhangai",
        "postcode": "65000",
        "country": "Mongolia",
        "country_code": "mn"
      },
      "address": "засмал зам, Tsetserleg, Arkhangai, Mongolia"
    },
    {
      "lat": 47.45187562131485,
      "lon": 101.4838763420994,
      "geoinfo": {
        "display_name": "Erdenebulgan, Arkhangai, 65000, Mongolia",
        "road": null,
        "house_number": null,
        "neighbourhood": null,
        "suburb": null,
        "city_district": null,
        "city": "Erdenebulgan",
        "state": "Arkhangai",
        "postcode": "65000",
        "country": "Mongolia",
        "country_code": "mn"
      },
      "address": "188, Tsetserleg, 65000 Arkhangai, Mongolia"
    },
    {
      "lat": 47.47421265594865,
      "lon": 101.39706045100786,
      "geoinfo": {
        "display_name": "Ikh-Tamir, Arkhangai, Mongolia",
        "road": null,
        "house_number": null,
        "neighbourhood": null,
        "suburb": null,
        "city_district": null,
        "city": null,
        "state": "Arkhangai",
        "postcode": null,
        "country": "Mongolia",
        "country_code": "mn"
      },
      "address": "070, Tsetserleg, 56387 Arkhangai, Mongolia"
    },
    {
      "lat": 47.488701074787876,
      "lon": 101.43090992038496,
      "geoinfo": {
        "display_name": "Erdenebulgan, Ikh-Tamir, Arkhangai, 65000, Mongolia",
        "road": null,
        "house_number": null,
        "neighbourhood": null,
        "suburb": null,
        "city_district": null,
        "city": "Erdenebulgan",
        "state": "Arkhangai",
        "postcode": "65000",
        "country": "Mongolia",
        "country_code": "mn"
      },
      "address": "089, Tsetserleg, 65000 Arkhangai, Mongolia"
    },
    {
      "lat": 47.49949334286474,
      "lon": 101.46797842393188,
      "geoinfo": {
        "display_name": "Erdenebulgan, Arkhangai, 65000, Mongolia",
        "road": null,
        "house_number": null,
        "neighbourhood": null,
        "suburb": null,
        "city_district": null,
        "city": "Erdenebulgan",
        "state": "Arkhangai",
        "postcode": "65000",
        "country": "Mongolia",
        "country_code": "mn"
      },
      "address": "617, Tsetserleg, 65000 Arkhangai, Mongolia"
    },
    {
      "lat": 47.464863042093604,
      "lon": 101.41457761347883,
      "geoinfo": {
        "display_name": "Erdenebulgan, Ikh-Tamir, Arkhangai, Mongolia",
        "road": null,
        "house_number": null,
        "neighbourhood": null,
        "suburb": null,
        "city_district": null,
        "city": "Erdenebulgan",
        "state": "Arkhangai",
        "postcode": null,
        "country": "Mongolia",
        "country_code": "mn"
      },
      "address": "188, Tsetserleg, 10678 Arkhangai, Mongolia"
    }
  ],
  "updated_at": "2025-10-19T05:58:28.494461+00:00",
  "_kind": "geo_samples"
}