{
  "country_code": "MN",
  "country": "Mongolia",
  "city": "Ulan Bator",
  "geonameid": 2028462,
  "target_addresses": 5,
  "samples": [
    {
      "lat": 47.89943995627643,
      "lon": 106.91951031318908,
      "geoinfo": {
        "display_name": "Нийслэл хүрээ өргөн чөлөө, Khan-Uul, Ulaanbaatar, 17012, Mongolia",
        "road": "Нийслэл хүрээ өргөн чөлөө",
        "house_number": null,
        "neighbourhood": null,
        "suburb": null,
        "city_district": "Khan-Uul",
        "city": "Ulaanbaatar",
        "state": null,
        "postcode": "17012",
        "country": "Mongolia",
        "country_code": "mn"
      },
      "address": "264, Нийслэл хүрээ өргөн чөлөө, 17012 Ulan Bator, Mongolia"
    },
    {
      "lat": 47.89744671655297,
      "lon": 106.90713415663755,
      "geoinfo": {
        "display_name": "Bogd Khan Palace Museum, Zaisan Street, Khan-Uul, Ulaanbaatar, 17040, Mongolia",
        "road": "Zaisan Street",
        "house_number": null,
        "neighbourhood": null,
        "suburb": null,
        "city_district": "Khan-Uul",
        "city": "Ulaanbaatar",
        "state": null,
        "postcode": "17040",
        "country": "Mongolia",
        "country_code": "mn"
      },
      "address": "407, Zaisan Street, 17040 Ulan Bator, Mongolia"
    },
    {
      "lat": 47.88111960708315,
      "lon": 106.89206651716773,
      "geoinfo": {
        "display_name": "Zaisan, Khan-Uul, Ulaanbaatar, 17029, Mongolia",
        "road": null,
        "house_number": null,
        "neighbourhood": null,
        "suburb": "Zaisan",
        "city_district": "Khan-Uul",
        "city": "Ulaanbaatar",
        "state": null,
        "postcode": "17029",
        "country": "Mongolia",
        "country_code": "mn"
      },
      "address": "587, Zaisan, 17029 Ulan Bator, Mongolia"
    },
    {
      "lat": 47.87511457640261,
      "lon": 106.92933220013873,
      "geoinfo": {
        "display_name": "Zaisan, Khan-Uul, Ulaanbaatar, 17020, Mongolia",
        "road": null,
        "house_number": null,
        "neighbourhood": null,
        "suburb": "Zaisan",
        "city_district": "Khan-Uul",
        "city": "Ulaanbaatar",
        "state": null,
        "postcode": "17020",
        "country": "Mongolia",
        "country_code": "mn"
      },
      "address": "502, Zaisan, 17020 Ulan Bator, Mongolia"
    },
    {
      "lat": 47.937818393612794,
      "lon": 106.89457201841005,
      "geoinfo": {
        "display_name": "Chingeltei, Ulaanbaatar, 16063, Mongolia",
        "road": null,
        "house_number": null,
        "neighbourhood": null,
        "suburb": null,
        "city_district": "Chingeltei",
        "city": "Ulaanbaatar",
        "state": null,
        "postcode": "16063",
        "country": "Mongolia",
        "country_code": "mn"
      },
      "address": "300, Chingeltei, 16063 Ulan Bator, Mongolia"
    }
  ],
  "updated_at": "2025-10-19T05:16:13.129668+00:00",
  "_kind": "geo_samples"
}