{
  "country_code": "MN",
  "country": "Mongolia",
  "city": "Zuunmod",
  "geonameid": 7648817,
  "target_addresses": 5,
  "samples": [
    {
      "lat": 47.718319459494445,
      "lon": 106.93793378594802,
      "geoinfo": {
        "display_name": "Zuunmod, Töv, Mongolia",
        "road": null,
        "house_number": null,
        "neighbourhood": null,
        "suburb": null,
        "city_district": null,
        "city": "Zuunmod",
        "state": "Töv",
        "postcode": null,
        "country": "Mongolia",
        "country_code": "mn"
      },
      "address": "Zuunmod, Töv, Mongolia"
    },
    {
      "lat": 47.67867168608241,
      "lon": 106.93887235393095,
      "geoinfo": {
        "display_name": "Zuunmod to Airport, Zuunmod, Töv, Mongolia",
        "road": "Zuunmod to Airport",
        "house_number": null,
        "neighbourhood": null,
        "suburb": null,
        "city_district": null,
        "city": "Zuunmod",
        "state": "Töv",
        "postcode": null,
        "country": "Mongolia",
        "country_code": "mn"
      },
      "address": "Zuunmod to Airport, Zuunmod, Töv, Mongolia"
    },
    {
      "lat": 47.735732232512504,
      "lon": 106.90249267761114,
      "geoinfo": {
        "display_name": "Улаанбаатар - Зуунмод, Khan-Uul, Ulaanbaatar, Sergelen, Töv, Mongolia",
        "road": "Улаанбаатар - Зуунмод",
        "house_number": null,
        "neighbourhood": null,
        "suburb": null,
        "city_district": "Khan-Uul",
        "city": "Ulaanbaatar",
        "state": "Töv",
        "postcode": null,
        "country": "Mongolia",
        "country_code": "mn"
      },
      "address": "Улаанбаатар - Зуунмод, Zuunmod, Töv, Mongolia"
    },
    {
      "lat": 47.67064086636896,
      "lon": 106.94488888014504,
      "geoinfo": {
        "display_name": "Зуунмод - Ээж хад, Sergelen, Töv, Mongolia",
        "road": "Зуунмод - Ээж хад",
        "house_number": null,
        "neighbourhood": null,
        "suburb": null,
        "city_district": null,
        "city": "Sergelen",
        "state": "Töv",
        "postcode": null,
        "country": "Mongolia",
        "country_code": "mn"
      },
      "address": "Зуунмод - Ээж хад, Zuunmod, Töv, Mongolia"
    },
    {
      "lat": 47.69022628718025,
      "lon": 106.981262260659,
      "geoinfo": {
        "display_name": "Зуунмод - Налайх, Zuunmod, Sergelen, Töv, Mongolia",
        "road": "Зуунмод - Налайх",
        "house_number": null,
        "neighbourhood": null,
        "suburb": null,
        "city_district": null,
        "city": "Zuunmod",
        "state": "Töv",
        "postcode": null,
        "country": "Mongolia",
        "country_code": "mn"
      },
      "address": "Зуунмод - Налайх, Zuunmod, Töv, Mongolia"
    },
    {
      "lat": 47.71515136843894,
      "lon": 106.92961730084471,
      "geoinfo": {
        "display_name": "Улаанбаатар - Зуунмод, Zuunmod, Töv, Mongolia",
        "road": "Улаанбаатар - Зуунмод",
        "house_number": null,
        "neighbourhood": null,
        "suburb": null,
        "city_district": null,
        "city": null,
        "state": "Töv",
        "postcode": null,
        "country": "Mongolia",
        "country_code": "mn"
      },
      "address": "266, Улаанбаатар - Зуунмод, Zuunmod, 67951 Töv, Mongolia"
    }
  ],
  "updated_at": "2025-10-19T08:18:01.422857+00:00",
  "_kind": "geo_samples"
}