{
  "country_code": "IR",
  "country": "Iran",
  "city": "Khomeynī Shahr",
  "geonameid": 418710,
  "target_addresses": 3,
  "samples": [
    {
      "lat": 32.64921701016246,
      "lon": 51.529651189149796,
      "geoinfo": {
        "display_name": "نشاط, منطقه صنعتی کوکوچی, Ghale Amirieh, دهستان ماربین وسطی, بخش مرکزی شهرستان خمینی شهر, Khomeyni Shahr County, Isfahan Province, 84158-69453, Iran",
        "road": "نشاط",
        "house_number": null,
        "neighbourhood": "منطقه صنعتی کوکوچی",
        "suburb": null,
        "city_district": null,
        "city": "دهستان ماربین وسطی",
        "state": "Isfahan Province",
        "postcode": "84158-69453",
        "country": "Iran",
        "country_code": "ir"
      },
      "address": "نشاط, Khomeynī Shahr, Isfahan Province, Iran"
    },
    {
      "lat": 32.677153760913235,
      "lon": 51.53099579807036,
      "geoinfo": {
        "display_name": "مسجدملاحیدرعلی, Tohid, محله نو, فروشان, منطقه ۲, Khomeyni Shahr, بخش مرکزی شهرستان خمینی شهر, Khomeyni Shahr County, Isfahan Province, 84158-69453, Iran",
        "road": "Tohid",
        "house_number": null,
        "neighbourhood": "محله نو",
        "suburb": "منطقه ۲",
        "city_district": null,
        "city": "Khomeyni Shahr",
        "state": "Isfahan Province",
        "postcode": "84158-69453",
        "country": "Iran",
        "country_code": "ir"
      },
      "address": "مسجدملاحیدرعلی, Tohid, محله نو, فروشان, منطقه ۲, Khomeyni Shahr, بخش مرکزی شهرستان خمینی شهر, Khomeyni Shahr County, Isfahan Province, 84158-69453, Iran"
    },
    {
      "lat": 32.686252306013344,
      "lon": 51.54409138942025,
      "geoinfo": {
        "display_name": "خوزان, منطقه ۱, Khomeyni Shahr, بخش مرکزی شهرستان خمینی شهر, Khomeyni Shahr County, Isfahan Province, 84158-69453, Iran",
        "road": null,
        "house_number": null,
        "neighbourhood": null,
        "suburb": "منطقه ۱",
        "city_district": null,
        "city": "Khomeyni Shahr",
        "state": "Isfahan Province",
        "postcode": "84158-69453",
        "country": "Iran",
        "country_code": "ir"
      },
      "address": "خوزان, منطقه ۱, Khomeyni Shahr, بخش مرکزی شهرستان خمینی شهر, Khomeyni Shahr County, Isfahan Province, 84158-69453, Iran"
    }
  ],
  "updated_at": "2025-10-19T05:00:12.351868+00:00",
  "_kind": "geo_samples"
}