{
  "country_code": "IR",
  "country": "Iran",
  "city": "Konārak",
  "geonameid": 1160500,
  "target_addresses": 3,
  "samples": [
    {
      "lat": 25.326852502079284,
      "lon": 60.41339759666835,
      "geoinfo": {
        "display_name": "شهرک نیروی دریایی کنارک, دهستان جهلیان, بخش مرکزی شهرستان کنارک, Konarak County, Sistan and Baluchestan Province, Iran",
        "road": null,
        "house_number": null,
        "neighbourhood": null,
        "suburb": null,
        "city_district": null,
        "city": "دهستان جهلیان",
        "state": "Sistan and Baluchestan Province",
        "postcode": null,
        "country": "Iran",
        "country_code": "ir"
      },
      "address": "Konārak, Sistan and Baluchestan Province, Iran"
    },
    {
      "lat": 25.350806192396735,
      "lon": 60.38692696591262,
      "geoinfo": {
        "display_name": "شهرک نیروی دریایی کنارک, دهستان جهلیان, بخش مرکزی شهرستان کنارک, Konarak County, Sistan and Baluchestan Province, Iran",
        "road": null,
        "house_number": null,
        "neighbourhood": null,
        "suburb": null,
        "city_district": null,
        "city": "دهستان جهلیان",
        "state": "Sistan and Baluchestan Province",
        "postcode": null,
        "country": "Iran",
        "country_code": "ir"
      },
      "address": "351, شهرک نیروی دریایی کنارک, دهستان جهلیان, بخش مرکزی شهرستان کنارک, Konarak County, 94395 Sistan and Baluchestan Province, Iran"
    },
    {
      "lat": 25.374230990166417,
      "lon": 60.381381148455745,
      "geoinfo": {
        "display_name": "Machan, دهستان جهلیان, بخش مرکزی شهرستان کنارک, Konarak County, Sistan and Baluchestan Province, Iran",
        "road": null,
        "house_number": null,
        "neighbourhood": null,
        "suburb": null,
        "city_district": null,
        "city": "دهستان جهلیان",
        "state": "Sistan and Baluchestan Province",
        "postcode": null,
        "country": "Iran",
        "country_code": "ir"
      },
      "address": "806, Machan, دهستان جهلیان, بخش مرکزی شهرستان کنارک, Konarak County, 34384 Sistan and Baluchestan Province, Iran"
    }
  ],
  "updated_at": "2025-10-19T05:00:28.477443+00:00",
  "_kind": "geo_samples"
}