{
  "country_code": "IR",
  "country": "Iran",
  "city": "Shahrīār",
  "geonameid": 143860,
  "target_addresses": 3,
  "samples": [
    {
      "lat": 35.67286059840138,
      "lon": 51.08247185327433,
      "geoinfo": {
        "display_name": "امام خمینی, قلعه بالا بهار, Maviz RD, Shahriar Central District, Shahriar County, Tehran Province, 33518-33895, Iran",
        "road": "امام خمینی",
        "house_number": null,
        "neighbourhood": null,
        "suburb": null,
        "city_district": null,
        "city": "Maviz RD",
        "state": "Tehran Province",
        "postcode": "33518-33895",
        "country": "Iran",
        "country_code": "ir"
      },
      "address": "امام خمینی, Shahrīār, Tehran Province, Iran"
    },
    {
      "lat": 35.65208495948867,
      "lon": 51.04761400606583,
      "geoinfo": {
        "display_name": "کیومرثیه, علی آباد چهارلنگ, Shahriar Central District, Shahriar County, Tehran Province, 33519-13594, Iran",
        "road": null,
        "house_number": null,
        "neighbourhood": null,
        "suburb": "کیومرثیه",
        "city_district": null,
        "city": "علی آباد چهارلنگ",
        "state": "Tehran Province",
        "postcode": "33519-13594",
        "country": "Iran",
        "country_code": "ir"
      },
      "address": "351, کیومرثیه, Shahrīār, 33519-13594 Tehran Province, Iran"
    },
    {
      "lat": 35.68535154296725,
      "lon": 51.03724944970393,
      "geoinfo": {
        "display_name": "۱۲ متری لادن, شهرک صدف, Shahriyar, Shahriar Central District, Shahriar County, Tehran Province, 33546-81560, Iran",
        "road": "۱۲ متری لادن",
        "house_number": null,
        "neighbourhood": "شهرک صدف",
        "suburb": null,
        "city_district": null,
        "city": "Shahriyar",
        "state": "Tehran Province",
        "postcode": "33546-81560",
        "country": "Iran",
        "country_code": "ir"
      },
      "address": "۱۲ متری لادن, شهرک صدف, Shahriyar, Shahriar Central District, Shahriar County, Tehran Province, 33546-81560, Iran"
    }
  ],
  "updated_at": "2025-10-19T05:00:08.399019+00:00",
  "_kind": "geo_samples"
}