{
  "country_code": "SO",
  "country": "Somalia",
  "city": "Baardheere",
  "geonameid": 65170,
  "target_addresses": 9,
  "samples": [
    {
      "lat": 2.330530360543408,
      "lon": 42.25308327838241,
      "geoinfo": {
        "display_name": "Buulo Caddey, Baardheere بااردىرآ, Gedo, Jubaland, Somalia",
        "road": null,
        "house_number": null,
        "neighbourhood": null,
        "suburb": null,
        "city_district": null,
        "city": "Buulo Caddey",
        "state": "Gedo",
        "postcode": null,
        "country": "Somalia",
        "country_code": "so"
      },
      "address": "Baardheere, Gedo, Somalia"
    },
    {
      "lat": 2.3153049605421865,
      "lon": 42.288957832084584,
      "geoinfo": {
        "display_name": "Baardheere - Saakow Highway, Hawl Wadaag, Bardera, Baardheere بااردىرآ, Gedo, Jubaland, Somalia",
        "road": "Baardheere - Saakow Highway",
        "house_number": null,
        "neighbourhood": null,
        "suburb": "Hawl Wadaag",
        "city_district": null,
        "city": "Bardera",
        "state": "Gedo",
        "postcode": null,
        "country": "Somalia",
        "country_code": "so"
      },
      "address": "Baardheere - Saakow Highway, Baardheere, Gedo, Somalia"
    },
    {
      "lat": 2.3651997128221476,
      "lon": 42.304315546176426,
      "geoinfo": {
        "display_name": "Buulo Kurmaan, Bay Gaal, Baardheere بااردىرآ, Gedo, Jubaland, Somalia",
        "road": null,
        "house_number": null,
        "neighbourhood": null,
        "suburb": "Buulo Kurmaan",
        "city_district": null,
        "city": "Bay Gaal",
        "state": "Gedo",
        "postcode": null,
        "country": "Somalia",
        "country_code": "so"
      },
      "address": "Buulo Kurmaan, Baardheere, Gedo, Somalia"
    },
    {
      "lat": 2.325213495566317,
      "lon": 42.23641878575248,
      "geoinfo": {
        "display_name": "Jafey, Baardheere بااردىرآ, Gedo, Jubaland, Somalia",
        "road": null,
        "house_number": null,
        "neighbourhood": null,
        "suburb": null,
        "city_district": null,
        "city": "Jafey",
        "state": "Gedo",
        "postcode": null,
        "country": "Somalia",
        "country_code": "so"
      },
      "address": "823, Jafey, Baardheere بااردىرآ, Gedo, 78177 Jubaland, Somalia"
    },
    {
      "lat": 2.323472678661414,
      "lon": 42.25110980437396,
      "geoinfo": {
        "display_name": "Hawl Wadaag, Buulo Garas, Baardheere بااردىرآ, Gedo, Jubaland, Somalia",
        "road": null,
        "house_number": null,
        "neighbourhood": null,
        "suburb": "Hawl Wadaag",
        "city_district": null,
        "city": "Buulo Garas",
        "state": "Gedo",
        "postcode": null,
        "country": "Somalia",
        "country_code": "so"
      },
      "address": "519, Hawl Wadaag, Buulo Garas, Baardheere بااردىرآ, Gedo, 93752 Jubaland, Somalia"
    },
    {
      "lat": 2.354586512598607,
      "lon": 42.28862427377187,
      "geoinfo": {
        "display_name": "Kaskey, Bardera, Baardheere بااردىرآ, Gedo, Jubaland, Somalia",
        "road": null,
        "house_number": null,
        "neighbourhood": null,
        "suburb": "Kaskey",
        "city_district": null,
        "city": "Bardera",
        "state": "Gedo",
        "postcode": null,
        "country": "Somalia",
        "country_code": "so"
      },
      "address": "357, Kaskey, Bardera, Baardheere بااردىرآ, Gedo, 40962 Jubaland, Somalia"
    },
    {
      "lat": 2.323426287820082,
      "lon": 42.316033089875425,
      "geoinfo": {
        "display_name": "Baardheere - Saakow Highway, Hawl Wadaag, Bardera, Baardheere بااردىرآ, Gedo, Jubaland, Somalia",
        "road": "Baardheere - Saakow Highway",
        "house_number": null,
        "neighbourhood": null,
        "suburb": "Hawl Wadaag",
        "city_district": null,
        "city": "Bardera",
        "state": "Gedo",
        "postcode": null,
        "country": "Somalia",
        "country_code": "so"
      },
      "address": "607, Baardheere - Saakow Highway, Hawl Wadaag, Bardera, Baardheere بااردىرآ, Gedo, 63498 Jubaland, Somalia"
    },
    {
      "lat": 2.346425662820835,
      "lon": 42.26158622049119,
      "geoinfo": {
        "display_name": "Hawl Wadaag, Buulo Leysaan, Baardheere بااردىرآ, Gedo, Jubaland, Somalia",
        "road": null,
        "house_number": null,
        "neighbourhood": null,
        "suburb": "Hawl Wadaag",
        "city_district": null,
        "city": "Buulo Leysaan",
        "state": "Gedo",
        "postcode": null,
        "country": "Somalia",
        "country_code": "so"
      },
      "address": "814, Hawl Wadaag, Baardheere, 59090 Gedo, Somalia"
    },
    {
      "lat": 2.3255353243078223,
      "lon": 42.29174557951846,
      "geoinfo": {
        "display_name": "Baardheere - Saakow Highway, Hawl Wadaag, Bardera, Baardheere بااردىرآ, Gedo, Jubaland, Somalia",
        "road": "Baardheere - Saakow Highway",
        "house_number": null,
        "neighbourhood": null,
        "suburb": "Hawl Wadaag",
        "city_district": null,
        "city": "Bardera",
        "state": "Gedo",
        "postcode": null,
        "country": "Somalia",
        "country_code": "so"
      },
      "address": "990, Baardheere - Saakow Highway, Hawl Wadaag, Bardera, Baardheere بااردىرآ, Gedo, 47252 Jubaland, Somalia"
    }
  ],
  "updated_at": "2025-10-19T06:23:28.725461+00:00",
  "_kind": "geo_samples"
}