{
  "country_code": "SO",
  "country": "Somalia",
  "city": "Balanbale",
  "geonameid": 342803,
  "target_addresses": 3,
  "samples": [
    {
      "lat": 5.735946426721351,
      "lon": 45.743695961326466,
      "geoinfo": {
        "display_name": "Balanbale بالانبالي, Abudwak District, Galgaduud, Galmudug, Somalia",
        "road": null,
        "house_number": null,
        "neighbourhood": null,
        "suburb": null,
        "city_district": null,
        "city": "Balanbale بالانبالي",
        "state": "Galgaduud",
        "postcode": null,
        "country": "Somalia",
        "country_code": "so"
      },
      "address": "Balanbale, Galgaduud, Somalia"
    },
    {
      "lat": 5.772839380216785,
      "lon": 45.77579825249102,
      "geoinfo": {
        "display_name": "Waberi, Balanbale بالانبالي, Abudwak District, Galgaduud, Galmudug, Somalia",
        "road": null,
        "house_number": null,
        "neighbourhood": "Waberi",
        "suburb": null,
        "city_district": null,
        "city": "Balanbale بالانبالي",
        "state": "Galgaduud",
        "postcode": null,
        "country": "Somalia",
        "country_code": "so"
      },
      "address": "Waberi, Balanbale, Galgaduud, Somalia"
    },
    {
      "lat": 5.772212057440372,
      "lon": 45.75934201121741,
      "geoinfo": {
        "display_name": "Canjiidle Street, Waberi, Balanbale بالانبالي, Abudwak District, Galgaduud, Galmudug, Somalia",
        "road": "Canjiidle Street",
        "house_number": null,
        "neighbourhood": "Waberi",
        "suburb": null,
        "city_district": null,
        "city": "Balanbale بالانبالي",
        "state": "Galgaduud",
        "postcode": null,
        "country": "Somalia",
        "country_code": "so"
      },
      "address": "Canjiidle Street, Balanbale, Galgaduud, Somalia"
    },
    {
      "lat": 5.753981450095206,
      "lon": 45.78099633646676,
      "geoinfo": {
        "display_name": "Au Dini, Balanbale بالانبالي, Abudwak District, Galgaduud, Galmudug, Somalia",
        "road": null,
        "house_number": null,
        "neighbourhood": null,
        "suburb": null,
        "city_district": null,
        "city": "Balanbale بالانبالي",
        "state": "Galgaduud",
        "postcode": null,
        "country": "Somalia",
        "country_code": "so"
      },
      "address": "320, Au Dini, Balanbale بالانبالي, Abudwak District, Galgaduud, 27997 Galmudug, Somalia"
    },
    {
      "lat": 5.780990212541535,
      "lon": 45.76099805351878,
      "geoinfo": {
        "display_name": "Buulo 1, Balanbale بالانبالي, Abudwak District, Galgaduud, Galmudug, Somalia",
        "road": null,
        "house_number": null,
        "neighbourhood": null,
        "suburb": null,
        "city_district": null,
        "city": "Balanbale بالانبالي",
        "state": "Galgaduud",
        "postcode": null,
        "country": "Somalia",
        "country_code": "so"
      },
      "address": "Buulo 1, Balanbale بالانبالي, Abudwak District, Galgaduud, 67966 Galmudug, Somalia"
    },
    {
      "lat": 5.773478244753079,
      "lon": 45.79494394427466,
      "geoinfo": {
        "display_name": "Labile, Abudwak District, Galgaduud, Galmudug, Somalia",
        "road": null,
        "house_number": null,
        "neighbourhood": null,
        "suburb": null,
        "city_district": null,
        "city": "Labile",
        "state": "Galgaduud",
        "postcode": null,
        "country": "Somalia",
        "country_code": "so"
      },
      "address": "635, Balanbale, 80829 Galgaduud, Somalia"
    }
  ],
  "updated_at": "2025-10-19T04:51:14.113935+00:00",
  "_kind": "geo_samples"
}