{
  "country_code": "SO",
  "country": "Somalia",
  "city": "Beled Hawo",
  "geonameid": 12212406,
  "target_addresses": 3,
  "samples": [
    {
      "lat": 3.936994899448173,
      "lon": 41.90731983721241,
      "geoinfo": {
        "display_name": "Garowo, Dolow District, Gedo, Jubaland, Somalia",
        "road": null,
        "house_number": null,
        "neighbourhood": null,
        "suburb": null,
        "city_district": null,
        "city": "Garowo",
        "state": "Gedo",
        "postcode": null,
        "country": "Somalia",
        "country_code": "so"
      },
      "address": "Beled Hawo, Gedo, Somalia"
    },
    {
      "lat": 3.919179772929671,
      "lon": 41.88474848099099,
      "geoinfo": {
        "display_name": "Hananley, Beled Hawa بولاهاوا, Dolow District, Gedo, Jubaland, Somalia",
        "road": null,
        "house_number": null,
        "neighbourhood": null,
        "suburb": "Hananley",
        "city_district": null,
        "city": "Beled Hawa بولاهاوا",
        "state": "Gedo",
        "postcode": null,
        "country": "Somalia",
        "country_code": "so"
      },
      "address": "Hananley, Beled Hawo, Gedo, Somalia"
    },
    {
      "lat": 3.9112127774064462,
      "lon": 41.887954546997506,
      "geoinfo": {
        "display_name": "Booc Booc, Tulo Jibril, Dolow District, Gedo, Jubaland, Somalia",
        "road": null,
        "house_number": null,
        "neighbourhood": null,
        "suburb": "Booc Booc",
        "city_district": null,
        "city": "Tulo Jibril",
        "state": "Gedo",
        "postcode": null,
        "country": "Somalia",
        "country_code": "so"
      },
      "address": "Booc Booc, Beled Hawo, Gedo, Somalia"
    },
    {
      "lat": 3.942610475417205,
      "lon": 41.90285223584687,
      "geoinfo": {
        "display_name": "Beled Hawa بولاهاوا, Dolow District, Gedo, Jubaland, Somalia",
        "road": null,
        "house_number": null,
        "neighbourhood": null,
        "suburb": null,
        "city_district": null,
        "city": "Beled Hawa بولاهاوا",
        "state": "Gedo",
        "postcode": null,
        "country": "Somalia",
        "country_code": "so"
      },
      "address": "573, Beled Hawa بولاهاوا, Dolow District, Gedo, 46693 Jubaland, Somalia"
    },
    {
      "lat": 3.915361017278422,
      "lon": 41.90591185302575,
      "geoinfo": {
        "display_name": "Ilagaar, Dolow District, Gedo, Jubaland, Somalia",
        "road": null,
        "house_number": null,
        "neighbourhood": null,
        "suburb": null,
        "city_district": null,
        "city": "Ilagaar",
        "state": "Gedo",
        "postcode": null,
        "country": "Somalia",
        "country_code": "so"
      },
      "address": "235, Beled Hawo, 70966 Gedo, Somalia"
    },
    {
      "lat": 3.923249407332777,
      "lon": 41.90794155756593,
      "geoinfo": {
        "display_name": "Ilagaar, Dolow District, Gedo, Jubaland, Somalia",
        "road": null,
        "house_number": null,
        "neighbourhood": null,
        "suburb": null,
        "city_district": null,
        "city": "Ilagaar",
        "state": "Gedo",
        "postcode": null,
        "country": "Somalia",
        "country_code": "so"
      },
      "address": "154, Beled Hawo, 43161 Gedo, Somalia"
    }
  ],
  "updated_at": "2025-10-19T07:02:33.331535+00:00",
  "_kind": "geo_samples"
}