{
  "country_code": "SO",
  "country": "Somalia",
  "city": "Beledweyne",
  "geonameid": 64460,
  "target_addresses": 9,
  "samples": [
    {
      "lat": 4.760654009013131,
      "lon": 45.23026922566308,
      "geoinfo": {
        "display_name": "Beledweyne, Beledweyne District, Hiiraan, Hirshabelle, Somalia",
        "road": null,
        "house_number": null,
        "neighbourhood": null,
        "suburb": null,
        "city_district": null,
        "city": "Beledweyne",
        "state": "Hiiraan",
        "postcode": null,
        "country": "Somalia",
        "country_code": "so"
      },
      "address": "Beledweyne, Hiiraan, Somalia"
    },
    {
      "lat": 4.766734222091849,
      "lon": 45.21497903256228,
      "geoinfo": {
        "display_name": "Beledweyne - Bacad Highway, Hilo Kelyo, Beledweyne, Beledweyne District, Hiiraan, Hirshabelle, Somalia",
        "road": "Beledweyne - Bacad Highway",
        "house_number": null,
        "neighbourhood": null,
        "suburb": null,
        "city_district": null,
        "city": "Beledweyne",
        "state": "Hiiraan",
        "postcode": null,
        "country": "Somalia",
        "country_code": "so"
      },
      "address": "Beledweyne - Bacad Highway, Beledweyne, Hiiraan, Somalia"
    },
    {
      "lat": 4.757305843765914,
      "lon": 45.19623662337394,
      "geoinfo": {
        "display_name": "Billisdiid, Beledweyne, Beledweyne District, Hiiraan, Hirshabelle, Somalia",
        "road": null,
        "house_number": null,
        "neighbourhood": null,
        "suburb": "Billisdiid",
        "city_district": null,
        "city": "Beledweyne",
        "state": "Hiiraan",
        "postcode": null,
        "country": "Somalia",
        "country_code": "so"
      },
      "address": "Billisdiid, Beledweyne, Hiiraan, Somalia"
    },
    {
      "lat": 4.714025241244535,
      "lon": 45.18057388505671,
      "geoinfo": {
        "display_name": "Lap Dere, Burjada-Ciinta, Beledweyne, Beledweyne District, Hiiraan, Hirshabelle, Somalia",
        "road": null,
        "house_number": null,
        "neighbourhood": null,
        "suburb": null,
        "city_district": null,
        "city": "Beledweyne",
        "state": "Hiiraan",
        "postcode": null,
        "country": "Somalia",
        "country_code": "so"
      },
      "address": "469, Lap Dere, Burjada-Ciinta, Beledweyne, Beledweyne District, Hiiraan, 52698 Hirshabelle, Somalia"
    },
    {
      "lat": 4.711488261792096,
      "lon": 45.17388917992154,
      "geoinfo": {
        "display_name": "Lap Dere, Burjada-Ciinta, Beledweyne, Beledweyne District, Hiiraan, Hirshabelle, Somalia",
        "road": null,
        "house_number": null,
        "neighbourhood": null,
        "suburb": null,
        "city_district": null,
        "city": "Beledweyne",
        "state": "Hiiraan",
        "postcode": null,
        "country": "Somalia",
        "country_code": "so"
      },
      "address": "655, Lap Dere, Burjada-Ciinta, Beledweyne, Beledweyne District, Hiiraan, 51019 Hirshabelle, Somalia"
    },
    {
      "lat": 4.7170200872209636,
      "lon": 45.168971805624814,
      "geoinfo": {
        "display_name": "Belet Weyne - Tayeeglow Road, Doonsubagle, Buq Koosaar, Beledweyne District, Hiiraan, Hirshabelle, Somalia",
        "road": "Belet Weyne - Tayeeglow Road",
        "house_number": null,
        "neighbourhood": null,
        "suburb": "Doonsubagle",
        "city_district": null,
        "city": "Buq Koosaar",
        "state": "Hiiraan",
        "postcode": null,
        "country": "Somalia",
        "country_code": "so"
      },
      "address": "184, Belet Weyne - Tayeeglow Road, Doonsubagle, Buq Koosaar, Beledweyne District, Hiiraan, 67147 Hirshabelle, Somalia"
    },
    {
      "lat": 4.735888425296271,
      "lon": 45.20293294218783,
      "geoinfo": {
        "display_name": "Nationlink, Liiqliiqato Bridge (West), Heegan, Beledweyne, Beledweyne District, Hiiraan, Hirshabelle, Somalia",
        "road": "Liiqliiqato Bridge (West)",
        "house_number": null,
        "neighbourhood": null,
        "suburb": "Heegan",
        "city_district": null,
        "city": "Beledweyne",
        "state": "Hiiraan",
        "postcode": null,
        "country": "Somalia",
        "country_code": "so"
      },
      "address": "036, Liiqliiqato Bridge (West), Beledweyne, 62676 Hiiraan, Somalia"
    },
    {
      "lat": 4.764703098742203,
      "lon": 45.196296823263005,
      "geoinfo": {
        "display_name": "Billisdiid, Beledweyne, Beledweyne District, Hiiraan, Hirshabelle, Somalia",
        "road": null,
        "house_number": null,
        "neighbourhood": null,
        "suburb": "Billisdiid",
        "city_district": null,
        "city": "Beledweyne",
        "state": "Hiiraan",
        "postcode": null,
        "country": "Somalia",
        "country_code": "so"
      },
      "address": "713, Billisdiid, Beledweyne, Beledweyne District, Hiiraan, 91127 Hirshabelle, Somalia"
    },
    {
      "lat": 4.742795161918109,
      "lon": 45.22817071512523,
      "geoinfo": {
        "display_name": "Beledweyne, Beledweyne District, Hiiraan, Hirshabelle, Somalia",
        "road": null,
        "house_number": null,
        "neighbourhood": null,
        "suburb": null,
        "city_district": null,
        "city": "Beledweyne",
        "state": "Hiiraan",
        "postcode": null,
        "country": "Somalia",
        "country_code": "so"
      },
      "address": "753, Beledweyne, Beledweyne District, Hiiraan, 09548 Hirshabelle, Somalia"
    }
  ],
  "updated_at": "2025-10-19T06:23:26.494651+00:00",
  "_kind": "geo_samples"
}