{
  "country_code": "SO",
  "country": "Somalia",
  "city": "Berbera",
  "geonameid": 64435,
  "target_addresses": 3,
  "samples": [
    {
      "lat": 10.397755914245366,
      "lon": 45.00184790522401,
      "geoinfo": {
        "display_name": "Berbera, Sahil, Somaliland, Somalia",
        "road": null,
        "house_number": null,
        "neighbourhood": null,
        "suburb": null,
        "city_district": null,
        "city": "Berbera",
        "state": "Sahil",
        "postcode": null,
        "country": "Somaliland",
        "country_code": "so"
      },
      "address": "Berbera, Sahil, Somalia"
    },
    {
      "lat": 10.440442702202716,
      "lon": 45.03557613353807,
      "geoinfo": {
        "display_name": "Berbera - Ceel Afweyn Road, Berbera بربرة, Jaama Laye, Berbera, Sahil, Somaliland, Somalia",
        "road": "Berbera - Ceel Afweyn Road",
        "house_number": null,
        "neighbourhood": null,
        "suburb": "Jaama Laye",
        "city_district": null,
        "city": "Berbera",
        "state": "Sahil",
        "postcode": null,
        "country": "Somaliland",
        "country_code": "so"
      },
      "address": "Berbera - Ceel Afweyn Road, Berbera, Sahil, Somalia"
    },
    {
      "lat": 10.42945237920218,
      "lon": 44.99002259409916,
      "geoinfo": {
        "display_name": "DP World Berbera New Port, Burao Sheekh برعو شيخ, Berbera, Sahil, Somaliland, Somalia",
        "road": null,
        "house_number": null,
        "neighbourhood": null,
        "suburb": "Burao Sheekh برعو شيخ",
        "city_district": null,
        "city": "Berbera",
        "state": "Sahil",
        "postcode": null,
        "country": "Somaliland",
        "country_code": "so"
      },
      "address": "Burao Sheekh برعو شيخ, Berbera, Sahil, Somalia"
    },
    {
      "lat": 10.418311093998026,
      "lon": 45.04902378930776,
      "geoinfo": {
        "display_name": "Jaama Laye, Berbera, Sahil, Somaliland, Somalia",
        "road": null,
        "house_number": null,
        "neighbourhood": null,
        "suburb": "Jaama Laye",
        "city_district": null,
        "city": "Berbera",
        "state": "Sahil",
        "postcode": null,
        "country": "Somaliland",
        "country_code": "so"
      },
      "address": "886, Jaama Laye, Berbera, Sahil, 32404 Somaliland, Somalia"
    },
    {
      "lat": 10.452448238168822,
      "lon": 45.041968980040956,
      "geoinfo": {
        "display_name": "Berbera بربرة, Daarole, Ceel Garde, Berbera, Sahil, Somaliland, Somalia",
        "road": null,
        "house_number": null,
        "neighbourhood": null,
        "suburb": "Daarole",
        "city_district": null,
        "city": "Ceel Garde",
        "state": "Sahil",
        "postcode": null,
        "country": "Somaliland",
        "country_code": "so"
      },
      "address": "413, Daarole, Berbera, 64998 Sahil, Somalia"
    },
    {
      "lat": 10.431279042775246,
      "lon": 45.04921970535158,
      "geoinfo": {
        "display_name": "Jaama Laye, Berbera, Sahil, Somaliland, Somalia",
        "road": null,
        "house_number": null,
        "neighbourhood": null,
        "suburb": "Jaama Laye",
        "city_district": null,
        "city": "Berbera",
        "state": "Sahil",
        "postcode": null,
        "country": "Somaliland",
        "country_code": "so"
      },
      "address": "013, Jaama Laye, Berbera, Sahil, 33200 Somaliland, Somalia"
    }
  ],
  "updated_at": "2025-10-19T07:04:32.442152+00:00",
  "_kind": "geo_samples"
}