{
  "country_code": "SO",
  "country": "Somalia",
  "city": "Luuq",
  "geonameid": 54715,
  "target_addresses": 3,
  "samples": [
    {
      "lat": 3.8061334862151526,
      "lon": 42.58556684056397,
      "geoinfo": {
        "display_name": "Tuula Qaajeer, Luuq District, Gedo, Jubaland, Somalia",
        "road": null,
        "house_number": null,
        "neighbourhood": null,
        "suburb": null,
        "city_district": null,
        "city": "Tuula Qaajeer",
        "state": "Gedo",
        "postcode": null,
        "country": "Somalia",
        "country_code": "so"
      },
      "address": "Luuq, Gedo, Somalia"
    },
    {
      "lat": 3.802599738098128,
      "lon": 42.508462291122186,
      "geoinfo": {
        "display_name": "Luuq - Dolow Highway, Garas Duleele, Luuq لوق, Luuq District, Gedo, Jubaland, Somalia",
        "road": "Luuq - Dolow Highway",
        "house_number": null,
        "neighbourhood": null,
        "suburb": null,
        "city_district": null,
        "city": "Luuq لوق",
        "state": "Gedo",
        "postcode": null,
        "country": "Somalia",
        "country_code": "so"
      },
      "address": "Luuq - Dolow Highway, Luuq, Gedo, Somalia"
    },
    {
      "lat": 3.7981843948786143,
      "lon": 42.56197617454912,
      "geoinfo": {
        "display_name": "Hillaac, Luuq لوق, Luuq District, Gedo, Jubaland, Somalia",
        "road": null,
        "house_number": null,
        "neighbourhood": null,
        "suburb": "Hillaac",
        "city_district": null,
        "city": "Luuq لوق",
        "state": "Gedo",
        "postcode": null,
        "country": "Somalia",
        "country_code": "so"
      },
      "address": "Hillaac, Luuq, Gedo, Somalia"
    },
    {
      "lat": 3.7670466664231577,
      "lon": 42.55009207355855,
      "geoinfo": {
        "display_name": "Ban Munduli, Luuq District, Gedo, Jubaland, Somalia",
        "road": null,
        "house_number": null,
        "neighbourhood": null,
        "suburb": null,
        "city_district": null,
        "city": "Ban Munduli",
        "state": "Gedo",
        "postcode": null,
        "country": "Somalia",
        "country_code": "so"
      },
      "address": "069, Ban Munduli, Luuq District, Gedo, 69888 Jubaland, Somalia"
    },
    {
      "lat": 3.8152426086924334,
      "lon": 42.55577748646691,
      "geoinfo": {
        "display_name": "Luuq لوق, Luuq District, Gedo, Jubaland, Somalia",
        "road": null,
        "house_number": null,
        "neighbourhood": null,
        "suburb": null,
        "city_district": null,
        "city": "Luuq لوق",
        "state": "Gedo",
        "postcode": null,
        "country": "Somalia",
        "country_code": "so"
      },
      "address": "175, Luuq لوق, Luuq District, Gedo, 05822 Jubaland, Somalia"
    },
    {
      "lat": 3.7661685165374372,
      "lon": 42.54813921062728,
      "geoinfo": {
        "display_name": "Ban Munduli, Luuq District, Gedo, Jubaland, Somalia",
        "road": null,
        "house_number": null,
        "neighbourhood": null,
        "suburb": null,
        "city_district": null,
        "city": "Ban Munduli",
        "state": "Gedo",
        "postcode": null,
        "country": "Somalia",
        "country_code": "so"
      },
      "address": "868, Ban Munduli, Luuq District, Gedo, 07981 Jubaland, Somalia"
    }
  ],
  "updated_at": "2025-10-19T07:03:58.237426+00:00",
  "_kind": "geo_samples"
}