{
  "country_code": "SO",
  "country": "Somalia",
  "city": "Mogadishu",
  "geonameid": 53654,
  "target_addresses": 3,
  "samples": [
    {
      "lat": 2.047576527538687,
      "lon": 45.36994186543651,
      "geoinfo": {
        "display_name": "Nageyle Neighborhood, Karan District, Mogadishu, Banaadir, Somalia",
        "road": null,
        "house_number": null,
        "neighbourhood": "Nageyle Neighborhood",
        "suburb": "Karan District",
        "city_district": null,
        "city": "Mogadishu",
        "state": "Banaadir",
        "postcode": null,
        "country": "Somalia",
        "country_code": "so"
      },
      "address": "Nageyle Neighborhood, Mogadishu, Banaadir, Somalia"
    },
    {
      "lat": 2.0049905989246257,
      "lon": 45.348410559815456,
      "geoinfo": {
        "display_name": "Raas Sif, Waberi District, Mogadishu, Banaadir, BN 09010, Somalia",
        "road": null,
        "house_number": null,
        "neighbourhood": null,
        "suburb": "Raas Sif",
        "city_district": null,
        "city": "Mogadishu",
        "state": "Banaadir",
        "postcode": "BN 09010",
        "country": "Somalia",
        "country_code": "so"
      },
      "address": "Raas Sif, Mogadishu, Banaadir, Somalia"
    },
    {
      "lat": 2.030518472749591,
      "lon": 45.35006579341466,
      "geoinfo": {
        "display_name": "Via Brava شارع برافا, Shangani District, Mogadishu, Banaadir, BN 09010, Somalia",
        "road": "Via Brava شارع برافا",
        "house_number": null,
        "neighbourhood": null,
        "suburb": "Shangani District",
        "city_district": null,
        "city": "Mogadishu",
        "state": "Banaadir",
        "postcode": "BN 09010",
        "country": "Somalia",
        "country_code": "so"
      },
      "address": "Via Brava شارع برافا, Mogadishu, Banaadir, Somalia"
    },
    {
      "lat": 2.041724745139845,
      "lon": 45.35450580214152,
      "geoinfo": {
        "display_name": "Via Af Madow أف مادو, Abdiaziz District, Mogadishu, Banaadir, Somalia",
        "road": "Via Af Madow أف مادو",
        "house_number": null,
        "neighbourhood": null,
        "suburb": "Abdiaziz District",
        "city_district": null,
        "city": "Mogadishu",
        "state": "Banaadir",
        "postcode": null,
        "country": "Somalia",
        "country_code": "so"
      },
      "address": "631, Via Af Madow أف مادو, Abdiaziz District, Mogadishu, 12035 Banaadir, Somalia"
    },
    {
      "lat": 2.054001664997129,
      "lon": 45.336119415774036,
      "geoinfo": {
        "display_name": "Wardhigley District, Mogadishu, Banaadir, BN 09010, Somalia",
        "road": null,
        "house_number": null,
        "neighbourhood": null,
        "suburb": "Wardhigley District",
        "city_district": null,
        "city": "Mogadishu",
        "state": "Banaadir",
        "postcode": "BN 09010",
        "country": "Somalia",
        "country_code": "so"
      },
      "address": "453, Wardhigley District, Mogadishu, Banaadir, BN 09010, Somalia"
    },
    {
      "lat": 2.0132429819459783,
      "lon": 45.31778378722466,
      "geoinfo": {
        "display_name": "Raas Sif, Waberi District, Mogadishu, Banaadir, BN 09010, Somalia",
        "road": null,
        "house_number": null,
        "neighbourhood": null,
        "suburb": "Raas Sif",
        "city_district": null,
        "city": "Mogadishu",
        "state": "Banaadir",
        "postcode": "BN 09010",
        "country": "Somalia",
        "country_code": "so"
      },
      "address": "590, Raas Sif, Waberi District, Mogadishu, Banaadir, BN 09010, Somalia"
    }
  ],
  "updated_at": "2025-10-19T05:34:08.977376+00:00",
  "_kind": "geo_samples"
}