{
  "country_code": "TT",
  "country": "Trinidad and Tobago",
  "city": "Arima",
  "geonameid": 3575051,
  "target_addresses": 8,
  "samples": [
    {
      "lat": 10.641102177581425,
      "lon": -61.28600211238819,
      "geoinfo": {
        "display_name": "10, Arima Old Road, Arima, 303001, Trinidad and Tobago",
        "road": "Arima Old Road",
        "house_number": "10",
        "neighbourhood": null,
        "suburb": null,
        "city_district": null,
        "city": "Arima",
        "state": null,
        "postcode": "303001",
        "country": "Trinidad and Tobago",
        "country_code": "tt"
      },
      "address": "10 Arima Old Road, Arima, Tunapuna-Piarco, Trinidad and Tobago"
    },
    {
      "lat": 10.61563562474823,
      "lon": -61.29114670124659,
      "geoinfo": {
        "display_name": "62, O'Meara Road (South), Arima, Tunapuna-Piarco, 303001, Trinidad and Tobago",
        "road": "O'Meara Road (South)",
        "house_number": "62",
        "neighbourhood": null,
        "suburb": null,
        "city_district": null,
        "city": "Arima",
        "state": "Tunapuna-Piarco",
        "postcode": "303001",
        "country": "Trinidad and Tobago",
        "country_code": "tt"
      },
      "address": "62 O'Meara Road (South), Arima, Tunapuna-Piarco, Trinidad and Tobago"
    },
    {
      "lat": 10.667688486841646,
      "lon": -61.30123938195976,
      "geoinfo": {
        "display_name": "Lopinot, Tunapuna-Piarco, Trinidad and Tobago",
        "road": null,
        "house_number": null,
        "neighbourhood": null,
        "suburb": null,
        "city_district": null,
        "city": "Lopinot",
        "state": "Tunapuna-Piarco",
        "postcode": null,
        "country": "Trinidad and Tobago",
        "country_code": "tt"
      },
      "address": "Arima, Tunapuna-Piarco, Trinidad and Tobago"
    },
    {
      "lat": 10.602191222724803,
      "lon": -61.290981728015936,
      "geoinfo": {
        "display_name": "91, O'Meara Road, Tunapuna-Piarco, 351443, Trinidad and Tobago",
        "road": "O'Meara Road",
        "house_number": "91",
        "neighbourhood": null,
        "suburb": null,
        "city_district": null,
        "city": null,
        "state": "Tunapuna-Piarco",
        "postcode": "351443",
        "country": "Trinidad and Tobago",
        "country_code": "tt"
      },
      "address": "91 O'Meara Road, Arima, Tunapuna-Piarco, Trinidad and Tobago"
    },
    {
      "lat": 10.610408156009425,
      "lon": -61.26522326575025,
      "geoinfo": {
        "display_name": "Churchill-Roosevelt Highway, Arima, 300831, Trinidad and Tobago",
        "road": "Churchill-Roosevelt Highway",
        "house_number": null,
        "neighbourhood": null,
        "suburb": null,
        "city_district": null,
        "city": "Arima",
        "state": null,
        "postcode": "300831",
        "country": "Trinidad and Tobago",
        "country_code": "tt"
      },
      "address": "Churchill-Roosevelt Highway, Arima, Tunapuna-Piarco, Trinidad and Tobago"
    },
    {
      "lat": 10.661930763827389,
      "lon": -61.29456917950177,
      "geoinfo": {
        "display_name": "Arima-Blanchisseuse Road, Blanchisseuse, Tunapuna-Piarco, Trinidad and Tobago",
        "road": "Arima-Blanchisseuse Road",
        "house_number": null,
        "neighbourhood": null,
        "suburb": null,
        "city_district": null,
        "city": "Blanchisseuse",
        "state": "Tunapuna-Piarco",
        "postcode": null,
        "country": "Trinidad and Tobago",
        "country_code": "tt"
      },
      "address": "Arima-Blanchisseuse Road, Arima, Tunapuna-Piarco, Trinidad and Tobago"
    },
    {
      "lat": 10.608156968229988,
      "lon": -61.26820674272163,
      "geoinfo": {
        "display_name": "50, Churchill-Roosevelt Highway, Arima, 300831, Trinidad and Tobago",
        "road": "Churchill-Roosevelt Highway",
        "house_number": "50",
        "neighbourhood": null,
        "suburb": null,
        "city_district": null,
        "city": "Arima",
        "state": null,
        "postcode": "300831",
        "country": "Trinidad and Tobago",
        "country_code": "tt"
      },
      "address": "50 Churchill-Roosevelt Highway, Arima, Tunapuna-Piarco, Trinidad and Tobago"
    },
    {
      "lat": 10.619458410996888,
      "lon": -61.265100012653356,
      "geoinfo": {
        "display_name": "32, King Orange Avenue, Pinto Road & Santa Rosa Heights Communities, Arima, Tunapuna-Piarco, 300831, Trinidad and Tobago",
        "road": "King Orange Avenue",
        "house_number": "32",
        "neighbourhood": null,
        "suburb": null,
        "city_district": null,
        "city": "Arima",
        "state": "Tunapuna-Piarco",
        "postcode": "300831",
        "country": "Trinidad and Tobago",
        "country_code": "tt"
      },
      "address": "32 King Orange Avenue, Arima, Tunapuna-Piarco, Trinidad and Tobago"
    }
  ],
  "updated_at": "2025-10-16T23:33:39.998316+00:00",
  "_kind": "geo_samples"
}