{
  "country_code": "TT",
  "country": "Trinidad and Tobago",
  "city": "Diego Martin",
  "geonameid": 3574636,
  "target_addresses": 8,
  "samples": [
    {
      "lat": 10.715589897477109,
      "lon": -61.54862335308031,
      "geoinfo": {
        "display_name": "Superville Quarry Road, Diego Martin, 110712, Trinidad and Tobago",
        "road": "Superville Quarry Road",
        "house_number": null,
        "neighbourhood": null,
        "suburb": null,
        "city_district": null,
        "city": "Diego Martin",
        "state": "Diego Martin",
        "postcode": "110712",
        "country": "Trinidad and Tobago",
        "country_code": "tt"
      },
      "address": "Superville Quarry Road, Diego Martin, Diego Martin, Trinidad and Tobago"
    },
    {
      "lat": 10.699720710039033,
      "lon": -61.54240794216158,
      "geoinfo": {
        "display_name": "12, Sparrow Drive, Diego Martin, 110712, Trinidad and Tobago",
        "road": "Sparrow Drive",
        "house_number": "12",
        "neighbourhood": null,
        "suburb": null,
        "city_district": null,
        "city": null,
        "state": "Diego Martin",
        "postcode": "110712",
        "country": "Trinidad and Tobago",
        "country_code": "tt"
      },
      "address": "12 Sparrow Drive, Diego Martin, Diego Martin, Trinidad and Tobago"
    },
    {
      "lat": 10.743369742751707,
      "lon": -61.5559921639683,
      "geoinfo": {
        "display_name": "3, Fuller Street, Diego Martin, Trinidad and Tobago",
        "road": "Fuller Street",
        "house_number": "3",
        "neighbourhood": null,
        "suburb": null,
        "city_district": null,
        "city": "Diego Martin",
        "state": "Diego Martin",
        "postcode": null,
        "country": "Trinidad and Tobago",
        "country_code": "tt"
      },
      "address": "3 Fuller Street, Diego Martin, Diego Martin, Trinidad and Tobago"
    },
    {
      "lat": 10.686767750524947,
      "lon": -61.572733876613654,
      "geoinfo": {
        "display_name": "8, La Horquette Valley Road, Glencoe, Diego Martin, 110712, Trinidad and Tobago",
        "road": "La Horquette Valley Road",
        "house_number": "8",
        "neighbourhood": null,
        "suburb": null,
        "city_district": null,
        "city": "Glencoe",
        "state": "Diego Martin",
        "postcode": "110712",
        "country": "Trinidad and Tobago",
        "country_code": "tt"
      },
      "address": "8 La Horquette Valley Road, Diego Martin, Diego Martin, Trinidad and Tobago"
    },
    {
      "lat": 10.744735483796028,
      "lon": -61.53566061223447,
      "geoinfo": {
        "display_name": "Paramin, Diego Martin, Trinidad and Tobago",
        "road": null,
        "house_number": null,
        "neighbourhood": null,
        "suburb": null,
        "city_district": null,
        "city": "Paramin",
        "state": "Diego Martin",
        "postcode": null,
        "country": "Trinidad and Tobago",
        "country_code": "tt"
      },
      "address": "Diego Martin, Diego Martin, Trinidad and Tobago"
    },
    {
      "lat": 10.741031423799976,
      "lon": -61.576657353572635,
      "geoinfo": {
        "display_name": "Fort Palmiste Drive, Diego Martin, Trinidad and Tobago",
        "road": "Fort Palmiste Drive",
        "house_number": null,
        "neighbourhood": null,
        "suburb": null,
        "city_district": null,
        "city": "Diego Martin",
        "state": "Diego Martin",
        "postcode": null,
        "country": "Trinidad and Tobago",
        "country_code": "tt"
      },
      "address": "Fort Palmiste Drive, Diego Martin, Diego Martin, Trinidad and Tobago"
    },
    {
      "lat": 10.712031196501213,
      "lon": -61.55455521576484,
      "geoinfo": {
        "display_name": "Diego Martin Highway, Diego Martin, 110712, Trinidad and Tobago",
        "road": "Diego Martin Highway",
        "house_number": null,
        "neighbourhood": null,
        "suburb": null,
        "city_district": null,
        "city": "Diego Martin",
        "state": "Diego Martin",
        "postcode": "110712",
        "country": "Trinidad and Tobago",
        "country_code": "tt"
      },
      "address": "Diego Martin Highway, Diego Martin, Diego Martin, Trinidad and Tobago"
    },
    {
      "lat": 10.715954427165615,
      "lon": -61.52339155016348,
      "geoinfo": {
        "display_name": "84, Morne Coco Road, Diego Martin, 110712, Trinidad and Tobago",
        "road": "Morne Coco Road",
        "house_number": "84",
        "neighbourhood": null,
        "suburb": null,
        "city_district": null,
        "city": "Diego Martin",
        "state": "Diego Martin",
        "postcode": "110712",
        "country": "Trinidad and Tobago",
        "country_code": "tt"
      },
      "address": "84 Morne Coco Road, Diego Martin, Diego Martin, Trinidad and Tobago"
    },
    {
      "lat": 10.748467074336286,
      "lon": -61.55034399030079,
      "geoinfo": {
        "display_name": "Diego Martin, Trinidad and Tobago",
        "road": null,
        "house_number": null,
        "neighbourhood": null,
        "suburb": null,
        "city_district": null,
        "city": "Diego Martin",
        "state": "Diego Martin",
        "postcode": null,
        "country": "Trinidad and Tobago",
        "country_code": "tt"
      },
      "address": "348, Diego Martin, 34913 Diego Martin, Trinidad and Tobago"
    },
    {
      "lat": 10.717665571375367,
      "lon": -61.5278636726878,
      "geoinfo": {
        "display_name": "101, Back Road, Diego Martin, 110712, Trinidad and Tobago",
        "road": "Back Road",
        "house_number": "101",
        "neighbourhood": null,
        "suburb": null,
        "city_district": null,
        "city": null,
        "state": "Diego Martin",
        "postcode": "110712",
        "country": "Trinidad and Tobago",
        "country_code": "tt"
      },
      "address": "101, Back Road, Diego Martin, 110712, Trinidad and Tobago"
    },
    {
      "lat": 10.697487076661895,
      "lon": -61.59499035503015,
      "geoinfo": {
        "display_name": "84, Benedictine Street, Carenage, Diego Martin, 110712, Trinidad and Tobago",
        "road": "Benedictine Street",
        "house_number": "84",
        "neighbourhood": null,
        "suburb": null,
        "city_district": null,
        "city": "Carenage",
        "state": "Diego Martin",
        "postcode": "110712",
        "country": "Trinidad and Tobago",
        "country_code": "tt"
      },
      "address": "84, Benedictine Street, Carenage, Diego Martin, 110712, Trinidad and Tobago"
    },
    {
      "lat": 10.728537744286022,
      "lon": -61.55625056137763,
      "geoinfo": {
        "display_name": "56, Persad Street, Diego Martin, 110712, Trinidad and Tobago",
        "road": "Persad Street",
        "house_number": "56",
        "neighbourhood": null,
        "suburb": null,
        "city_district": null,
        "city": "Diego Martin",
        "state": "Diego Martin",
        "postcode": "110712",
        "country": "Trinidad and Tobago",
        "country_code": "tt"
      },
      "address": "56, Persad Street, Diego Martin, 110712, Trinidad and Tobago"
    },
    {
      "lat": 10.688614177284101,
      "lon": -61.5803853035017,
      "geoinfo": {
        "display_name": "20, L'Anse Mitan Road, Point Cumana, Diego Martin, 110712, Trinidad and Tobago",
        "road": "L'Anse Mitan Road",
        "house_number": "20",
        "neighbourhood": null,
        "suburb": null,
        "city_district": null,
        "city": "Point Cumana",
        "state": "Diego Martin",
        "postcode": "110712",
        "country": "Trinidad and Tobago",
        "country_code": "tt"
      },
      "address": "20, L'Anse Mitan Road, Point Cumana, Diego Martin, 110712, Trinidad and Tobago"
    },
    {
      "lat": 10.694955061040076,
      "lon": -61.58051116162469,
      "geoinfo": {
        "display_name": "Westvale Avenue, Point Cumana, Diego Martin, 110712, Trinidad and Tobago",
        "road": "Westvale Avenue",
        "house_number": null,
        "neighbourhood": null,
        "suburb": null,
        "city_district": null,
        "city": "Point Cumana",
        "state": "Diego Martin",
        "postcode": "110712",
        "country": "Trinidad and Tobago",
        "country_code": "tt"
      },
      "address": "577, Westvale Avenue, Point Cumana, Diego Martin, 110712, Trinidad and Tobago"
    },
    {
      "lat": 10.76150549146302,
      "lon": -61.553721984133915,
      "geoinfo": {
        "display_name": "Diego Martin, Trinidad and Tobago",
        "road": null,
        "house_number": null,
        "neighbourhood": null,
        "suburb": null,
        "city_district": null,
        "city": "Diego Martin",
        "state": "Diego Martin",
        "postcode": null,
        "country": "Trinidad and Tobago",
        "country_code": "tt"
      },
      "address": "272, Diego Martin, 96993 Diego Martin, Trinidad and Tobago"
    },
    {
      "lat": 10.69956887864508,
      "lon": -61.52952324627406,
      "geoinfo": {
        "display_name": "38, Dibe Road, Saint James, Diego Martin, 190130, Trinidad and Tobago",
        "road": "Dibe Road",
        "house_number": "38",
        "neighbourhood": null,
        "suburb": "Saint James",
        "city_district": "Saint James",
        "city": null,
        "state": "Diego Martin",
        "postcode": "190130",
        "country": "Trinidad and Tobago",
        "country_code": "tt"
      },
      "address": "38, Dibe Road, Saint James, Diego Martin, 190130, Trinidad and Tobago"
    }
  ],
  "updated_at": "2025-10-19T07:16:57.056241+00:00",
  "_kind": "geo_samples"
}