{
  "country_code": "TT",
  "country": "Trinidad and Tobago",
  "city": "Laventille",
  "geonameid": 3574309,
  "target_addresses": 8,
  "samples": [
    {
      "lat": 10.664934167978556,
      "lon": -61.497605428263476,
      "geoinfo": {
        "display_name": "16, Saint Barbs Road, John John, Port of Spain, San Juan-Laventille, 101002, Trinidad and Tobago",
        "road": "Saint Barbs Road",
        "house_number": "16",
        "neighbourhood": null,
        "suburb": "John John",
        "city_district": null,
        "city": "Port of Spain",
        "state": "San Juan-Laventille",
        "postcode": "101002",
        "country": "Trinidad and Tobago",
        "country_code": "tt"
      },
      "address": "16 Saint Barbs Road, Laventille, San Juan-Laventille, Trinidad and Tobago"
    },
    {
      "lat": 10.6672164202601,
      "lon": -61.45727280677407,
      "geoinfo": {
        "display_name": "San Juan, San Juan-Laventille, 120110, Trinidad and Tobago",
        "road": null,
        "house_number": null,
        "neighbourhood": null,
        "suburb": null,
        "city_district": null,
        "city": "San Juan",
        "state": "San Juan-Laventille",
        "postcode": "120110",
        "country": "Trinidad and Tobago",
        "country_code": "tt"
      },
      "address": "Laventille, San Juan-Laventille, Trinidad and Tobago"
    },
    {
      "lat": 10.623215534942537,
      "lon": -61.49275431301059,
      "geoinfo": {
        "display_name": "Laventille, San Juan-Laventille, 101009, Trinidad and Tobago",
        "road": null,
        "house_number": null,
        "neighbourhood": null,
        "suburb": "Laventille",
        "city_district": null,
        "city": null,
        "state": "San Juan-Laventille",
        "postcode": "101009",
        "country": "Trinidad and Tobago",
        "country_code": "tt"
      },
      "address": "Laventille, Laventille, San Juan-Laventille, Trinidad and Tobago"
    },
    {
      "lat": 10.64433027939893,
      "lon": -61.47380825727389,
      "geoinfo": {
        "display_name": "Beetham Highway, Laventille, San Juan, San Juan-Laventille, 120110, Trinidad and Tobago",
        "road": "Beetham Highway",
        "house_number": null,
        "neighbourhood": null,
        "suburb": "Laventille",
        "city_district": null,
        "city": "San Juan",
        "state": "San Juan-Laventille",
        "postcode": "120110",
        "country": "Trinidad and Tobago",
        "country_code": "tt"
      },
      "address": "Beetham Highway, Laventille, San Juan-Laventille, Trinidad and Tobago"
    },
    {
      "lat": 10.655132822103061,
      "lon": -61.47587694863936,
      "geoinfo": {
        "display_name": "47, Hirondell Street, Morvant, San Juan, San Juan-Laventille, 120110, Trinidad and Tobago",
        "road": "Hirondell Street",
        "house_number": "47",
        "neighbourhood": null,
        "suburb": "Morvant",
        "city_district": null,
        "city": "San Juan",
        "state": "San Juan-Laventille",
        "postcode": "120110",
        "country": "Trinidad and Tobago",
        "country_code": "tt"
      },
      "address": "47 Hirondell Street, Laventille, San Juan-Laventille, Trinidad and Tobago"
    },
    {
      "lat": 10.681706969521386,
      "lon": -61.508974473582064,
      "geoinfo": {
        "display_name": "10, Hutton Road, Saint Ann's, Port of Spain, San Juan-Laventille, 101002, Trinidad and Tobago",
        "road": "Hutton Road",
        "house_number": "10",
        "neighbourhood": null,
        "suburb": "Saint Ann's",
        "city_district": null,
        "city": "Port of Spain",
        "state": "San Juan-Laventille",
        "postcode": "101002",
        "country": "Trinidad and Tobago",
        "country_code": "tt"
      },
      "address": "10 Hutton Road, Laventille, San Juan-Laventille, Trinidad and Tobago"
    },
    {
      "lat": 10.659720415004418,
      "lon": -61.49286481056854,
      "geoinfo": {
        "display_name": "57, Hamlet Tr Street, John John, San Juan-Laventille, 101009, Trinidad and Tobago",
        "road": "Hamlet Tr Street",
        "house_number": "57",
        "neighbourhood": null,
        "suburb": "John John",
        "city_district": null,
        "city": null,
        "state": "San Juan-Laventille",
        "postcode": "101009",
        "country": "Trinidad and Tobago",
        "country_code": "tt"
      },
      "address": "57 Hamlet Tr Street, Laventille, San Juan-Laventille, Trinidad and Tobago"
    },
    {
      "lat": 10.686051726216016,
      "lon": -61.480225248982485,
      "geoinfo": {
        "display_name": "115, Cascade Main Road, Port of Spain, San Juan-Laventille, 101002, Trinidad and Tobago",
        "road": "Cascade Main Road",
        "house_number": "115",
        "neighbourhood": null,
        "suburb": null,
        "city_district": null,
        "city": "Port of Spain",
        "state": "San Juan-Laventille",
        "postcode": "101002",
        "country": "Trinidad and Tobago",
        "country_code": "tt"
      },
      "address": "115 Cascade Main Road, Laventille, San Juan-Laventille, Trinidad and Tobago"
    },
    {
      "lat": 10.658141743542688,
      "lon": -61.47056470046866,
      "geoinfo": {
        "display_name": "Massy Motors, Lady Young Road, Morvant, San Juan, San Juan-Laventille, 120110, Trinidad and Tobago",
        "road": "Lady Young Road",
        "house_number": null,
        "neighbourhood": null,
        "suburb": "Morvant",
        "city_district": null,
        "city": "San Juan",
        "state": "San Juan-Laventille",
        "postcode": "120110",
        "country": "Trinidad and Tobago",
        "country_code": "tt"
      },
      "address": "973, Lady Young Road, Laventille, 120110 San Juan-Laventille, Trinidad and Tobago"
    },
    {
      "lat": 10.685084165443461,
      "lon": -61.5179116256772,
      "geoinfo": {
        "display_name": "Scott Drive, Maraval, Diego Martin, 190130, Trinidad and Tobago",
        "road": "Scott Drive",
        "house_number": null,
        "neighbourhood": null,
        "suburb": "Maraval",
        "city_district": null,
        "city": null,
        "state": "Diego Martin",
        "postcode": "190130",
        "country": "Trinidad and Tobago",
        "country_code": "tt"
      },
      "address": "823, Scott Drive, Maraval, Diego Martin, 190130, Trinidad and Tobago"
    },
    {
      "lat": 10.688686530866718,
      "lon": -61.49151982067468,
      "geoinfo": {
        "display_name": "94, Ariapita Road, Saint Ann's, Port of Spain, San Juan-Laventille, 101002, Trinidad and Tobago",
        "road": "Ariapita Road",
        "house_number": "94",
        "neighbourhood": null,
        "suburb": "Saint Ann's",
        "city_district": null,
        "city": "Port of Spain",
        "state": "San Juan-Laventille",
        "postcode": "101002",
        "country": "Trinidad and Tobago",
        "country_code": "tt"
      },
      "address": "94, Ariapita Road, Saint Ann's, Port of Spain, San Juan-Laventille, 101002, Trinidad and Tobago"
    },
    {
      "lat": 10.665691818549012,
      "lon": -61.51828754392762,
      "geoinfo": {
        "display_name": "14, Marli Street, Newtown, Port of Spain, 190130, Trinidad and Tobago",
        "road": "Marli Street",
        "house_number": "14",
        "neighbourhood": null,
        "suburb": "Newtown",
        "city_district": null,
        "city": "Port of Spain",
        "state": null,
        "postcode": "190130",
        "country": "Trinidad and Tobago",
        "country_code": "tt"
      },
      "address": "14, Marli Street, Newtown, Port of Spain, 190130, Trinidad and Tobago"
    },
    {
      "lat": 10.6769659221196,
      "lon": -61.504721185596004,
      "geoinfo": {
        "display_name": "1, First Avenue, Saint Ann's, Port of Spain, San Juan-Laventille, 101002, Trinidad and Tobago",
        "road": "First Avenue",
        "house_number": "1",
        "neighbourhood": null,
        "suburb": "Saint Ann's",
        "city_district": null,
        "city": "Port of Spain",
        "state": "San Juan-Laventille",
        "postcode": "101002",
        "country": "Trinidad and Tobago",
        "country_code": "tt"
      },
      "address": "1, First Avenue, Saint Ann's, Port of Spain, San Juan-Laventille, 101002, Trinidad and Tobago"
    },
    {
      "lat": 10.64996291017327,
      "lon": -61.542087884798995,
      "geoinfo": {
        "display_name": "Woodbrook, Port of Spain, 190130, Trinidad and Tobago",
        "road": null,
        "house_number": null,
        "neighbourhood": null,
        "suburb": "Woodbrook",
        "city_district": null,
        "city": "Port of Spain",
        "state": null,
        "postcode": "190130",
        "country": "Trinidad and Tobago",
        "country_code": "tt"
      },
      "address": "519, Woodbrook, Port of Spain, 190130, Trinidad and Tobago"
    },
    {
      "lat": 10.629508305974715,
      "lon": -61.466860529864576,
      "geoinfo": {
        "display_name": "El Socorro, San Juan, San Juan-Laventille, 120110, Trinidad and Tobago",
        "road": null,
        "house_number": null,
        "neighbourhood": null,
        "suburb": null,
        "city_district": null,
        "city": "San Juan",
        "state": "San Juan-Laventille",
        "postcode": "120110",
        "country": "Trinidad and Tobago",
        "country_code": "tt"
      },
      "address": "489, El Socorro, San Juan, San Juan-Laventille, 120110, Trinidad and Tobago"
    },
    {
      "lat": 10.65859893520433,
      "lon": -61.47672330802375,
      "geoinfo": {
        "display_name": "7, Taporite Street, Morvant, San Juan, San Juan-Laventille, 120110, Trinidad and Tobago",
        "road": "Taporite Street",
        "house_number": "7",
        "neighbourhood": null,
        "suburb": "Morvant",
        "city_district": null,
        "city": "San Juan",
        "state": "San Juan-Laventille",
        "postcode": "120110",
        "country": "Trinidad and Tobago",
        "country_code": "tt"
      },
      "address": "7, Taporite Street, Morvant, San Juan, San Juan-Laventille, 120110, Trinidad and Tobago"
    }
  ],
  "updated_at": "2025-10-19T07:21:34.666024+00:00",
  "_kind": "geo_samples"
}