{
  "country_code": "TT",
  "country": "Trinidad and Tobago",
  "city": "Mon Repos",
  "geonameid": 3574116,
  "target_addresses": 8,
  "samples": [
    {
      "lat": 10.24691698674821,
      "lon": -61.41486980624458,
      "geoinfo": {
        "display_name": "517, Cipero Road, Golconda, San Fernando, Penal-Debe, 602418, Trinidad and Tobago",
        "road": "Cipero Road",
        "house_number": "517",
        "neighbourhood": "Golconda",
        "suburb": null,
        "city_district": null,
        "city": "San Fernando",
        "state": "Penal-Debe",
        "postcode": "602418",
        "country": "Trinidad and Tobago",
        "country_code": "tt"
      },
      "address": "517, Cipero Road, Golconda, San Fernando, Penal-Debe, 602418, Trinidad and Tobago"
    },
    {
      "lat": 10.26730315842825,
      "lon": -61.481632322007115,
      "geoinfo": {
        "display_name": "Gulf View, San Fernando, 600301, Trinidad and Tobago",
        "road": null,
        "house_number": null,
        "neighbourhood": "Gulf View",
        "suburb": null,
        "city_district": null,
        "city": "San Fernando",
        "state": null,
        "postcode": "600301",
        "country": "Trinidad and Tobago",
        "country_code": "tt"
      },
      "address": "769, Gulf View, San Fernando, 600301, Trinidad and Tobago"
    },
    {
      "lat": 10.295582501398437,
      "lon": -61.46157344448536,
      "geoinfo": {
        "display_name": "176, Theresa Street, Marabella, Gopaul Lands, San Fernando, 601418, Trinidad and Tobago",
        "road": "Theresa Street",
        "house_number": "176",
        "neighbourhood": null,
        "suburb": "Marabella",
        "city_district": null,
        "city": "San Fernando",
        "state": null,
        "postcode": "601418",
        "country": "Trinidad and Tobago",
        "country_code": "tt"
      },
      "address": "176, Theresa Street, Marabella, Gopaul Lands, San Fernando, 601418, Trinidad and Tobago"
    },
    {
      "lat": 10.26433453574052,
      "lon": -61.46690157104694,
      "geoinfo": {
        "display_name": "2, Hosein Avenue, Gulf View, San Fernando, 600301, Trinidad and Tobago",
        "road": "Hosein Avenue",
        "house_number": "2",
        "neighbourhood": "Gulf View",
        "suburb": null,
        "city_district": null,
        "city": "San Fernando",
        "state": null,
        "postcode": "600301",
        "country": "Trinidad and Tobago",
        "country_code": "tt"
      },
      "address": "2, Hosein Avenue, Gulf View, San Fernando, 600301, Trinidad and Tobago"
    },
    {
      "lat": 10.295709047904268,
      "lon": -61.47284895979139,
      "geoinfo": {
        "display_name": "Vistabella, Saint Joseph Village, Gopaul Lands, San Fernando, 601418, Trinidad and Tobago",
        "road": null,
        "house_number": null,
        "neighbourhood": "Saint Joseph Village",
        "suburb": null,
        "city_district": null,
        "city": "San Fernando",
        "state": null,
        "postcode": "601418",
        "country": "Trinidad and Tobago",
        "country_code": "tt"
      },
      "address": "648, Vistabella, Saint Joseph Village, Gopaul Lands, San Fernando, 601418, Trinidad and Tobago"
    },
    {
      "lat": 10.266670895798004,
      "lon": -61.447343905772875,
      "geoinfo": {
        "display_name": "18, Pleasantville Circular, Pleasantville, Gooding Village, San Fernando, 602418, Trinidad and Tobago",
        "road": "Pleasantville Circular",
        "house_number": "18",
        "neighbourhood": "Pleasantville",
        "suburb": null,
        "city_district": null,
        "city": "San Fernando",
        "state": null,
        "postcode": "602418",
        "country": "Trinidad and Tobago",
        "country_code": "tt"
      },
      "address": "18, Pleasantville Circular, Pleasantville, Gooding Village, San Fernando, 602418, Trinidad and Tobago"
    },
    {
      "lat": 10.283449103837368,
      "lon": -61.473451692204165,
      "geoinfo": {
        "display_name": "Queen Street, Downtown San Fernando, San Fernando, 600301, Trinidad and Tobago",
        "road": "Queen Street",
        "house_number": null,
        "neighbourhood": null,
        "suburb": null,
        "city_district": null,
        "city": "San Fernando",
        "state": null,
        "postcode": "600301",
        "country": "Trinidad and Tobago",
        "country_code": "tt"
      },
      "address": "173, Queen Street, Downtown San Fernando, San Fernando, 600301, Trinidad and Tobago"
    },
    {
      "lat": 10.295517819896718,
      "lon": -61.44600116952698,
      "geoinfo": {
        "display_name": "81, Tarouba Road, Marabella, Gopaul Lands, San Fernando, 602905, Trinidad and Tobago",
        "road": "Tarouba Road",
        "house_number": "81",
        "neighbourhood": null,
        "suburb": "Marabella",
        "city_district": null,
        "city": "San Fernando",
        "state": null,
        "postcode": "602905",
        "country": "Trinidad and Tobago",
        "country_code": "tt"
      },
      "address": "81, Tarouba Road, Marabella, Gopaul Lands, San Fernando, 602905, Trinidad and Tobago"
    }
  ],
  "updated_at": "2025-10-19T07:16:22.981053+00:00",
  "_kind": "geo_samples"
}