{
  "country_code": "TT",
  "country": "Trinidad and Tobago",
  "city": "Point Fortin",
  "geonameid": 3573899,
  "target_addresses": 8,
  "samples": [
    {
      "lat": 10.155100156632374,
      "lon": -61.68307031649808,
      "geoinfo": {
        "display_name": "Ixora Crescent, Hollywood, Point Fortin, 700147, Trinidad and Tobago",
        "road": "Ixora Crescent",
        "house_number": null,
        "neighbourhood": null,
        "suburb": null,
        "city_district": null,
        "city": "Point Fortin",
        "state": null,
        "postcode": "700147",
        "country": "Trinidad and Tobago",
        "country_code": "tt"
      },
      "address": "Ixora Crescent, Point Fortin, Trinidad and Tobago"
    },
    {
      "lat": 10.166254551695847,
      "lon": -61.70856650770989,
      "geoinfo": {
        "display_name": "Point Fortin, 700147, Trinidad and Tobago",
        "road": null,
        "house_number": null,
        "neighbourhood": null,
        "suburb": null,
        "city_district": null,
        "city": "Point Fortin",
        "state": null,
        "postcode": "700147",
        "country": "Trinidad and Tobago",
        "country_code": "tt"
      },
      "address": "Point Fortin, Trinidad and Tobago"
    },
    {
      "lat": 10.185256033684759,
      "lon": -61.69060788047975,
      "geoinfo": {
        "display_name": "Bernadette Drive, Point Fortin, 700147, Trinidad and Tobago",
        "road": "Bernadette Drive",
        "house_number": null,
        "neighbourhood": null,
        "suburb": null,
        "city_district": null,
        "city": "Point Fortin",
        "state": null,
        "postcode": "700147",
        "country": "Trinidad and Tobago",
        "country_code": "tt"
      },
      "address": "Bernadette Drive, Point Fortin, Trinidad and Tobago"
    },
    {
      "lat": 10.130224914433063,
      "lon": -61.692258329111596,
      "geoinfo": {
        "display_name": "S.S. Erin Road, Buenos Ayres, Siparia, Trinidad and Tobago",
        "road": "S.S. Erin Road",
        "house_number": null,
        "neighbourhood": null,
        "suburb": null,
        "city_district": null,
        "city": "Buenos Ayres",
        "state": "Siparia",
        "postcode": null,
        "country": "Trinidad and Tobago",
        "country_code": "tt"
      },
      "address": "S.S. Erin Road, Point Fortin, Siparia, Trinidad and Tobago"
    },
    {
      "lat": 10.184980333895979,
      "lon": -61.64427423883706,
      "geoinfo": {
        "display_name": "Siparia, 700147, Trinidad and Tobago",
        "road": null,
        "house_number": null,
        "neighbourhood": null,
        "suburb": null,
        "city_district": null,
        "city": null,
        "state": "Siparia",
        "postcode": "700147",
        "country": "Trinidad and Tobago",
        "country_code": "tt"
      },
      "address": "Point Fortin, Siparia, Trinidad and Tobago"
    },
    {
      "lat": 10.148841556791456,
      "lon": -61.64773908408568,
      "geoinfo": {
        "display_name": "Salazar Trace, Siparia, 700147, Trinidad and Tobago",
        "road": "Salazar Trace",
        "house_number": null,
        "neighbourhood": null,
        "suburb": null,
        "city_district": null,
        "city": null,
        "state": "Siparia",
        "postcode": "700147",
        "country": "Trinidad and Tobago",
        "country_code": "tt"
      },
      "address": "Salazar Trace, Point Fortin, Siparia, Trinidad and Tobago"
    },
    {
      "lat": 10.186919646946938,
      "lon": -61.648051846807554,
      "geoinfo": {
        "display_name": "Archibald-De Leon Highway, Cochrane Village, Point Fortin, 700147, Trinidad and Tobago",
        "road": "Archibald-De Leon Highway",
        "house_number": null,
        "neighbourhood": null,
        "suburb": null,
        "city_district": null,
        "city": "Point Fortin",
        "state": null,
        "postcode": "700147",
        "country": "Trinidad and Tobago",
        "country_code": "tt"
      },
      "address": "Archibald-De Leon Highway, Point Fortin, Siparia, Trinidad and Tobago"
    },
    {
      "lat": 10.174500125599211,
      "lon": -61.648558894563884,
      "geoinfo": {
        "display_name": "1768, Southern Main Road, Point Fortin, Siparia, 700147, Trinidad and Tobago",
        "road": "Southern Main Road",
        "house_number": "1768",
        "neighbourhood": null,
        "suburb": null,
        "city_district": null,
        "city": "Point Fortin",
        "state": "Siparia",
        "postcode": "700147",
        "country": "Trinidad and Tobago",
        "country_code": "tt"
      },
      "address": "1768 Southern Main Road, Point Fortin, Siparia, Trinidad and Tobago"
    },
    {
      "lat": 10.176858067106663,
      "lon": -61.642619842380064,
      "geoinfo": {
        "display_name": "11, Brighton Cato Trace, Point Fortin, Siparia, 700147, Trinidad and Tobago",
        "road": "Brighton Cato Trace",
        "house_number": "11",
        "neighbourhood": null,
        "suburb": null,
        "city_district": null,
        "city": "Point Fortin",
        "state": "Siparia",
        "postcode": "700147",
        "country": "Trinidad and Tobago",
        "country_code": "tt"
      },
      "address": "11, Brighton Cato Trace, Point Fortin, Siparia, 700147, Trinidad and Tobago"
    },
    {
      "lat": 10.138538077359065,
      "lon": -61.672370306939435,
      "geoinfo": {
        "display_name": "Siparia, 700147, Trinidad and Tobago",
        "road": null,
        "house_number": null,
        "neighbourhood": null,
        "suburb": null,
        "city_district": null,
        "city": null,
        "state": "Siparia",
        "postcode": "700147",
        "country": "Trinidad and Tobago",
        "country_code": "tt"
      },
      "address": "348, Point Fortin, 700147 Siparia, Trinidad and Tobago"
    },
    {
      "lat": 10.133029670593261,
      "lon": -61.67467794888381,
      "geoinfo": {
        "display_name": "Siparia, 700147, Trinidad and Tobago",
        "road": null,
        "house_number": null,
        "neighbourhood": null,
        "suburb": null,
        "city_district": null,
        "city": null,
        "state": "Siparia",
        "postcode": "700147",
        "country": "Trinidad and Tobago",
        "country_code": "tt"
      },
      "address": "907, Point Fortin, 700147 Siparia, Trinidad and Tobago"
    },
    {
      "lat": 10.18802185757308,
      "lon": -61.66100174525432,
      "geoinfo": {
        "display_name": "Point Fortin, 700147, Trinidad and Tobago",
        "road": null,
        "house_number": null,
        "neighbourhood": null,
        "suburb": null,
        "city_district": null,
        "city": "Point Fortin",
        "state": null,
        "postcode": "700147",
        "country": "Trinidad and Tobago",
        "country_code": "tt"
      },
      "address": "419, Point Fortin, 700147, Trinidad and Tobago"
    },
    {
      "lat": 10.16414630339221,
      "lon": -61.65370445112841,
      "geoinfo": {
        "display_name": "Petrotrin Field Road, Point Fortin, Siparia, Trinidad and Tobago",
        "road": "Petrotrin Field Road",
        "house_number": null,
        "neighbourhood": null,
        "suburb": null,
        "city_district": null,
        "city": "Point Fortin",
        "state": "Siparia",
        "postcode": null,
        "country": "Trinidad and Tobago",
        "country_code": "tt"
      },
      "address": "076, Petrotrin Field Road, Point Fortin, 46972 Siparia, Trinidad and Tobago"
    },
    {
      "lat": 10.204681244703968,
      "lon": -61.66724280569711,
      "geoinfo": {
        "display_name": "Clifton Hill, Point Fortin, 700147, Trinidad and Tobago",
        "road": null,
        "house_number": null,
        "neighbourhood": null,
        "suburb": null,
        "city_district": null,
        "city": "Point Fortin",
        "state": null,
        "postcode": "700147",
        "country": "Trinidad and Tobago",
        "country_code": "tt"
      },
      "address": "086, Clifton Hill, Point Fortin, 700147, Trinidad and Tobago"
    },
    {
      "lat": 10.188075389531395,
      "lon": -61.656793229762954,
      "geoinfo": {
        "display_name": "Point Fortin, 700147, Trinidad and Tobago",
        "road": null,
        "house_number": null,
        "neighbourhood": null,
        "suburb": null,
        "city_district": null,
        "city": "Point Fortin",
        "state": null,
        "postcode": "700147",
        "country": "Trinidad and Tobago",
        "country_code": "tt"
      },
      "address": "681, Point Fortin, 700147, Trinidad and Tobago"
    },
    {
      "lat": 10.200826754947624,
      "lon": -61.66611764828101,
      "geoinfo": {
        "display_name": "Clifton Hill, Point Fortin, 700147, Trinidad and Tobago",
        "road": null,
        "house_number": null,
        "neighbourhood": null,
        "suburb": null,
        "city_district": null,
        "city": "Point Fortin",
        "state": null,
        "postcode": "700147",
        "country": "Trinidad and Tobago",
        "country_code": "tt"
      },
      "address": "471, Clifton Hill, Point Fortin, 700147, Trinidad and Tobago"
    }
  ],
  "updated_at": "2025-10-19T07:19:59.323180+00:00",
  "_kind": "geo_samples"
}