{
  "country_code": "TT",
  "country": "Trinidad and Tobago",
  "city": "Rio Claro",
  "geonameid": 3573840,
  "target_addresses": 22,
  "samples": [
    {
      "lat": 10.289612517651546,
      "lon": -61.15220906905808,
      "geoinfo": {
        "display_name": "Rio Claro Trace, Rio Claro, Mayaro-Rio Claro, Trinidad and Tobago",
        "road": "Rio Claro Trace",
        "house_number": null,
        "neighbourhood": null,
        "suburb": null,
        "city_district": null,
        "city": "Rio Claro",
        "state": "Mayaro-Rio Claro",
        "postcode": null,
        "country": "Trinidad and Tobago",
        "country_code": "tt"
      },
      "address": "Rio Claro Trace, Rio Claro, Mayaro-Rio Claro, Trinidad and Tobago"
    },
    {
      "lat": 10.306657782007138,
      "lon": -61.193854456087735,
      "geoinfo": {
        "display_name": "811, Absolom Trace, Libertville, Rio Claro, Mayaro-Rio Claro, Trinidad and Tobago",
        "road": "Absolom Trace",
        "house_number": "811",
        "neighbourhood": "Libertville",
        "suburb": null,
        "city_district": null,
        "city": "Rio Claro",
        "state": "Mayaro-Rio Claro",
        "postcode": null,
        "country": "Trinidad and Tobago",
        "country_code": "tt"
      },
      "address": "811 Absolom Trace, Rio Claro, Mayaro-Rio Claro, Trinidad and Tobago"
    },
    {
      "lat": 10.339180929766636,
      "lon": -61.17066037671823,
      "geoinfo": {
        "display_name": "Rio Claro, Mayaro-Rio Claro, Trinidad and Tobago",
        "road": null,
        "house_number": null,
        "neighbourhood": null,
        "suburb": null,
        "city_district": null,
        "city": "Rio Claro",
        "state": "Mayaro-Rio Claro",
        "postcode": null,
        "country": "Trinidad and Tobago",
        "country_code": "tt"
      },
      "address": "Rio Claro, Mayaro-Rio Claro, Trinidad and Tobago"
    },
    {
      "lat": 10.314589077016146,
      "lon": -61.183082724954716,
      "geoinfo": {
        "display_name": "19, Devin Drive, Rio Claro, Mayaro-Rio Claro, Trinidad and Tobago",
        "road": "Devin Drive",
        "house_number": "19",
        "neighbourhood": null,
        "suburb": null,
        "city_district": null,
        "city": "Rio Claro",
        "state": "Mayaro-Rio Claro",
        "postcode": null,
        "country": "Trinidad and Tobago",
        "country_code": "tt"
      },
      "address": "19 Devin Drive, Rio Claro, Mayaro-Rio Claro, Trinidad and Tobago"
    },
    {
      "lat": 10.311345050616152,
      "lon": -61.185135643446316,
      "geoinfo": {
        "display_name": "Railway Road, Rio Claro, Mayaro-Rio Claro, Trinidad and Tobago",
        "road": "Railway Road",
        "house_number": null,
        "neighbourhood": null,
        "suburb": null,
        "city_district": null,
        "city": "Rio Claro",
        "state": "Mayaro-Rio Claro",
        "postcode": null,
        "country": "Trinidad and Tobago",
        "country_code": "tt"
      },
      "address": "Railway Road, Rio Claro, Mayaro-Rio Claro, Trinidad and Tobago"
    },
    {
      "lat": 10.306793502455886,
      "lon": -61.14047180706239,
      "geoinfo": {
        "display_name": "Bolasaw Trace, Mayaro-Rio Claro, Trinidad and Tobago",
        "road": "Bolasaw Trace",
        "house_number": null,
        "neighbourhood": null,
        "suburb": null,
        "city_district": null,
        "city": null,
        "state": "Mayaro-Rio Claro",
        "postcode": null,
        "country": "Trinidad and Tobago",
        "country_code": "tt"
      },
      "address": "Bolasaw Trace, Rio Claro, Mayaro-Rio Claro, Trinidad and Tobago"
    },
    {
      "lat": 10.312635917417698,
      "lon": -61.13668053222729,
      "geoinfo": {
        "display_name": "2962, Naparima Mayaro Road, Rio Claro, Mayaro-Rio Claro, Trinidad and Tobago",
        "road": "Naparima Mayaro Road",
        "house_number": "2962",
        "neighbourhood": null,
        "suburb": null,
        "city_district": null,
        "city": "Rio Claro",
        "state": "Mayaro-Rio Claro",
        "postcode": null,
        "country": "Trinidad and Tobago",
        "country_code": "tt"
      },
      "address": "2962 Naparima Mayaro Road, Rio Claro, Mayaro-Rio Claro, Trinidad and Tobago"
    },
    {
      "lat": 10.29349388437495,
      "lon": -61.210155318541744,
      "geoinfo": {
        "display_name": "Albert Trace, Mayaro-Rio Claro, Trinidad and Tobago",
        "road": "Albert Trace",
        "house_number": null,
        "neighbourhood": null,
        "suburb": null,
        "city_district": null,
        "city": null,
        "state": "Mayaro-Rio Claro",
        "postcode": null,
        "country": "Trinidad and Tobago",
        "country_code": "tt"
      },
      "address": "Albert Trace, Rio Claro, Mayaro-Rio Claro, Trinidad and Tobago"
    },
    {
      "lat": 10.311420364646061,
      "lon": -61.22006247875894,
      "geoinfo": {
        "display_name": "Poole, Mayaro-Rio Claro, Trinidad and Tobago",
        "road": null,
        "house_number": null,
        "neighbourhood": null,
        "suburb": null,
        "city_district": null,
        "city": "Poole",
        "state": "Mayaro-Rio Claro",
        "postcode": null,
        "country": "Trinidad and Tobago",
        "country_code": "tt"
      },
      "address": "734, Poole, 51671 Mayaro-Rio Claro, Trinidad and Tobago"
    },
    {
      "lat": 10.303161976990763,
      "lon": -61.213485148029044,
      "geoinfo": {
        "display_name": "2056, Naparima Mayaro Road, Libertville, Rio Claro, Mayaro-Rio Claro, Trinidad and Tobago",
        "road": "Naparima Mayaro Road",
        "house_number": "2056",
        "neighbourhood": "Libertville",
        "suburb": null,
        "city_district": null,
        "city": "Rio Claro",
        "state": "Mayaro-Rio Claro",
        "postcode": null,
        "country": "Trinidad and Tobago",
        "country_code": "tt"
      },
      "address": "2056, Naparima Mayaro Road, Libertville, Rio Claro, 15519 Mayaro-Rio Claro, Trinidad and Tobago"
    },
    {
      "lat": 10.31470504991475,
      "lon": -61.19756402320299,
      "geoinfo": {
        "display_name": "27, Palms Green Drive, Rio Claro, Mayaro-Rio Claro, Trinidad and Tobago",
        "road": "Palms Green Drive",
        "house_number": "27",
        "neighbourhood": null,
        "suburb": null,
        "city_district": null,
        "city": "Rio Claro",
        "state": "Mayaro-Rio Claro",
        "postcode": null,
        "country": "Trinidad and Tobago",
        "country_code": "tt"
      },
      "address": "27, Palms Green Drive, Rio Claro, 70505 Mayaro-Rio Claro, Trinidad and Tobago"
    },
    {
      "lat": 10.291732727252459,
      "lon": -61.1341906036131,
      "geoinfo": {
        "display_name": "Rio Claro, Mayaro-Rio Claro, Trinidad and Tobago",
        "road": null,
        "house_number": null,
        "neighbourhood": null,
        "suburb": null,
        "city_district": null,
        "city": "Rio Claro",
        "state": "Mayaro-Rio Claro",
        "postcode": null,
        "country": "Trinidad and Tobago",
        "country_code": "tt"
      },
      "address": "932, Rio Claro, 55080 Mayaro-Rio Claro, Trinidad and Tobago"
    },
    {
      "lat": 10.293686797377529,
      "lon": -61.17192912291919,
      "geoinfo": {
        "display_name": "Rio Claro/Guayaguayare Road, Rio Claro, Mayaro-Rio Claro, Trinidad and Tobago",
        "road": "Rio Claro/Guayaguayare Road",
        "house_number": null,
        "neighbourhood": null,
        "suburb": null,
        "city_district": null,
        "city": "Rio Claro",
        "state": "Mayaro-Rio Claro",
        "postcode": null,
        "country": "Trinidad and Tobago",
        "country_code": "tt"
      },
      "address": "023, Rio Claro/Guayaguayare Road, Rio Claro, 19659 Mayaro-Rio Claro, Trinidad and Tobago"
    },
    {
      "lat": 10.333690484949546,
      "lon": -61.18216386857575,
      "geoinfo": {
        "display_name": "Cunapo Southern Main Road, Rio Claro, Mayaro-Rio Claro, Trinidad and Tobago",
        "road": "Cunapo Southern Main Road",
        "house_number": null,
        "neighbourhood": null,
        "suburb": null,
        "city_district": null,
        "city": "Rio Claro",
        "state": "Mayaro-Rio Claro",
        "postcode": null,
        "country": "Trinidad and Tobago",
        "country_code": "tt"
      },
      "address": "314, Cunapo Southern Main Road, Rio Claro, 52739 Mayaro-Rio Claro, Trinidad and Tobago"
    },
    {
      "lat": 10.31344495833218,
      "lon": -61.17642046278764,
      "geoinfo": {
        "display_name": "19, Tabaquite Rio Claro Road, Rio Claro, Mayaro-Rio Claro, Trinidad and Tobago",
        "road": "Tabaquite Rio Claro Road",
        "house_number": "19",
        "neighbourhood": null,
        "suburb": null,
        "city_district": null,
        "city": "Rio Claro",
        "state": "Mayaro-Rio Claro",
        "postcode": null,
        "country": "Trinidad and Tobago",
        "country_code": "tt"
      },
      "address": "19, Tabaquite Rio Claro Road, Rio Claro, 07835 Mayaro-Rio Claro, Trinidad and Tobago"
    },
    {
      "lat": 10.283730483288748,
      "lon": -61.15337499169554,
      "geoinfo": {
        "display_name": "203, Rio Claro/Guayaguayare Road, Rio Claro, Mayaro-Rio Claro, Trinidad and Tobago",
        "road": "Rio Claro/Guayaguayare Road",
        "house_number": "203",
        "neighbourhood": null,
        "suburb": null,
        "city_district": null,
        "city": "Rio Claro",
        "state": "Mayaro-Rio Claro",
        "postcode": null,
        "country": "Trinidad and Tobago",
        "country_code": "tt"
      },
      "address": "203, Rio Claro/Guayaguayare Road, Rio Claro, 61183 Mayaro-Rio Claro, Trinidad and Tobago"
    },
    {
      "lat": 10.295659363666761,
      "lon": -61.19093860229218,
      "geoinfo": {
        "display_name": "Libertville, Rio Claro, Mayaro-Rio Claro, Trinidad and Tobago",
        "road": null,
        "house_number": null,
        "neighbourhood": "Libertville",
        "suburb": null,
        "city_district": null,
        "city": "Rio Claro",
        "state": "Mayaro-Rio Claro",
        "postcode": null,
        "country": "Trinidad and Tobago",
        "country_code": "tt"
      },
      "address": "150, Libertville, Rio Claro, 24374 Mayaro-Rio Claro, Trinidad and Tobago"
    },
    {
      "lat": 10.28643659394129,
      "lon": -61.21544307707391,
      "geoinfo": {
        "display_name": "Mayaro-Rio Claro, Trinidad and Tobago",
        "road": null,
        "house_number": null,
        "neighbourhood": null,
        "suburb": null,
        "city_district": null,
        "city": null,
        "state": "Mayaro-Rio Claro",
        "postcode": null,
        "country": "Trinidad and Tobago",
        "country_code": "tt"
      },
      "address": "732, Rio Claro, 83110 Mayaro-Rio Claro, Trinidad and Tobago"
    },
    {
      "lat": 10.32011409254997,
      "lon": -61.17900571230976,
      "geoinfo": {
        "display_name": "28, Cunapo Southern Main Road, Rio Claro, Mayaro-Rio Claro, Trinidad and Tobago",
        "road": "Cunapo Southern Main Road",
        "house_number": "28",
        "neighbourhood": null,
        "suburb": null,
        "city_district": null,
        "city": "Rio Claro",
        "state": "Mayaro-Rio Claro",
        "postcode": null,
        "country": "Trinidad and Tobago",
        "country_code": "tt"
      },
      "address": "28, Cunapo Southern Main Road, Rio Claro, 81607 Mayaro-Rio Claro, Trinidad and Tobago"
    },
    {
      "lat": 10.268177245408495,
      "lon": -61.18088421006619,
      "geoinfo": {
        "display_name": "Rio Claro, Mayaro-Rio Claro, Trinidad and Tobago",
        "road": null,
        "house_number": null,
        "neighbourhood": null,
        "suburb": null,
        "city_district": null,
        "city": "Rio Claro",
        "state": "Mayaro-Rio Claro",
        "postcode": null,
        "country": "Trinidad and Tobago",
        "country_code": "tt"
      },
      "address": "698, Rio Claro, 77494 Mayaro-Rio Claro, Trinidad and Tobago"
    },
    {
      "lat": 10.289304454036616,
      "lon": -61.199575694874085,
      "geoinfo": {
        "display_name": "Campbell Trace, Rio Claro, Mayaro-Rio Claro, Trinidad and Tobago",
        "road": "Campbell Trace",
        "house_number": null,
        "neighbourhood": null,
        "suburb": null,
        "city_district": null,
        "city": "Rio Claro",
        "state": "Mayaro-Rio Claro",
        "postcode": null,
        "country": "Trinidad and Tobago",
        "country_code": "tt"
      },
      "address": "264, Campbell Trace, Rio Claro, 01028 Mayaro-Rio Claro, Trinidad and Tobago"
    },
    {
      "lat": 10.296971899896748,
      "lon": -61.20797054979237,
      "geoinfo": {
        "display_name": "Beharry Trace, Mayaro-Rio Claro, Trinidad and Tobago",
        "road": "Beharry Trace",
        "house_number": null,
        "neighbourhood": null,
        "suburb": null,
        "city_district": null,
        "city": null,
        "state": "Mayaro-Rio Claro",
        "postcode": null,
        "country": "Trinidad and Tobago",
        "country_code": "tt"
      },
      "address": "003, Beharry Trace, 74358 Mayaro-Rio Claro, Trinidad and Tobago"
    }
  ],
  "updated_at": "2025-10-19T06:30:29.762478+00:00",
  "_kind": "geo_samples"
}