{
  "country_code": "CZ",
  "country": "Czechia",
  "city": "Chodov",
  "geonameid": 3077700,
  "target_addresses": 4,
  "samples": [
    {
      "lat": 50.03316762945168,
      "lon": 14.510702272816497,
      "geoinfo": {
        "display_name": "Ženíškova, Litochleby, Chodov, Prague, obvod Praha 4, Capital City of Prague, Prague, 149 00, Czechia",
        "road": "Ženíškova",
        "house_number": null,
        "neighbourhood": "Litochleby",
        "suburb": "Prague",
        "city_district": "obvod Praha 4",
        "city": "Capital City of Prague",
        "state": "Prague",
        "postcode": "149 00",
        "country": "Czechia",
        "country_code": "cz"
      },
      "address": "Ženíškova, Chodov, Prague, Czechia"
    },
    {
      "lat": 50.06528166100308,
      "lon": 14.52749039852827,
      "geoinfo": {
        "display_name": "1616/2, K Pérovně, Hostivař, Prague, obvod Praha 10, Capital City of Prague, Prague, 102 00, Czechia",
        "road": "K Pérovně",
        "house_number": "1616/2",
        "neighbourhood": null,
        "suburb": "Hostivař",
        "city_district": "obvod Praha 10",
        "city": "Capital City of Prague",
        "state": "Prague",
        "postcode": "102 00",
        "country": "Czechia",
        "country_code": "cz"
      },
      "address": "1616/2, K Pérovně, Hostivař, Prague, obvod Praha 10, Capital City of Prague, Prague, 102 00, Czechia"
    },
    {
      "lat": 50.02317605856927,
      "lon": 14.56968199731874,
      "geoinfo": {
        "display_name": "277/60, Štychova, Křeslice, Prague, obvod Praha 10, Capital City of Prague, Prague, 104 00, Czechia",
        "road": "Štychova",
        "house_number": "277/60",
        "neighbourhood": null,
        "suburb": "Křeslice",
        "city_district": "obvod Praha 10",
        "city": "Capital City of Prague",
        "state": "Prague",
        "postcode": "104 00",
        "country": "Czechia",
        "country_code": "cz"
      },
      "address": "277/60, Štychova, Křeslice, Prague, obvod Praha 10, Capital City of Prague, Prague, 104 00, Czechia"
    },
    {
      "lat": 49.99556189994967,
      "lon": 14.485765481495319,
      "geoinfo": {
        "display_name": "Pramenná, Kunratice, Prague, obvod Praha 4, Capital City of Prague, Prague, 148 00, Czechia",
        "road": "Pramenná",
        "house_number": null,
        "neighbourhood": null,
        "suburb": "Kunratice",
        "city_district": "obvod Praha 4",
        "city": "Capital City of Prague",
        "state": "Prague",
        "postcode": "148 00",
        "country": "Czechia",
        "country_code": "cz"
      },
      "address": "Pramenná, Kunratice, Prague, obvod Praha 4, Capital City of Prague, Prague, 148 00, Czechia"
    }
  ],
  "updated_at": "2025-10-19T04:02:58.438072+00:00",
  "_kind": "geo_samples"
}