{
  "country_code": "CZ",
  "country": "Czechia",
  "city": "Modřany",
  "geonameid": 3070420,
  "target_addresses": 4,
  "samples": [
    {
      "lat": 49.99351870781413,
      "lon": 14.449380552136224,
      "geoinfo": {
        "display_name": "Pod Remízkem, Cholupice, Prague, obvod Praha 4, Capital City of Prague, Prague, 142 00, Czechia",
        "road": "Pod Remízkem",
        "house_number": null,
        "neighbourhood": null,
        "suburb": "Cholupice",
        "city_district": "obvod Praha 4",
        "city": "Capital City of Prague",
        "state": "Prague",
        "postcode": "142 00",
        "country": "Czechia",
        "country_code": "cz"
      },
      "address": "Pod Remízkem, Modřany, Prague, Czechia"
    },
    {
      "lat": 50.00729302923325,
      "lon": 14.429044213981351,
      "geoinfo": {
        "display_name": "Vitošská, Modřany, Prague, obvod Praha 4, Capital City of Prague, Prague, 143 00, Czechia",
        "road": "Vitošská",
        "house_number": null,
        "neighbourhood": null,
        "suburb": "Modřany",
        "city_district": "obvod Praha 4",
        "city": "Capital City of Prague",
        "state": "Prague",
        "postcode": "143 00",
        "country": "Czechia",
        "country_code": "cz"
      },
      "address": "Vitošská, Modřany, Prague, obvod Praha 4, Capital City of Prague, Prague, 143 00, Czechia"
    },
    {
      "lat": 49.99547854135572,
      "lon": 14.444543745158171,
      "geoinfo": {
        "display_name": "ev.191, Pod Remízkem, Cholupice, Prague, obvod Praha 4, Capital City of Prague, Prague, 143 00, Czechia",
        "road": "Pod Remízkem",
        "house_number": "ev.191",
        "neighbourhood": null,
        "suburb": "Cholupice",
        "city_district": "obvod Praha 4",
        "city": "Capital City of Prague",
        "state": "Prague",
        "postcode": "143 00",
        "country": "Czechia",
        "country_code": "cz"
      },
      "address": "ev.191, Pod Remízkem, Cholupice, Prague, obvod Praha 4, Capital City of Prague, Prague, 143 00, Czechia"
    },
    {
      "lat": 49.99274055116512,
      "lon": 14.380658784780785,
      "geoinfo": {
        "display_name": "1036/24, Výpadová, Radotín, Prague, obvod Praha 5, Capital City of Prague, Prague, 153 00, Czechia",
        "road": "Výpadová",
        "house_number": "1036/24",
        "neighbourhood": null,
        "suburb": "Radotín",
        "city_district": "obvod Praha 5",
        "city": "Capital City of Prague",
        "state": "Prague",
        "postcode": "153 00",
        "country": "Czechia",
        "country_code": "cz"
      },
      "address": "1036/24, Výpadová, Radotín, Prague, obvod Praha 5, Capital City of Prague, Prague, 153 00, Czechia"
    }
  ],
  "updated_at": "2025-10-19T04:02:26.477264+00:00",
  "_kind": "geo_samples"
}