{
  "country_code": "CZ",
  "country": "Czechia",
  "city": "Pilsen",
  "geonameid": 3068160,
  "target_addresses": 4,
  "samples": [
    {
      "lat": 49.72565199127607,
      "lon": 13.433744081364667,
      "geoinfo": {
        "display_name": "ev.2985, Božkov, Pilsen, okres Plzeň-město, Plzeň Region, Southwest, 326 00, Czechia",
        "road": null,
        "house_number": "ev.2985",
        "neighbourhood": null,
        "suburb": "Božkov",
        "city_district": null,
        "city": "Pilsen",
        "state": "Southwest",
        "postcode": "326 00",
        "country": "Czechia",
        "country_code": "cz"
      },
      "address": "Božkov, Pilsen, Southwest, Czechia"
    },
    {
      "lat": 49.78221537266283,
      "lon": 13.402660411127385,
      "geoinfo": {
        "display_name": "PS284, Pode Dvory, Bolevec, Plzeň 1, Pilsen, okres Plzeň-město, Plzeň Region, Southwest, 306 32, Czechia",
        "road": "Pode Dvory",
        "house_number": null,
        "neighbourhood": null,
        "suburb": "Bolevec",
        "city_district": "Plzeň 1",
        "city": "Pilsen",
        "state": "Southwest",
        "postcode": "306 32",
        "country": "Czechia",
        "country_code": "cz"
      },
      "address": "PS284, Pode Dvory, Bolevec, Plzeň 1, Pilsen, okres Plzeň-město, Plzeň Region, Southwest, 306 32, Czechia"
    },
    {
      "lat": 49.74440880561895,
      "lon": 13.41562227852273,
      "geoinfo": {
        "display_name": "935/44, Pod Švabinami, Lobzy, Plzeň 4, Pilsen, okres Plzeň-město, Plzeň Region, Southwest, 312 00, Czechia",
        "road": "Pod Švabinami",
        "house_number": "935/44",
        "neighbourhood": null,
        "suburb": "Lobzy",
        "city_district": "Plzeň 4",
        "city": "Pilsen",
        "state": "Southwest",
        "postcode": "312 00",
        "country": "Czechia",
        "country_code": "cz"
      },
      "address": "935/44, Pod Švabinami, Lobzy, Plzeň 4, Pilsen, okres Plzeň-město, Plzeň Region, Southwest, 312 00, Czechia"
    },
    {
      "lat": 49.74314652516636,
      "lon": 13.406434457999259,
      "geoinfo": {
        "display_name": "1213/4b, Nad Úslavou, Lobzy, Plzeň 4, Pilsen, okres Plzeň-město, Plzeň Region, Southwest, 312 00, Czechia",
        "road": "Nad Úslavou",
        "house_number": "1213/4b",
        "neighbourhood": null,
        "suburb": "Lobzy",
        "city_district": "Plzeň 4",
        "city": "Pilsen",
        "state": "Southwest",
        "postcode": "312 00",
        "country": "Czechia",
        "country_code": "cz"
      },
      "address": "1213/4b, Nad Úslavou, Lobzy, Plzeň 4, Pilsen, okres Plzeň-město, Plzeň Region, Southwest, 312 00, Czechia"
    }
  ],
  "updated_at": "2025-10-19T04:02:10.431441+00:00",
  "_kind": "geo_samples"
}