{
  "country_code": "QA",
  "country": "Qatar",
  "city": "Al Hilāl al Gharbīyah",
  "geonameid": 411763,
  "target_addresses": 5,
  "samples": [
    {
      "lat": 25.240331893829964,
      "lon": 51.50852122329359,
      "geoinfo": {
        "display_name": "Al Erbayyat Street, Al Rayyan, Qatar",
        "road": "Al Erbayyat Street",
        "house_number": null,
        "neighbourhood": null,
        "suburb": null,
        "city_district": null,
        "city": "Al Rayyan",
        "state": "Al Rayyan",
        "postcode": null,
        "country": "Qatar",
        "country_code": "qa"
      },
      "address": "142, Al Erbayyat Street, 02740 Al Rayyan, Qatar"
    },
    {
      "lat": 25.26187800542142,
      "lon": 51.519226633068556,
      "geoinfo": {
        "display_name": "Safwan, New Aslata, Doha, Qatar",
        "road": "Safwan",
        "house_number": null,
        "neighbourhood": null,
        "suburb": "New Aslata",
        "city_district": null,
        "city": "Doha",
        "state": null,
        "postcode": null,
        "country": "Qatar",
        "country_code": "qa"
      },
      "address": "343, Safwan, New Aslata, 52629 Doha, Qatar"
    },
    {
      "lat": 25.22366371486371,
      "lon": 51.513392608205244,
      "geoinfo": {
        "display_name": "F Ring Cycle Path, Al Rayyan, Qatar",
        "road": "F Ring Cycle Path",
        "house_number": null,
        "neighbourhood": null,
        "suburb": null,
        "city_district": null,
        "city": "Al Rayyan",
        "state": "Al Rayyan",
        "postcode": null,
        "country": "Qatar",
        "country_code": "qa"
      },
      "address": "003, F Ring Cycle Path, 51528 Al Rayyan, Qatar"
    },
    {
      "lat": 25.26608029967671,
      "lon": 51.49779826303881,
      "geoinfo": {
        "display_name": "Al Nasr Street, Fereej Al Nasr, Doha, Qatar",
        "road": "Al Nasr Street",
        "house_number": null,
        "neighbourhood": null,
        "suburb": "Fereej Al Nasr",
        "city_district": null,
        "city": "Doha",
        "state": null,
        "postcode": null,
        "country": "Qatar",
        "country_code": "qa"
      },
      "address": "706, Al Nasr Street, Fereej Al Nasr, 17354 Doha, Qatar"
    },
    {
      "lat": 25.25059596536625,
      "lon": 51.51225364035598,
      "geoinfo": {
        "display_name": "Musab Bin Omair Street, Nuaija, Doha, Qatar",
        "road": "Musab Bin Omair Street",
        "house_number": null,
        "neighbourhood": null,
        "suburb": "Nuaija",
        "city_district": null,
        "city": "Doha",
        "state": null,
        "postcode": null,
        "country": "Qatar",
        "country_code": "qa"
      },
      "address": "359, Musab Bin Omair Street, Nuaija, 29855 Doha, Qatar"
    }
  ],
  "updated_at": "2025-10-19T04:27:56.691611+00:00",
  "_kind": "geo_samples"
}