{
  "country_code": "QA",
  "country": "Qatar",
  "city": "Al Hilāl ash Sharqīyah",
  "geonameid": 411768,
  "target_addresses": 5,
  "samples": [
    {
      "lat": 25.273118083533785,
      "lon": 51.55219384288636,
      "geoinfo": {
        "display_name": "C Ring Road, Umm Ghuwailina, Doha, Qatar",
        "road": "C Ring Road",
        "house_number": null,
        "neighbourhood": null,
        "suburb": "Umm Ghuwailina",
        "city_district": null,
        "city": "Doha",
        "state": null,
        "postcode": null,
        "country": "Qatar",
        "country_code": "qa"
      },
      "address": "688, C Ring Road, Umm Ghuwailina, 63994 Doha, Qatar"
    },
    {
      "lat": 25.23248948120108,
      "lon": 51.51441529476233,
      "geoinfo": {
        "display_name": "Rawdat Al Khail Street, Al Rayyan, Qatar",
        "road": "Rawdat Al Khail Street",
        "house_number": null,
        "neighbourhood": null,
        "suburb": null,
        "city_district": null,
        "city": "Al Rayyan",
        "state": "Al Rayyan",
        "postcode": null,
        "country": "Qatar",
        "country_code": "qa"
      },
      "address": "961, Rawdat Al Khail Street, 22736 Al Rayyan, Qatar"
    },
    {
      "lat": 25.257726669809024,
      "lon": 51.58453943142022,
      "geoinfo": {
        "display_name": "Khor Al Edaid, Doha, Qatar",
        "road": "Khor Al Edaid",
        "house_number": null,
        "neighbourhood": null,
        "suburb": null,
        "city_district": null,
        "city": "Doha",
        "state": null,
        "postcode": null,
        "country": "Qatar",
        "country_code": "qa"
      },
      "address": "127, Khor Al Edaid, 34414 Doha, Qatar"
    },
    {
      "lat": 25.24529654457446,
      "lon": 51.556199600926426,
      "geoinfo": {
        "display_name": "Al Gassar Street, Old Airport, Doha, Qatar",
        "road": "Al Gassar Street",
        "house_number": null,
        "neighbourhood": null,
        "suburb": "Old Airport",
        "city_district": null,
        "city": "Doha",
        "state": null,
        "postcode": null,
        "country": "Qatar",
        "country_code": "qa"
      },
      "address": "740, Al Gassar Street, Old Airport, 38657 Doha, Qatar"
    },
    {
      "lat": 25.28413401441879,
      "lon": 51.51100898764498,
      "geoinfo": {
        "display_name": "Abu Huthaifa Street, Fereej Bin Mahmoud, Doha, Qatar",
        "road": "Abu Huthaifa Street",
        "house_number": null,
        "neighbourhood": null,
        "suburb": "Fereej Bin Mahmoud",
        "city_district": null,
        "city": "Doha",
        "state": null,
        "postcode": null,
        "country": "Qatar",
        "country_code": "qa"
      },
      "address": "081, Abu Huthaifa Street, Fereej Bin Mahmoud, 30660 Doha, Qatar"
    }
  ],
  "updated_at": "2025-10-19T06:17:55.352418+00:00",
  "_kind": "geo_samples"
}