{
  "country_code": "QA",
  "country": "Qatar",
  "city": "An Najmah",
  "geonameid": 411760,
  "target_addresses": 23,
  "samples": [
    {
      "lat": 25.27665938943158,
      "lon": 51.52862838494165,
      "geoinfo": {
        "display_name": "Rawdat Al Khail Street, Al Doha Al Jadeeda, Doha, Qatar",
        "road": "Rawdat Al Khail Street",
        "house_number": null,
        "neighbourhood": null,
        "suburb": "Al Doha Al Jadeeda",
        "city_district": null,
        "city": "Doha",
        "state": null,
        "postcode": null,
        "country": "Qatar",
        "country_code": "qa"
      },
      "address": "Rawdat Al Khail Street, Al Doha Al Jadeeda, 65037 Doha, Qatar"
    },
    {
      "lat": 25.269227866336433,
      "lon": 51.51826113124383,
      "geoinfo": {
        "display_name": "Al Farqad Street, Rawdat Al Khail, Doha, Qatar",
        "road": "Al Farqad Street",
        "house_number": null,
        "neighbourhood": null,
        "suburb": "Rawdat Al Khail",
        "city_district": null,
        "city": "Doha",
        "state": null,
        "postcode": null,
        "country": "Qatar",
        "country_code": "qa"
      },
      "address": "Al Farqad Street, Rawdat Al Khail, 84503 Doha, Qatar"
    },
    {
      "lat": 25.28729789465227,
      "lon": 51.50279200357335,
      "geoinfo": {
        "display_name": "Al Umma Street, Al Sadd, Doha, Qatar",
        "road": "Al Umma Street",
        "house_number": null,
        "neighbourhood": null,
        "suburb": "Al Sadd",
        "city_district": null,
        "city": "Doha",
        "state": null,
        "postcode": null,
        "country": "Qatar",
        "country_code": "qa"
      },
      "address": "Al Umma Street, Al Sadd, 29415 Doha, Qatar"
    },
    {
      "lat": 25.241500321836515,
      "lon": 51.56530950801872,
      "geoinfo": {
        "display_name": "My baby home, villa 22, Mohammed Bin Mazyed Street, Al Thumama, Doha, 47, Qatar",
        "road": "Mohammed Bin Mazyed Street",
        "house_number": "villa 22",
        "neighbourhood": null,
        "suburb": "Al Thumama",
        "city_district": null,
        "city": "Doha",
        "state": null,
        "postcode": "47",
        "country": "Qatar",
        "country_code": "qa"
      },
      "address": "My baby home, villa 22, Mohammed Bin Mazyed Street, Al Thumama, Doha, 47, Qatar"
    },
    {
      "lat": 25.257712889286488,
      "lon": 51.542047856788464,
      "geoinfo": {
        "display_name": "Al Khawarizmi Street, Al Hilal, Doha, Qatar",
        "road": "Al Khawarizmi Street",
        "house_number": null,
        "neighbourhood": null,
        "suburb": "Al Hilal",
        "city_district": null,
        "city": "Doha",
        "state": null,
        "postcode": null,
        "country": "Qatar",
        "country_code": "qa"
      },
      "address": "240, Al Khawarizmi Street, Al Hilal, 65918 Doha, Qatar"
    },
    {
      "lat": 25.283952466474197,
      "lon": 51.52722669396005,
      "geoinfo": {
        "display_name": "Mushayrib, Mushayrib Downtown Doha, Doha, Qatar",
        "road": null,
        "house_number": null,
        "neighbourhood": null,
        "suburb": "Mushayrib Downtown Doha",
        "city_district": null,
        "city": "Doha",
        "state": null,
        "postcode": null,
        "country": "Qatar",
        "country_code": "qa"
      },
      "address": "620, Mushayrib, Mushayrib Downtown Doha, 95728 Doha, Qatar"
    },
    {
      "lat": 25.25423232228535,
      "lon": 51.51734719080438,
      "geoinfo": {
        "display_name": "D Ring Road, Nuaija, Doha, Qatar",
        "road": "D Ring Road",
        "house_number": null,
        "neighbourhood": null,
        "suburb": "Nuaija",
        "city_district": null,
        "city": "Doha",
        "state": null,
        "postcode": null,
        "country": "Qatar",
        "country_code": "qa"
      },
      "address": "256, D Ring Road, Nuaija, 79913 Doha, Qatar"
    },
    {
      "lat": 25.300638120346456,
      "lon": 51.542117899038566,
      "geoinfo": {
        "display_name": "Al Meena Street, Mina District, Doha Port, Doha, Qatar",
        "road": "Al Meena Street",
        "house_number": null,
        "neighbourhood": null,
        "suburb": "Mina District",
        "city_district": null,
        "city": "Doha",
        "state": null,
        "postcode": null,
        "country": "Qatar",
        "country_code": "qa"
      },
      "address": "873, Al Meena Street, Mina District, Doha Port, 57353 Doha, Qatar"
    },
    {
      "lat": 25.262790286328517,
      "lon": 51.55709391153584,
      "geoinfo": {
        "display_name": "Al Matar Street, Old Airport, Doha, Qatar",
        "road": "Al Matar Street",
        "house_number": null,
        "neighbourhood": null,
        "suburb": "Old Airport",
        "city_district": null,
        "city": "Doha",
        "state": null,
        "postcode": null,
        "country": "Qatar",
        "country_code": "qa"
      },
      "address": "293, Al Matar Street, Old Airport, 75560 Doha, Qatar"
    },
    {
      "lat": 25.30185433752207,
      "lon": 51.53220382389599,
      "geoinfo": {
        "display_name": "Fifa World Cup Qatar 2022 Logo Statue, Al Corniche Street, West Bay, Al Dafna, Doha, Qatar",
        "road": "Al Corniche Street",
        "house_number": null,
        "neighbourhood": null,
        "suburb": "West Bay",
        "city_district": null,
        "city": "Doha",
        "state": null,
        "postcode": null,
        "country": "Qatar",
        "country_code": "qa"
      },
      "address": "Fifa World Cup Qatar 2022 Logo Statue, Al Corniche Street, West Bay, Al Dafna, 66952 Doha, Qatar"
    },
    {
      "lat": 25.253709948468643,
      "lon": 51.565375501090216,
      "geoinfo": {
        "display_name": "Al Matar Street, Doha International Airport, Doha, Qatar",
        "road": "Al Matar Street",
        "house_number": null,
        "neighbourhood": null,
        "suburb": "Doha International Airport",
        "city_district": null,
        "city": "Doha",
        "state": null,
        "postcode": null,
        "country": "Qatar",
        "country_code": "qa"
      },
      "address": "512, Al Matar Street, Doha International Airport, 52181 Doha, Qatar"
    },
    {
      "lat": 25.290098343754916,
      "lon": 51.52409789682521,
      "geoinfo": {
        "display_name": "Qalat Al Askar Street, Al Bidda, Doha, Qatar",
        "road": "Qalat Al Askar Street",
        "house_number": null,
        "neighbourhood": null,
        "suburb": "Al Bidda",
        "city_district": null,
        "city": "Doha",
        "state": null,
        "postcode": null,
        "country": "Qatar",
        "country_code": "qa"
      },
      "address": "124, Qalat Al Askar Street, Al Bidda, 12881 Doha, Qatar"
    },
    {
      "lat": 25.280162692642293,
      "lon": 51.54208774448308,
      "geoinfo": {
        "display_name": "Saad Bin Ubada, Old Al Ghanim, Doha, Qatar",
        "road": "Saad Bin Ubada",
        "house_number": null,
        "neighbourhood": null,
        "suburb": "Old Al Ghanim",
        "city_district": null,
        "city": "Doha",
        "state": null,
        "postcode": null,
        "country": "Qatar",
        "country_code": "qa"
      },
      "address": "433, Saad Bin Ubada, Old Al Ghanim, 12475 Doha, Qatar"
    },
    {
      "lat": 25.281660247583066,
      "lon": 51.56200270584187,
      "geoinfo": {
        "display_name": "Laffan Residential Compound, Doha International Airport, Doha, Qatar",
        "road": null,
        "house_number": null,
        "neighbourhood": null,
        "suburb": "Doha International Airport",
        "city_district": null,
        "city": "Doha",
        "state": null,
        "postcode": null,
        "country": "Qatar",
        "country_code": "qa"
      },
      "address": "596, Laffan Residential Compound, Doha International Airport, 35506 Doha, Qatar"
    },
    {
      "lat": 25.297498007197095,
      "lon": 51.53156027720604,
      "geoinfo": {
        "display_name": "Al Corniche Street, Souq Waqif, Al Jasra, Doha, Qatar",
        "road": "Al Corniche Street",
        "house_number": null,
        "neighbourhood": "Souq Waqif",
        "suburb": "Al Jasra",
        "city_district": null,
        "city": "Doha",
        "state": null,
        "postcode": null,
        "country": "Qatar",
        "country_code": "qa"
      },
      "address": "800, Al Corniche Street, Souq Waqif, Al Jasra, 67636 Doha, Qatar"
    },
    {
      "lat": 25.246816380268697,
      "lon": 51.516811542594255,
      "geoinfo": {
        "display_name": "Zaid Bin Thabit Street, Nuaija, Doha, Qatar",
        "road": "Zaid Bin Thabit Street",
        "house_number": null,
        "neighbourhood": null,
        "suburb": "Nuaija",
        "city_district": null,
        "city": "Doha",
        "state": null,
        "postcode": null,
        "country": "Qatar",
        "country_code": "qa"
      },
      "address": "706, Zaid Bin Thabit Street, Nuaija, 55614 Doha, Qatar"
    },
    {
      "lat": 25.239684879766255,
      "lon": 51.57452109245526,
      "geoinfo": {
        "display_name": "Al Matar Street, Doha International Airport, Doha, Qatar",
        "road": "Al Matar Street",
        "house_number": null,
        "neighbourhood": null,
        "suburb": "Doha International Airport",
        "city_district": null,
        "city": "Doha",
        "state": null,
        "postcode": null,
        "country": "Qatar",
        "country_code": "qa"
      },
      "address": "983, Al Matar Street, Doha International Airport, 77685 Doha, Qatar"
    },
    {
      "lat": 25.22544505707059,
      "lon": 51.53060533630187,
      "geoinfo": {
        "display_name": "Doha Express Highway, Al Rayyan, Qatar",
        "road": "Doha Express Highway",
        "house_number": null,
        "neighbourhood": null,
        "suburb": null,
        "city_district": null,
        "city": "Al Rayyan",
        "state": "Al Rayyan",
        "postcode": null,
        "country": "Qatar",
        "country_code": "qa"
      },
      "address": "269, Doha Express Highway, 72262 Al Rayyan, Qatar"
    },
    {
      "lat": 25.263023133262596,
      "lon": 51.56515047772585,
      "geoinfo": {
        "display_name": "D Ring Road, Doha International Airport, Doha, Qatar",
        "road": "D Ring Road",
        "house_number": null,
        "neighbourhood": null,
        "suburb": "Doha International Airport",
        "city_district": null,
        "city": "Doha",
        "state": null,
        "postcode": null,
        "country": "Qatar",
        "country_code": "qa"
      },
      "address": "205, D Ring Road, Doha International Airport, 36472 Doha, Qatar"
    },
    {
      "lat": 25.260872371296106,
      "lon": 51.55990854264366,
      "geoinfo": {
        "display_name": "Al Matar Street, Doha International Airport, Doha, Qatar",
        "road": "Al Matar Street",
        "house_number": null,
        "neighbourhood": null,
        "suburb": "Doha International Airport",
        "city_district": null,
        "city": "Doha",
        "state": null,
        "postcode": null,
        "country": "Qatar",
        "country_code": "qa"
      },
      "address": "679, Al Matar Street, Doha International Airport, 55121 Doha, Qatar"
    },
    {
      "lat": 25.249238255742913,
      "lon": 51.55283946449657,
      "geoinfo": {
        "display_name": "Saeed Bin Zaid Street, Old Airport, Doha, Qatar",
        "road": "Saeed Bin Zaid Street",
        "house_number": null,
        "neighbourhood": null,
        "suburb": "Old Airport",
        "city_district": null,
        "city": "Doha",
        "state": null,
        "postcode": null,
        "country": "Qatar",
        "country_code": "qa"
      },
      "address": "965, Saeed Bin Zaid Street, Old Airport, 10627 Doha, Qatar"
    },
    {
      "lat": 25.270068880187903,
      "lon": 51.55581104144005,
      "geoinfo": {
        "display_name": "Street 952, Doha International Airport, Doha, Qatar",
        "road": "Street 952",
        "house_number": null,
        "neighbourhood": null,
        "suburb": "Doha International Airport",
        "city_district": null,
        "city": "Doha",
        "state": null,
        "postcode": null,
        "country": "Qatar",
        "country_code": "qa"
      },
      "address": "Street 952, Doha International Airport, 97112 Doha, Qatar"
    },
    {
      "lat": 25.22575206158755,
      "lon": 51.55149912334788,
      "geoinfo": {
        "display_name": "Al Khuzama Street, Al Thumama, Doha, Qatar",
        "road": "Al Khuzama Street",
        "house_number": null,
        "neighbourhood": null,
        "suburb": "Al Thumama",
        "city_district": null,
        "city": "Doha",
        "state": null,
        "postcode": null,
        "country": "Qatar",
        "country_code": "qa"
      },
      "address": "044, Al Khuzama Street, Al Thumama, 19247 Doha, Qatar"
    }
  ],
  "updated_at": "2025-10-19T06:10:30.746593+00:00",
  "_kind": "geo_samples"
}