{
  "country_code": "QA",
  "country": "Qatar",
  "city": "Ar Rayyān",
  "geonameid": 289888,
  "target_addresses": 5,
  "samples": [
    {
      "lat": 25.291334879327565,
      "lon": 51.44203399607596,
      "geoinfo": {
        "display_name": "Mehairja, Al Rayyan, Qatar",
        "road": null,
        "house_number": null,
        "neighbourhood": null,
        "suburb": "Mehairja",
        "city_district": null,
        "city": "Al Rayyan",
        "state": "Al Rayyan",
        "postcode": null,
        "country": "Qatar",
        "country_code": "qa"
      },
      "address": "Mehairja, Ar Rayyān, Al Rayyan, Qatar"
    },
    {
      "lat": 25.256750102843124,
      "lon": 51.43787166401686,
      "geoinfo": {
        "display_name": "Al Waab Street, Al Aziziya, Al Rayyan, Qatar",
        "road": "Al Waab Street",
        "house_number": null,
        "neighbourhood": null,
        "suburb": "Al Aziziya",
        "city_district": null,
        "city": "Al Rayyan",
        "state": "Al Rayyan",
        "postcode": null,
        "country": "Qatar",
        "country_code": "qa"
      },
      "address": "Al Waab Street, Ar Rayyān, Al Rayyan, Qatar"
    },
    {
      "lat": 25.290497486812615,
      "lon": 51.407504594821404,
      "geoinfo": {
        "display_name": "Mukainis Street, New Al Rayyan, Al Rayyan, Qatar",
        "road": "Mukainis Street",
        "house_number": null,
        "neighbourhood": null,
        "suburb": "New Al Rayyan",
        "city_district": null,
        "city": "Al Rayyan",
        "state": "Al Rayyan",
        "postcode": null,
        "country": "Qatar",
        "country_code": "qa"
      },
      "address": "Mukainis Street, Ar Rayyān, Al Rayyan, Qatar"
    },
    {
      "lat": 25.2961228484702,
      "lon": 51.413910332582105,
      "geoinfo": {
        "display_name": "Tenbek Street, New Al Rayyan, Al Rayyan, Qatar",
        "road": "Tenbek Street",
        "house_number": null,
        "neighbourhood": null,
        "suburb": "New Al Rayyan",
        "city_district": null,
        "city": "Al Rayyan",
        "state": "Al Rayyan",
        "postcode": null,
        "country": "Qatar",
        "country_code": "qa"
      },
      "address": "Tenbek Street, Ar Rayyān, Al Rayyan, Qatar"
    },
    {
      "lat": 25.280996092366564,
      "lon": 51.446816502005994,
      "geoinfo": {
        "display_name": "Al Samriya Street, Mehairja, Al Rayyan, Qatar",
        "road": "Al Samriya Street",
        "house_number": null,
        "neighbourhood": null,
        "suburb": "Mehairja",
        "city_district": null,
        "city": "Al Rayyan",
        "state": "Al Rayyan",
        "postcode": null,
        "country": "Qatar",
        "country_code": "qa"
      },
      "address": "Al Samriya Street, Ar Rayyān, Al Rayyan, Qatar"
    },
    {
      "lat": 25.29424766884376,
      "lon": 51.42522874919893,
      "geoinfo": {
        "display_name": "Al Jassasiya Street, New Al Rayyan, Al Rayyan, Qatar",
        "road": "Al Jassasiya Street",
        "house_number": null,
        "neighbourhood": null,
        "suburb": "New Al Rayyan",
        "city_district": null,
        "city": "Al Rayyan",
        "state": "Al Rayyan",
        "postcode": null,
        "country": "Qatar",
        "country_code": "qa"
      },
      "address": "777, Al Jassasiya Street, New Al Rayyan, 66321 Al Rayyan, Qatar"
    },
    {
      "lat": 25.295864724207924,
      "lon": 51.387846966549304,
      "geoinfo": {
        "display_name": "Street 599, Al Wajba, Al Rayyan, Qatar",
        "road": "Street 599",
        "house_number": null,
        "neighbourhood": null,
        "suburb": "Al Wajba",
        "city_district": null,
        "city": "Al Rayyan",
        "state": "Al Rayyan",
        "postcode": null,
        "country": "Qatar",
        "country_code": "qa"
      },
      "address": "Street 599, Al Wajba, 91642 Al Rayyan, Qatar"
    },
    {
      "lat": 25.278898126703403,
      "lon": 51.43659885906937,
      "geoinfo": {
        "display_name": "Baaya Street, Mehairja, Al Rayyan, Qatar",
        "road": "Baaya Street",
        "house_number": null,
        "neighbourhood": null,
        "suburb": "Mehairja",
        "city_district": null,
        "city": "Al Rayyan",
        "state": "Al Rayyan",
        "postcode": null,
        "country": "Qatar",
        "country_code": "qa"
      },
      "address": "369, Baaya Street, Mehairja, 93759 Al Rayyan, Qatar"
    },
    {
      "lat": 25.330941217713775,
      "lon": 51.44091730588716,
      "geoinfo": {
        "display_name": "Al Gharrafa, Al Rayyan, Qatar",
        "road": null,
        "house_number": null,
        "neighbourhood": null,
        "suburb": "Al Gharrafa",
        "city_district": null,
        "city": "Al Rayyan",
        "state": "Al Rayyan",
        "postcode": null,
        "country": "Qatar",
        "country_code": "qa"
      },
      "address": "457, Al Gharrafa, 50763 Al Rayyan, Qatar"
    },
    {
      "lat": 25.292682823785867,
      "lon": 51.40833217788995,
      "geoinfo": {
        "display_name": "Umm Al Heeran, New Al Rayyan, Al Rayyan, Qatar",
        "road": "Umm Al Heeran",
        "house_number": null,
        "neighbourhood": null,
        "suburb": "New Al Rayyan",
        "city_district": null,
        "city": "Al Rayyan",
        "state": "Al Rayyan",
        "postcode": null,
        "country": "Qatar",
        "country_code": "qa"
      },
      "address": "921, Umm Al Heeran, New Al Rayyan, 95419 Al Rayyan, Qatar"
    }
  ],
  "updated_at": "2025-10-19T06:17:37.398179+00:00",
  "_kind": "geo_samples"
}