{
  "country_code": "QA",
  "country": "Qatar",
  "city": "As Sadd",
  "geonameid": 411820,
  "target_addresses": 23,
  "samples": [
    {
      "lat": 25.244309090790082,
      "lon": 51.51391198519823,
      "geoinfo": {
        "display_name": "Ibn Al Nahhas Street, Doha, Qatar",
        "road": "Ibn Al Nahhas Street",
        "house_number": null,
        "neighbourhood": null,
        "suburb": null,
        "city_district": null,
        "city": "Doha",
        "state": null,
        "postcode": null,
        "country": "Qatar",
        "country_code": "qa"
      },
      "address": "Ibn Al Nahhas Street, 56828 Doha, Qatar"
    },
    {
      "lat": 25.32336103970519,
      "lon": 51.519408604551195,
      "geoinfo": {
        "display_name": "Saha 15, Onaiza, Onaiza (63), Doha, Qatar",
        "road": "Saha 15",
        "house_number": null,
        "neighbourhood": null,
        "suburb": "Onaiza",
        "city_district": null,
        "city": "Doha",
        "state": null,
        "postcode": null,
        "country": "Qatar",
        "country_code": "qa"
      },
      "address": "Saha 15, Onaiza, Onaiza (63), Doha, Qatar"
    },
    {
      "lat": 25.31656099717317,
      "lon": 51.48248656238375,
      "geoinfo": {
        "display_name": "Al Khuzaie Street, Madinat Khalifa South, Doha, Qatar",
        "road": "Al Khuzaie Street",
        "house_number": null,
        "neighbourhood": null,
        "suburb": "Madinat Khalifa South",
        "city_district": null,
        "city": "Doha",
        "state": null,
        "postcode": null,
        "country": "Qatar",
        "country_code": "qa"
      },
      "address": "Al Khuzaie Street, Madinat Khalifa South, 06723 Doha, Qatar"
    },
    {
      "lat": 25.308806206903423,
      "lon": 51.52179956422288,
      "geoinfo": {
        "display_name": "Qatar 2015, Al Corniche Street, West Bay, Al Dafna, Doha, Qatar",
        "road": "Al Corniche Street",
        "house_number": null,
        "neighbourhood": null,
        "suburb": "West Bay",
        "city_district": null,
        "city": "Doha",
        "state": null,
        "postcode": null,
        "country": "Qatar",
        "country_code": "qa"
      },
      "address": "Qatar 2015, Al Corniche Street, West Bay, Al Dafna, Doha, Qatar"
    },
    {
      "lat": 25.327985772128272,
      "lon": 51.51678852074763,
      "geoinfo": {
        "display_name": "Onaiza Street, Unaiza, Doha, Qatar",
        "road": "Onaiza Street",
        "house_number": null,
        "neighbourhood": null,
        "suburb": "Unaiza",
        "city_district": null,
        "city": "Doha",
        "state": null,
        "postcode": null,
        "country": "Qatar",
        "country_code": "qa"
      },
      "address": "544, Onaiza Street, Unaiza, 86875 Doha, Qatar"
    },
    {
      "lat": 25.283437211920802,
      "lon": 51.514967402006526,
      "geoinfo": {
        "display_name": "Ibn Mahmoud Street, Fereej Bin Mahmoud, Doha, Qatar",
        "road": "Ibn Mahmoud Street",
        "house_number": null,
        "neighbourhood": null,
        "suburb": "Fereej Bin Mahmoud",
        "city_district": null,
        "city": "Doha",
        "state": null,
        "postcode": null,
        "country": "Qatar",
        "country_code": "qa"
      },
      "address": "146, Ibn Mahmoud Street, Fereej Bin Mahmoud, 15428 Doha, Qatar"
    },
    {
      "lat": 25.28969467384287,
      "lon": 51.50046253294112,
      "geoinfo": {
        "display_name": "Al Balagh Street, Al Sadd, Doha, Qatar",
        "road": "Al Balagh Street",
        "house_number": null,
        "neighbourhood": null,
        "suburb": "Al Sadd",
        "city_district": null,
        "city": "Doha",
        "state": null,
        "postcode": null,
        "country": "Qatar",
        "country_code": "qa"
      },
      "address": "278, Al Balagh Street, Al Sadd, 56821 Doha, Qatar"
    },
    {
      "lat": 25.24440098288205,
      "lon": 51.48259375189575,
      "geoinfo": {
        "display_name": "Namlan Street, Al Rayyan, Qatar",
        "road": "Namlan Street",
        "house_number": null,
        "neighbourhood": null,
        "suburb": null,
        "city_district": null,
        "city": "Al Rayyan",
        "state": "Al Rayyan",
        "postcode": null,
        "country": "Qatar",
        "country_code": "qa"
      },
      "address": "172, Namlan Street, 82444 Al Rayyan, Qatar"
    },
    {
      "lat": 25.30045839643705,
      "lon": 51.51137851129586,
      "geoinfo": {
        "display_name": "Al Qiyada Street, Arumaila, Doha, Qatar",
        "road": "Al Qiyada Street",
        "house_number": null,
        "neighbourhood": null,
        "suburb": "Arumaila",
        "city_district": null,
        "city": "Doha",
        "state": null,
        "postcode": null,
        "country": "Qatar",
        "country_code": "qa"
      },
      "address": "108, Al Qiyada Street, Arumaila, 57555 Doha, Qatar"
    },
    {
      "lat": 25.278829011516745,
      "lon": 51.546284039114376,
      "geoinfo": {
        "display_name": "Ibn Al Jawzi Street, Umm Ghuwailina, Doha, Qatar",
        "road": "Ibn Al Jawzi Street",
        "house_number": null,
        "neighbourhood": null,
        "suburb": "Umm Ghuwailina",
        "city_district": null,
        "city": "Doha",
        "state": null,
        "postcode": null,
        "country": "Qatar",
        "country_code": "qa"
      },
      "address": "260, Ibn Al Jawzi Street, Umm Ghuwailina, 28319 Doha, Qatar"
    },
    {
      "lat": 25.25513283354425,
      "lon": 51.52135650160477,
      "geoinfo": {
        "display_name": "Hammad Bin Salama Street, New Aslata, Doha, Qatar",
        "road": "Hammad Bin Salama Street",
        "house_number": null,
        "neighbourhood": null,
        "suburb": "New Aslata",
        "city_district": null,
        "city": "Doha",
        "state": null,
        "postcode": null,
        "country": "Qatar",
        "country_code": "qa"
      },
      "address": "948, Hammad Bin Salama Street, New Aslata, 58698 Doha, Qatar"
    },
    {
      "lat": 25.299831499765105,
      "lon": 51.46515796892628,
      "geoinfo": {
        "display_name": "Al Sunay Street, Al Rayyan, Qatar",
        "road": "Al Sunay Street",
        "house_number": null,
        "neighbourhood": null,
        "suburb": null,
        "city_district": null,
        "city": "Al Rayyan",
        "state": "Al Rayyan",
        "postcode": null,
        "country": "Qatar",
        "country_code": "qa"
      },
      "address": "668, Al Sunay Street, 13879 Al Rayyan, Qatar"
    },
    {
      "lat": 25.319596746977748,
      "lon": 51.481195865852555,
      "geoinfo": {
        "display_name": "Al Ghowairiya Street, Madinat Khalifa South, Doha, Qatar",
        "road": "Al Ghowairiya Street",
        "house_number": null,
        "neighbourhood": null,
        "suburb": "Madinat Khalifa South",
        "city_district": null,
        "city": "Doha",
        "state": null,
        "postcode": null,
        "country": "Qatar",
        "country_code": "qa"
      },
      "address": "916, Al Ghowairiya Street, Madinat Khalifa South, 81303 Doha, Qatar"
    },
    {
      "lat": 25.26291002586504,
      "lon": 51.484074540338646,
      "geoinfo": {
        "display_name": "Ahmed Bin Taymiya Street, Fereej Al Soudan, Al Rayyan, Qatar",
        "road": "Ahmed Bin Taymiya Street",
        "house_number": null,
        "neighbourhood": null,
        "suburb": "Fereej Al Soudan",
        "city_district": null,
        "city": "Al Rayyan",
        "state": "Al Rayyan",
        "postcode": null,
        "country": "Qatar",
        "country_code": "qa"
      },
      "address": "224, Ahmed Bin Taymiya Street, Fereej Al Soudan, 57435 Al Rayyan, Qatar"
    },
    {
      "lat": 25.30220168064738,
      "lon": 51.514013519207836,
      "geoinfo": {
        "display_name": "Jogging Track, Arumaila, Doha, Qatar",
        "road": "Jogging Track",
        "house_number": null,
        "neighbourhood": null,
        "suburb": "Arumaila",
        "city_district": null,
        "city": "Doha",
        "state": null,
        "postcode": null,
        "country": "Qatar",
        "country_code": "qa"
      },
      "address": "677, Jogging Track, Arumaila, 07970 Doha, Qatar"
    },
    {
      "lat": 25.295642928734555,
      "lon": 51.47209403989099,
      "geoinfo": {
        "display_name": "Al Rayyan Al Jadeed, Al Rayyan, Qatar",
        "road": "Al Rayyan Al Jadeed",
        "house_number": null,
        "neighbourhood": null,
        "suburb": null,
        "city_district": null,
        "city": "Al Rayyan",
        "state": "Al Rayyan",
        "postcode": null,
        "country": "Qatar",
        "country_code": "qa"
      },
      "address": "331, Al Rayyan Al Jadeed, 41118 Al Rayyan, Qatar"
    },
    {
      "lat": 25.297368992835338,
      "lon": 51.48656653006643,
      "geoinfo": {
        "display_name": "Broadway Crescent, Al Rayaan Village, Al Messila, Doha, Qatar",
        "road": "Broadway Crescent",
        "house_number": null,
        "neighbourhood": null,
        "suburb": "Al Messila",
        "city_district": null,
        "city": "Doha",
        "state": null,
        "postcode": null,
        "country": "Qatar",
        "country_code": "qa"
      },
      "address": "520, Broadway Crescent, Al Rayaan Village, Al Messila, 93678 Doha, Qatar"
    },
    {
      "lat": 25.25232927100007,
      "lon": 51.499537171465185,
      "geoinfo": {
        "display_name": "Ibn Al Mufaddal Street, Doha, Qatar",
        "road": "Ibn Al Mufaddal Street",
        "house_number": null,
        "neighbourhood": null,
        "suburb": null,
        "city_district": null,
        "city": "Doha",
        "state": null,
        "postcode": null,
        "country": "Qatar",
        "country_code": "qa"
      },
      "address": "217, Ibn Al Mufaddal Street, 30679 Doha, Qatar"
    },
    {
      "lat": 25.256003917740337,
      "lon": 51.479095728330826,
      "geoinfo": {
        "display_name": "Wadi Zekreet Street, Al Waab, Al Rayyan, Qatar",
        "road": "Wadi Zekreet Street",
        "house_number": null,
        "neighbourhood": null,
        "suburb": "Al Waab",
        "city_district": null,
        "city": "Al Rayyan",
        "state": "Al Rayyan",
        "postcode": null,
        "country": "Qatar",
        "country_code": "qa"
      },
      "address": "100, Wadi Zekreet Street, Al Waab, 62956 Al Rayyan, Qatar"
    },
    {
      "lat": 25.31540030643365,
      "lon": 51.534118536898674,
      "geoinfo": {
        "display_name": "Al Funduq Street, West Bay, Al Dafna, Doha, Qatar",
        "road": "Al Funduq Street",
        "house_number": null,
        "neighbourhood": null,
        "suburb": "West Bay",
        "city_district": null,
        "city": "Doha",
        "state": null,
        "postcode": null,
        "country": "Qatar",
        "country_code": "qa"
      },
      "address": "858, Al Funduq Street, West Bay, Al Dafna, 84475 Doha, Qatar"
    },
    {
      "lat": 25.24984837351069,
      "lon": 51.522232734451606,
      "geoinfo": {
        "display_name": "Abdulla Bin Jathl Street, Nuaija, Doha, Qatar",
        "road": "Abdulla Bin Jathl Street",
        "house_number": null,
        "neighbourhood": null,
        "suburb": "Nuaija",
        "city_district": null,
        "city": "Doha",
        "state": null,
        "postcode": null,
        "country": "Qatar",
        "country_code": "qa"
      },
      "address": "282, Abdulla Bin Jathl Street, Nuaija, 57433 Doha, Qatar"
    },
    {
      "lat": 25.272008922173537,
      "lon": 51.45722258552551,
      "geoinfo": {
        "display_name": "Mehairja, Al Rayyan, Qatar",
        "road": null,
        "house_number": null,
        "neighbourhood": null,
        "suburb": "Mehairja",
        "city_district": null,
        "city": "Al Rayyan",
        "state": "Al Rayyan",
        "postcode": null,
        "country": "Qatar",
        "country_code": "qa"
      },
      "address": "197, Mehairja, 23112 Al Rayyan, Qatar"
    },
    {
      "lat": 25.25558013288335,
      "lon": 51.532812187778966,
      "geoinfo": {
        "display_name": "Al Azeema Street, Nuaija, Doha, Qatar",
        "road": "Al Azeema Street",
        "house_number": null,
        "neighbourhood": null,
        "suburb": "Nuaija",
        "city_district": null,
        "city": "Doha",
        "state": null,
        "postcode": null,
        "country": "Qatar",
        "country_code": "qa"
      },
      "address": "070, Al Azeema Street, Nuaija, 97241 Doha, Qatar"
    }
  ],
  "updated_at": "2025-10-19T06:11:02.274641+00:00",
  "_kind": "geo_samples"
}