{
  "country_code": "QA",
  "country": "Qatar",
  "city": "Ath Thumāmah Sab‘ah wa Arba‘ūn",
  "geonameid": 12242644,
  "target_addresses": 5,
  "samples": [
    {
      "lat": 25.26020771868589,
      "lon": 51.52311233514947,
      "geoinfo": {
        "display_name": "Suhaib Bin Sinan Street, New Aslata, Doha, Qatar",
        "road": "Suhaib Bin Sinan Street",
        "house_number": null,
        "neighbourhood": null,
        "suburb": "New Aslata",
        "city_district": null,
        "city": "Doha",
        "state": null,
        "postcode": null,
        "country": "Qatar",
        "country_code": "qa"
      },
      "address": "566, Suhaib Bin Sinan Street, New Aslata, 07055 Doha, Qatar"
    },
    {
      "lat": 25.268715903275357,
      "lon": 51.57695894191154,
      "geoinfo": {
        "display_name": "Khor Al Edaid, Doha International Airport, Doha, Qatar",
        "road": "Khor Al Edaid",
        "house_number": null,
        "neighbourhood": null,
        "suburb": "Doha International Airport",
        "city_district": null,
        "city": "Doha",
        "state": null,
        "postcode": null,
        "country": "Qatar",
        "country_code": "qa"
      },
      "address": "810, Khor Al Edaid, Doha International Airport, 33944 Doha, Qatar"
    },
    {
      "lat": 25.20534551350731,
      "lon": 51.590724679405774,
      "geoinfo": {
        "display_name": "Al Wakra Road, Doha, Qatar",
        "road": "Al Wakra Road",
        "house_number": null,
        "neighbourhood": null,
        "suburb": null,
        "city_district": null,
        "city": "Doha",
        "state": null,
        "postcode": null,
        "country": "Qatar",
        "country_code": "qa"
      },
      "address": "805, Al Wakra Road, 25823 Doha, Qatar"
    },
    {
      "lat": 25.235737306599976,
      "lon": 51.57240726504738,
      "geoinfo": {
        "display_name": "Al Fadael Street, Al Thumama, Doha, Qatar",
        "road": "Al Fadael Street",
        "house_number": null,
        "neighbourhood": null,
        "suburb": "Al Thumama",
        "city_district": null,
        "city": "Doha",
        "state": null,
        "postcode": null,
        "country": "Qatar",
        "country_code": "qa"
      },
      "address": "843, Al Fadael Street, Al Thumama, 28207 Doha, Qatar"
    },
    {
      "lat": 25.2644864070638,
      "lon": 51.53210756834342,
      "geoinfo": {
        "display_name": "Al Suhail Street, Al Mansoura, Doha, Qatar",
        "road": "Al Suhail Street",
        "house_number": null,
        "neighbourhood": null,
        "suburb": "Al Mansoura",
        "city_district": null,
        "city": "Doha",
        "state": null,
        "postcode": null,
        "country": "Qatar",
        "country_code": "qa"
      },
      "address": "667, Al Suhail Street, Al Mansoura, 31552 Doha, Qatar"
    }
  ],
  "updated_at": "2025-10-19T05:18:21.215758+00:00",
  "_kind": "geo_samples"
}