{
  "country_code": "QA",
  "country": "Qatar",
  "city": "FarÄ«j Kulayb",
  "geonameid": 12219798,
  "target_addresses": 5,
  "samples": [
    {
      "lat": 25.286534868463704,
      "lon": 51.52219266632142,
      "geoinfo": {
        "display_name": "Muslim Bin Aqeel, Mushayrib, Doha, Qatar",
        "road": "Muslim Bin Aqeel",
        "house_number": null,
        "neighbourhood": null,
        "suburb": "Mushayrib",
        "city_district": null,
        "city": "Doha",
        "state": null,
        "postcode": null,
        "country": "Qatar",
        "country_code": "qa"
      },
      "address": "491, Muslim Bin Aqeel, Mushayrib, 18266 Doha, Qatar"
    },
    {
      "lat": 25.34309786109778,
      "lon": 51.48381496546064,
      "geoinfo": {
        "display_name": "Umm Grain Street, Hazm Al Markhiya, Doha, Qatar",
        "road": "Umm Grain Street",
        "house_number": null,
        "neighbourhood": null,
        "suburb": "Hazm Al Markhiya",
        "city_district": null,
        "city": "Doha",
        "state": null,
        "postcode": null,
        "country": "Qatar",
        "country_code": "qa"
      },
      "address": "862, Umm Grain Street, Hazm Al Markhiya, 20629 Doha, Qatar"
    },
    {
      "lat": 25.278724296530577,
      "lon": 51.461719804678545,
      "geoinfo": {
        "display_name": "Sulaiman Bin Ahmed Street, Mehairja, Al Rayyan, Qatar",
        "road": "Sulaiman Bin Ahmed Street",
        "house_number": null,
        "neighbourhood": null,
        "suburb": "Mehairja",
        "city_district": null,
        "city": "Al Rayyan",
        "state": "Al Rayyan",
        "postcode": null,
        "country": "Qatar",
        "country_code": "qa"
      },
      "address": "857, Sulaiman Bin Ahmed Street, Mehairja, 79809 Al Rayyan, Qatar"
    },
    {
      "lat": 25.301620506588527,
      "lon": 51.50284962841013,
      "geoinfo": {
        "display_name": "Mohammed Bin Thani Street, Wadi Al Sail, Doha, Qatar",
        "road": "Mohammed Bin Thani Street",
        "house_number": null,
        "neighbourhood": null,
        "suburb": "Wadi Al Sail",
        "city_district": null,
        "city": "Doha",
        "state": null,
        "postcode": null,
        "country": "Qatar",
        "country_code": "qa"
      },
      "address": "154, Mohammed Bin Thani Street, Wadi Al Sail, 75373 Doha, Qatar"
    },
    {
      "lat": 25.335114759960764,
      "lon": 51.52475104876658,
      "geoinfo": {
        "display_name": "Sahat Al Khor, Onaiza, Al Gassar, Doha, Qatar",
        "road": "Sahat Al Khor",
        "house_number": null,
        "neighbourhood": null,
        "suburb": "Onaiza",
        "city_district": null,
        "city": "Doha",
        "state": null,
        "postcode": null,
        "country": "Qatar",
        "country_code": "qa"
      },
      "address": "278, Sahat Al Khor, Onaiza, Al Gassar, 96453 Doha, Qatar"
    }
  ],
  "updated_at": "2025-10-19T06:18:09.198959+00:00",
  "_kind": "geo_samples"
}