{
  "country_code": "QA",
  "country": "Qatar",
  "city": "Umm LakhbƒÅ",
  "geonameid": 11207824,
  "target_addresses": 5,
  "samples": [
    {
      "lat": 25.33180323836086,
      "lon": 51.46086861468227,
      "geoinfo": {
        "display_name": "New Al Hateem Street, Al Gharrafa, Al Rayyan, Qatar",
        "road": "New Al Hateem Street",
        "house_number": null,
        "neighbourhood": null,
        "suburb": "Al Gharrafa",
        "city_district": null,
        "city": "Al Rayyan",
        "state": "Al Rayyan",
        "postcode": null,
        "country": "Qatar",
        "country_code": "qa"
      },
      "address": "827, New Al Hateem Street, Al Gharrafa, 13367 Al Rayyan, Qatar"
    },
    {
      "lat": 25.352363747677014,
      "lon": 51.51663408205595,
      "geoinfo": {
        "display_name": "Al Khafji, Legtaifiya, Doha, Qatar",
        "road": "Al Khafji",
        "house_number": null,
        "neighbourhood": null,
        "suburb": "Legtaifiya",
        "city_district": null,
        "city": "Doha",
        "state": null,
        "postcode": null,
        "country": "Qatar",
        "country_code": "qa"
      },
      "address": "494, Al Khafji, Legtaifiya, 67708 Doha, Qatar"
    },
    {
      "lat": 25.326720086843878,
      "lon": 51.499114164561995,
      "geoinfo": {
        "display_name": "Abu Sidra Street, Al Markhiya, Doha, Qatar",
        "road": "Abu Sidra Street",
        "house_number": null,
        "neighbourhood": null,
        "suburb": "Al Markhiya",
        "city_district": null,
        "city": "Doha",
        "state": null,
        "postcode": null,
        "country": "Qatar",
        "country_code": "qa"
      },
      "address": "703, Abu Sidra Street, Al Markhiya, 81746 Doha, Qatar"
    },
    {
      "lat": 25.34408080117759,
      "lon": 51.429325582739594,
      "geoinfo": {
        "display_name": "Umm Samra Street, Al Rayyan, Qatar",
        "road": "Umm Samra Street",
        "house_number": null,
        "neighbourhood": null,
        "suburb": null,
        "city_district": null,
        "city": "Al Rayyan",
        "state": "Al Rayyan",
        "postcode": null,
        "country": "Qatar",
        "country_code": "qa"
      },
      "address": "241, Umm Samra Street, 72499 Al Rayyan, Qatar"
    },
    {
      "lat": 25.315237914359923,
      "lon": 51.45079200680105,
      "geoinfo": {
        "display_name": "Huwar Street, Old Al Rayyan, Al Rayyan, Qatar",
        "road": "Huwar Street",
        "house_number": null,
        "neighbourhood": null,
        "suburb": "Old Al Rayyan",
        "city_district": null,
        "city": "Al Rayyan",
        "state": "Al Rayyan",
        "postcode": null,
        "country": "Qatar",
        "country_code": "qa"
      },
      "address": "219, Huwar Street, Old Al Rayyan, 21753 Al Rayyan, Qatar"
    }
  ],
  "updated_at": "2025-10-19T05:18:04.817071+00:00",
  "_kind": "geo_samples"
}