{
  "country_code": "UY",
  "country": "Uruguay",
  "city": "Barros Blancos",
  "geonameid": 10098279,
  "target_addresses": 4,
  "samples": [
    {
      "lat": -34.74501290261652,
      "lon": -55.97966645650334,
      "geoinfo": {
        "display_name": "Del Medio, Villa Los Manzanos, Barros Blancos, Municipio de Nicolich, Canelones, 91001, Uruguay",
        "road": "Del Medio",
        "house_number": null,
        "neighbourhood": "Villa Los Manzanos",
        "suburb": null,
        "city_district": null,
        "city": "Barros Blancos",
        "state": "Canelones",
        "postcode": "91001",
        "country": "Uruguay",
        "country_code": "uy"
      },
      "address": "Del Medio, Barros Blancos, Canelones, Uruguay"
    },
    {
      "lat": -34.72872488923144,
      "lon": -56.04550876517688,
      "geoinfo": {
        "display_name": "Villa Santa Rita, Fraccionamiento Camino del Andaluz y Ruta 84, Municipio de Nicolich, Canelones, 15700, Uruguay",
        "road": null,
        "house_number": null,
        "neighbourhood": "Villa Santa Rita",
        "suburb": null,
        "city_district": null,
        "city": "Fraccionamiento Camino del Andaluz y Ruta 84",
        "state": "Canelones",
        "postcode": "15700",
        "country": "Uruguay",
        "country_code": "uy"
      },
      "address": "Villa Santa Rita, Barros Blancos, Canelones, Uruguay"
    },
    {
      "lat": -34.73842136155393,
      "lon": -55.99533591509987,
      "geoinfo": {
        "display_name": "Triángulo Abreu, Barros Blancos, Municipio de Nicolich, Canelones, 91001, Uruguay",
        "road": null,
        "house_number": null,
        "neighbourhood": "Triángulo Abreu",
        "suburb": null,
        "city_district": null,
        "city": "Barros Blancos",
        "state": "Canelones",
        "postcode": "91001",
        "country": "Uruguay",
        "country_code": "uy"
      },
      "address": "Triángulo Abreu, Barros Blancos, Canelones, Uruguay"
    },
    {
      "lat": -34.769406082308755,
      "lon": -55.990031311155946,
      "geoinfo": {
        "display_name": "Complejo Deportivo Danubio, Camino al Paso Escobar, Villa Universitaria, Municipio de Nicolich, Canelones, 91001, Uruguay",
        "road": "Camino al Paso Escobar",
        "house_number": null,
        "neighbourhood": "Villa Universitaria",
        "suburb": null,
        "city_district": null,
        "city": null,
        "state": "Canelones",
        "postcode": "91001",
        "country": "Uruguay",
        "country_code": "uy"
      },
      "address": "Camino al Paso Escobar, Barros Blancos, Canelones, Uruguay"
    },
    {
      "lat": -34.76680734494697,
      "lon": -56.04856173982651,
      "geoinfo": {
        "display_name": "421, Camino la Cruz del Sur, Villa García, Montevideo, 15700, Uruguay",
        "road": "Camino la Cruz del Sur",
        "house_number": "421",
        "neighbourhood": null,
        "suburb": "Villa García",
        "city_district": null,
        "city": "Montevideo",
        "state": "Montevideo",
        "postcode": "15700",
        "country": "Uruguay",
        "country_code": "uy"
      },
      "address": "421, Camino la Cruz del Sur, Villa García, Montevideo, 15700, Uruguay"
    },
    {
      "lat": -34.72682965519961,
      "lon": -55.96200281115503,
      "geoinfo": {
        "display_name": "1328, Juan Antonio González, Pando, Municipio de Nicolich, Canelones, 15600, Uruguay",
        "road": "Juan Antonio González",
        "house_number": "1328",
        "neighbourhood": null,
        "suburb": null,
        "city_district": null,
        "city": "Pando",
        "state": "Canelones",
        "postcode": "15600",
        "country": "Uruguay",
        "country_code": "uy"
      },
      "address": "1328, Juan Antonio González, Pando, Municipio de Nicolich, Canelones, 15600, Uruguay"
    },
    {
      "lat": -34.73082178112455,
      "lon": -56.01360123316792,
      "geoinfo": {
        "display_name": "Camino a Pando, Municipio de Nicolich, Canelones, 91001, Uruguay",
        "road": "Camino a Pando",
        "house_number": null,
        "neighbourhood": null,
        "suburb": null,
        "city_district": null,
        "city": null,
        "state": "Canelones",
        "postcode": "91001",
        "country": "Uruguay",
        "country_code": "uy"
      },
      "address": "864, Camino a Pando, Municipio de Nicolich, Canelones, 91001, Uruguay"
    },
    {
      "lat": -34.79348898545639,
      "lon": -55.989141720736924,
      "geoinfo": {
        "display_name": "Villa Aeroparque, General Líber Seregni, Municipio de Nicolich, Canelones, 15500, Uruguay",
        "road": null,
        "house_number": null,
        "neighbourhood": "Villa Aeroparque",
        "suburb": null,
        "city_district": null,
        "city": "General Líber Seregni",
        "state": "Canelones",
        "postcode": "15500",
        "country": "Uruguay",
        "country_code": "uy"
      },
      "address": "699, Villa Aeroparque, General Líber Seregni, Municipio de Nicolich, Canelones, 15500, Uruguay"
    }
  ],
  "updated_at": "2025-10-19T07:49:21.821912+00:00",
  "_kind": "geo_samples"
}