{
  "country_code": "UY",
  "country": "Uruguay",
  "city": "Canelones",
  "geonameid": 3443413,
  "target_addresses": 4,
  "samples": [
    {
      "lat": -34.51091470110451,
      "lon": -56.31617075327094,
      "geoinfo": {
        "display_name": "Canelones, 90000, Uruguay",
        "road": null,
        "house_number": null,
        "neighbourhood": null,
        "suburb": null,
        "city_district": null,
        "city": null,
        "state": "Canelones",
        "postcode": "90000",
        "country": "Uruguay",
        "country_code": "uy"
      },
      "address": "Canelones, Canelones, Uruguay"
    },
    {
      "lat": -34.48450615572442,
      "lon": -56.26788351604508,
      "geoinfo": {
        "display_name": "2, Ruta 5 Brigadier General Fructuoso Rivera, Canelones, 90000, Uruguay",
        "road": "Ruta 5 Brigadier General Fructuoso Rivera",
        "house_number": "2",
        "neighbourhood": null,
        "suburb": null,
        "city_district": null,
        "city": null,
        "state": "Canelones",
        "postcode": "90000",
        "country": "Uruguay",
        "country_code": "uy"
      },
      "address": "2 Ruta 5 Brigadier General Fructuoso Rivera, Canelones, Canelones, Uruguay"
    },
    {
      "lat": -34.48862656774834,
      "lon": -56.30700215342261,
      "geoinfo": {
        "display_name": "4, Ruta 62, Canelones, 90000, Uruguay",
        "road": "Ruta 62",
        "house_number": "4",
        "neighbourhood": null,
        "suburb": null,
        "city_district": null,
        "city": null,
        "state": "Canelones",
        "postcode": "90000",
        "country": "Uruguay",
        "country_code": "uy"
      },
      "address": "4 Ruta 62, Canelones, Canelones, Uruguay"
    },
    {
      "lat": -34.54888569314687,
      "lon": -56.32044856586678,
      "geoinfo": {
        "display_name": "Camino López, Canelones, 90000, Uruguay",
        "road": "Camino López",
        "house_number": null,
        "neighbourhood": null,
        "suburb": null,
        "city_district": null,
        "city": null,
        "state": "Canelones",
        "postcode": "90000",
        "country": "Uruguay",
        "country_code": "uy"
      },
      "address": "Camino López, Canelones, Canelones, Uruguay"
    },
    {
      "lat": -34.55823385121121,
      "lon": -56.269315572849976,
      "geoinfo": {
        "display_name": "300, Ruta 5 Brigadier General Fructuoso Rivera, Canelones, 90000, Uruguay",
        "road": "Ruta 5 Brigadier General Fructuoso Rivera",
        "house_number": "300",
        "neighbourhood": null,
        "suburb": null,
        "city_district": null,
        "city": null,
        "state": "Canelones",
        "postcode": "90000",
        "country": "Uruguay",
        "country_code": "uy"
      },
      "address": "300, Ruta 5 Brigadier General Fructuoso Rivera, Canelones, 90000, Uruguay"
    },
    {
      "lat": -34.52919784954753,
      "lon": -56.28582872141326,
      "geoinfo": {
        "display_name": "530, Máximo Tajes, Canelones, 90000, Uruguay",
        "road": "Máximo Tajes",
        "house_number": "530",
        "neighbourhood": null,
        "suburb": null,
        "city_district": null,
        "city": "Canelones",
        "state": "Canelones",
        "postcode": "90000",
        "country": "Uruguay",
        "country_code": "uy"
      },
      "address": "530, Máximo Tajes, Canelones, 90000, Uruguay"
    },
    {
      "lat": -34.559227422867416,
      "lon": -56.28859409737665,
      "geoinfo": {
        "display_name": "Camino Passadore, Canelones, 90000, Uruguay",
        "road": "Camino Passadore",
        "house_number": null,
        "neighbourhood": null,
        "suburb": null,
        "city_district": null,
        "city": null,
        "state": "Canelones",
        "postcode": "90000",
        "country": "Uruguay",
        "country_code": "uy"
      },
      "address": "881, Camino Passadore, Canelones, 90000, Uruguay"
    },
    {
      "lat": -34.525662816549016,
      "lon": -56.297242378073925,
      "geoinfo": {
        "display_name": "Imperiale, Canelones, 90000, Uruguay",
        "road": "Imperiale",
        "house_number": null,
        "neighbourhood": null,
        "suburb": null,
        "city_district": null,
        "city": null,
        "state": "Canelones",
        "postcode": "90000",
        "country": "Uruguay",
        "country_code": "uy"
      },
      "address": "381, Imperiale, Canelones, 90000, Uruguay"
    }
  ],
  "updated_at": "2025-10-19T05:36:46.785983+00:00",
  "_kind": "geo_samples"
}