{
  "country_code": "UY",
  "country": "Uruguay",
  "city": "Fray Bentos",
  "geonameid": 3442568,
  "target_addresses": 4,
  "samples": [
    {
      "lat": -33.0851757223635,
      "lon": -58.30594208909587,
      "geoinfo": {
        "display_name": "Distrito Costa Uruguay Norte, Departamento Gualeguaychú, Argentina",
        "road": null,
        "house_number": null,
        "neighbourhood": null,
        "suburb": null,
        "city_district": null,
        "city": null,
        "state": null,
        "postcode": null,
        "country": "Argentina",
        "country_code": "ar"
      },
      "address": "Fray Bentos, Uruguay"
    },
    {
      "lat": -33.13258052954939,
      "lon": -58.348649610430684,
      "geoinfo": {
        "display_name": "Río Negro, Uruguay",
        "road": null,
        "house_number": null,
        "neighbourhood": null,
        "suburb": null,
        "city_district": null,
        "city": null,
        "state": "Río Negro",
        "postcode": null,
        "country": "Uruguay",
        "country_code": "uy"
      },
      "address": "Fray Bentos, Río Negro, Uruguay"
    },
    {
      "lat": -33.12985023830809,
      "lon": -58.26237658283953,
      "geoinfo": {
        "display_name": "Vladimir Roslik Bichkov, Río Negro, Uruguay",
        "road": "Vladimir Roslik Bichkov",
        "house_number": null,
        "neighbourhood": null,
        "suburb": null,
        "city_district": null,
        "city": null,
        "state": "Río Negro",
        "postcode": null,
        "country": "Uruguay",
        "country_code": "uy"
      },
      "address": "Vladimir Roslik Bichkov, Fray Bentos, Río Negro, Uruguay"
    },
    {
      "lat": -33.13536133283906,
      "lon": -58.28659760392444,
      "geoinfo": {
        "display_name": "2702, Cardal, Barrio Centenario, Fray Bentos, Río Negro, 65000, Uruguay",
        "road": "Cardal",
        "house_number": "2702",
        "neighbourhood": "Barrio Centenario",
        "suburb": null,
        "city_district": null,
        "city": "Fray Bentos",
        "state": "Río Negro",
        "postcode": "65000",
        "country": "Uruguay",
        "country_code": "uy"
      },
      "address": "2702 Cardal, Fray Bentos, Río Negro, Uruguay"
    },
    {
      "lat": -33.13404870353014,
      "lon": -58.32346910735956,
      "geoinfo": {
        "display_name": "Río Negro, Uruguay",
        "road": null,
        "house_number": null,
        "neighbourhood": null,
        "suburb": null,
        "city_district": null,
        "city": null,
        "state": "Río Negro",
        "postcode": null,
        "country": "Uruguay",
        "country_code": "uy"
      },
      "address": "272, Fray Bentos, 85146 Río Negro, Uruguay"
    },
    {
      "lat": -33.11580122668097,
      "lon": -58.27902543872637,
      "geoinfo": {
        "display_name": "Barrio 2000, Fray Bentos, Río Negro, 65000, Uruguay",
        "road": null,
        "house_number": null,
        "neighbourhood": "Barrio 2000",
        "suburb": null,
        "city_district": null,
        "city": "Fray Bentos",
        "state": "Río Negro",
        "postcode": "65000",
        "country": "Uruguay",
        "country_code": "uy"
      },
      "address": "Barrio 2000, Fray Bentos, Río Negro, 65000, Uruguay"
    },
    {
      "lat": -33.124644904183015,
      "lon": -58.276176563760814,
      "geoinfo": {
        "display_name": "4445, Continuación Camino a La Feria, Fray Bentos, Río Negro, 65000, Uruguay",
        "road": "Continuación Camino a La Feria",
        "house_number": "4445",
        "neighbourhood": null,
        "suburb": null,
        "city_district": null,
        "city": "Fray Bentos",
        "state": "Río Negro",
        "postcode": "65000",
        "country": "Uruguay",
        "country_code": "uy"
      },
      "address": "4445, Continuación Camino a La Feria, Fray Bentos, Río Negro, 65000, Uruguay"
    },
    {
      "lat": -33.11354026560981,
      "lon": -58.26915189409455,
      "geoinfo": {
        "display_name": "Río Negro, Uruguay",
        "road": null,
        "house_number": null,
        "neighbourhood": null,
        "suburb": null,
        "city_district": null,
        "city": null,
        "state": "Río Negro",
        "postcode": null,
        "country": "Uruguay",
        "country_code": "uy"
      },
      "address": "181, Fray Bentos, 78236 Río Negro, Uruguay"
    }
  ],
  "updated_at": "2025-10-19T07:25:14.965236+00:00",
  "_kind": "geo_samples"
}