{
  "country_code": "UY",
  "country": "Uruguay",
  "city": "Maldonado",
  "geonameid": 3441894,
  "target_addresses": 4,
  "samples": [
    {
      "lat": -34.90477888216544,
      "lon": -55.001918440995574,
      "geoinfo": {
        "display_name": "Avenida General Leandro Gómez, Lausana, Maldonado, 20000, Uruguay",
        "road": "Avenida General Leandro Gómez",
        "house_number": null,
        "neighbourhood": null,
        "suburb": "Lausana",
        "city_district": null,
        "city": "Maldonado",
        "state": "Maldonado",
        "postcode": "20000",
        "country": "Uruguay",
        "country_code": "uy"
      },
      "address": "Avenida General Leandro Gómez, Maldonado, Maldonado, Uruguay"
    },
    {
      "lat": -34.856462137370464,
      "lon": -54.93227279440487,
      "geoinfo": {
        "display_name": "Tainos, Villa Hípica, Barrio Hipódromo, Maldonado, 20000, Uruguay",
        "road": "Tainos",
        "house_number": null,
        "neighbourhood": "Villa Hípica",
        "suburb": null,
        "city_district": null,
        "city": "Barrio Hipódromo",
        "state": "Maldonado",
        "postcode": "20000",
        "country": "Uruguay",
        "country_code": "uy"
      },
      "address": "Tainos, Maldonado, Maldonado, Uruguay"
    },
    {
      "lat": -34.875069440987026,
      "lon": -54.96148312228347,
      "geoinfo": {
        "display_name": "Radio Maldonado, Camino a Fabrica Cylsa, Las Calas, Cerro Pelado, Maldonado, 20000, Uruguay",
        "road": "Camino a Fabrica Cylsa",
        "house_number": null,
        "neighbourhood": null,
        "suburb": "Cerro Pelado",
        "city_district": null,
        "city": "Maldonado",
        "state": "Maldonado",
        "postcode": "20000",
        "country": "Uruguay",
        "country_code": "uy"
      },
      "address": "Camino a Fabrica Cylsa, Maldonado, Maldonado, Uruguay"
    },
    {
      "lat": -34.93061934249153,
      "lon": -54.940569159681566,
      "geoinfo": {
        "display_name": "20, Lourdes, Punta Del Este, Maldonado, 20000, Uruguay",
        "road": "Lourdes",
        "house_number": "20",
        "neighbourhood": null,
        "suburb": null,
        "city_district": null,
        "city": "Punta Del Este",
        "state": "Maldonado",
        "postcode": "20000",
        "country": "Uruguay",
        "country_code": "uy"
      },
      "address": "20 Lourdes, Maldonado, Maldonado, Uruguay"
    },
    {
      "lat": -34.919848832873875,
      "lon": -54.95139513541912,
      "geoinfo": {
        "display_name": "18, Thailandia, Punta Del Este, Maldonado, 20000, Uruguay",
        "road": "Thailandia",
        "house_number": "18",
        "neighbourhood": null,
        "suburb": null,
        "city_district": null,
        "city": "Punta Del Este",
        "state": "Maldonado",
        "postcode": "20000",
        "country": "Uruguay",
        "country_code": "uy"
      },
      "address": "18, Thailandia, Punta Del Este, Maldonado, 20000, Uruguay"
    },
    {
      "lat": -34.91103399928185,
      "lon": -54.951435542942214,
      "geoinfo": {
        "display_name": "34, Arturo Santana, Sarubbi, Maldonado, 20000, Uruguay",
        "road": "Arturo Santana",
        "house_number": "34",
        "neighbourhood": null,
        "suburb": "Sarubbi",
        "city_district": null,
        "city": "Maldonado",
        "state": "Maldonado",
        "postcode": "20000",
        "country": "Uruguay",
        "country_code": "uy"
      },
      "address": "34, Arturo Santana, Sarubbi, Maldonado, 20000, Uruguay"
    },
    {
      "lat": -34.86843731124276,
      "lon": -54.97654627169416,
      "geoinfo": {
        "display_name": "Camino a la Capilla 2, Mazzoni, Cerro Pelado, Maldonado, 20000, Uruguay",
        "road": "Camino a la Capilla 2",
        "house_number": null,
        "neighbourhood": "Mazzoni",
        "suburb": "Cerro Pelado",
        "city_district": null,
        "city": "Maldonado",
        "state": "Maldonado",
        "postcode": "20000",
        "country": "Uruguay",
        "country_code": "uy"
      },
      "address": "Camino a la Capilla 2, Mazzoni, Cerro Pelado, Maldonado, 20000, Uruguay"
    },
    {
      "lat": -34.894544648342325,
      "lon": -54.95794351499454,
      "geoinfo": {
        "display_name": "1535, Sarandí, Maldonado, 20000, Uruguay",
        "road": "Sarandí",
        "house_number": "1535",
        "neighbourhood": null,
        "suburb": null,
        "city_district": null,
        "city": "Maldonado",
        "state": "Maldonado",
        "postcode": "20000",
        "country": "Uruguay",
        "country_code": "uy"
      },
      "address": "1535, Sarandí, Maldonado, 20000, Uruguay"
    }
  ],
  "updated_at": "2025-10-19T06:24:37.973758+00:00",
  "_kind": "geo_samples"
}