{
  "country_code": "UY",
  "country": "Uruguay",
  "city": "Minas",
  "geonameid": 3441665,
  "target_addresses": 4,
  "samples": [
    {
      "lat": -34.40481509028355,
      "lon": -55.20048580268493,
      "geoinfo": {
        "display_name": "Lavalleja, Uruguay",
        "road": null,
        "house_number": null,
        "neighbourhood": null,
        "suburb": null,
        "city_district": null,
        "city": null,
        "state": "Lavalleja",
        "postcode": null,
        "country": "Uruguay",
        "country_code": "uy"
      },
      "address": "Minas, Lavalleja, Uruguay"
    },
    {
      "lat": -34.379682751283596,
      "lon": -55.272708759007834,
      "geoinfo": {
        "display_name": "18, Roble, España, Minas, Lavalleja, 30000, Uruguay",
        "road": "Roble",
        "house_number": "18",
        "neighbourhood": "España",
        "suburb": null,
        "city_district": null,
        "city": "Minas",
        "state": "Lavalleja",
        "postcode": "30000",
        "country": "Uruguay",
        "country_code": "uy"
      },
      "address": "18 Roble, Minas, Lavalleja, Uruguay"
    },
    {
      "lat": -34.35301735858381,
      "lon": -55.20819151093509,
      "geoinfo": {
        "display_name": "Camino de las Piedras, Minas, Lavalleja, 30000, Uruguay",
        "road": "Camino de las Piedras",
        "house_number": null,
        "neighbourhood": null,
        "suburb": null,
        "city_district": null,
        "city": "Minas",
        "state": "Lavalleja",
        "postcode": "30000",
        "country": "Uruguay",
        "country_code": "uy"
      },
      "address": "Camino de las Piedras, Minas, Lavalleja, Uruguay"
    },
    {
      "lat": -34.34007159876351,
      "lon": -55.24876514456816,
      "geoinfo": {
        "display_name": "Avenida Valeriano Magri, Lavalleja, 30000, Uruguay",
        "road": "Avenida Valeriano Magri",
        "house_number": null,
        "neighbourhood": null,
        "suburb": null,
        "city_district": null,
        "city": null,
        "state": "Lavalleja",
        "postcode": "30000",
        "country": "Uruguay",
        "country_code": "uy"
      },
      "address": "Avenida Valeriano Magri, Minas, Lavalleja, Uruguay"
    },
    {
      "lat": -34.35506467754634,
      "lon": -55.24010917993875,
      "geoinfo": {
        "display_name": "78, Ingeniero Ignacio Larrea, Minas, Lavalleja, 30000, Uruguay",
        "road": "Ingeniero Ignacio Larrea",
        "house_number": "78",
        "neighbourhood": null,
        "suburb": null,
        "city_district": null,
        "city": "Minas",
        "state": "Lavalleja",
        "postcode": "30000",
        "country": "Uruguay",
        "country_code": "uy"
      },
      "address": "78, Ingeniero Ignacio Larrea, Minas, Lavalleja, 30000, Uruguay"
    },
    {
      "lat": -34.36000000361541,
      "lon": -55.19799641641305,
      "geoinfo": {
        "display_name": "Paso de Rodríguez, Lavalleja, 30000, Uruguay",
        "road": null,
        "house_number": null,
        "neighbourhood": null,
        "suburb": null,
        "city_district": null,
        "city": null,
        "state": "Lavalleja",
        "postcode": "30000",
        "country": "Uruguay",
        "country_code": "uy"
      },
      "address": "729, Paso de Rodríguez, Lavalleja, 30000, Uruguay"
    },
    {
      "lat": -34.40099021422922,
      "lon": -55.20783322683387,
      "geoinfo": {
        "display_name": "Lavalleja, Uruguay",
        "road": null,
        "house_number": null,
        "neighbourhood": null,
        "suburb": null,
        "city_district": null,
        "city": null,
        "state": "Lavalleja",
        "postcode": null,
        "country": "Uruguay",
        "country_code": "uy"
      },
      "address": "140, Minas, 66463 Lavalleja, Uruguay"
    },
    {
      "lat": -34.37470946998679,
      "lon": -55.24885948017204,
      "geoinfo": {
        "display_name": "2, Caibar Sánchez, Lavalleja, Minas, Lavalleja, 30000, Uruguay",
        "road": "Caibar Sánchez",
        "house_number": "2",
        "neighbourhood": "Lavalleja",
        "suburb": null,
        "city_district": null,
        "city": "Minas",
        "state": "Lavalleja",
        "postcode": "30000",
        "country": "Uruguay",
        "country_code": "uy"
      },
      "address": "2, Caibar Sánchez, Lavalleja, Minas, Lavalleja, 30000, Uruguay"
    }
  ],
  "updated_at": "2025-10-19T07:47:32.973330+00:00",
  "_kind": "geo_samples"
}