{
  "country_code": "UY",
  "country": "Uruguay",
  "city": "Montevideo",
  "geonameid": 3441575,
  "target_addresses": 4,
  "samples": [
    {
      "lat": -34.924191524304234,
      "lon": -56.202318667673914,
      "geoinfo": {
        "display_name": "Barrio Sur, Montevideo, 11110, Uruguay",
        "road": null,
        "house_number": null,
        "neighbourhood": null,
        "suburb": "Barrio Sur",
        "city_district": null,
        "city": "Montevideo",
        "state": "Montevideo",
        "postcode": "11110",
        "country": "Uruguay",
        "country_code": "uy"
      },
      "address": "Barrio Sur, Montevideo, Montevideo, Uruguay"
    },
    {
      "lat": -34.90852208512181,
      "lon": -56.17486377267535,
      "geoinfo": {
        "display_name": "Tribu Espacio Cultural, 1858, Maldonado, Palermo, Montevideo, 11200, Uruguay",
        "road": "Maldonado",
        "house_number": "1858",
        "neighbourhood": null,
        "suburb": "Palermo",
        "city_district": null,
        "city": "Montevideo",
        "state": "Montevideo",
        "postcode": "11200",
        "country": "Uruguay",
        "country_code": "uy"
      },
      "address": "1858 Maldonado, Montevideo, Montevideo, Uruguay"
    },
    {
      "lat": -34.92730603542612,
      "lon": -56.22564164227778,
      "geoinfo": {
        "display_name": "Old City, Montevideo, 11000, Uruguay",
        "road": null,
        "house_number": null,
        "neighbourhood": null,
        "suburb": "Old City",
        "city_district": null,
        "city": "Montevideo",
        "state": "Montevideo",
        "postcode": "11000",
        "country": "Uruguay",
        "country_code": "uy"
      },
      "address": "Old City, Montevideo, Montevideo, Uruguay"
    },
    {
      "lat": -34.913131054534155,
      "lon": -56.224345128811024,
      "geoinfo": {
        "display_name": "Ingeniero Juan Monteverde, Old City, Montevideo, 11000, Uruguay",
        "road": "Ingeniero Juan Monteverde",
        "house_number": null,
        "neighbourhood": null,
        "suburb": "Old City",
        "city_district": null,
        "city": "Montevideo",
        "state": "Montevideo",
        "postcode": "11000",
        "country": "Uruguay",
        "country_code": "uy"
      },
      "address": "Ingeniero Juan Monteverde, Montevideo, Montevideo, Uruguay"
    },
    {
      "lat": -34.92519061880427,
      "lon": -56.22360984568673,
      "geoinfo": {
        "display_name": "Old City, Montevideo, 11000, Uruguay",
        "road": null,
        "house_number": null,
        "neighbourhood": null,
        "suburb": "Old City",
        "city_district": null,
        "city": "Montevideo",
        "state": "Montevideo",
        "postcode": "11000",
        "country": "Uruguay",
        "country_code": "uy"
      },
      "address": "530, Old City, Montevideo, 11000, Uruguay"
    },
    {
      "lat": -34.94446475142712,
      "lon": -56.205815486523264,
      "geoinfo": {
        "display_name": "Barrio Sur, Montevideo, 11110, Uruguay",
        "road": null,
        "house_number": null,
        "neighbourhood": null,
        "suburb": "Barrio Sur",
        "city_district": null,
        "city": "Montevideo",
        "state": "Montevideo",
        "postcode": "11110",
        "country": "Uruguay",
        "country_code": "uy"
      },
      "address": "556, Barrio Sur, Montevideo, 11110, Uruguay"
    },
    {
      "lat": -34.91537959552287,
      "lon": -56.16595867325205,
      "geoinfo": {
        "display_name": "Defensor Sporting Summer Camp, 687, Julio Herrera y Reissig, Parque Rodó, Montevideo, 11300, Uruguay",
        "road": "Julio Herrera y Reissig",
        "house_number": "687",
        "neighbourhood": null,
        "suburb": "Parque Rodó",
        "city_district": null,
        "city": "Montevideo",
        "state": "Montevideo",
        "postcode": "11300",
        "country": "Uruguay",
        "country_code": "uy"
      },
      "address": "Defensor Sporting Summer Camp, 687, Julio Herrera y Reissig, Parque Rodó, Montevideo, 11300, Uruguay"
    },
    {
      "lat": -34.88599732397898,
      "lon": -56.22857343947976,
      "geoinfo": {
        "display_name": "Paralela al Sur de Barcelona, Cerro, Montevideo, 12800, Uruguay",
        "road": "Paralela al Sur de Barcelona",
        "house_number": null,
        "neighbourhood": null,
        "suburb": "Cerro",
        "city_district": null,
        "city": "Montevideo",
        "state": "Montevideo",
        "postcode": "12800",
        "country": "Uruguay",
        "country_code": "uy"
      },
      "address": "973, Paralela al Sur de Barcelona, Cerro, Montevideo, 12800, Uruguay"
    }
  ],
  "updated_at": "2025-10-19T07:47:19.268272+00:00",
  "_kind": "geo_samples"
}