{
  "country_code": "UY",
  "country": "Uruguay",
  "city": "Pando",
  "geonameid": 3441354,
  "target_addresses": 4,
  "samples": [
    {
      "lat": -34.7016325580029,
      "lon": -55.96380216974174,
      "geoinfo": {
        "display_name": "20, Calle 4, Viejo Molino San Bernardo, Municipio de Salinas, Canelones, 15600, Uruguay",
        "road": "Calle 4",
        "house_number": "20",
        "neighbourhood": null,
        "suburb": null,
        "city_district": null,
        "city": "Viejo Molino San Bernardo",
        "state": "Canelones",
        "postcode": "15600",
        "country": "Uruguay",
        "country_code": "uy"
      },
      "address": "20 Calle 4, Pando, Canelones, Uruguay"
    },
    {
      "lat": -34.71223499544787,
      "lon": -55.95059340598196,
      "geoinfo": {
        "display_name": "4, Genoas, Barrio Estadio, Pando, Municipio de Salinas, Canelones, 15600, Uruguay",
        "road": "Genoas",
        "house_number": "4",
        "neighbourhood": "Barrio Estadio",
        "suburb": null,
        "city_district": null,
        "city": "Pando",
        "state": "Canelones",
        "postcode": "15600",
        "country": "Uruguay",
        "country_code": "uy"
      },
      "address": "4 Genoas, Pando, Canelones, Uruguay"
    },
    {
      "lat": -34.68651056010991,
      "lon": -55.952340749612624,
      "geoinfo": {
        "display_name": "22, Tropas, Canelones, 15600, Uruguay",
        "road": "Tropas",
        "house_number": "22",
        "neighbourhood": null,
        "suburb": null,
        "city_district": null,
        "city": null,
        "state": "Canelones",
        "postcode": "15600",
        "country": "Uruguay",
        "country_code": "uy"
      },
      "address": "22 Tropas, Pando, Canelones, Uruguay"
    },
    {
      "lat": -34.75766213742168,
      "lon": -55.95279677462222,
      "geoinfo": {
        "display_name": "Municipio de Nicolich, Canelones, 91000, Uruguay",
        "road": null,
        "house_number": null,
        "neighbourhood": null,
        "suburb": null,
        "city_district": null,
        "city": null,
        "state": "Canelones",
        "postcode": "91000",
        "country": "Uruguay",
        "country_code": "uy"
      },
      "address": "Pando, Canelones, Uruguay"
    },
    {
      "lat": -34.67929468969278,
      "lon": -55.98188987725776,
      "geoinfo": {
        "display_name": "7, Vecinal Colla, Villa Crespo y San Andrés, Municipio de Salinas, Canelones, 15600, Uruguay",
        "road": "Vecinal Colla",
        "house_number": "7",
        "neighbourhood": null,
        "suburb": null,
        "city_district": null,
        "city": "Villa Crespo y San Andrés",
        "state": "Canelones",
        "postcode": "15600",
        "country": "Uruguay",
        "country_code": "uy"
      },
      "address": "7, Vecinal Colla, Villa Crespo y San Andrés, Municipio de Salinas, Canelones, 15600, Uruguay"
    },
    {
      "lat": -34.712787222226474,
      "lon": -56.000891956060784,
      "geoinfo": {
        "display_name": "Piedritas, Joaquín Suárez, Municipio de Nicolich, Canelones, 15500, Uruguay",
        "road": "Piedritas",
        "house_number": null,
        "neighbourhood": null,
        "suburb": null,
        "city_district": null,
        "city": "Joaquín Suárez",
        "state": "Canelones",
        "postcode": "15500",
        "country": "Uruguay",
        "country_code": "uy"
      },
      "address": "702, Piedritas, Joaquín Suárez, Municipio de Nicolich, Canelones, 15500, Uruguay"
    },
    {
      "lat": -34.69744156441513,
      "lon": -55.956592631777575,
      "geoinfo": {
        "display_name": "Municipio de Salinas, Canelones, 91000, Uruguay",
        "road": null,
        "house_number": null,
        "neighbourhood": null,
        "suburb": null,
        "city_district": null,
        "city": null,
        "state": "Canelones",
        "postcode": "91000",
        "country": "Uruguay",
        "country_code": "uy"
      },
      "address": "228, Pando, 91000 Canelones, Uruguay"
    },
    {
      "lat": -34.71684318112633,
      "lon": -55.93249435644616,
      "geoinfo": {
        "display_name": "5640, Rincón de Pando, Municipio de Salinas, Canelones, 15600, Uruguay",
        "road": "Rincón de Pando",
        "house_number": "5640",
        "neighbourhood": null,
        "suburb": null,
        "city_district": null,
        "city": null,
        "state": "Canelones",
        "postcode": "15600",
        "country": "Uruguay",
        "country_code": "uy"
      },
      "address": "5640, Rincón de Pando, Municipio de Salinas, Canelones, 15600, Uruguay"
    }
  ],
  "updated_at": "2025-10-19T06:24:01.316936+00:00",
  "_kind": "geo_samples"
}