{
  "country_code": "UY",
  "country": "Uruguay",
  "city": "Tacuarembó",
  "geonameid": 3440034,
  "target_addresses": 4,
  "samples": [
    {
      "lat": -31.68597520789131,
      "lon": -56.014770103841194,
      "geoinfo": {
        "display_name": "Barrio La Matutina, Tacuarembó, 45000, Uruguay",
        "road": null,
        "house_number": null,
        "neighbourhood": "Barrio La Matutina",
        "suburb": null,
        "city_district": null,
        "city": "Tacuarembó",
        "state": "Tacuarembó",
        "postcode": "45000",
        "country": "Uruguay",
        "country_code": "uy"
      },
      "address": "Barrio La Matutina, Tacuarembó, Tacuarembó, Uruguay"
    },
    {
      "lat": -31.70017646368167,
      "lon": -55.973782857309175,
      "geoinfo": {
        "display_name": "29, Avenida Héctor Gutiérrez Ruiz, Barrio Etcheverry, Tacuarembó, 45000, Uruguay",
        "road": "Avenida Héctor Gutiérrez Ruiz",
        "house_number": "29",
        "neighbourhood": "Barrio Etcheverry",
        "suburb": null,
        "city_district": null,
        "city": "Tacuarembó",
        "state": "Tacuarembó",
        "postcode": "45000",
        "country": "Uruguay",
        "country_code": "uy"
      },
      "address": "29 Avenida Héctor Gutiérrez Ruiz, Tacuarembó, Tacuarembó, Uruguay"
    },
    {
      "lat": -31.726338236963713,
      "lon": -55.951697527962516,
      "geoinfo": {
        "display_name": "Avenida Doctor Juan Domingo Arena, La Concordi Odriozola, Tacuarembó, 45000, Uruguay",
        "road": "Avenida Doctor Juan Domingo Arena",
        "house_number": null,
        "neighbourhood": "La Concordi Odriozola",
        "suburb": null,
        "city_district": null,
        "city": "Tacuarembó",
        "state": "Tacuarembó",
        "postcode": "45000",
        "country": "Uruguay",
        "country_code": "uy"
      },
      "address": "Avenida Doctor Juan Domingo Arena, Tacuarembó, Tacuarembó, Uruguay"
    },
    {
      "lat": -31.676653371238274,
      "lon": -55.98172769353466,
      "geoinfo": {
        "display_name": "Tacuarembó, Uruguay",
        "road": null,
        "house_number": null,
        "neighbourhood": null,
        "suburb": null,
        "city_district": null,
        "city": null,
        "state": "Tacuarembó",
        "postcode": null,
        "country": "Uruguay",
        "country_code": "uy"
      },
      "address": "Tacuarembó, Tacuarembó, Uruguay"
    },
    {
      "lat": -31.688475792018792,
      "lon": -55.97432210212134,
      "geoinfo": {
        "display_name": "Simón del Pino, Barrio Etcheverry, Tacuarembó, 45000, Uruguay",
        "road": "Simón del Pino",
        "house_number": null,
        "neighbourhood": "Barrio Etcheverry",
        "suburb": null,
        "city_district": null,
        "city": "Tacuarembó",
        "state": "Tacuarembó",
        "postcode": "45000",
        "country": "Uruguay",
        "country_code": "uy"
      },
      "address": "010, Simón del Pino, Barrio Etcheverry, Tacuarembó, 45000, Uruguay"
    },
    {
      "lat": -31.7379135058886,
      "lon": -56.015759103891426,
      "geoinfo": {
        "display_name": "José Antonio Paolino Trotta, Santangelo, Tacuarembó, 45000, Uruguay",
        "road": "José Antonio Paolino Trotta",
        "house_number": null,
        "neighbourhood": "Santangelo",
        "suburb": null,
        "city_district": null,
        "city": "Tacuarembó",
        "state": "Tacuarembó",
        "postcode": "45000",
        "country": "Uruguay",
        "country_code": "uy"
      },
      "address": "715, José Antonio Paolino Trotta, Santangelo, Tacuarembó, 45000, Uruguay"
    },
    {
      "lat": -31.741215471216705,
      "lon": -56.01010226447748,
      "geoinfo": {
        "display_name": "Soldado Joaquin Godoy, Santangelo, Tacuarembó, 45000, Uruguay",
        "road": "Soldado Joaquin Godoy",
        "house_number": null,
        "neighbourhood": "Santangelo",
        "suburb": null,
        "city_district": null,
        "city": "Tacuarembó",
        "state": "Tacuarembó",
        "postcode": "45000",
        "country": "Uruguay",
        "country_code": "uy"
      },
      "address": "837, Soldado Joaquin Godoy, Santangelo, Tacuarembó, 45000, Uruguay"
    },
    {
      "lat": -31.678248737464685,
      "lon": -55.991423949127125,
      "geoinfo": {
        "display_name": "Zanja de Los Bagres, Barrio Etcheverry, Tacuarembó, 45000, Uruguay",
        "road": "Zanja de Los Bagres",
        "house_number": null,
        "neighbourhood": "Barrio Etcheverry",
        "suburb": null,
        "city_district": null,
        "city": "Tacuarembó",
        "state": "Tacuarembó",
        "postcode": "45000",
        "country": "Uruguay",
        "country_code": "uy"
      },
      "address": "105, Zanja de Los Bagres, Barrio Etcheverry, Tacuarembó, 45000, Uruguay"
    }
  ],
  "updated_at": "2025-10-19T06:23:22.612873+00:00",
  "_kind": "geo_samples"
}