{
  "country_code": "NE",
  "country": "Niger",
  "city": "Arlit",
  "geonameid": 2447513,
  "target_addresses": 3,
  "samples": [
    {
      "lat": 18.719622887442373,
      "lon": 7.378438693137757,
      "geoinfo": {
        "display_name": "Arlit, Agadez Region, Niger",
        "road": null,
        "house_number": null,
        "neighbourhood": null,
        "suburb": null,
        "city_district": null,
        "city": "Arlit",
        "state": "Agadez Region",
        "postcode": null,
        "country": "Niger",
        "country_code": "ne"
      },
      "address": "Arlit, Agadez Region, Niger"
    },
    {
      "lat": 18.71874192528887,
      "lon": 7.422142702656627,
      "geoinfo": {
        "display_name": "TAH 2, Arlit, Agadez Region, Niger",
        "road": "TAH 2",
        "house_number": null,
        "neighbourhood": null,
        "suburb": null,
        "city_district": null,
        "city": "Arlit",
        "state": "Agadez Region",
        "postcode": null,
        "country": "Niger",
        "country_code": "ne"
      },
      "address": "TAH 2, Arlit, Agadez Region, Niger"
    },
    {
      "lat": 18.73816858982597,
      "lon": 7.431556634384547,
      "geoinfo": {
        "display_name": "Arlit, Agadez Region, Niger",
        "road": null,
        "house_number": null,
        "neighbourhood": null,
        "suburb": null,
        "city_district": null,
        "city": "Arlit",
        "state": "Agadez Region",
        "postcode": null,
        "country": "Niger",
        "country_code": "ne"
      },
      "address": "486, Arlit, 25603 Agadez Region, Niger"
    },
    {
      "lat": 18.769172739679988,
      "lon": 7.406609554862258,
      "geoinfo": {
        "display_name": "الطريق العابر للصحراء, Arlit, Agadez Region, Niger",
        "road": "الطريق العابر للصحراء",
        "house_number": null,
        "neighbourhood": null,
        "suburb": null,
        "city_district": null,
        "city": "Arlit",
        "state": "Agadez Region",
        "postcode": null,
        "country": "Niger",
        "country_code": "ne"
      },
      "address": "263, الطريق العابر للصحراء, Arlit, 48023 Agadez Region, Niger"
    },
    {
      "lat": 18.723157081880956,
      "lon": 7.341756711314398,
      "geoinfo": {
        "display_name": "Akokan, Arlit, Agadez Region, Niger",
        "road": null,
        "house_number": null,
        "neighbourhood": null,
        "suburb": null,
        "city_district": null,
        "city": "Akokan",
        "state": "Agadez Region",
        "postcode": null,
        "country": "Niger",
        "country_code": "ne"
      },
      "address": "577, Akokan, Arlit, 48972 Agadez Region, Niger"
    }
  ],
  "updated_at": "2025-10-19T04:04:10.699768+00:00",
  "_kind": "geo_samples"
}