{
  "country_code": "NE",
  "country": "Niger",
  "city": "Filingué",
  "geonameid": 2444995,
  "target_addresses": 3,
  "samples": [
    {
      "lat": 14.348524241247597,
      "lon": 3.315722752867748,
      "geoinfo": {
        "display_name": "Filingué, Angoual Kara, Filingué, Tillabéri Region, Niger",
        "road": null,
        "house_number": null,
        "neighbourhood": null,
        "suburb": "Angoual Kara",
        "city_district": null,
        "city": "Filingué",
        "state": "Tillabéri Region",
        "postcode": null,
        "country": "Niger",
        "country_code": "ne"
      },
      "address": "Angoual Kara, Filingué, Tillabéri Region, Niger"
    },
    {
      "lat": 14.340432080767735,
      "lon": 3.327461247559667,
      "geoinfo": {
        "display_name": "Filingué, Carré, Chikal Chinyasou, Filingué, Tillabéri Region, Niger",
        "road": null,
        "house_number": null,
        "neighbourhood": null,
        "suburb": "Carré",
        "city_district": null,
        "city": "Chikal Chinyasou",
        "state": "Tillabéri Region",
        "postcode": null,
        "country": "Niger",
        "country_code": "ne"
      },
      "address": "Carré, Filingué, Tillabéri Region, Niger"
    },
    {
      "lat": 14.376218059415717,
      "lon": 3.3183607336110614,
      "geoinfo": {
        "display_name": "Filingué, Quartier Sandawa, Talcho, Filingué, Tillabéri Region, Niger",
        "road": null,
        "house_number": null,
        "neighbourhood": null,
        "suburb": "Quartier Sandawa",
        "city_district": null,
        "city": "Talcho",
        "state": "Tillabéri Region",
        "postcode": null,
        "country": "Niger",
        "country_code": "ne"
      },
      "address": "Quartier Sandawa, Filingué, Tillabéri Region, Niger"
    },
    {
      "lat": 14.354453940504976,
      "lon": 3.2955348956171155,
      "geoinfo": {
        "display_name": "Quartier Sandawa, Filingué, Tillabéri Region, Niger",
        "road": null,
        "house_number": null,
        "neighbourhood": null,
        "suburb": "Quartier Sandawa",
        "city_district": null,
        "city": "Filingué",
        "state": "Tillabéri Region",
        "postcode": null,
        "country": "Niger",
        "country_code": "ne"
      },
      "address": "181, Quartier Sandawa, Filingué, 72710 Tillabéri Region, Niger"
    },
    {
      "lat": 14.388225691271316,
      "lon": 3.3393598616673668,
      "geoinfo": {
        "display_name": "Filingué, Garin Doli Est, Filingué, Tillabéri Region, Niger",
        "road": null,
        "house_number": null,
        "neighbourhood": null,
        "suburb": "Garin Doli Est",
        "city_district": null,
        "city": "Filingué",
        "state": "Tillabéri Region",
        "postcode": null,
        "country": "Niger",
        "country_code": "ne"
      },
      "address": "858, Filingué, Garin Doli Est, Filingué, 06573 Tillabéri Region, Niger"
    },
    {
      "lat": 14.337634654684546,
      "lon": 3.337711178920998,
      "geoinfo": {
        "display_name": "Gouiwah Kokkah, Filingué, Tillabéri Region, Niger",
        "road": null,
        "house_number": null,
        "neighbourhood": null,
        "suburb": null,
        "city_district": null,
        "city": "Filingué",
        "state": "Tillabéri Region",
        "postcode": null,
        "country": "Niger",
        "country_code": "ne"
      },
      "address": "815, Gouiwah Kokkah, Filingué, 95562 Tillabéri Region, Niger"
    }
  ],
  "updated_at": "2025-10-19T06:17:14.804477+00:00",
  "_kind": "geo_samples"
}