{
  "country_code": "NE",
  "country": "Niger",
  "city": "Kollo",
  "geonameid": 2442248,
  "target_addresses": 3,
  "samples": [
    {
      "lat": 13.307029255597737,
      "lon": 2.308937879756326,
      "geoinfo": {
        "display_name": "Diokoti Say, Say, Tillabéri Region, Niger",
        "road": null,
        "house_number": null,
        "neighbourhood": null,
        "suburb": null,
        "city_district": null,
        "city": "Diokoti Say",
        "state": "Tillabéri Region",
        "postcode": null,
        "country": "Niger",
        "country_code": "ne"
      },
      "address": "Kollo, Tillabéri Region, Niger"
    },
    {
      "lat": 13.264309476295214,
      "lon": 2.3520883678998143,
      "geoinfo": {
        "display_name": "Voie vers Cité de l'inovation, Paliadouga, Say, Tillabéri Region, Niger",
        "road": "Voie vers Cité de l'inovation",
        "house_number": null,
        "neighbourhood": null,
        "suburb": null,
        "city_district": null,
        "city": "Paliadouga",
        "state": "Tillabéri Region",
        "postcode": null,
        "country": "Niger",
        "country_code": "ne"
      },
      "address": "Voie vers Cité de l'inovation, Kollo, Tillabéri Region, Niger"
    },
    {
      "lat": 13.31363005360936,
      "lon": 2.3574191227888996,
      "geoinfo": {
        "display_name": "Kongou Zarma, Sakey Kouara Tégui, Kollo, Tillabéri Region, Niger",
        "road": null,
        "house_number": null,
        "neighbourhood": null,
        "suburb": null,
        "city_district": null,
        "city": "Sakey Kouara Tégui",
        "state": "Tillabéri Region",
        "postcode": null,
        "country": "Niger",
        "country_code": "ne"
      },
      "address": "985, Kollo, 34995 Tillabéri Region, Niger"
    },
    {
      "lat": 13.273896669501177,
      "lon": 2.37015650506329,
      "geoinfo": {
        "display_name": "Kongou Zarma, Sébéri Zarma, Kollo, Tillabéri Region, Niger",
        "road": null,
        "house_number": null,
        "neighbourhood": null,
        "suburb": null,
        "city_district": null,
        "city": "Sébéri Zarma",
        "state": "Tillabéri Region",
        "postcode": null,
        "country": "Niger",
        "country_code": "ne"
      },
      "address": "405, Kongou Zarma, Sébéri Zarma, Kollo, 97005 Tillabéri Region, Niger"
    },
    {
      "lat": 13.321280091580316,
      "lon": 2.3677277531559384,
      "geoinfo": {
        "display_name": "Kongou Zarma, Sakey Kouara Tégui, Kollo, Tillabéri Region, Niger",
        "road": null,
        "house_number": null,
        "neighbourhood": null,
        "suburb": null,
        "city_district": null,
        "city": "Sakey Kouara Tégui",
        "state": "Tillabéri Region",
        "postcode": null,
        "country": "Niger",
        "country_code": "ne"
      },
      "address": "193, Kollo, 49842 Tillabéri Region, Niger"
    }
  ],
  "updated_at": "2025-10-19T05:57:12.986845+00:00",
  "_kind": "geo_samples"
}