{
  "country_code": "NE",
  "country": "Niger",
  "city": "Matamey",
  "geonameid": 2441217,
  "target_addresses": 3,
  "samples": [
    {
      "lat": 13.39353312186059,
      "lon": 8.475396474537208,
      "geoinfo": {
        "display_name": "Marké Bougagé (Kaou), Kantché, Zinder Region, Niger",
        "road": null,
        "house_number": null,
        "neighbourhood": null,
        "suburb": null,
        "city_district": null,
        "city": "Marké Bougagé (Kaou)",
        "state": "Zinder Region",
        "postcode": null,
        "country": "Niger",
        "country_code": "ne"
      },
      "address": "Matamey, Zinder Region, Niger"
    },
    {
      "lat": 13.437073525435219,
      "lon": 8.464835484657096,
      "geoinfo": {
        "display_name": "TAH 2, Matamèye, Kantché, Zinder Region, Niger",
        "road": "TAH 2",
        "house_number": null,
        "neighbourhood": null,
        "suburb": null,
        "city_district": null,
        "city": "Matamèye",
        "state": "Zinder Region",
        "postcode": null,
        "country": "Niger",
        "country_code": "ne"
      },
      "address": "TAH 2, Matamey, Zinder Region, Niger"
    },
    {
      "lat": 13.39278636414863,
      "lon": 8.455949354313077,
      "geoinfo": {
        "display_name": "Matamèye, Kantché, Zinder Region, Niger",
        "road": null,
        "house_number": null,
        "neighbourhood": null,
        "suburb": null,
        "city_district": null,
        "city": "Matamèye",
        "state": "Zinder Region",
        "postcode": null,
        "country": "Niger",
        "country_code": "ne"
      },
      "address": "398, Matamèye, Kantché, 94616 Zinder Region, Niger"
    },
    {
      "lat": 13.426575161804957,
      "lon": 8.474926455672342,
      "geoinfo": {
        "display_name": "Matamèye, Kantché, Zinder Region, Niger",
        "road": null,
        "house_number": null,
        "neighbourhood": null,
        "suburb": null,
        "city_district": null,
        "city": "Matamèye",
        "state": "Zinder Region",
        "postcode": null,
        "country": "Niger",
        "country_code": "ne"
      },
      "address": "836, Matamèye, Kantché, 54531 Zinder Region, Niger"
    },
    {
      "lat": 13.387174762974503,
      "lon": 8.453950393449174,
      "geoinfo": {
        "display_name": "Marké Haoussa, Kantché, Zinder Region, Niger",
        "road": null,
        "house_number": null,
        "neighbourhood": null,
        "suburb": null,
        "city_district": null,
        "city": "Marké Haoussa",
        "state": "Zinder Region",
        "postcode": null,
        "country": "Niger",
        "country_code": "ne"
      },
      "address": "235, Marké Haoussa, Kantché, 01646 Zinder Region, Niger"
    }
  ],
  "updated_at": "2025-10-19T08:42:26.322656+00:00",
  "_kind": "geo_samples"
}