{
  "country_code": "NE",
  "country": "Niger",
  "city": "Niamey",
  "geonameid": 2440485,
  "target_addresses": 3,
  "samples": [
    {
      "lat": 13.501560541187965,
      "lon": 2.0930218923248667,
      "geoinfo": {
        "display_name": "Abdou Moumouni University, Boulevard de l'Université, Nogaré, Arrondissement Communal Niamey 5, Niamey, Kollo, 8001, Niger",
        "road": "Boulevard de l'Université",
        "house_number": null,
        "neighbourhood": null,
        "suburb": "Nogaré",
        "city_district": "Arrondissement Communal Niamey 5",
        "city": "Niamey",
        "state": null,
        "postcode": "8001",
        "country": "Niger",
        "country_code": "ne"
      },
      "address": "Boulevard de l'Université, Niamey, Niger"
    },
    {
      "lat": 13.54442042594805,
      "lon": 2.1133837887411078,
      "geoinfo": {
        "display_name": "Tourakou Livestock Marketou, Rue KM - 62, Tourakou, Koira Mè, Arrondissement Communal Niamey 2, Niamey, Kollo, 8002, Niger",
        "road": "Rue KM - 62",
        "house_number": null,
        "neighbourhood": null,
        "suburb": "Tourakou",
        "city_district": "Arrondissement Communal Niamey 2",
        "city": "Niamey",
        "state": null,
        "postcode": "8002",
        "country": "Niger",
        "country_code": "ne"
      },
      "address": "Rue KM - 62, Niamey, Niger"
    },
    {
      "lat": 13.520461737715586,
      "lon": 2.109521185021245,
      "geoinfo": {
        "display_name": "Rue Hamsatou Sidik Danté dite Gna Zongo, Zongo, Niamey Bas, Arrondissement Communal Niamey 2, Niamey, Kollo, 8001, Niger",
        "road": "Rue Hamsatou Sidik Danté dite Gna Zongo",
        "house_number": null,
        "neighbourhood": null,
        "suburb": "Zongo",
        "city_district": "Arrondissement Communal Niamey 2",
        "city": "Niamey",
        "state": null,
        "postcode": "8001",
        "country": "Niger",
        "country_code": "ne"
      },
      "address": "Rue Hamsatou Sidik Danté dite Gna Zongo, Niamey, Niger"
    },
    {
      "lat": 13.507437995474428,
      "lon": 2.111561850702512,
      "geoinfo": {
        "display_name": "Agence de Promotion du Tourisme du Niger, BP 612 Niamey (00227) 20 73 24 47, Rue Ali Soumana dit Samari Goudel, Terminus, Niamey Bas, Arrondissement Communal Niamey 3, Niamey, Kollo, 8001, Niger",
        "road": "Rue Ali Soumana dit Samari Goudel",
        "house_number": "BP 612 Niamey (00227) 20 73 24 47",
        "neighbourhood": null,
        "suburb": "Terminus",
        "city_district": "Arrondissement Communal Niamey 3",
        "city": "Niamey",
        "state": null,
        "postcode": "8001",
        "country": "Niger",
        "country_code": "ne"
      },
      "address": "BP 612 Niamey (00227) 20 73 24 47, Rue Ali Soumana dit Samari Goudel, 8001 Niamey, Niger"
    },
    {
      "lat": 13.496239247103155,
      "lon": 2.0781220441659576,
      "geoinfo": {
        "display_name": "Direction Régionale de Douane Niamey, Boulevard de Gourma, Banga Bana, Arrondissement Communal Niamey 5, Niamey, Kollo, 8001, Niger",
        "road": "Boulevard de Gourma",
        "house_number": null,
        "neighbourhood": null,
        "suburb": "Banga Bana",
        "city_district": "Arrondissement Communal Niamey 5",
        "city": "Niamey",
        "state": null,
        "postcode": "8001",
        "country": "Niger",
        "country_code": "ne"
      },
      "address": "Direction Régionale de Douane Niamey, Boulevard de Gourma, Banga Bana, Arrondissement Communal Niamey 5, Niamey, Kollo, 8001, Niger"
    },
    {
      "lat": 13.482758740795283,
      "lon": 2.0954228544510953,
      "geoinfo": {
        "display_name": "Rue BB- 36, Banga Bana, Arrondissement Communal Niamey 5, Niamey, Kollo, 8001, Niger",
        "road": "Rue BB- 36",
        "house_number": null,
        "neighbourhood": null,
        "suburb": "Banga Bana",
        "city_district": "Arrondissement Communal Niamey 5",
        "city": "Niamey",
        "state": null,
        "postcode": "8001",
        "country": "Niger",
        "country_code": "ne"
      },
      "address": "Rue BB- 36, Banga Bana, Arrondissement Communal Niamey 5, Niamey, Kollo, 8001, Niger"
    }
  ],
  "updated_at": "2025-10-19T06:16:48.546874+00:00",
  "_kind": "geo_samples"
}