{
  "country_code": "NE",
  "country": "Niger",
  "city": "Tillabéri",
  "geonameid": 2438678,
  "target_addresses": 3,
  "samples": [
    {
      "lat": 14.230096790529604,
      "lon": 1.429460952005392,
      "geoinfo": {
        "display_name": "Doubbal, Finari, Tillabéri, Tillabéri Region, Niger",
        "road": null,
        "house_number": null,
        "neighbourhood": null,
        "suburb": null,
        "city_district": null,
        "city": "Finari",
        "state": "Tillabéri Region",
        "postcode": null,
        "country": "Niger",
        "country_code": "ne"
      },
      "address": "Tillabéri, Tillabéri Region, Niger"
    },
    {
      "lat": 14.20006568547665,
      "lon": 1.4550372436059362,
      "geoinfo": {
        "display_name": "Gandatché, Tillabéri, Tillabéri Region, Niger",
        "road": null,
        "house_number": null,
        "neighbourhood": null,
        "suburb": "Gandatché",
        "city_district": null,
        "city": "Tillabéri",
        "state": "Tillabéri Region",
        "postcode": null,
        "country": "Niger",
        "country_code": "ne"
      },
      "address": "Gandatché, Tillabéri, Tillabéri Region, Niger"
    },
    {
      "lat": 14.232016870234517,
      "lon": 1.4496556029970291,
      "geoinfo": {
        "display_name": "Koira Tégui, Tillakaïna Koira Zéno, Tillabéri, Tillabéri Region, Niger",
        "road": null,
        "house_number": null,
        "neighbourhood": null,
        "suburb": "Koira Tégui",
        "city_district": null,
        "city": "Tillakaïna Koira Zéno",
        "state": "Tillabéri Region",
        "postcode": null,
        "country": "Niger",
        "country_code": "ne"
      },
      "address": "Koira Tégui, Tillabéri, Tillabéri Region, Niger"
    },
    {
      "lat": 14.19947999671767,
      "lon": 1.433931181218127,
      "geoinfo": {
        "display_name": "Néini Tabarmey, Tillabéri, Tillabéri Region, Niger",
        "road": null,
        "house_number": null,
        "neighbourhood": null,
        "suburb": null,
        "city_district": null,
        "city": "Tillabéri",
        "state": "Tillabéri Region",
        "postcode": null,
        "country": "Niger",
        "country_code": "ne"
      },
      "address": "366, Néini Tabarmey, Tillabéri, 42171 Tillabéri Region, Niger"
    },
    {
      "lat": 14.210514488122817,
      "lon": 1.499345752530015,
      "geoinfo": {
        "display_name": "Sabou, Tillabéri, Tillabéri Region, Niger",
        "road": null,
        "house_number": null,
        "neighbourhood": null,
        "suburb": null,
        "city_district": null,
        "city": "Tillabéri",
        "state": "Tillabéri Region",
        "postcode": null,
        "country": "Niger",
        "country_code": "ne"
      },
      "address": "166, Sabou, Tillabéri, 71605 Tillabéri Region, Niger"
    },
    {
      "lat": 14.204451013302172,
      "lon": 1.4527571774926171,
      "geoinfo": {
        "display_name": "Zongo, Tillabéri, Tillabéri Region, Niger",
        "road": null,
        "house_number": null,
        "neighbourhood": null,
        "suburb": "Zongo",
        "city_district": null,
        "city": "Tillabéri",
        "state": "Tillabéri Region",
        "postcode": null,
        "country": "Niger",
        "country_code": "ne"
      },
      "address": "177, Zongo, Tillabéri, 50118 Tillabéri Region, Niger"
    }
  ],
  "updated_at": "2025-10-19T05:57:00.372403+00:00",
  "_kind": "geo_samples"
}