{
  "country_code": "NE",
  "country": "Niger",
  "city": "Zinder",
  "geonameid": 2437798,
  "target_addresses": 3,
  "samples": [
    {
      "lat": 13.81197963900562,
      "lon": 9.006090738906426,
      "geoinfo": {
        "display_name": "Kara Kara I, Zinder, Mirriah, Zinder Region, Niger",
        "road": null,
        "house_number": null,
        "neighbourhood": null,
        "suburb": "Kara Kara I",
        "city_district": null,
        "city": "Zinder",
        "state": "Zinder Region",
        "postcode": null,
        "country": "Niger",
        "country_code": "ne"
      },
      "address": "Kara Kara I, Zinder, Zinder Region, Niger"
    },
    {
      "lat": 13.83466666202071,
      "lon": 9.016805314379146,
      "geoinfo": {
        "display_name": "Zinder, Mirriah, Zinder Region, Niger",
        "road": null,
        "house_number": null,
        "neighbourhood": null,
        "suburb": null,
        "city_district": null,
        "city": "Zinder",
        "state": "Zinder Region",
        "postcode": null,
        "country": "Niger",
        "country_code": "ne"
      },
      "address": "Zinder, Zinder Region, Niger"
    },
    {
      "lat": 13.783980400152394,
      "lon": 9.005212597888844,
      "geoinfo": {
        "display_name": "Franco, Zinder, Mirriah, Zinder Region, Niger",
        "road": null,
        "house_number": null,
        "neighbourhood": null,
        "suburb": "Franco",
        "city_district": null,
        "city": "Zinder",
        "state": "Zinder Region",
        "postcode": null,
        "country": "Niger",
        "country_code": "ne"
      },
      "address": "Franco, Zinder, Zinder Region, Niger"
    },
    {
      "lat": 13.815477311106555,
      "lon": 8.949819179216197,
      "geoinfo": {
        "display_name": "Charé II, Zinder, Mirriah, Zinder Region, Niger",
        "road": null,
        "house_number": null,
        "neighbourhood": null,
        "suburb": "Charé II",
        "city_district": null,
        "city": "Zinder",
        "state": "Zinder Region",
        "postcode": null,
        "country": "Niger",
        "country_code": "ne"
      },
      "address": "369, Charé II, Zinder, Mirriah, 78024 Zinder Region, Niger"
    },
    {
      "lat": 13.827095503708591,
      "lon": 9.027260520239965,
      "geoinfo": {
        "display_name": "Garin Tawaké, Mirriah, Zinder Region, Niger",
        "road": null,
        "house_number": null,
        "neighbourhood": null,
        "suburb": null,
        "city_district": null,
        "city": "Garin Tawaké",
        "state": "Zinder Region",
        "postcode": null,
        "country": "Niger",
        "country_code": "ne"
      },
      "address": "810, Garin Tawaké, Mirriah, 43608 Zinder Region, Niger"
    },
    {
      "lat": 13.850977173319412,
      "lon": 8.99358597989857,
      "geoinfo": {
        "display_name": "Garin Grand, Banguia, Mirriah, Zinder Region, Niger",
        "road": null,
        "house_number": null,
        "neighbourhood": null,
        "suburb": null,
        "city_district": null,
        "city": "Banguia",
        "state": "Zinder Region",
        "postcode": null,
        "country": "Niger",
        "country_code": "ne"
      },
      "address": "686, Garin Grand, Banguia, Mirriah, 36943 Zinder Region, Niger"
    }
  ],
  "updated_at": "2025-10-19T05:56:49.427385+00:00",
  "_kind": "geo_samples"
}