{
  "country_code": "NZ",
  "country": "New Zealand",
  "city": "Cambridge",
  "geonameid": 6240770,
  "target_addresses": 9,
  "samples": [
    {
      "lat": -37.84471549119409,
      "lon": 175.46717453539782,
      "geoinfo": {
        "display_name": "Goodwood School, 517, Fencourt Road, Fencourt, Cambridge, Waipa District, Waikato, 3493, New Zealand",
        "road": "Fencourt Road",
        "house_number": "517",
        "neighbourhood": null,
        "suburb": null,
        "city_district": null,
        "city": "Cambridge",
        "state": "Waikato",
        "postcode": "3493",
        "country": "New Zealand",
        "country_code": "nz"
      },
      "address": "517 Fencourt Road, Cambridge, Waikato, New Zealand"
    },
    {
      "lat": -37.909831514001056,
      "lon": 175.44528326698537,
      "geoinfo": {
        "display_name": "1258, Kaipaki Road, Pukerimu, Cambridge, Waipa District, Waikato, 3495, New Zealand",
        "road": "Kaipaki Road",
        "house_number": "1258",
        "neighbourhood": null,
        "suburb": null,
        "city_district": null,
        "city": "Cambridge",
        "state": "Waikato",
        "postcode": "3495",
        "country": "New Zealand",
        "country_code": "nz"
      },
      "address": "1258 Kaipaki Road, Cambridge, Waikato, New Zealand"
    },
    {
      "lat": -37.88079672647478,
      "lon": 175.423662550876,
      "geoinfo": {
        "display_name": "1595, Cambridge Road, Pukeroro, Waipa District, Waikato, 3493, New Zealand",
        "road": "Cambridge Road",
        "house_number": "1595",
        "neighbourhood": null,
        "suburb": null,
        "city_district": null,
        "city": null,
        "state": "Waikato",
        "postcode": "3493",
        "country": "New Zealand",
        "country_code": "nz"
      },
      "address": "1595, Cambridge Road, Pukeroro, Waipa District, Waikato, 3493, New Zealand"
    },
    {
      "lat": -37.903485987719726,
      "lon": 175.43408069089645,
      "geoinfo": {
        "display_name": "22, Pukerimu Lane, Pukerimu, Waipa District, Waikato, 3495, New Zealand",
        "road": "Pukerimu Lane",
        "house_number": "22",
        "neighbourhood": null,
        "suburb": null,
        "city_district": null,
        "city": null,
        "state": "Waikato",
        "postcode": "3495",
        "country": "New Zealand",
        "country_code": "nz"
      },
      "address": "22, Pukerimu Lane, Cambridge, 3495 Waikato, New Zealand"
    },
    {
      "lat": -37.869733107597554,
      "lon": 175.41654643627703,
      "geoinfo": {
        "display_name": "Waikato Expressway, Cambridge, Waikato District, Waikato, 3493, New Zealand",
        "road": "Waikato Expressway",
        "house_number": null,
        "neighbourhood": null,
        "suburb": null,
        "city_district": null,
        "city": "Cambridge",
        "state": "Waikato",
        "postcode": "3493",
        "country": "New Zealand",
        "country_code": "nz"
      },
      "address": "319, Waikato Expressway, Cambridge, Waikato District, Waikato, 3493, New Zealand"
    },
    {
      "lat": -37.912788991336136,
      "lon": 175.44995576372986,
      "geoinfo": {
        "display_name": "3682, Cambridge Road, Leamington, Cambridge, Waipa District, Waikato, 3495, New Zealand",
        "road": "Cambridge Road",
        "house_number": "3682",
        "neighbourhood": null,
        "suburb": "Leamington",
        "city_district": null,
        "city": "Cambridge",
        "state": "Waikato",
        "postcode": "3495",
        "country": "New Zealand",
        "country_code": "nz"
      },
      "address": "3682, Cambridge Road, Leamington, Cambridge, Waipa District, Waikato, 3495, New Zealand"
    },
    {
      "lat": -37.8652152267035,
      "lon": 175.49290268388935,
      "geoinfo": {
        "display_name": "212, Fencourt Road, Fencourt, Cambridge, Waipa District, Waikato, 3493, New Zealand",
        "road": "Fencourt Road",
        "house_number": "212",
        "neighbourhood": null,
        "suburb": null,
        "city_district": null,
        "city": "Cambridge",
        "state": "Waikato",
        "postcode": "3493",
        "country": "New Zealand",
        "country_code": "nz"
      },
      "address": "212, Fencourt Road, Fencourt, Cambridge, Waipa District, Waikato, 3493, New Zealand"
    },
    {
      "lat": -37.9148130796002,
      "lon": 175.44550948327043,
      "geoinfo": {
        "display_name": "1/3631, Cambridge Road, Monavale, Cambridge, Waipa District, Waikato, 3495, New Zealand",
        "road": "Cambridge Road",
        "house_number": "1/3631",
        "neighbourhood": null,
        "suburb": null,
        "city_district": null,
        "city": "Cambridge",
        "state": "Waikato",
        "postcode": "3495",
        "country": "New Zealand",
        "country_code": "nz"
      },
      "address": "1/3631, Cambridge Road, Monavale, Cambridge, Waipa District, Waikato, 3495, New Zealand"
    },
    {
      "lat": -37.83917601210484,
      "lon": 175.46808190500252,
      "geoinfo": {
        "display_name": "573, Fencourt Road, Fencourt, Waipa District, Waikato, 3493, New Zealand",
        "road": "Fencourt Road",
        "house_number": "573",
        "neighbourhood": null,
        "suburb": null,
        "city_district": null,
        "city": null,
        "state": "Waikato",
        "postcode": "3493",
        "country": "New Zealand",
        "country_code": "nz"
      },
      "address": "573, Fencourt Road, Cambridge, 3493 Waikato, New Zealand"
    }
  ],
  "updated_at": "2025-10-19T06:03:46.445697+00:00",
  "_kind": "geo_samples"
}