{
  "country_code": "NZ",
  "country": "New Zealand",
  "city": "Gisborne",
  "geonameid": 2206854,
  "target_addresses": 2,
  "samples": [
    {
      "lat": -38.66548554858013,
      "lon": 178.05165840042176,
      "geoinfo": {
        "display_name": "12, Darwin Road, Outer Kaiti, Kaiti, Gisborne District, Gisborne, 4020, New Zealand",
        "road": "Darwin Road",
        "house_number": "12",
        "neighbourhood": null,
        "suburb": "Kaiti",
        "city_district": null,
        "city": null,
        "state": "Gisborne",
        "postcode": "4020",
        "country": "New Zealand",
        "country_code": "nz"
      },
      "address": "12 Darwin Road, Gisborne, Gisborne, New Zealand"
    },
    {
      "lat": -38.64262076921718,
      "lon": 177.97574004755734,
      "geoinfo": {
        "display_name": "618, Nelson Road, Taruheru, Makauri, Gisborne, Gisborne District, Gisborne, 4010, New Zealand",
        "road": "Nelson Road",
        "house_number": "618",
        "neighbourhood": null,
        "suburb": null,
        "city_district": null,
        "city": "Gisborne",
        "state": "Gisborne",
        "postcode": "4010",
        "country": "New Zealand",
        "country_code": "nz"
      },
      "address": "618 Nelson Road, Gisborne, Gisborne, New Zealand"
    },
    {
      "lat": -38.67384508941555,
      "lon": 178.00982005649786,
      "geoinfo": {
        "display_name": "Centennial Marine Drive, Awapuni, Elgin, Gisborne, Gisborne District, Gisborne, 4010, New Zealand",
        "road": "Centennial Marine Drive",
        "house_number": null,
        "neighbourhood": null,
        "suburb": "Elgin",
        "city_district": null,
        "city": "Gisborne",
        "state": "Gisborne",
        "postcode": "4010",
        "country": "New Zealand",
        "country_code": "nz"
      },
      "address": "923, Centennial Marine Drive, Awapuni, Elgin, Gisborne, Gisborne District, Gisborne, 4010, New Zealand"
    },
    {
      "lat": -38.65201245823295,
      "lon": 177.97780404049186,
      "geoinfo": {
        "display_name": "Main Road, Taruheru, Te Hāpara, Gisborne, Gisborne District, Gisborne, 4010, New Zealand",
        "road": "Main Road",
        "house_number": null,
        "neighbourhood": null,
        "suburb": "Te Hāpara",
        "city_district": null,
        "city": "Gisborne",
        "state": "Gisborne",
        "postcode": "4010",
        "country": "New Zealand",
        "country_code": "nz"
      },
      "address": "314, Main Road, Taruheru, Te Hāpara, Gisborne, Gisborne District, Gisborne, 4010, New Zealand"
    }
  ],
  "updated_at": "2025-10-19T04:57:20.188349+00:00",
  "_kind": "geo_samples"
}