{
  "country_code": "NZ",
  "country": "New Zealand",
  "city": "Hamilton East",
  "geonameid": 6249340,
  "target_addresses": 8,
  "samples": [
    {
      "lat": -37.80203724775275,
      "lon": 175.29831224140818,
      "geoinfo": {
        "display_name": "Chanel Centre, Grey Street, Hamilton East, Hamilton, Waikato, 3247, New Zealand",
        "road": "Grey Street",
        "house_number": null,
        "neighbourhood": null,
        "suburb": "Hamilton East",
        "city_district": null,
        "city": "Hamilton",
        "state": "Waikato",
        "postcode": "3247",
        "country": "New Zealand",
        "country_code": "nz"
      },
      "address": "Grey Street, Hamilton East, Waikato, New Zealand"
    },
    {
      "lat": -37.78177700659169,
      "lon": 175.33537173246822,
      "geoinfo": {
        "display_name": "Ruakura Interchange, Ruakura Road, Waikato District, Waikato, 3251, New Zealand",
        "road": "Ruakura Road",
        "house_number": null,
        "neighbourhood": null,
        "suburb": null,
        "city_district": null,
        "city": null,
        "state": "Waikato",
        "postcode": "3251",
        "country": "New Zealand",
        "country_code": "nz"
      },
      "address": "Ruakura Road, Hamilton East, Waikato, New Zealand"
    },
    {
      "lat": -37.79553845414785,
      "lon": 175.30763098999049,
      "geoinfo": {
        "display_name": "Wairere Drive, Knighton, Hamilton East, Hamilton, Waikato, 3216, New Zealand",
        "road": "Wairere Drive",
        "house_number": null,
        "neighbourhood": null,
        "suburb": "Hamilton East",
        "city_district": null,
        "city": "Hamilton",
        "state": "Waikato",
        "postcode": "3216",
        "country": "New Zealand",
        "country_code": "nz"
      },
      "address": "Wairere Drive, Knighton, Hamilton East, Hamilton, Waikato, 3216, New Zealand"
    },
    {
      "lat": -37.78768314119558,
      "lon": 175.25627724007109,
      "geoinfo": {
        "display_name": "20A, West Street, Frankton CBD, Frankton, Hamilton, Waikato, 3204, New Zealand",
        "road": "West Street",
        "house_number": "20A",
        "neighbourhood": "Frankton CBD",
        "suburb": "Frankton",
        "city_district": null,
        "city": "Hamilton",
        "state": "Waikato",
        "postcode": "3204",
        "country": "New Zealand",
        "country_code": "nz"
      },
      "address": "20A, West Street, Frankton CBD, Frankton, Hamilton, Waikato, 3204, New Zealand"
    },
    {
      "lat": -37.77617345466862,
      "lon": 175.2411500654054,
      "geoinfo": {
        "display_name": "8, Puriri Street, Crawshaw, Nawton, Hamilton, Waikato, 3200, New Zealand",
        "road": "Puriri Street",
        "house_number": "8",
        "neighbourhood": null,
        "suburb": "Nawton",
        "city_district": null,
        "city": "Hamilton",
        "state": "Waikato",
        "postcode": "3200",
        "country": "New Zealand",
        "country_code": "nz"
      },
      "address": "8, Puriri Street, Crawshaw, Nawton, Hamilton, Waikato, 3200, New Zealand"
    },
    {
      "lat": -37.800591699460256,
      "lon": 175.27423837315246,
      "geoinfo": {
        "display_name": "Lake Rotoroa Esplanade Walkway, Hamilton Lake, Hamilton, Waikato, 3204, New Zealand",
        "road": "Lake Rotoroa Esplanade Walkway",
        "house_number": null,
        "neighbourhood": null,
        "suburb": "Hamilton Lake",
        "city_district": null,
        "city": "Hamilton",
        "state": "Waikato",
        "postcode": "3204",
        "country": "New Zealand",
        "country_code": "nz"
      },
      "address": "842, Lake Rotoroa Esplanade Walkway, Hamilton Lake, Hamilton, Waikato, 3204, New Zealand"
    },
    {
      "lat": -37.778747422668815,
      "lon": 175.31060417816929,
      "geoinfo": {
        "display_name": "Torutek Building, 1, Melody Lane, Waikato Innovation Park, Transpower, Ruakura, Hamilton, Waikato, 3216, New Zealand",
        "road": "Melody Lane",
        "house_number": "1",
        "neighbourhood": null,
        "suburb": "Ruakura",
        "city_district": null,
        "city": "Hamilton",
        "state": "Waikato",
        "postcode": "3216",
        "country": "New Zealand",
        "country_code": "nz"
      },
      "address": "Torutek Building, 1, Melody Lane, Waikato Innovation Park, Transpower, Ruakura, Hamilton, Waikato, 3216, New Zealand"
    },
    {
      "lat": -37.83019416475681,
      "lon": 175.29541331762334,
      "geoinfo": {
        "display_name": "3/3034, Ohaupo Road, Aurora, Glenview, Hamilton, Waikato, 3206, New Zealand",
        "road": "Ohaupo Road",
        "house_number": "3/3034",
        "neighbourhood": null,
        "suburb": "Glenview",
        "city_district": null,
        "city": "Hamilton",
        "state": "Waikato",
        "postcode": "3206",
        "country": "New Zealand",
        "country_code": "nz"
      },
      "address": "3/3034, Ohaupo Road, Aurora, Glenview, Hamilton, Waikato, 3206, New Zealand"
    },
    {
      "lat": -37.74459622848015,
      "lon": 175.28928349135856,
      "geoinfo": {
        "display_name": "33, Darjon Drive, Parkwood, Huntington, Hamilton, Waikato, 3214, New Zealand",
        "road": "Darjon Drive",
        "house_number": "33",
        "neighbourhood": null,
        "suburb": "Huntington",
        "city_district": null,
        "city": "Hamilton",
        "state": "Waikato",
        "postcode": "3214",
        "country": "New Zealand",
        "country_code": "nz"
      },
      "address": "33, Darjon Drive, Parkwood, Huntington, Hamilton, Waikato, 3214, New Zealand"
    }
  ],
  "updated_at": "2025-10-19T06:03:58.035449+00:00",
  "_kind": "geo_samples"
}