{
  "country_code": "NZ",
  "country": "New Zealand",
  "city": "Lower Hutt",
  "geonameid": 2188164,
  "target_addresses": 2,
  "samples": [
    {
      "lat": -41.213042219741354,
      "lon": 174.90995879074703,
      "geoinfo": {
        "display_name": "70, Hautana Street, Woburn, Lower Hutt, Lower Hutt City, Wellington, 5010, New Zealand",
        "road": "Hautana Street",
        "house_number": "70",
        "neighbourhood": null,
        "suburb": "Woburn",
        "city_district": null,
        "city": "Lower Hutt",
        "state": "Wellington",
        "postcode": "5010",
        "country": "New Zealand",
        "country_code": "nz"
      },
      "address": "70 Hautana Street, Lower Hutt, Wellington, New Zealand"
    },
    {
      "lat": -41.25583425528184,
      "lon": 174.90556225887252,
      "geoinfo": {
        "display_name": "Marine Drive, Sorrento Bay, Lower Hutt City, Wellington, 5010, New Zealand",
        "road": "Marine Drive",
        "house_number": null,
        "neighbourhood": null,
        "suburb": null,
        "city_district": null,
        "city": null,
        "state": "Wellington",
        "postcode": "5010",
        "country": "New Zealand",
        "country_code": "nz"
      },
      "address": "Marine Drive, Lower Hutt, Wellington, New Zealand"
    },
    {
      "lat": -41.19874608663272,
      "lon": 174.90846540016332,
      "geoinfo": {
        "display_name": "96, Pomare Road, Tirohanga, Lower Hutt City, Wellington, 5011, New Zealand",
        "road": "Pomare Road",
        "house_number": "96",
        "neighbourhood": null,
        "suburb": "Tirohanga",
        "city_district": null,
        "city": null,
        "state": "Wellington",
        "postcode": "5011",
        "country": "New Zealand",
        "country_code": "nz"
      },
      "address": "96, Pomare Road, Tirohanga, Lower Hutt City, Wellington, 5011, New Zealand"
    },
    {
      "lat": -41.21362417277112,
      "lon": 174.89248974961538,
      "geoinfo": {
        "display_name": "16, Te Mome Road, Ava, Alicetown, Lower Hutt City, Wellington, 5045, New Zealand",
        "road": "Te Mome Road",
        "house_number": "16",
        "neighbourhood": null,
        "suburb": "Alicetown",
        "city_district": null,
        "city": null,
        "state": "Wellington",
        "postcode": "5045",
        "country": "New Zealand",
        "country_code": "nz"
      },
      "address": "16, Te Mome Road, Ava, Alicetown, Lower Hutt City, Wellington, 5045, New Zealand"
    }
  ],
  "updated_at": "2025-10-19T04:56:55.189037+00:00",
  "_kind": "geo_samples"
}