{
  "country_code": "NZ",
  "country": "New Zealand",
  "city": "Masterton",
  "geonameid": 2206890,
  "target_addresses": 9,
  "samples": [
    {
      "lat": -40.95018714061981,
      "lon": 175.6051430794459,
      "geoinfo": {
        "display_name": "Upper Manaia Road, Solway, Masterton, Wellington, 5888, New Zealand",
        "road": "Upper Manaia Road",
        "house_number": null,
        "neighbourhood": null,
        "suburb": "Solway",
        "city_district": null,
        "city": "Masterton",
        "state": "Wellington",
        "postcode": "5888",
        "country": "New Zealand",
        "country_code": "nz"
      },
      "address": "Upper Manaia Road, Masterton, Wellington, New Zealand"
    },
    {
      "lat": -40.94377795368368,
      "lon": 175.6065421376029,
      "geoinfo": {
        "display_name": "West Bush Road, Masterton, Wellington, 5888, New Zealand",
        "road": "West Bush Road",
        "house_number": null,
        "neighbourhood": null,
        "suburb": null,
        "city_district": null,
        "city": "Masterton",
        "state": "Wellington",
        "postcode": "5888",
        "country": "New Zealand",
        "country_code": "nz"
      },
      "address": "West Bush Road, Masterton, Wellington, New Zealand"
    },
    {
      "lat": -40.98620025450126,
      "lon": 175.68682336523665,
      "geoinfo": {
        "display_name": "Homebush, Masterton, Wellington, 5810, New Zealand",
        "road": null,
        "house_number": null,
        "neighbourhood": null,
        "suburb": null,
        "city_district": null,
        "city": "Masterton",
        "state": "Wellington",
        "postcode": "5810",
        "country": "New Zealand",
        "country_code": "nz"
      },
      "address": "Homebush, Masterton, Wellington, 5810, New Zealand"
    },
    {
      "lat": -40.95079241615114,
      "lon": 175.70170182385243,
      "geoinfo": {
        "display_name": "Masterton Castlepoint Road, Te Ore Ore, Masterton, Wellington, New Zealand",
        "road": "Masterton Castlepoint Road",
        "house_number": null,
        "neighbourhood": null,
        "suburb": null,
        "city_district": null,
        "city": "Masterton",
        "state": "Wellington",
        "postcode": null,
        "country": "New Zealand",
        "country_code": "nz"
      },
      "address": "226, Masterton Castlepoint Road, Te Ore Ore, Masterton, 74479 Wellington, New Zealand"
    },
    {
      "lat": -40.97654911750644,
      "lon": 175.65669906210016,
      "geoinfo": {
        "display_name": "47, Holdsworth Road, Homebush, Masterton, Wellington, 5810, New Zealand",
        "road": "Holdsworth Road",
        "house_number": "47",
        "neighbourhood": null,
        "suburb": null,
        "city_district": null,
        "city": "Masterton",
        "state": "Wellington",
        "postcode": "5810",
        "country": "New Zealand",
        "country_code": "nz"
      },
      "address": "47, Holdsworth Road, Homebush, Masterton, Wellington, 5810, New Zealand"
    },
    {
      "lat": -40.96952123584055,
      "lon": 175.60257215241995,
      "geoinfo": {
        "display_name": "State Highway 2, Waingawa, Carterton District, Wellington, 5791, New Zealand",
        "road": "State Highway 2",
        "house_number": null,
        "neighbourhood": null,
        "suburb": null,
        "city_district": null,
        "city": null,
        "state": "Wellington",
        "postcode": "5791",
        "country": "New Zealand",
        "country_code": "nz"
      },
      "address": "State Highway 2, Waingawa, Carterton District, Wellington, 5791, New Zealand"
    },
    {
      "lat": -40.9740520907825,
      "lon": 175.69589347605802,
      "geoinfo": {
        "display_name": "Morris Road, Masterton, Wellington, New Zealand",
        "road": "Morris Road",
        "house_number": null,
        "neighbourhood": null,
        "suburb": null,
        "city_district": null,
        "city": "Masterton",
        "state": "Wellington",
        "postcode": null,
        "country": "New Zealand",
        "country_code": "nz"
      },
      "address": "782, Morris Road, Masterton, 16752 Wellington, New Zealand"
    },
    {
      "lat": -40.924859018463245,
      "lon": 175.65248423356047,
      "geoinfo": {
        "display_name": "90E, Paierau Road, Ākura, Masterton, Wellington, 5871, New Zealand",
        "road": "Paierau Road",
        "house_number": "90E",
        "neighbourhood": null,
        "suburb": null,
        "city_district": null,
        "city": "Masterton",
        "state": "Wellington",
        "postcode": "5871",
        "country": "New Zealand",
        "country_code": "nz"
      },
      "address": "90E, Paierau Road, Ākura, Masterton, Wellington, 5871, New Zealand"
    },
    {
      "lat": -40.97711553898504,
      "lon": 175.65334549881112,
      "geoinfo": {
        "display_name": "173, Manaia Road, Homebush, Masterton, Wellington, 5810, New Zealand",
        "road": "Manaia Road",
        "house_number": "173",
        "neighbourhood": null,
        "suburb": null,
        "city_district": null,
        "city": "Masterton",
        "state": "Wellington",
        "postcode": "5810",
        "country": "New Zealand",
        "country_code": "nz"
      },
      "address": "173, Manaia Road, Homebush, Masterton, Wellington, 5810, New Zealand"
    }
  ],
  "updated_at": "2025-10-19T06:02:59.073451+00:00",
  "_kind": "geo_samples"
}