{
  "country_code": "NZ",
  "country": "New Zealand",
  "city": "Nelson",
  "geonameid": 2186280,
  "target_addresses": 9,
  "samples": [
    {
      "lat": -41.2629780864983,
      "lon": 173.2827056677072,
      "geoinfo": {
        "display_name": "Akersten Street Shared Path, Beachville, The Wood, Nelson, 7030, New Zealand",
        "road": "Akersten Street Shared Path",
        "house_number": null,
        "neighbourhood": null,
        "suburb": "The Wood",
        "city_district": null,
        "city": "Nelson",
        "state": "Nelson",
        "postcode": "7030",
        "country": "New Zealand",
        "country_code": "nz"
      },
      "address": "Akersten Street Shared Path, Nelson, Nelson, New Zealand"
    },
    {
      "lat": -41.239176375896946,
      "lon": 173.2625951225356,
      "geoinfo": {
        "display_name": "Washington Valley, Nelson, 7030, New Zealand",
        "road": null,
        "house_number": null,
        "neighbourhood": null,
        "suburb": "Washington Valley",
        "city_district": null,
        "city": "Nelson",
        "state": "Nelson",
        "postcode": "7030",
        "country": "New Zealand",
        "country_code": "nz"
      },
      "address": "Washington Valley, Nelson, Nelson, New Zealand"
    },
    {
      "lat": -41.259427070555,
      "lon": 173.26447829396713,
      "geoinfo": {
        "display_name": "Boulder Bank Walk, Washington Valley, Nelson, 7030, New Zealand",
        "road": "Boulder Bank Walk",
        "house_number": null,
        "neighbourhood": null,
        "suburb": "Washington Valley",
        "city_district": null,
        "city": "Nelson",
        "state": "Nelson",
        "postcode": "7030",
        "country": "New Zealand",
        "country_code": "nz"
      },
      "address": "Boulder Bank Walk, Washington Valley, Nelson, 7030, New Zealand"
    },
    {
      "lat": -41.24632495007701,
      "lon": 173.24389564541153,
      "geoinfo": {
        "display_name": "Britannia Heights, Nelson, 7030, New Zealand",
        "road": null,
        "house_number": null,
        "neighbourhood": null,
        "suburb": "Britannia Heights",
        "city_district": null,
        "city": "Nelson",
        "state": "Nelson",
        "postcode": "7030",
        "country": "New Zealand",
        "country_code": "nz"
      },
      "address": "436, Britannia Heights, Nelson, 7030, New Zealand"
    },
    {
      "lat": -41.30897845305953,
      "lon": 173.2867064482117,
      "geoinfo": {
        "display_name": "588, Brook Street, The Brook, Nelson, 7071, New Zealand",
        "road": "Brook Street",
        "house_number": "588",
        "neighbourhood": null,
        "suburb": "The Brook",
        "city_district": null,
        "city": "Nelson",
        "state": "Nelson",
        "postcode": "7071",
        "country": "New Zealand",
        "country_code": "nz"
      },
      "address": "588, Brook Street, The Brook, Nelson, 7071, New Zealand"
    },
    {
      "lat": -41.308197487718246,
      "lon": 173.26685290258814,
      "geoinfo": {
        "display_name": "100, Enner Glynn Road, Enner Glynn, Nelson, 7011, New Zealand",
        "road": "Enner Glynn Road",
        "house_number": "100",
        "neighbourhood": null,
        "suburb": "Enner Glynn",
        "city_district": null,
        "city": "Nelson",
        "state": "Nelson",
        "postcode": "7011",
        "country": "New Zealand",
        "country_code": "nz"
      },
      "address": "100, Enner Glynn Road, Enner Glynn, Nelson, 7011, New Zealand"
    },
    {
      "lat": -41.271697061703655,
      "lon": 173.34037815687083,
      "geoinfo": {
        "display_name": "Isolation Spur, Nelson, New Zealand",
        "road": "Isolation Spur",
        "house_number": null,
        "neighbourhood": null,
        "suburb": null,
        "city_district": null,
        "city": "Nelson",
        "state": "Nelson",
        "postcode": null,
        "country": "New Zealand",
        "country_code": "nz"
      },
      "address": "906, Isolation Spur, 69362 Nelson, New Zealand"
    },
    {
      "lat": -41.31192149807366,
      "lon": 173.28988650401863,
      "geoinfo": {
        "display_name": "Jenkins Hill-Brook Street Track, Nelson, 7071, New Zealand",
        "road": "Jenkins Hill-Brook Street Track",
        "house_number": null,
        "neighbourhood": null,
        "suburb": null,
        "city_district": null,
        "city": "Nelson",
        "state": "Nelson",
        "postcode": "7071",
        "country": "New Zealand",
        "country_code": "nz"
      },
      "address": "604, Jenkins Hill-Brook Street Track, Nelson, 7071, New Zealand"
    },
    {
      "lat": -41.29492714846167,
      "lon": 173.24167560589885,
      "geoinfo": {
        "display_name": "4, Merton Place, Annesbrook, Tāhunanui, Nelson, 7011, New Zealand",
        "road": "Merton Place",
        "house_number": "4",
        "neighbourhood": null,
        "suburb": "Tāhunanui",
        "city_district": null,
        "city": "Nelson",
        "state": "Nelson",
        "postcode": "7011",
        "country": "New Zealand",
        "country_code": "nz"
      },
      "address": "4, Merton Place, Annesbrook, Tāhunanui, Nelson, 7011, New Zealand"
    }
  ],
  "updated_at": "2025-10-19T06:02:50.276605+00:00",
  "_kind": "geo_samples"
}