{
  "country_code": "NZ",
  "country": "New Zealand",
  "city": "Palmerston North",
  "geonameid": 2185018,
  "target_addresses": 2,
  "samples": [
    {
      "lat": -40.34969660937562,
      "lon": 175.5624544214347,
      "geoinfo": {
        "display_name": "64, Cloverlea Road, Westbrook, Palmerston North, Palmerston North City, Manawatū-Whanganui, 4475, New Zealand",
        "road": "Cloverlea Road",
        "house_number": "64",
        "neighbourhood": null,
        "suburb": "Westbrook",
        "city_district": null,
        "city": "Palmerston North",
        "state": "Manawatū-Whanganui",
        "postcode": "4475",
        "country": "New Zealand",
        "country_code": "nz"
      },
      "address": "64 Cloverlea Road, Palmerston North, Manawatū-Whanganui, New Zealand"
    },
    {
      "lat": -40.36175803471906,
      "lon": 175.62002039513814,
      "geoinfo": {
        "display_name": "College Street Normal School, 402, College Street, Palmerston North Central, Palmerston North City, Manawatū-Whanganui, 4410, New Zealand",
        "road": "College Street",
        "house_number": "402",
        "neighbourhood": null,
        "suburb": "Palmerston North Central",
        "city_district": null,
        "city": null,
        "state": "Manawatū-Whanganui",
        "postcode": "4410",
        "country": "New Zealand",
        "country_code": "nz"
      },
      "address": "402 College Street, Palmerston North, Manawatū-Whanganui, New Zealand"
    },
    {
      "lat": -40.3596371249077,
      "lon": 175.6031384440324,
      "geoinfo": {
        "display_name": "Longburn Cycleway, Palmerston North Central, Palmerston North, Palmerston North City, Manawatū-Whanganui, 4440, New Zealand",
        "road": "Longburn Cycleway",
        "house_number": null,
        "neighbourhood": null,
        "suburb": "Palmerston North Central",
        "city_district": null,
        "city": "Palmerston North",
        "state": "Manawatū-Whanganui",
        "postcode": "4440",
        "country": "New Zealand",
        "country_code": "nz"
      },
      "address": "532, Longburn Cycleway, Palmerston North Central, Palmerston North, Palmerston North City, Manawatū-Whanganui, 4440, New Zealand"
    },
    {
      "lat": -40.392697812723526,
      "lon": 175.60047939281705,
      "geoinfo": {
        "display_name": "Tennent Drive, Linton Camp, Palmerston North, Palmerston North City, Manawatū-Whanganui, 4472, New Zealand",
        "road": "Tennent Drive",
        "house_number": null,
        "neighbourhood": null,
        "suburb": "Linton Camp",
        "city_district": null,
        "city": "Palmerston North",
        "state": "Manawatū-Whanganui",
        "postcode": "4472",
        "country": "New Zealand",
        "country_code": "nz"
      },
      "address": "443, Tennent Drive, Linton Camp, Palmerston North, Palmerston North City, Manawatū-Whanganui, 4472, New Zealand"
    }
  ],
  "updated_at": "2025-10-19T06:02:00.451673+00:00",
  "_kind": "geo_samples"
}