{
  "country_code": "NZ",
  "country": "New Zealand",
  "city": "Papakura",
  "geonameid": 2208329,
  "target_addresses": 2,
  "samples": [
    {
      "lat": -37.081903871988956,
      "lon": 174.93846912670054,
      "geoinfo": {
        "display_name": "23, Goodwin Drive, Rosehill, Papakura, Auckland, 2113, New Zealand",
        "road": "Goodwin Drive",
        "house_number": "23",
        "neighbourhood": null,
        "suburb": "Rosehill",
        "city_district": null,
        "city": "Papakura",
        "state": "Auckland",
        "postcode": "2113",
        "country": "New Zealand",
        "country_code": "nz"
      },
      "address": "23 Goodwin Drive, Papakura, Auckland, New Zealand"
    },
    {
      "lat": -37.104085192034496,
      "lon": 174.95427893511413,
      "geoinfo": {
        "display_name": "35, Waihoehoe Road, Drury, Franklin, Auckland, 2577, New Zealand",
        "road": "Waihoehoe Road",
        "house_number": "35",
        "neighbourhood": null,
        "suburb": "Drury",
        "city_district": null,
        "city": "Franklin",
        "state": "Auckland",
        "postcode": "2577",
        "country": "New Zealand",
        "country_code": "nz"
      },
      "address": "35 Waihoehoe Road, Papakura, Auckland, New Zealand"
    },
    {
      "lat": -37.105042540833615,
      "lon": 174.9572862841603,
      "geoinfo": {
        "display_name": "97, Waihoehoe Road, Drury, Franklin, Auckland, 2577, New Zealand",
        "road": "Waihoehoe Road",
        "house_number": "97",
        "neighbourhood": null,
        "suburb": "Drury",
        "city_district": null,
        "city": "Franklin",
        "state": "Auckland",
        "postcode": "2577",
        "country": "New Zealand",
        "country_code": "nz"
      },
      "address": "97, Waihoehoe Road, Drury, Franklin, Auckland, 2577, New Zealand"
    },
    {
      "lat": -37.05549480681447,
      "lon": 174.90997050844564,
      "geoinfo": {
        "display_name": "13, Cumbrian Place, Conifer Grove, Papakura, Auckland, 2112, New Zealand",
        "road": "Cumbrian Place",
        "house_number": "13",
        "neighbourhood": null,
        "suburb": "Conifer Grove",
        "city_district": null,
        "city": "Papakura",
        "state": "Auckland",
        "postcode": "2112",
        "country": "New Zealand",
        "country_code": "nz"
      },
      "address": "13, Cumbrian Place, Conifer Grove, Papakura, Auckland, 2112, New Zealand"
    }
  ],
  "updated_at": "2025-10-19T06:27:03.966903+00:00",
  "_kind": "geo_samples"
}