{
  "country_code": "NZ",
  "country": "New Zealand",
  "city": "Rolleston",
  "geonameid": 2183310,
  "target_addresses": 9,
  "samples": [
    {
      "lat": -43.60354774003409,
      "lon": 172.37207272560116,
      "geoinfo": {
        "display_name": "Pineglades Naturist Club, 135, Brookside Road, Catherine Fields, Rolleston, Selwyn District, Canterbury, 7614, New Zealand",
        "road": "Brookside Road",
        "house_number": "135",
        "neighbourhood": "Catherine Fields",
        "suburb": null,
        "city_district": null,
        "city": "Rolleston",
        "state": "Canterbury",
        "postcode": "7614",
        "country": "New Zealand",
        "country_code": "nz"
      },
      "address": "135 Brookside Road, Rolleston, Canterbury, New Zealand"
    },
    {
      "lat": -43.59439911608051,
      "lon": 172.4042264480195,
      "geoinfo": {
        "display_name": "Levi Road, Rolleston, Selwyn District, Canterbury, 7678, New Zealand",
        "road": "Levi Road",
        "house_number": null,
        "neighbourhood": null,
        "suburb": null,
        "city_district": null,
        "city": "Rolleston",
        "state": "Canterbury",
        "postcode": "7678",
        "country": "New Zealand",
        "country_code": "nz"
      },
      "address": "Levi Road, Rolleston, Canterbury, New Zealand"
    },
    {
      "lat": -43.5875252067774,
      "lon": 172.3526884297257,
      "geoinfo": {
        "display_name": "157, Wards Road, Rolleston, Selwyn District, 7677, New Zealand",
        "road": "Wards Road",
        "house_number": "157",
        "neighbourhood": null,
        "suburb": null,
        "city_district": null,
        "city": "Rolleston",
        "state": null,
        "postcode": "7677",
        "country": "New Zealand",
        "country_code": "nz"
      },
      "address": "157, Wards Road, Rolleston, Selwyn District, 7677, New Zealand"
    },
    {
      "lat": -43.55282940302487,
      "lon": 172.38955989651168,
      "geoinfo": {
        "display_name": "604, Newtons Road, Selwyn District, 7675, New Zealand",
        "road": "Newtons Road",
        "house_number": "604",
        "neighbourhood": null,
        "suburb": null,
        "city_district": null,
        "city": null,
        "state": null,
        "postcode": "7675",
        "country": "New Zealand",
        "country_code": "nz"
      },
      "address": "604, Newtons Road, 7675 Rolleston, New Zealand"
    },
    {
      "lat": -43.61368614993038,
      "lon": 172.37546217866424,
      "geoinfo": {
        "display_name": "7, Ellington Mews, Rolleston, Selwyn District, Canterbury, 7614, New Zealand",
        "road": "Ellington Mews",
        "house_number": "7",
        "neighbourhood": null,
        "suburb": null,
        "city_district": null,
        "city": "Rolleston",
        "state": "Canterbury",
        "postcode": "7614",
        "country": "New Zealand",
        "country_code": "nz"
      },
      "address": "7, Ellington Mews, Rolleston, Selwyn District, Canterbury, 7614, New Zealand"
    },
    {
      "lat": -43.61234919982538,
      "lon": 172.34632369540932,
      "geoinfo": {
        "display_name": "155, Burnham School Road, Stonebrook, Burnham, Selwyn District, 7600, New Zealand",
        "road": "Burnham School Road",
        "house_number": "155",
        "neighbourhood": "Stonebrook",
        "suburb": null,
        "city_district": null,
        "city": "Burnham",
        "state": null,
        "postcode": "7600",
        "country": "New Zealand",
        "country_code": "nz"
      },
      "address": "155, Burnham School Road, 7600 Rolleston, New Zealand"
    },
    {
      "lat": -43.555969336953325,
      "lon": 172.39864881023973,
      "geoinfo": {
        "display_name": "296, Weedons Ross Road, Wilfield Rise, West Melton, Selwyn District, Canterbury, 7675, New Zealand",
        "road": "Weedons Ross Road",
        "house_number": "296",
        "neighbourhood": "Wilfield Rise",
        "suburb": null,
        "city_district": null,
        "city": "West Melton",
        "state": "Canterbury",
        "postcode": "7675",
        "country": "New Zealand",
        "country_code": "nz"
      },
      "address": "296, Weedons Ross Road, Rolleston, 7675 Canterbury, New Zealand"
    },
    {
      "lat": -43.58313508576777,
      "lon": 172.44034114731244,
      "geoinfo": {
        "display_name": "Larcombs Road, Rolleston, Selwyn District, Canterbury, 7675, New Zealand",
        "road": "Larcombs Road",
        "house_number": null,
        "neighbourhood": null,
        "suburb": null,
        "city_district": null,
        "city": "Rolleston",
        "state": "Canterbury",
        "postcode": "7675",
        "country": "New Zealand",
        "country_code": "nz"
      },
      "address": "262, Larcombs Road, Rolleston, Selwyn District, Canterbury, 7675, New Zealand"
    },
    {
      "lat": -43.55368737565401,
      "lon": 172.34218157355062,
      "geoinfo": {
        "display_name": "522, Hoskyns Road, Selwyn District, Canterbury, 7618, New Zealand",
        "road": "Hoskyns Road",
        "house_number": "522",
        "neighbourhood": null,
        "suburb": null,
        "city_district": null,
        "city": null,
        "state": "Canterbury",
        "postcode": "7618",
        "country": "New Zealand",
        "country_code": "nz"
      },
      "address": "522, Hoskyns Road, Rolleston, 7618 Canterbury, New Zealand"
    }
  ],
  "updated_at": "2025-10-19T06:02:41.676356+00:00",
  "_kind": "geo_samples"
}