{
  "country_code": "NZ",
  "country": "New Zealand",
  "city": "Te Atatu South",
  "geonameid": 6232330,
  "target_addresses": 9,
  "samples": [
    {
      "lat": -36.86763433209743,
      "lon": 174.63953884228945,
      "geoinfo": {
        "display_name": "17, Castaing Crescent, Te Atatū South, Henderson-Massey, Auckland, 0610, New Zealand",
        "road": "Castaing Crescent",
        "house_number": "17",
        "neighbourhood": null,
        "suburb": "Te Atatū South",
        "city_district": null,
        "city": "Henderson-Massey",
        "state": "Auckland",
        "postcode": "0610",
        "country": "New Zealand",
        "country_code": "nz"
      },
      "address": "17 Castaing Crescent, Te Atatu South, Auckland, New Zealand"
    },
    {
      "lat": -36.84586323897885,
      "lon": 174.69337451413978,
      "geoinfo": {
        "display_name": "Whau, Auckland, 0600, New Zealand",
        "road": null,
        "house_number": null,
        "neighbourhood": null,
        "suburb": null,
        "city_district": null,
        "city": "Whau",
        "state": "Auckland",
        "postcode": "0600",
        "country": "New Zealand",
        "country_code": "nz"
      },
      "address": "Te Atatu South, Auckland, New Zealand"
    },
    {
      "lat": -36.86017146143042,
      "lon": 174.6294687227106,
      "geoinfo": {
        "display_name": "180, Lincoln Road, Lincoln, Henderson-Massey, Auckland, 0610, New Zealand",
        "road": "Lincoln Road",
        "house_number": "180",
        "neighbourhood": null,
        "suburb": null,
        "city_district": null,
        "city": "Henderson-Massey",
        "state": "Auckland",
        "postcode": "0610",
        "country": "New Zealand",
        "country_code": "nz"
      },
      "address": "180, Lincoln Road, Lincoln, Henderson-Massey, Auckland, 0610, New Zealand"
    },
    {
      "lat": -36.86573641928199,
      "lon": 174.69615534261655,
      "geoinfo": {
        "display_name": "Eric Armishaw Coastal Walkway, Waterview, Albert-Eden, Auckland, 1026, New Zealand",
        "road": "Eric Armishaw Coastal Walkway",
        "house_number": null,
        "neighbourhood": null,
        "suburb": "Waterview",
        "city_district": null,
        "city": "Albert-Eden",
        "state": "Auckland",
        "postcode": "1026",
        "country": "New Zealand",
        "country_code": "nz"
      },
      "address": "759, Eric Armishaw Coastal Walkway, Waterview, Albert-Eden, Auckland, 1026, New Zealand"
    },
    {
      "lat": -36.87723497463574,
      "lon": 174.68197091753564,
      "geoinfo": {
        "display_name": "36, Copsey Place, Whau, Auckland, 1026, New Zealand",
        "road": "Copsey Place",
        "house_number": "36",
        "neighbourhood": null,
        "suburb": null,
        "city_district": null,
        "city": "Whau",
        "state": "Auckland",
        "postcode": "1026",
        "country": "New Zealand",
        "country_code": "nz"
      },
      "address": "36, Copsey Place, Whau, Auckland, 1026, New Zealand"
    },
    {
      "lat": -36.85792832673813,
      "lon": 174.65333336391032,
      "geoinfo": {
        "display_name": "Te Atatū Interchange, Te Atatū Road, Te Atatū South, Henderson-Massey, Auckland, 1530, New Zealand",
        "road": "Te Atatū Road",
        "house_number": null,
        "neighbourhood": null,
        "suburb": "Te Atatū South",
        "city_district": null,
        "city": "Henderson-Massey",
        "state": "Auckland",
        "postcode": "1530",
        "country": "New Zealand",
        "country_code": "nz"
      },
      "address": "635, Te Atatū Road, Te Atatu South, 1530 Auckland, New Zealand"
    },
    {
      "lat": -36.831247401984776,
      "lon": 174.63494079506484,
      "geoinfo": {
        "display_name": "1/16, Spargo Road, Massey East, Massey, Henderson-Massey, Auckland, 1530, New Zealand",
        "road": "Spargo Road",
        "house_number": "1/16",
        "neighbourhood": null,
        "suburb": "Massey",
        "city_district": null,
        "city": "Henderson-Massey",
        "state": "Auckland",
        "postcode": "1530",
        "country": "New Zealand",
        "country_code": "nz"
      },
      "address": "1/16, Spargo Road, Massey East, Massey, Henderson-Massey, Auckland, 1530, New Zealand"
    },
    {
      "lat": -36.88279274361417,
      "lon": 174.67477108078168,
      "geoinfo": {
        "display_name": "4/43, Fremlin Place, Rosebank Peninsula, Avondale, Whau, Auckland, 1026, New Zealand",
        "road": "Fremlin Place",
        "house_number": "4/43",
        "neighbourhood": null,
        "suburb": "Avondale",
        "city_district": null,
        "city": "Whau",
        "state": "Auckland",
        "postcode": "1026",
        "country": "New Zealand",
        "country_code": "nz"
      },
      "address": "4/43, Fremlin Place, Rosebank Peninsula, Avondale, Whau, Auckland, 1026, New Zealand"
    },
    {
      "lat": -36.83752436230363,
      "lon": 174.65896801966323,
      "geoinfo": {
        "display_name": "21, Waimanu Bay Drive, Te Atatū Peninsula, Henderson-Massey, Auckland, 1530, New Zealand",
        "road": "Waimanu Bay Drive",
        "house_number": "21",
        "neighbourhood": null,
        "suburb": "Te Atatū Peninsula",
        "city_district": null,
        "city": "Henderson-Massey",
        "state": "Auckland",
        "postcode": "1530",
        "country": "New Zealand",
        "country_code": "nz"
      },
      "address": "21, Waimanu Bay Drive, Te Atatū Peninsula, Henderson-Massey, Auckland, 1530, New Zealand"
    }
  ],
  "updated_at": "2025-10-19T06:03:27.650083+00:00",
  "_kind": "geo_samples"
}