{
  "country_code": "NZ",
  "country": "New Zealand",
  "city": "Timaru",
  "geonameid": 2181133,
  "target_addresses": 2,
  "samples": [
    {
      "lat": -44.37868249734598,
      "lon": 171.20739862289926,
      "geoinfo": {
        "display_name": "153, Mountain View Road, Gleniti, Timaru District, Canterbury, 7910, New Zealand",
        "road": "Mountain View Road",
        "house_number": "153",
        "neighbourhood": null,
        "suburb": "Gleniti",
        "city_district": null,
        "city": null,
        "state": "Canterbury",
        "postcode": "7910",
        "country": "New Zealand",
        "country_code": "nz"
      },
      "address": "153 Mountain View Road, Timaru, Canterbury, New Zealand"
    },
    {
      "lat": -44.394910632545084,
      "lon": 171.29057893441947,
      "geoinfo": {
        "display_name": "Timaru, Timaru District, Canterbury, 7910, New Zealand",
        "road": null,
        "house_number": null,
        "neighbourhood": null,
        "suburb": null,
        "city_district": null,
        "city": "Timaru",
        "state": "Canterbury",
        "postcode": "7910",
        "country": "New Zealand",
        "country_code": "nz"
      },
      "address": "Timaru, Canterbury, New Zealand"
    },
    {
      "lat": -44.40630693500093,
      "lon": 171.22840099890828,
      "geoinfo": {
        "display_name": "75, Coonoor Road, Watlington, Timaru District, Canterbury, 7910, New Zealand",
        "road": "Coonoor Road",
        "house_number": "75",
        "neighbourhood": null,
        "suburb": "Watlington",
        "city_district": null,
        "city": null,
        "state": "Canterbury",
        "postcode": "7910",
        "country": "New Zealand",
        "country_code": "nz"
      },
      "address": "75, Coonoor Road, Watlington, Timaru District, Canterbury, 7910, New Zealand"
    },
    {
      "lat": -44.35638766807722,
      "lon": 171.26115919513515,
      "geoinfo": {
        "display_name": "72, Sheffield Street, Washdyke, Timaru District, Canterbury, 7910, New Zealand",
        "road": "Sheffield Street",
        "house_number": "72",
        "neighbourhood": null,
        "suburb": "Washdyke",
        "city_district": null,
        "city": null,
        "state": "Canterbury",
        "postcode": "7910",
        "country": "New Zealand",
        "country_code": "nz"
      },
      "address": "72, Sheffield Street, Washdyke, Timaru District, Canterbury, 7910, New Zealand"
    }
  ],
  "updated_at": "2025-10-19T04:11:53.249879+00:00",
  "_kind": "geo_samples"
}