{
  "country_code": "NZ",
  "country": "New Zealand",
  "city": "Titirangi",
  "geonameid": 6232280,
  "target_addresses": 9,
  "samples": [
    {
      "lat": -36.919136279307,
      "lon": 174.65949902433258,
      "geoinfo": {
        "display_name": "54C, Pleasant Road, Glen Eden, Whau, Auckland, 0602, New Zealand",
        "road": "Pleasant Road",
        "house_number": "54C",
        "neighbourhood": null,
        "suburb": "Glen Eden",
        "city_district": null,
        "city": "Whau",
        "state": "Auckland",
        "postcode": "0602",
        "country": "New Zealand",
        "country_code": "nz"
      },
      "address": "54C Pleasant Road, Titirangi, Auckland, New Zealand"
    },
    {
      "lat": -36.92976698648207,
      "lon": 174.66072617118715,
      "geoinfo": {
        "display_name": "308, Titirangi Road, Kaurilands, Titirangi, Waitākere Ranges, Auckland, 0604, New Zealand",
        "road": "Titirangi Road",
        "house_number": "308",
        "neighbourhood": null,
        "suburb": "Titirangi",
        "city_district": null,
        "city": "Waitākere Ranges",
        "state": "Auckland",
        "postcode": "0604",
        "country": "New Zealand",
        "country_code": "nz"
      },
      "address": "308 Titirangi Road, Titirangi, Auckland, New Zealand"
    },
    {
      "lat": -36.941367793578216,
      "lon": 174.7054458869664,
      "geoinfo": {
        "display_name": "Blockhouse Bay, Whau, Auckland, 0600, New Zealand",
        "road": null,
        "house_number": null,
        "neighbourhood": null,
        "suburb": "Blockhouse Bay",
        "city_district": null,
        "city": "Whau",
        "state": "Auckland",
        "postcode": "0600",
        "country": "New Zealand",
        "country_code": "nz"
      },
      "address": "Blockhouse Bay, Whau, Auckland, 0600, New Zealand"
    },
    {
      "lat": -36.94721584536925,
      "lon": 174.7068074184505,
      "geoinfo": {
        "display_name": "Blockhouse Bay, Whau, Auckland, 0600, New Zealand",
        "road": null,
        "house_number": null,
        "neighbourhood": null,
        "suburb": "Blockhouse Bay",
        "city_district": null,
        "city": "Whau",
        "state": "Auckland",
        "postcode": "0600",
        "country": "New Zealand",
        "country_code": "nz"
      },
      "address": "155, Blockhouse Bay, Whau, Auckland, 0600, New Zealand"
    },
    {
      "lat": -36.90443899015875,
      "lon": 174.68782412561123,
      "geoinfo": {
        "display_name": "3018, Great North Road, New Lynn, Whau, Auckland, 0600, New Zealand",
        "road": "Great North Road",
        "house_number": "3018",
        "neighbourhood": null,
        "suburb": "New Lynn",
        "city_district": null,
        "city": "Whau",
        "state": "Auckland",
        "postcode": "0600",
        "country": "New Zealand",
        "country_code": "nz"
      },
      "address": "3018, Great North Road, New Lynn, Whau, Auckland, 0600, New Zealand"
    },
    {
      "lat": -36.92703542362337,
      "lon": 174.60737381080224,
      "geoinfo": {
        "display_name": "77, Parker Road, Waitākere Ranges, Auckland, 0604, New Zealand",
        "road": "Parker Road",
        "house_number": "77",
        "neighbourhood": null,
        "suburb": null,
        "city_district": null,
        "city": "Waitākere Ranges",
        "state": "Auckland",
        "postcode": "0604",
        "country": "New Zealand",
        "country_code": "nz"
      },
      "address": "77, Parker Road, Waitākere Ranges, Auckland, 0604, New Zealand"
    },
    {
      "lat": -36.90410463452483,
      "lon": 174.69222373974048,
      "geoinfo": {
        "display_name": "2134B, Great North Road, Avondale, Whau, Auckland, 0600, New Zealand",
        "road": "Great North Road",
        "house_number": "2134B",
        "neighbourhood": null,
        "suburb": "Avondale",
        "city_district": null,
        "city": "Whau",
        "state": "Auckland",
        "postcode": "0600",
        "country": "New Zealand",
        "country_code": "nz"
      },
      "address": "2134B, Great North Road, Avondale, Whau, Auckland, 0600, New Zealand"
    },
    {
      "lat": -36.96715308997434,
      "lon": 174.62500960261414,
      "geoinfo": {
        "display_name": "19A, Lookout Drive, Laingholm Central, Laingholm, Waitākere Ranges, Auckland, 0604, New Zealand",
        "road": "Lookout Drive",
        "house_number": "19A",
        "neighbourhood": null,
        "suburb": "Laingholm",
        "city_district": null,
        "city": "Waitākere Ranges",
        "state": "Auckland",
        "postcode": "0604",
        "country": "New Zealand",
        "country_code": "nz"
      },
      "address": "19A, Lookout Drive, Laingholm Central, Laingholm, Waitākere Ranges, Auckland, 0604, New Zealand"
    },
    {
      "lat": -36.92667401453275,
      "lon": 174.6129941370027,
      "geoinfo": {
        "display_name": "74D, Parker Road, Waitākere Ranges, Auckland, 0604, New Zealand",
        "road": "Parker Road",
        "house_number": "74D",
        "neighbourhood": null,
        "suburb": null,
        "city_district": null,
        "city": "Waitākere Ranges",
        "state": "Auckland",
        "postcode": "0604",
        "country": "New Zealand",
        "country_code": "nz"
      },
      "address": "74D, Parker Road, Waitākere Ranges, Auckland, 0604, New Zealand"
    }
  ],
  "updated_at": "2025-10-19T06:03:17.410467+00:00",
  "_kind": "geo_samples"
}