{
  "country_code": "NZ",
  "country": "New Zealand",
  "city": "Wainuiomata",
  "geonameid": 2180118,
  "target_addresses": 2,
  "samples": [
    {
      "lat": -41.3092318738228,
      "lon": 174.95632747443895,
      "geoinfo": {
        "display_name": "Lower Hutt, Lower Hutt City, Wellington, 5010, New Zealand",
        "road": null,
        "house_number": null,
        "neighbourhood": null,
        "suburb": null,
        "city_district": null,
        "city": "Lower Hutt",
        "state": "Wellington",
        "postcode": "5010",
        "country": "New Zealand",
        "country_code": "nz"
      },
      "address": "Wainuiomata, Wellington, New Zealand"
    },
    {
      "lat": -41.25777478445793,
      "lon": 174.98059504865867,
      "geoinfo": {
        "display_name": "355, Moores Valley Road, Homedale, Wainuiomata, Lower Hutt City, Wellington, 5373, New Zealand",
        "road": "Moores Valley Road",
        "house_number": "355",
        "neighbourhood": null,
        "suburb": "Wainuiomata",
        "city_district": null,
        "city": null,
        "state": "Wellington",
        "postcode": "5373",
        "country": "New Zealand",
        "country_code": "nz"
      },
      "address": "355 Moores Valley Road, Wainuiomata, Wellington, New Zealand"
    },
    {
      "lat": -41.26608401728188,
      "lon": 174.93749147172423,
      "geoinfo": {
        "display_name": "Fern Gully Track, Wainuiomata, Lower Hutt, Lower Hutt City, Wellington, 5014, New Zealand",
        "road": "Fern Gully Track",
        "house_number": null,
        "neighbourhood": null,
        "suburb": "Wainuiomata",
        "city_district": null,
        "city": "Lower Hutt",
        "state": "Wellington",
        "postcode": "5014",
        "country": "New Zealand",
        "country_code": "nz"
      },
      "address": "398, Fern Gully Track, Wainuiomata, Lower Hutt, Lower Hutt City, Wellington, 5014, New Zealand"
    },
    {
      "lat": -41.26844201726429,
      "lon": 174.8994295049838,
      "geoinfo": {
        "display_name": "Sorrento Bay, Lower Hutt, Lower Hutt City, Wellington, 5010, New Zealand",
        "road": null,
        "house_number": null,
        "neighbourhood": null,
        "suburb": null,
        "city_district": null,
        "city": "Lower Hutt",
        "state": "Wellington",
        "postcode": "5010",
        "country": "New Zealand",
        "country_code": "nz"
      },
      "address": "885, Sorrento Bay, Lower Hutt, Lower Hutt City, Wellington, 5010, New Zealand"
    }
  ],
  "updated_at": "2025-10-19T06:01:51.372793+00:00",
  "_kind": "geo_samples"
}