{
  "country_code": "NZ",
  "country": "New Zealand",
  "city": "Wellington",
  "geonameid": 2179537,
  "target_addresses": 2,
  "samples": [
    {
      "lat": -41.26475837611256,
      "lon": 174.80491006476305,
      "geoinfo": {
        "display_name": "Cashmere, Khandallah, Wellington City, Wellington, 6022, New Zealand",
        "road": null,
        "house_number": null,
        "neighbourhood": null,
        "suburb": "Khandallah",
        "city_district": null,
        "city": null,
        "state": "Wellington",
        "postcode": "6022",
        "country": "New Zealand",
        "country_code": "nz"
      },
      "address": "Khandallah, Wellington, Wellington, New Zealand"
    },
    {
      "lat": -41.30840938682151,
      "lon": 174.7438829985388,
      "geoinfo": {
        "display_name": "Turbine Track, Wellington, Wellington City, Wellington, 6012, New Zealand",
        "road": "Turbine Track",
        "house_number": null,
        "neighbourhood": null,
        "suburb": null,
        "city_district": null,
        "city": "Wellington",
        "state": "Wellington",
        "postcode": "6012",
        "country": "New Zealand",
        "country_code": "nz"
      },
      "address": "Turbine Track, Wellington, Wellington, New Zealand"
    },
    {
      "lat": -41.25258956420422,
      "lon": 174.74191964871105,
      "geoinfo": {
        "display_name": "Skyline Walkway, Crofton Downs, Wellington, Wellington City, Wellington, 6012, New Zealand",
        "road": "Skyline Walkway",
        "house_number": null,
        "neighbourhood": null,
        "suburb": "Crofton Downs",
        "city_district": null,
        "city": "Wellington",
        "state": "Wellington",
        "postcode": "6012",
        "country": "New Zealand",
        "country_code": "nz"
      },
      "address": "304, Skyline Walkway, Crofton Downs, Wellington, Wellington City, Wellington, 6012, New Zealand"
    },
    {
      "lat": -41.29704334558872,
      "lon": 174.80567001133775,
      "geoinfo": {
        "display_name": "Evans Bay Parade, Roseneath, Wellington City, Wellington, 6020, New Zealand",
        "road": "Evans Bay Parade",
        "house_number": null,
        "neighbourhood": null,
        "suburb": "Roseneath",
        "city_district": null,
        "city": null,
        "state": "Wellington",
        "postcode": "6020",
        "country": "New Zealand",
        "country_code": "nz"
      },
      "address": "121, Evans Bay Parade, Roseneath, Wellington City, Wellington, 6020, New Zealand"
    }
  ],
  "updated_at": "2025-10-19T08:53:12.330274+00:00",
  "_kind": "geo_samples"
}