{
  "country_code": "NZ",
  "country": "New Zealand",
  "city": "Whakatane",
  "geonameid": 2208330,
  "target_addresses": 9,
  "samples": [
    {
      "lat": -37.992139783820555,
      "lon": 177.00396122149493,
      "geoinfo": {
        "display_name": "Whakatāne, Whakatāne District, Bay of Plenty, 3158, New Zealand",
        "road": null,
        "house_number": null,
        "neighbourhood": null,
        "suburb": null,
        "city_district": null,
        "city": "Whakatāne",
        "state": "Bay of Plenty",
        "postcode": "3158",
        "country": "New Zealand",
        "country_code": "nz"
      },
      "address": "Whakatane, Bay of Plenty, New Zealand"
    },
    {
      "lat": -37.95282039915502,
      "lon": 176.9609679225649,
      "geoinfo": {
        "display_name": "57C, Mill Road, Coastlands, Whakatāne District, Bay of Plenty, 3191, New Zealand",
        "road": "Mill Road",
        "house_number": "57C",
        "neighbourhood": null,
        "suburb": null,
        "city_district": null,
        "city": null,
        "state": "Bay of Plenty",
        "postcode": "3191",
        "country": "New Zealand",
        "country_code": "nz"
      },
      "address": "57C Mill Road, Whakatane, Bay of Plenty, New Zealand"
    },
    {
      "lat": -37.956072510277025,
      "lon": 176.98909828414318,
      "geoinfo": {
        "display_name": "Apanui School, 92, Pounama Place, Whakatāne District, Bay of Plenty, 3120, New Zealand",
        "road": "Pounama Place",
        "house_number": "92",
        "neighbourhood": null,
        "suburb": null,
        "city_district": null,
        "city": null,
        "state": "Bay of Plenty",
        "postcode": "3120",
        "country": "New Zealand",
        "country_code": "nz"
      },
      "address": "92 Pounama Place, Whakatane, 45435 Bay of Plenty, New Zealand"
    },
    {
      "lat": -37.971959417900884,
      "lon": 176.9590480982998,
      "geoinfo": {
        "display_name": "423, Te Rahu Road, Whakatāne District, Bay of Plenty, 3120, New Zealand",
        "road": "Te Rahu Road",
        "house_number": "423",
        "neighbourhood": null,
        "suburb": null,
        "city_district": null,
        "city": null,
        "state": "Bay of Plenty",
        "postcode": "3120",
        "country": "New Zealand",
        "country_code": "nz"
      },
      "address": "423, Te Rahu Road, Whakatāne District, Bay of Plenty, 3120, New Zealand"
    },
    {
      "lat": -37.95026650114359,
      "lon": 176.98216745742286,
      "geoinfo": {
        "display_name": "Warren Cole Walkway, Whakatāne District, Bay of Plenty, 3191, New Zealand",
        "road": "Warren Cole Walkway",
        "house_number": null,
        "neighbourhood": null,
        "suburb": null,
        "city_district": null,
        "city": null,
        "state": "Bay of Plenty",
        "postcode": "3191",
        "country": "New Zealand",
        "country_code": "nz"
      },
      "address": "989, Warren Cole Walkway, Whakatane, 3191 Bay of Plenty, New Zealand"
    },
    {
      "lat": -37.95557646361002,
      "lon": 176.99112608811973,
      "geoinfo": {
        "display_name": "33, Louvain Street, Whakatāne District, Bay of Plenty, 3158, New Zealand",
        "road": "Louvain Street",
        "house_number": "33",
        "neighbourhood": null,
        "suburb": null,
        "city_district": null,
        "city": null,
        "state": "Bay of Plenty",
        "postcode": "3158",
        "country": "New Zealand",
        "country_code": "nz"
      },
      "address": "33, Louvain Street, Whakatane, 3158 Bay of Plenty, New Zealand"
    },
    {
      "lat": -37.995823926690896,
      "lon": 176.9629505069848,
      "geoinfo": {
        "display_name": "4, Ernest Road, Whakatāne District, Bay of Plenty, 3120, New Zealand",
        "road": "Ernest Road",
        "house_number": "4",
        "neighbourhood": null,
        "suburb": null,
        "city_district": null,
        "city": null,
        "state": "Bay of Plenty",
        "postcode": "3120",
        "country": "New Zealand",
        "country_code": "nz"
      },
      "address": "4, Ernest Road, Whakatane, 3120 Bay of Plenty, New Zealand"
    },
    {
      "lat": -37.968346255945534,
      "lon": 176.99359943952686,
      "geoinfo": {
        "display_name": "55, Valley Road, Whakatāne District, Bay of Plenty, 3120, New Zealand",
        "road": "Valley Road",
        "house_number": "55",
        "neighbourhood": null,
        "suburb": null,
        "city_district": null,
        "city": null,
        "state": "Bay of Plenty",
        "postcode": "3120",
        "country": "New Zealand",
        "country_code": "nz"
      },
      "address": "55, Valley Road, Whakatane, 3120 Bay of Plenty, New Zealand"
    },
    {
      "lat": -37.94137764893962,
      "lon": 177.0345053790973,
      "geoinfo": {
        "display_name": "Ōhope, Whakatāne District, Bay of Plenty, 3121, New Zealand",
        "road": null,
        "house_number": null,
        "neighbourhood": null,
        "suburb": null,
        "city_district": null,
        "city": "Ōhope",
        "state": "Bay of Plenty",
        "postcode": "3121",
        "country": "New Zealand",
        "country_code": "nz"
      },
      "address": "681, Whakatane, 3121 Bay of Plenty, New Zealand"
    }
  ],
  "updated_at": "2025-10-19T06:03:08.390042+00:00",
  "_kind": "geo_samples"
}