{
  "country_code": "CZ",
  "country": "Czechia",
  "city": "Jirkov",
  "geonameid": 3074110,
  "target_addresses": 4,
  "samples": [
    {
      "lat": 50.52983170216995,
      "lon": 13.395352147304118,
      "geoinfo": {
        "display_name": "25211, Květnov u Chomutova, Blatno, okres Chomutov, Ústí nad Labem Region, Northwest, 431 21, Czechia",
        "road": "25211",
        "house_number": null,
        "neighbourhood": null,
        "suburb": null,
        "city_district": null,
        "city": "Blatno",
        "state": "Northwest",
        "postcode": "431 21",
        "country": "Czechia",
        "country_code": "cz"
      },
      "address": "25211, Jirkov, Northwest, Czechia"
    },
    {
      "lat": 50.50379565182611,
      "lon": 13.405131416440122,
      "geoinfo": {
        "display_name": "2524, Březenec, Jirkov, okres Chomutov, Ústí nad Labem Region, Northwest, 430 02, Czechia",
        "road": "2524",
        "house_number": null,
        "neighbourhood": null,
        "suburb": null,
        "city_district": null,
        "city": "Jirkov",
        "state": "Northwest",
        "postcode": "430 02",
        "country": "Czechia",
        "country_code": "cz"
      },
      "address": "2524, Březenec, Jirkov, okres Chomutov, Ústí nad Labem Region, Northwest, 430 02, Czechia"
    },
    {
      "lat": 50.507803507540736,
      "lon": 13.380994935498647,
      "geoinfo": {
        "display_name": "2524, Šerchov, Blatno, okres Chomutov, Ústí nad Labem Region, Northwest, 430 02, Czechia",
        "road": "2524",
        "house_number": null,
        "neighbourhood": null,
        "suburb": null,
        "city_district": null,
        "city": "Blatno",
        "state": "Northwest",
        "postcode": "430 02",
        "country": "Czechia",
        "country_code": "cz"
      },
      "address": "2524, Šerchov, Blatno, okres Chomutov, Ústí nad Labem Region, Northwest, 430 02, Czechia"
    },
    {
      "lat": 50.51503865151113,
      "lon": 13.481258741400676,
      "geoinfo": {
        "display_name": "13, Kyjice, Vrskmaň, okres Chomutov, Ústí nad Labem Region, Northwest, 431 59, Czechia",
        "road": "13",
        "house_number": null,
        "neighbourhood": null,
        "suburb": "Kyjice",
        "city_district": null,
        "city": "Vrskmaň",
        "state": "Northwest",
        "postcode": "431 59",
        "country": "Czechia",
        "country_code": "cz"
      },
      "address": "13, Kyjice, Vrskmaň, okres Chomutov, Ústí nad Labem Region, Northwest, 431 59, Czechia"
    }
  ],
  "updated_at": "2025-10-19T04:02:50.452804+00:00",
  "_kind": "geo_samples"
}