{
  "country_code": "MR",
  "country": "Mauritania",
  "city": "Atar",
  "geonameid": 2381334,
  "target_addresses": 5,
  "samples": [
    {
      "lat": 20.54223335773411,
      "lon": -13.027578782785946,
      "geoinfo": {
        "display_name": "Route Choum طريق شوم, Echeoul, El Maleh, Adrar, Mauritania",
        "road": "Route Choum طريق شوم",
        "house_number": null,
        "neighbourhood": null,
        "suburb": null,
        "city_district": null,
        "city": "El Maleh",
        "state": "Adrar",
        "postcode": null,
        "country": "Mauritania",
        "country_code": "mr"
      },
      "address": "Route Choum طريق شوم, Atar, Adrar, Mauritania"
    },
    {
      "lat": 20.554179384959678,
      "lon": -13.062343926437505,
      "geoinfo": {
        "display_name": "Foum Chouer, El Beououâl, Azougui, Adrar, Mauritania",
        "road": "Foum Chouer",
        "house_number": null,
        "neighbourhood": null,
        "suburb": null,
        "city_district": null,
        "city": "Azougui",
        "state": "Adrar",
        "postcode": null,
        "country": "Mauritania",
        "country_code": "mr"
      },
      "address": "Foum Chouer, Atar, Adrar, Mauritania"
    },
    {
      "lat": 20.53087069383831,
      "lon": -13.028591390709195,
      "geoinfo": {
        "display_name": "Atar, Adrar, Mauritania",
        "road": null,
        "house_number": null,
        "neighbourhood": null,
        "suburb": null,
        "city_district": null,
        "city": "Atar",
        "state": "Adrar",
        "postcode": null,
        "country": "Mauritania",
        "country_code": "mr"
      },
      "address": "Atar, Adrar, Mauritania"
    },
    {
      "lat": 20.494646581946157,
      "lon": -13.044934850895181,
      "geoinfo": {
        "display_name": "Route de l'Aéroport طريق المطار, Atar, Adrar, Mauritania",
        "road": "Route de l'Aéroport طريق المطار",
        "house_number": null,
        "neighbourhood": null,
        "suburb": null,
        "city_district": null,
        "city": "Atar",
        "state": "Adrar",
        "postcode": null,
        "country": "Mauritania",
        "country_code": "mr"
      },
      "address": "Route de l'Aéroport طريق المطار, Atar, Adrar, Mauritania"
    },
    {
      "lat": 20.522049198380977,
      "lon": -13.062577485697807,
      "geoinfo": {
        "display_name": "Route vers Azougui الطريق في آزوكي, Mnâçîr, Atar, Adrar, Mauritania",
        "road": "Route vers Azougui الطريق في آزوكي",
        "house_number": null,
        "neighbourhood": null,
        "suburb": null,
        "city_district": null,
        "city": "Atar",
        "state": "Adrar",
        "postcode": null,
        "country": "Mauritania",
        "country_code": "mr"
      },
      "address": "Route vers Azougui الطريق في آزوكي, Atar, Adrar, Mauritania"
    },
    {
      "lat": 20.503425758396077,
      "lon": -13.048418131869889,
      "geoinfo": {
        "display_name": "Atar International Airport, Route de Nouakchott طريق نواكشوط, Mnâçîr, Atar, Adrar, Mauritania",
        "road": "Route de Nouakchott طريق نواكشوط",
        "house_number": null,
        "neighbourhood": null,
        "suburb": null,
        "city_district": null,
        "city": "Atar",
        "state": "Adrar",
        "postcode": null,
        "country": "Mauritania",
        "country_code": "mr"
      },
      "address": "452, Route de Nouakchott طريق نواكشوط, Atar, 20457 Adrar, Mauritania"
    },
    {
      "lat": 20.535496442732764,
      "lon": -13.025717624291556,
      "geoinfo": {
        "display_name": "Route Choum طريق شوم, Mnâçîr, Atar, Adrar, Mauritania",
        "road": "Route Choum طريق شوم",
        "house_number": null,
        "neighbourhood": null,
        "suburb": null,
        "city_district": null,
        "city": "Atar",
        "state": "Adrar",
        "postcode": null,
        "country": "Mauritania",
        "country_code": "mr"
      },
      "address": "592, Route Choum طريق شوم, Mnâçîr, Atar, 35798 Adrar, Mauritania"
    },
    {
      "lat": 20.54481009442235,
      "lon": -13.030435741331235,
      "geoinfo": {
        "display_name": "Route Choum طريق شوم, Echeoul, El Maleh, Adrar, Mauritania",
        "road": "Route Choum طريق شوم",
        "house_number": null,
        "neighbourhood": null,
        "suburb": null,
        "city_district": null,
        "city": "El Maleh",
        "state": "Adrar",
        "postcode": null,
        "country": "Mauritania",
        "country_code": "mr"
      },
      "address": "364, Route Choum طريق شوم, Atar, 08875 Adrar, Mauritania"
    },
    {
      "lat": 20.536716426960048,
      "lon": -13.060139285215675,
      "geoinfo": {
        "display_name": "Foum Chouer, El Beououâl, Adrar, Mauritania",
        "road": "Foum Chouer",
        "house_number": null,
        "neighbourhood": null,
        "suburb": null,
        "city_district": null,
        "city": null,
        "state": "Adrar",
        "postcode": null,
        "country": "Mauritania",
        "country_code": "mr"
      },
      "address": "140, Foum Chouer, Atar, 07467 Adrar, Mauritania"
    },
    {
      "lat": 20.486344586791592,
      "lon": -13.065783123380413,
      "geoinfo": {
        "display_name": "Route de Nouakchott طريق نواكشوط, Kenaouâl, Adrar, Mauritania",
        "road": "Route de Nouakchott طريق نواكشوط",
        "house_number": null,
        "neighbourhood": null,
        "suburb": null,
        "city_district": null,
        "city": null,
        "state": "Adrar",
        "postcode": null,
        "country": "Mauritania",
        "country_code": "mr"
      },
      "address": "305, Route de Nouakchott طريق نواكشوط, Kenaouâl, 49408 Adrar, Mauritania"
    }
  ],
  "updated_at": "2025-10-19T04:23:59.030778+00:00",
  "_kind": "geo_samples"
}