{
  "country_code": "MR",
  "country": "Mauritania",
  "city": "Boutilimit",
  "geonameid": 2380670,
  "target_addresses": 23,
  "samples": [
    {
      "lat": 17.523170554832667,
      "lon": -14.663070279790551,
      "geoinfo": {
        "display_name": "Tariq al-Amal, Retail area, El Medina, Zem Zem, Trarza, Mauritania",
        "road": "Tariq al-Amal",
        "house_number": null,
        "neighbourhood": null,
        "suburb": null,
        "city_district": null,
        "city": "Zem Zem",
        "state": "Trarza",
        "postcode": null,
        "country": "Mauritania",
        "country_code": "mr"
      },
      "address": "Tariq al-Amal, Boutilimit, Trarza, Mauritania"
    },
    {
      "lat": 17.553219714490467,
      "lon": -14.682699673985871,
      "geoinfo": {
        "display_name": "Boutilimit, Trarza, Mauritania",
        "road": null,
        "house_number": null,
        "neighbourhood": null,
        "suburb": null,
        "city_district": null,
        "city": "Boutilimit",
        "state": "Trarza",
        "postcode": null,
        "country": "Mauritania",
        "country_code": "mr"
      },
      "address": "Boutilimit, Trarza, Mauritania"
    },
    {
      "lat": 17.548384396458292,
      "lon": -14.68072678719083,
      "geoinfo": {
        "display_name": "Contournement de Boutilimit تجاوز طريق بوتيليميت, Boutilimit, Trarza, Mauritania",
        "road": "Contournement de Boutilimit تجاوز طريق بوتيليميت",
        "house_number": null,
        "neighbourhood": null,
        "suburb": null,
        "city_district": null,
        "city": "Boutilimit",
        "state": "Trarza",
        "postcode": null,
        "country": "Mauritania",
        "country_code": "mr"
      },
      "address": "Contournement de Boutilimit تجاوز طريق بوتيليميت, Boutilimit, Trarza, Mauritania"
    },
    {
      "lat": 17.583937065341658,
      "lon": -14.718765578340419,
      "geoinfo": {
        "display_name": "Boutilimit, Trarza, Mauritania",
        "road": null,
        "house_number": null,
        "neighbourhood": null,
        "suburb": null,
        "city_district": null,
        "city": "Boutilimit",
        "state": "Trarza",
        "postcode": null,
        "country": "Mauritania",
        "country_code": "mr"
      },
      "address": "Boutilimit, 66408 Trarza, Mauritania"
    },
    {
      "lat": 17.540424179956116,
      "lon": -14.72124712224424,
      "geoinfo": {
        "display_name": "Zem Zem, Trarza, Mauritania",
        "road": null,
        "house_number": null,
        "neighbourhood": null,
        "suburb": null,
        "city_district": null,
        "city": "Zem Zem",
        "state": "Trarza",
        "postcode": null,
        "country": "Mauritania",
        "country_code": "mr"
      },
      "address": "Boutilimit, 89183 Trarza, Mauritania"
    },
    {
      "lat": 17.522979857704915,
      "lon": -14.654559459472862,
      "geoinfo": {
        "display_name": "El Ghoubba القبة, Trarza, Mauritania",
        "road": null,
        "house_number": null,
        "neighbourhood": null,
        "suburb": null,
        "city_district": null,
        "city": "El Ghoubba القبة",
        "state": "Trarza",
        "postcode": null,
        "country": "Mauritania",
        "country_code": "mr"
      },
      "address": "325, Boutilimit, 88881 Trarza, Mauritania"
    },
    {
      "lat": 17.552621623884217,
      "lon": -14.648787268703089,
      "geoinfo": {
        "display_name": "Lebrar لبرار, Trarza, Mauritania",
        "road": null,
        "house_number": null,
        "neighbourhood": null,
        "suburb": null,
        "city_district": null,
        "city": "Lebrar لبرار",
        "state": "Trarza",
        "postcode": null,
        "country": "Mauritania",
        "country_code": "mr"
      },
      "address": "799, Boutilimit, 65878 Trarza, Mauritania"
    },
    {
      "lat": 17.52250536723715,
      "lon": -14.671991313778737,
      "geoinfo": {
        "display_name": "Boutilimit, Trarza, Mauritania",
        "road": null,
        "house_number": null,
        "neighbourhood": null,
        "suburb": null,
        "city_district": null,
        "city": "Boutilimit",
        "state": "Trarza",
        "postcode": null,
        "country": "Mauritania",
        "country_code": "mr"
      },
      "address": "781, Boutilimit, 15045 Trarza, Mauritania"
    },
    {
      "lat": 17.542773086177412,
      "lon": -14.66318129809293,
      "geoinfo": {
        "display_name": "Lebrar لبرار, Trarza, Mauritania",
        "road": null,
        "house_number": null,
        "neighbourhood": null,
        "suburb": null,
        "city_district": null,
        "city": "Lebrar لبرار",
        "state": "Trarza",
        "postcode": null,
        "country": "Mauritania",
        "country_code": "mr"
      },
      "address": "772, Boutilimit, 57448 Trarza, Mauritania"
    },
    {
      "lat": 17.553638772472524,
      "lon": -14.696564939450054,
      "geoinfo": {
        "display_name": "Boutilimit, Trarza, Mauritania",
        "road": null,
        "house_number": null,
        "neighbourhood": null,
        "suburb": null,
        "city_district": null,
        "city": "Boutilimit",
        "state": "Trarza",
        "postcode": null,
        "country": "Mauritania",
        "country_code": "mr"
      },
      "address": "253, Boutilimit, 03551 Trarza, Mauritania"
    },
    {
      "lat": 17.51601435683447,
      "lon": -14.705794089877386,
      "geoinfo": {
        "display_name": "Boutilimit, Trarza, Mauritania",
        "road": null,
        "house_number": null,
        "neighbourhood": null,
        "suburb": null,
        "city_district": null,
        "city": "Boutilimit",
        "state": "Trarza",
        "postcode": null,
        "country": "Mauritania",
        "country_code": "mr"
      },
      "address": "498, Boutilimit, 42584 Trarza, Mauritania"
    },
    {
      "lat": 17.54992913715131,
      "lon": -14.724126682953903,
      "geoinfo": {
        "display_name": "Zem Zem, Trarza, Mauritania",
        "road": null,
        "house_number": null,
        "neighbourhood": null,
        "suburb": null,
        "city_district": null,
        "city": "Zem Zem",
        "state": "Trarza",
        "postcode": null,
        "country": "Mauritania",
        "country_code": "mr"
      },
      "address": "256, Boutilimit, 65743 Trarza, Mauritania"
    },
    {
      "lat": 17.567712878152168,
      "lon": -14.710798026609272,
      "geoinfo": {
        "display_name": "Tariq al-Amal, Elemebrouk, El Miad الميعاد, Boutilimit, Toujounine, Trarza, Mauritania",
        "road": "Tariq al-Amal",
        "house_number": null,
        "neighbourhood": null,
        "suburb": null,
        "city_district": null,
        "city": "Boutilimit",
        "state": "Trarza",
        "postcode": null,
        "country": "Mauritania",
        "country_code": "mr"
      },
      "address": "895, Tariq al-Amal, Elemebrouk, El Miad الميعاد, Boutilimit, Toujounine, 13875 Trarza, Mauritania"
    },
    {
      "lat": 17.572015446802784,
      "lon": -14.687250901847948,
      "geoinfo": {
        "display_name": "Boutilimit, Trarza, Mauritania",
        "road": null,
        "house_number": null,
        "neighbourhood": null,
        "suburb": null,
        "city_district": null,
        "city": "Boutilimit",
        "state": "Trarza",
        "postcode": null,
        "country": "Mauritania",
        "country_code": "mr"
      },
      "address": "366, Boutilimit, 92887 Trarza, Mauritania"
    },
    {
      "lat": 17.55406717885193,
      "lon": -14.716332138485859,
      "geoinfo": {
        "display_name": "Zem Zem, Trarza, Mauritania",
        "road": null,
        "house_number": null,
        "neighbourhood": null,
        "suburb": null,
        "city_district": null,
        "city": "Zem Zem",
        "state": "Trarza",
        "postcode": null,
        "country": "Mauritania",
        "country_code": "mr"
      },
      "address": "623, Boutilimit, 63373 Trarza, Mauritania"
    },
    {
      "lat": 17.51790599165874,
      "lon": -14.683030670292203,
      "geoinfo": {
        "display_name": "Boutilimit, Trarza, Mauritania",
        "road": null,
        "house_number": null,
        "neighbourhood": null,
        "suburb": null,
        "city_district": null,
        "city": "Boutilimit",
        "state": "Trarza",
        "postcode": null,
        "country": "Mauritania",
        "country_code": "mr"
      },
      "address": "423, Boutilimit, 89012 Trarza, Mauritania"
    },
    {
      "lat": 17.546673580666468,
      "lon": -14.666358505814099,
      "geoinfo": {
        "display_name": "Lebrar لبرار, Trarza, Mauritania",
        "road": null,
        "house_number": null,
        "neighbourhood": null,
        "suburb": null,
        "city_district": null,
        "city": "Lebrar لبرار",
        "state": "Trarza",
        "postcode": null,
        "country": "Mauritania",
        "country_code": "mr"
      },
      "address": "905, Boutilimit, 96980 Trarza, Mauritania"
    },
    {
      "lat": 17.55318427087539,
      "lon": -14.65579859441662,
      "geoinfo": {
        "display_name": "Lebrar لبرار, Trarza, Mauritania",
        "road": null,
        "house_number": null,
        "neighbourhood": null,
        "suburb": null,
        "city_district": null,
        "city": "Lebrar لبرار",
        "state": "Trarza",
        "postcode": null,
        "country": "Mauritania",
        "country_code": "mr"
      },
      "address": "893, Boutilimit, 45736 Trarza, Mauritania"
    },
    {
      "lat": 17.56917301026056,
      "lon": -14.723445721767696,
      "geoinfo": {
        "display_name": "Tariq al-Amal, Elemebrouk, El Miad الميعاد, Boutilimit, Toujounine, Trarza, Mauritania",
        "road": "Tariq al-Amal",
        "house_number": null,
        "neighbourhood": null,
        "suburb": null,
        "city_district": null,
        "city": "Boutilimit",
        "state": "Trarza",
        "postcode": null,
        "country": "Mauritania",
        "country_code": "mr"
      },
      "address": "393, Tariq al-Amal, Elemebrouk, El Miad الميعاد, Boutilimit, Toujounine, 21106 Trarza, Mauritania"
    },
    {
      "lat": 17.578186863178633,
      "lon": -14.721842613727924,
      "geoinfo": {
        "display_name": "Boutilimit, Trarza, Mauritania",
        "road": null,
        "house_number": null,
        "neighbourhood": null,
        "suburb": null,
        "city_district": null,
        "city": "Boutilimit",
        "state": "Trarza",
        "postcode": null,
        "country": "Mauritania",
        "country_code": "mr"
      },
      "address": "746, Boutilimit, 02211 Trarza, Mauritania"
    },
    {
      "lat": 17.5552409950275,
      "lon": -14.70415206481101,
      "geoinfo": {
        "display_name": "Boutilimit, Trarza, Mauritania",
        "road": null,
        "house_number": null,
        "neighbourhood": null,
        "suburb": null,
        "city_district": null,
        "city": "Boutilimit",
        "state": "Trarza",
        "postcode": null,
        "country": "Mauritania",
        "country_code": "mr"
      },
      "address": "317, Boutilimit, 21267 Trarza, Mauritania"
    },
    {
      "lat": 17.532570429197868,
      "lon": -14.696328582755944,
      "geoinfo": {
        "display_name": "Boutilimit, Trarza, Mauritania",
        "road": null,
        "house_number": null,
        "neighbourhood": null,
        "suburb": null,
        "city_district": null,
        "city": "Boutilimit",
        "state": "Trarza",
        "postcode": null,
        "country": "Mauritania",
        "country_code": "mr"
      },
      "address": "506, Boutilimit, 04789 Trarza, Mauritania"
    },
    {
      "lat": 17.552002727180046,
      "lon": -14.678647104654862,
      "geoinfo": {
        "display_name": "Contournement de Boutilimit تجاوز طريق بوتيليميت, Boutilimit, Trarza, Mauritania",
        "road": "Contournement de Boutilimit تجاوز طريق بوتيليميت",
        "house_number": null,
        "neighbourhood": null,
        "suburb": null,
        "city_district": null,
        "city": "Boutilimit",
        "state": "Trarza",
        "postcode": null,
        "country": "Mauritania",
        "country_code": "mr"
      },
      "address": "473, Contournement de Boutilimit تجاوز طريق بوتيليميت, Boutilimit, 63188 Trarza, Mauritania"
    }
  ],
  "updated_at": "2025-10-19T05:46:45.891641+00:00",
  "_kind": "geo_samples"
}