{
  "country_code": "MR",
  "country": "Mauritania",
  "city": "Mbera",
  "geonameid": 12718654,
  "target_addresses": 5,
  "samples": [
    {
      "lat": 15.820851739278398,
      "lon": -5.797091808939142,
      "geoinfo": {
        "display_name": "camp de réfugiés de Mbera, Hodh Ech Chargui, Mauritania",
        "road": null,
        "house_number": null,
        "neighbourhood": null,
        "suburb": null,
        "city_district": null,
        "city": "camp de réfugiés de Mbera",
        "state": "Hodh Ech Chargui",
        "postcode": null,
        "country": "Mauritania",
        "country_code": "mr"
      },
      "address": "Mbera, Hodh Ech Chargui, Mauritania"
    },
    {
      "lat": 15.856810702537077,
      "lon": -5.8273147708644535,
      "geoinfo": {
        "display_name": "Route de Bassikounou- Mbera الطريق باسكنو-مبرا, Bassiknou, Mbera, Hodh Ech Chargui, Mauritania",
        "road": "Route de Bassikounou- Mbera الطريق باسكنو-مبرا",
        "house_number": null,
        "neighbourhood": null,
        "suburb": null,
        "city_district": null,
        "city": "Mbera",
        "state": "Hodh Ech Chargui",
        "postcode": null,
        "country": "Mauritania",
        "country_code": "mr"
      },
      "address": "Route de Bassikounou- Mbera الطريق باسكنو-مبرا, Mbera, Hodh Ech Chargui, Mauritania"
    },
    {
      "lat": 15.840946288644497,
      "lon": -5.78671705076758,
      "geoinfo": {
        "display_name": "Centre de santé MSF, Route de Mbera-Fassale الطريق مبرا-فاسالا, Néré, Mbera, Hodh Ech Chargui, Mauritania",
        "road": "Route de Mbera-Fassale الطريق مبرا-فاسالا",
        "house_number": null,
        "neighbourhood": null,
        "suburb": null,
        "city_district": null,
        "city": "Mbera",
        "state": "Hodh Ech Chargui",
        "postcode": null,
        "country": "Mauritania",
        "country_code": "mr"
      },
      "address": "Route de Mbera-Fassale الطريق مبرا-فاسالا, Mbera, Hodh Ech Chargui, Mauritania"
    },
    {
      "lat": 15.861706219936664,
      "lon": -5.784353811278114,
      "geoinfo": {
        "display_name": "Route de Mbéra à Legara, Mbera, Hodh Ech Chargui, Mauritania",
        "road": "Route de Mbéra à Legara",
        "house_number": null,
        "neighbourhood": null,
        "suburb": null,
        "city_district": null,
        "city": "Mbera",
        "state": "Hodh Ech Chargui",
        "postcode": null,
        "country": "Mauritania",
        "country_code": "mr"
      },
      "address": "Route de Mbéra à Legara, Mbera, Hodh Ech Chargui, Mauritania"
    },
    {
      "lat": 15.86333456220234,
      "lon": -5.784923470363658,
      "geoinfo": {
        "display_name": "Mbéra-Aghor, Mbera, Hodh Ech Chargui, Mauritania",
        "road": "Mbéra-Aghor",
        "house_number": null,
        "neighbourhood": null,
        "suburb": null,
        "city_district": null,
        "city": "Mbera",
        "state": "Hodh Ech Chargui",
        "postcode": null,
        "country": "Mauritania",
        "country_code": "mr"
      },
      "address": "Mbéra-Aghor, Mbera, Hodh Ech Chargui, Mauritania"
    },
    {
      "lat": 15.817171549017848,
      "lon": -5.767810873626365,
      "geoinfo": {
        "display_name": "Route de Mbera-Fassale الطريق مبرا-فاسالا, Néré, Mbera, Hodh Ech Chargui, Mauritania",
        "road": "Route de Mbera-Fassale الطريق مبرا-فاسالا",
        "house_number": null,
        "neighbourhood": null,
        "suburb": null,
        "city_district": null,
        "city": "Mbera",
        "state": "Hodh Ech Chargui",
        "postcode": null,
        "country": "Mauritania",
        "country_code": "mr"
      },
      "address": "834, Route de Mbera-Fassale الطريق مبرا-فاسالا, Néré, Mbera, 61113 Hodh Ech Chargui, Mauritania"
    },
    {
      "lat": 15.818131700233991,
      "lon": -5.793693130542981,
      "geoinfo": {
        "display_name": "camp de réfugiés de Mbera, Hodh Ech Chargui, Mauritania",
        "road": null,
        "house_number": null,
        "neighbourhood": null,
        "suburb": null,
        "city_district": null,
        "city": "camp de réfugiés de Mbera",
        "state": "Hodh Ech Chargui",
        "postcode": null,
        "country": "Mauritania",
        "country_code": "mr"
      },
      "address": "762, camp de réfugiés de Mbera, 61391 Hodh Ech Chargui, Mauritania"
    },
    {
      "lat": 15.819110811996078,
      "lon": -5.806277867597199,
      "geoinfo": {
        "display_name": "camp de réfugiés de Mbera, Hodh Ech Chargui, Mauritania",
        "road": null,
        "house_number": null,
        "neighbourhood": null,
        "suburb": null,
        "city_district": null,
        "city": "camp de réfugiés de Mbera",
        "state": "Hodh Ech Chargui",
        "postcode": null,
        "country": "Mauritania",
        "country_code": "mr"
      },
      "address": "927, camp de réfugiés de Mbera, 83487 Hodh Ech Chargui, Mauritania"
    },
    {
      "lat": 15.844368347554248,
      "lon": -5.8149227522409745,
      "geoinfo": {
        "display_name": "14, Route de Bassikounou- Mbera الطريق باسكنو-مبرا, Bassiknou, Mbera, Hodh Ech Chargui, Mauritania",
        "road": "Route de Bassikounou- Mbera الطريق باسكنو-مبرا",
        "house_number": null,
        "neighbourhood": null,
        "suburb": null,
        "city_district": null,
        "city": "Mbera",
        "state": "Hodh Ech Chargui",
        "postcode": null,
        "country": "Mauritania",
        "country_code": "mr"
      },
      "address": "14, Route de Bassikounou- Mbera الطريق باسكنو-مبرا, Bassiknou, Mbera, 81572 Hodh Ech Chargui, Mauritania"
    },
    {
      "lat": 15.871617618115822,
      "lon": -5.814908225277477,
      "geoinfo": {
        "display_name": "Mbera, Hodh Ech Chargui, Mauritania",
        "road": null,
        "house_number": null,
        "neighbourhood": null,
        "suburb": null,
        "city_district": null,
        "city": "Mbera",
        "state": "Hodh Ech Chargui",
        "postcode": null,
        "country": "Mauritania",
        "country_code": "mr"
      },
      "address": "356, Mbera, 21290 Hodh Ech Chargui, Mauritania"
    }
  ],
  "updated_at": "2025-10-19T04:24:18.726154+00:00",
  "_kind": "geo_samples"
}