{
  "country_code": "MR",
  "country": "Mauritania",
  "city": "Rosso",
  "geonameid": 2376898,
  "target_addresses": 5,
  "samples": [
    {
      "lat": 16.532793906230978,
      "lon": -15.799250256432035,
      "geoinfo": {
        "display_name": "Contournement de Rosso تجاوز روسو, Rosso, Trarza, Mauritania",
        "road": "Contournement de Rosso تجاوز روسو",
        "house_number": null,
        "neighbourhood": null,
        "suburb": null,
        "city_district": null,
        "city": "Rosso",
        "state": "Trarza",
        "postcode": null,
        "country": "Mauritania",
        "country_code": "mr"
      },
      "address": "Contournement de Rosso تجاوز روسو, Rosso, Trarza, Mauritania"
    },
    {
      "lat": 16.47806660121358,
      "lon": -15.802228274198626,
      "geoinfo": {
        "display_name": "TAH 1, Communauté rurale de Ronkh, Arrondissement de Ndiaye, Département de Dagana, Saint-Louis Region, Senegal",
        "road": "TAH 1",
        "house_number": null,
        "neighbourhood": null,
        "suburb": null,
        "city_district": null,
        "city": "Communauté rurale de Ronkh",
        "state": null,
        "postcode": null,
        "country": "Senegal",
        "country_code": "sn"
      },
      "address": "TAH 1, Rosso, Trarza, Mauritania"
    },
    {
      "lat": 16.52132436789987,
      "lon": -15.775512101818448,
      "geoinfo": {
        "display_name": "Rosso, Trarza, Mauritania",
        "road": null,
        "house_number": null,
        "neighbourhood": null,
        "suburb": null,
        "city_district": null,
        "city": "Rosso",
        "state": "Trarza",
        "postcode": null,
        "country": "Mauritania",
        "country_code": "mr"
      },
      "address": "Rosso, Trarza, Mauritania"
    },
    {
      "lat": 16.528737369668246,
      "lon": -15.77067717495142,
      "geoinfo": {
        "display_name": "Institut Supérieur d'Enseignement Technologique de Rosso المعهد العالي للتعليم التكنولوجي روصو, Route Rosso - Boghé طريق روصو - بوغي, Rosso, Trarza, Mauritania",
        "road": "Route Rosso - Boghé طريق روصو - بوغي",
        "house_number": null,
        "neighbourhood": null,
        "suburb": null,
        "city_district": null,
        "city": "Rosso",
        "state": "Trarza",
        "postcode": null,
        "country": "Mauritania",
        "country_code": "mr"
      },
      "address": "Route Rosso - Boghé طريق روصو - بوغي, Rosso, Trarza, Mauritania"
    },
    {
      "lat": 16.49977755137988,
      "lon": -15.804748639628388,
      "geoinfo": {
        "display_name": "Médine, Rosso Sénégal, Département de Dagana, Saint-Louis Region, Senegal",
        "road": null,
        "house_number": null,
        "neighbourhood": "Médine",
        "suburb": null,
        "city_district": null,
        "city": "Rosso Sénégal",
        "state": null,
        "postcode": null,
        "country": "Senegal",
        "country_code": "sn"
      },
      "address": "Médine, Rosso, Trarza, Mauritania"
    },
    {
      "lat": 16.52996275670023,
      "lon": -15.81025171943799,
      "geoinfo": {
        "display_name": "Autoroute Rosso الطريق السريع روصو, Rosso, Trarza, Mauritania",
        "road": "Autoroute Rosso الطريق السريع روصو",
        "house_number": null,
        "neighbourhood": null,
        "suburb": null,
        "city_district": null,
        "city": "Rosso",
        "state": "Trarza",
        "postcode": null,
        "country": "Mauritania",
        "country_code": "mr"
      },
      "address": "038, Autoroute Rosso الطريق السريع روصو, Rosso, 31294 Trarza, Mauritania"
    },
    {
      "lat": 16.54056036483646,
      "lon": -15.7828034057887,
      "geoinfo": {
        "display_name": "Garak غاراك, Trarza, Mauritania",
        "road": null,
        "house_number": null,
        "neighbourhood": null,
        "suburb": null,
        "city_district": null,
        "city": "Garak غاراك",
        "state": "Trarza",
        "postcode": null,
        "country": "Mauritania",
        "country_code": "mr"
      },
      "address": "551, Rosso, 35753 Trarza, Mauritania"
    },
    {
      "lat": 16.514918142844696,
      "lon": -15.825742720654667,
      "geoinfo": {
        "display_name": "Rosso, Trarza, Mauritania",
        "road": null,
        "house_number": null,
        "neighbourhood": null,
        "suburb": null,
        "city_district": null,
        "city": "Rosso",
        "state": "Trarza",
        "postcode": null,
        "country": "Mauritania",
        "country_code": "mr"
      },
      "address": "554, Rosso, 32182 Trarza, Mauritania"
    },
    {
      "lat": 16.500930663733886,
      "lon": -15.782197366379222,
      "geoinfo": {
        "display_name": "Route Rosso - Boghé شارع الإستقلال, Rosso, Trarza, Mauritania",
        "road": "Route Rosso - Boghé شارع الإستقلال",
        "house_number": null,
        "neighbourhood": null,
        "suburb": null,
        "city_district": null,
        "city": "Rosso",
        "state": "Trarza",
        "postcode": null,
        "country": "Mauritania",
        "country_code": "mr"
      },
      "address": "057, Route Rosso - Boghé شارع الإستقلال, Rosso, 25353 Trarza, Mauritania"
    },
    {
      "lat": 16.536383239804696,
      "lon": -15.78246253078452,
      "geoinfo": {
        "display_name": "Rosso, Trarza, Mauritania",
        "road": null,
        "house_number": null,
        "neighbourhood": null,
        "suburb": null,
        "city_district": null,
        "city": "Rosso",
        "state": "Trarza",
        "postcode": null,
        "country": "Mauritania",
        "country_code": "mr"
      },
      "address": "857, Rosso, 47822 Trarza, Mauritania"
    }
  ],
  "updated_at": "2025-10-19T05:46:42.691323+00:00",
  "_kind": "geo_samples"
}