{
  "country_code": "MR",
  "country": "Mauritania",
  "city": "Tevragh Zeina",
  "geonameid": 11009418,
  "target_addresses": 5,
  "samples": [
    {
      "lat": 18.12135194434986,
      "lon": -15.994947397554846,
      "geoinfo": {
        "display_name": "Centre Émetteur مركز الإرسال, Nouakchott, Tevragh Zein, Nouakchott-Ouest Region, Mauritania",
        "road": null,
        "house_number": null,
        "neighbourhood": null,
        "suburb": "Centre Émetteur مركز الإرسال",
        "city_district": null,
        "city": "Nouakchott",
        "state": "Nouakchott-Ouest Region",
        "postcode": null,
        "country": "Mauritania",
        "country_code": "mr"
      },
      "address": "Centre Émetteur مركز الإرسال, Tevragh Zeina, Nouakchott-Ouest Region, Mauritania"
    },
    {
      "lat": 18.114844801990582,
      "lon": -15.977428072345882,
      "geoinfo": {
        "display_name": "Rue Tene Youssouf Gueye شارع تين يوسف غاي, E-Nord شمال ه, Nouakchott, Tevragh Zein, Nouakchott-Ouest Region, Mauritania",
        "road": "Rue Tene Youssouf Gueye شارع تين يوسف غاي",
        "house_number": null,
        "neighbourhood": null,
        "suburb": "E-Nord شمال ه",
        "city_district": null,
        "city": "Nouakchott",
        "state": "Nouakchott-Ouest Region",
        "postcode": null,
        "country": "Mauritania",
        "country_code": "mr"
      },
      "address": "Rue Tene Youssouf Gueye شارع تين يوسف غاي, Tevragh Zeina, Nouakchott-Ouest Region, Mauritania"
    },
    {
      "lat": 18.10344507577351,
      "lon": -15.975489061844945,
      "geoinfo": {
        "display_name": "Attijari Bank, Avenue du Général de Gaulle شارع شارل ديغول, E-Nord شمال ه, Nouakchott, Tevragh Zein, Nouakchott-Ouest Region, Mauritania",
        "road": "Avenue du Général de Gaulle شارع شارل ديغول",
        "house_number": null,
        "neighbourhood": null,
        "suburb": "E-Nord شمال ه",
        "city_district": null,
        "city": "Nouakchott",
        "state": "Nouakchott-Ouest Region",
        "postcode": null,
        "country": "Mauritania",
        "country_code": "mr"
      },
      "address": "Avenue du Général de Gaulle شارع شارل ديغول, Tevragh Zeina, Nouakchott-Ouest Region, Mauritania"
    },
    {
      "lat": 18.107080962464167,
      "lon": -16.00737209543152,
      "geoinfo": {
        "display_name": "Las Palmas لاس بالماس, Nouakchott, Tevragh Zein, Nouakchott-Ouest Region, Mauritania",
        "road": null,
        "house_number": null,
        "neighbourhood": null,
        "suburb": "Las Palmas لاس بالماس",
        "city_district": null,
        "city": "Nouakchott",
        "state": "Nouakchott-Ouest Region",
        "postcode": null,
        "country": "Mauritania",
        "country_code": "mr"
      },
      "address": "Las Palmas لاس بالماس, Tevragh Zeina, Nouakchott-Ouest Region, Mauritania"
    },
    {
      "lat": 18.113874025220685,
      "lon": -15.98372305299473,
      "geoinfo": {
        "display_name": "Rue Moustapha Ould Mohamed Saleck شارع مصطفى ولد محمد السالك, Las Palmas, Las Palmas لاس بالماس, Nouakchott, Tevragh Zein, Nouakchott-Ouest Region, Mauritania",
        "road": "Rue Moustapha Ould Mohamed Saleck شارع مصطفى ولد محمد السالك",
        "house_number": null,
        "neighbourhood": null,
        "suburb": "Las Palmas لاس بالماس",
        "city_district": null,
        "city": "Nouakchott",
        "state": "Nouakchott-Ouest Region",
        "postcode": null,
        "country": "Mauritania",
        "country_code": "mr"
      },
      "address": "Rue Moustapha Ould Mohamed Saleck شارع مصطفى ولد محمد السالك, Tevragh Zeina, Nouakchott-Ouest Region, Mauritania"
    },
    {
      "lat": 18.097555916858894,
      "lon": -15.94766393777789,
      "geoinfo": {
        "display_name": "Rue de la Piste de l'Ancien Aéroport شارع مدرج المطار القديم, Ten Sweilim تن اسويلم, Nouakchott, Dar Naim, Nouakchott-Nord Region, Mauritania",
        "road": "Rue de la Piste de l'Ancien Aéroport شارع مدرج المطار القديم",
        "house_number": null,
        "neighbourhood": null,
        "suburb": "Ten Sweilim تن اسويلم",
        "city_district": null,
        "city": "Nouakchott",
        "state": "Nouakchott-Nord Region",
        "postcode": null,
        "country": "Mauritania",
        "country_code": "mr"
      },
      "address": "350, Rue de la Piste de l'Ancien Aéroport شارع مدرج المطار القديم, Ten Sweilim تن اسويلم, Nouakchott, Dar Naim, 06683 Nouakchott-Nord Region, Mauritania"
    },
    {
      "lat": 18.130046870090794,
      "lon": -15.965491858079844,
      "geoinfo": {
        "display_name": "Nouakchott, Ksar, Nouakchott-Ouest Region, Mauritania",
        "road": null,
        "house_number": null,
        "neighbourhood": null,
        "suburb": null,
        "city_district": null,
        "city": "Nouakchott",
        "state": "Nouakchott-Ouest Region",
        "postcode": null,
        "country": "Mauritania",
        "country_code": "mr"
      },
      "address": "820, Tevragh Zeina, 97260 Nouakchott-Ouest Region, Mauritania"
    },
    {
      "lat": 18.066817918202123,
      "lon": -15.98645828018165,
      "geoinfo": {
        "display_name": "El Mina الميناء, Nouakchott, El Mina, Nouakchott-Sud Region, Mauritania",
        "road": null,
        "house_number": null,
        "neighbourhood": null,
        "suburb": "El Mina الميناء",
        "city_district": null,
        "city": "Nouakchott",
        "state": "Nouakchott-Sud Region",
        "postcode": null,
        "country": "Mauritania",
        "country_code": "mr"
      },
      "address": "045, El Mina الميناء, Nouakchott, El Mina, 24835 Nouakchott-Sud Region, Mauritania"
    },
    {
      "lat": 18.138102038681552,
      "lon": -15.97656624048818,
      "geoinfo": {
        "display_name": "Nouakchott, Ksar, Nouakchott-Ouest Region, Mauritania",
        "road": null,
        "house_number": null,
        "neighbourhood": null,
        "suburb": null,
        "city_district": null,
        "city": "Nouakchott",
        "state": "Nouakchott-Ouest Region",
        "postcode": null,
        "country": "Mauritania",
        "country_code": "mr"
      },
      "address": "001, Tevragh Zeina, 36408 Nouakchott-Ouest Region, Mauritania"
    },
    {
      "lat": 18.119535715559728,
      "lon": -16.016029773319534,
      "geoinfo": {
        "display_name": "Rue Hasni Ould Didi شارع حسني ولد ديدي, Nouakchott, Tevragh Zein, Nouakchott-Ouest Region, Mauritania",
        "road": "Rue Hasni Ould Didi شارع حسني ولد ديدي",
        "house_number": null,
        "neighbourhood": null,
        "suburb": null,
        "city_district": null,
        "city": "Nouakchott",
        "state": "Nouakchott-Ouest Region",
        "postcode": null,
        "country": "Mauritania",
        "country_code": "mr"
      },
      "address": "132, Rue Hasni Ould Didi شارع حسني ولد ديدي, Nouakchott, Tevragh Zein, 71886 Nouakchott-Ouest Region, Mauritania"
    }
  ],
  "updated_at": "2025-10-19T05:47:24.645904+00:00",
  "_kind": "geo_samples"
}