{
  "country_code": "DK",
  "country": "Denmark",
  "city": "Brøndbyvester",
  "geonameid": 2623340,
  "target_addresses": 8,
  "samples": [
    {
      "lat": 55.65021668168054,
      "lon": 12.434080980461616,
      "geoinfo": {
        "display_name": "Hovedstien, Brøndbyøster, Brøndby Municipality, Glostrup, Capital Region of Denmark, 2605, Denmark",
        "road": "Hovedstien",
        "house_number": null,
        "neighbourhood": null,
        "suburb": "Brøndbyøster",
        "city_district": null,
        "city": "Glostrup",
        "state": "Capital Region of Denmark",
        "postcode": "2605",
        "country": "Denmark",
        "country_code": "dk"
      },
      "address": "Hovedstien, Brøndbyvester, Capital Region of Denmark, Denmark"
    },
    {
      "lat": 55.65232539415785,
      "lon": 12.411758293664361,
      "geoinfo": {
        "display_name": "123A, Brøndbyvestervej, Brøndbyvester, Brøndby Municipality, Glostrup, Capital Region of Denmark, 2605, Denmark",
        "road": "Brøndbyvestervej",
        "house_number": "123A",
        "neighbourhood": null,
        "suburb": "Brøndbyvester",
        "city_district": null,
        "city": "Glostrup",
        "state": "Capital Region of Denmark",
        "postcode": "2605",
        "country": "Denmark",
        "country_code": "dk"
      },
      "address": "123A Brøndbyvestervej, Brøndbyvester, Capital Region of Denmark, Denmark"
    },
    {
      "lat": 55.63481492217112,
      "lon": 12.355888522107428,
      "geoinfo": {
        "display_name": "Mosestien, Vallensbæk Nordmark, Vallensbæk Landsby, Vallensbæk Municipality, Capital Region of Denmark, 2625, Denmark",
        "road": "Mosestien",
        "house_number": null,
        "neighbourhood": null,
        "suburb": "Vallensbæk Nordmark",
        "city_district": null,
        "city": "Vallensbæk Landsby",
        "state": "Capital Region of Denmark",
        "postcode": "2625",
        "country": "Denmark",
        "country_code": "dk"
      },
      "address": "160, Mosestien, Vallensbæk Nordmark, Vallensbæk Landsby, Vallensbæk Municipality, Capital Region of Denmark, 2625, Denmark"
    },
    {
      "lat": 55.662090613719656,
      "lon": 12.44439610442088,
      "geoinfo": {
        "display_name": "Brøndbyvænge, Brøndbyøster, Brøndby Municipality, Copenhagen, Capital Region of Denmark, 2610, Denmark",
        "road": "Brøndbyvænge",
        "house_number": null,
        "neighbourhood": null,
        "suburb": "Brøndbyøster",
        "city_district": null,
        "city": "Copenhagen",
        "state": "Capital Region of Denmark",
        "postcode": "2610",
        "country": "Denmark",
        "country_code": "dk"
      },
      "address": "443, Brøndbyvænge, Brøndbyøster, Brøndby Municipality, Copenhagen, Capital Region of Denmark, 2610, Denmark"
    },
    {
      "lat": 55.64255123382975,
      "lon": 12.357527208907758,
      "geoinfo": {
        "display_name": "Holbækmotorvejen, Brøndby Municipality, Vallensbæk Landsby, Vallensbæk Municipality, Capital Region of Denmark, 2625, Denmark",
        "road": "Holbækmotorvejen",
        "house_number": null,
        "neighbourhood": null,
        "suburb": "Brøndby Municipality",
        "city_district": null,
        "city": "Vallensbæk Landsby",
        "state": "Capital Region of Denmark",
        "postcode": "2625",
        "country": "Denmark",
        "country_code": "dk"
      },
      "address": "122, Holbækmotorvejen, Brøndby Municipality, Vallensbæk Landsby, Vallensbæk Municipality, Capital Region of Denmark, 2625, Denmark"
    },
    {
      "lat": 55.60775759826174,
      "lon": 12.429538997055795,
      "geoinfo": {
        "display_name": "Svingelstien, Brøndby Municipality, Hvidovre Municipality, Capital Region of Denmark, 2660, Denmark",
        "road": "Svingelstien",
        "house_number": null,
        "neighbourhood": null,
        "suburb": "Brøndby Municipality",
        "city_district": null,
        "city": null,
        "state": "Capital Region of Denmark",
        "postcode": "2660",
        "country": "Denmark",
        "country_code": "dk"
      },
      "address": "995, Svingelstien, Brøndby Municipality, Hvidovre Municipality, Capital Region of Denmark, 2660, Denmark"
    },
    {
      "lat": 55.64020332639809,
      "lon": 12.362365482881644,
      "geoinfo": {
        "display_name": "Horsestien, Vallensbæk Nordmark, Vallensbæk Landsby, Vallensbæk Municipality, Capital Region of Denmark, 2625, Denmark",
        "road": "Horsestien",
        "house_number": null,
        "neighbourhood": null,
        "suburb": "Vallensbæk Nordmark",
        "city_district": null,
        "city": "Vallensbæk Landsby",
        "state": "Capital Region of Denmark",
        "postcode": "2625",
        "country": "Denmark",
        "country_code": "dk"
      },
      "address": "120, Horsestien, Vallensbæk Nordmark, Vallensbæk Landsby, Vallensbæk Municipality, Capital Region of Denmark, 2625, Denmark"
    },
    {
      "lat": 55.61522620404118,
      "lon": 12.415230167660601,
      "geoinfo": {
        "display_name": "Sivstien, Brøndby Strand, Brøndby Municipality, Copenhagen, Capital Region of Denmark, 2660, Denmark",
        "road": "Sivstien",
        "house_number": null,
        "neighbourhood": null,
        "suburb": "Brøndby Strand",
        "city_district": null,
        "city": "Copenhagen",
        "state": "Capital Region of Denmark",
        "postcode": "2660",
        "country": "Denmark",
        "country_code": "dk"
      },
      "address": "571, Sivstien, Brøndby Strand, Brøndby Municipality, Copenhagen, Capital Region of Denmark, 2660, Denmark"
    }
  ],
  "updated_at": "2025-10-19T04:08:59.981528+00:00",
  "_kind": "geo_samples"
}