{
  "country_code": "DK",
  "country": "Denmark",
  "city": "Copenhagen",
  "geonameid": 2618425,
  "target_addresses": 2,
  "samples": [
    {
      "lat": 55.715282654507966,
      "lon": 12.597807303211459,
      "geoinfo": {
        "display_name": "Færgehavnsvej, Nordhavn, Østerbro, Copenhagen, Copenhagen Municipality, Capital Region of Denmark, 2150, Denmark",
        "road": "Færgehavnsvej",
        "house_number": null,
        "neighbourhood": null,
        "suburb": "Østerbro",
        "city_district": null,
        "city": "Copenhagen",
        "state": "Capital Region of Denmark",
        "postcode": "2150",
        "country": "Denmark",
        "country_code": "dk"
      },
      "address": "Færgehavnsvej, Copenhagen, Capital Region of Denmark, Denmark"
    },
    {
      "lat": 55.683361717548635,
      "lon": 12.607276036903407,
      "geoinfo": {
        "display_name": "Eik Skaløes Plads, Holmen, Christianshavn, Copenhagen, Copenhagen Municipality, Capital Region of Denmark, 1435, Denmark",
        "road": "Eik Skaløes Plads",
        "house_number": null,
        "neighbourhood": null,
        "suburb": "Christianshavn",
        "city_district": null,
        "city": "Copenhagen",
        "state": "Capital Region of Denmark",
        "postcode": "1435",
        "country": "Denmark",
        "country_code": "dk"
      },
      "address": "Eik Skaløes Plads, Copenhagen, Capital Region of Denmark, Denmark"
    },
    {
      "lat": 55.63669812563843,
      "lon": 12.582783128667009,
      "geoinfo": {
        "display_name": "Elmegården, Sundbyvester, Copenhagen, Copenhagen Municipality, Capital Region of Denmark, 2300, Denmark",
        "road": null,
        "house_number": null,
        "neighbourhood": "Elmegården",
        "suburb": "Sundbyvester",
        "city_district": null,
        "city": "Copenhagen",
        "state": "Capital Region of Denmark",
        "postcode": "2300",
        "country": "Denmark",
        "country_code": "dk"
      },
      "address": "211, Elmegården, Sundbyvester, Copenhagen, Copenhagen Municipality, Capital Region of Denmark, 2300, Denmark"
    },
    {
      "lat": 55.6424577185659,
      "lon": 12.574360635468299,
      "geoinfo": {
        "display_name": "Vejlands Allé, Elmegården, Copenhagen, Copenhagen Municipality, Capital Region of Denmark, 1561, Denmark",
        "road": "Vejlands Allé",
        "house_number": null,
        "neighbourhood": "Elmegården",
        "suburb": null,
        "city_district": null,
        "city": "Copenhagen",
        "state": "Capital Region of Denmark",
        "postcode": "1561",
        "country": "Denmark",
        "country_code": "dk"
      },
      "address": "090, Vejlands Allé, Elmegården, Copenhagen, Copenhagen Municipality, Capital Region of Denmark, 1561, Denmark"
    }
  ],
  "updated_at": "2025-10-19T03:47:51.503004+00:00",
  "_kind": "geo_samples"
}