{
  "country_code": "DK",
  "country": "Denmark",
  "city": "Esbjerg",
  "geonameid": 2622447,
  "target_addresses": 2,
  "samples": [
    {
      "lat": 55.50301155260641,
      "lon": 8.41596711240008,
      "geoinfo": {
        "display_name": "6, Sprogøvej, Fovrfeld, Esbjerg, Esbjerg Municipality, 6710, Denmark",
        "road": "Sprogøvej",
        "house_number": "6",
        "neighbourhood": null,
        "suburb": "Fovrfeld",
        "city_district": null,
        "city": "Esbjerg",
        "state": null,
        "postcode": "6710",
        "country": "Denmark",
        "country_code": "dk"
      },
      "address": "6 Sprogøvej, Esbjerg, Denmark"
    },
    {
      "lat": 55.465885939950894,
      "lon": 8.374319321194287,
      "geoinfo": {
        "display_name": "Nørre Bjerge, Nordby, Fanø Municipality, 6720, Denmark",
        "road": null,
        "house_number": null,
        "neighbourhood": null,
        "suburb": null,
        "city_district": null,
        "city": "Nordby",
        "state": null,
        "postcode": "6720",
        "country": "Denmark",
        "country_code": "dk"
      },
      "address": "Esbjerg, Denmark"
    },
    {
      "lat": 55.47181777588921,
      "lon": 8.422059140728138,
      "geoinfo": {
        "display_name": "Nordsøkaj, Strandby, Esbjerg, Esbjerg Municipality, 6700, Denmark",
        "road": "Nordsøkaj",
        "house_number": null,
        "neighbourhood": null,
        "suburb": "Strandby",
        "city_district": null,
        "city": "Esbjerg",
        "state": null,
        "postcode": "6700",
        "country": "Denmark",
        "country_code": "dk"
      },
      "address": "654, Nordsøkaj, Strandby, Esbjerg, Esbjerg Municipality, 6700, Denmark"
    },
    {
      "lat": 55.46417270918989,
      "lon": 8.469399275380997,
      "geoinfo": {
        "display_name": "Grundtvigs Alle, Østerby, Esbjerg, Esbjerg Municipality, Region of Southern Denmark, 6700, Denmark",
        "road": "Grundtvigs Alle",
        "house_number": null,
        "neighbourhood": null,
        "suburb": "Østerby",
        "city_district": null,
        "city": "Esbjerg",
        "state": "Region of Southern Denmark",
        "postcode": "6700",
        "country": "Denmark",
        "country_code": "dk"
      },
      "address": "554, Grundtvigs Alle, Østerby, Esbjerg, Esbjerg Municipality, Region of Southern Denmark, 6700, Denmark"
    }
  ],
  "updated_at": "2025-10-19T04:31:43.979252+00:00",
  "_kind": "geo_samples"
}