{
  "country_code": "DK",
  "country": "Denmark",
  "city": "Greve",
  "geonameid": 2621215,
  "target_addresses": 2,
  "samples": [
    {
      "lat": 55.553459375961786,
      "lon": 12.285605742529118,
      "geoinfo": {
        "display_name": "Mosede Strand, Greve Strand, Greve Municipality, Region Zealand, 2670, Denmark",
        "road": null,
        "house_number": null,
        "neighbourhood": null,
        "suburb": null,
        "city_district": null,
        "city": "Greve Strand",
        "state": "Region Zealand",
        "postcode": "2670",
        "country": "Denmark",
        "country_code": "dk"
      },
      "address": "Greve, Region Zealand, Denmark"
    },
    {
      "lat": 55.59979533741303,
      "lon": 12.349949690059866,
      "geoinfo": {
        "display_name": "Køge Bugt Kro, Hundige Strandvej, Hundige Strand, Greve Strand, Greve Municipality, Region Zealand, 2635, Denmark",
        "road": "Hundige Strandvej",
        "house_number": null,
        "neighbourhood": null,
        "suburb": null,
        "city_district": null,
        "city": "Greve Strand",
        "state": "Region Zealand",
        "postcode": "2635",
        "country": "Denmark",
        "country_code": "dk"
      },
      "address": "Hundige Strandvej, Greve, Region Zealand, Denmark"
    },
    {
      "lat": 55.610828486937386,
      "lon": 12.281879237998968,
      "geoinfo": {
        "display_name": "9, Kildebrøndevej, Greve Strand, Greve Municipality, Region Zealand, 2670, Denmark",
        "road": "Kildebrøndevej",
        "house_number": "9",
        "neighbourhood": null,
        "suburb": null,
        "city_district": null,
        "city": "Greve Strand",
        "state": "Region Zealand",
        "postcode": "2670",
        "country": "Denmark",
        "country_code": "dk"
      },
      "address": "9, Kildebrøndevej, Greve Strand, Greve Municipality, Region Zealand, 2670, Denmark"
    },
    {
      "lat": 55.61522885563446,
      "lon": 12.26860369225505,
      "geoinfo": {
        "display_name": "Kappelev Landevej, Birkevang, Kildebrønde, Greve Municipality, Region Zealand, 2630, Denmark",
        "road": "Kappelev Landevej",
        "house_number": null,
        "neighbourhood": null,
        "suburb": null,
        "city_district": null,
        "city": "Kildebrønde",
        "state": "Region Zealand",
        "postcode": "2630",
        "country": "Denmark",
        "country_code": "dk"
      },
      "address": "321, Kappelev Landevej, Birkevang, Kildebrønde, Greve Municipality, Region Zealand, 2630, Denmark"
    }
  ],
  "updated_at": "2025-10-19T03:48:06.879040+00:00",
  "_kind": "geo_samples"
}