{
  "country_code": "DK",
  "country": "Denmark",
  "city": "Hvidovre",
  "geonameid": 2619528,
  "target_addresses": 2,
  "samples": [
    {
      "lat": 55.61683010275737,
      "lon": 12.468642620296166,
      "geoinfo": {
        "display_name": "Amagermotorvejen, Avedøre Holme, Hvidovre Municipality, Capital Region of Denmark, 2650, Denmark",
        "road": "Amagermotorvejen",
        "house_number": null,
        "neighbourhood": null,
        "suburb": "Avedøre Holme",
        "city_district": null,
        "city": null,
        "state": "Capital Region of Denmark",
        "postcode": "2650",
        "country": "Denmark",
        "country_code": "dk"
      },
      "address": "Amagermotorvejen, Hvidovre, Capital Region of Denmark, Denmark"
    },
    {
      "lat": 55.638002875627954,
      "lon": 12.43253937111286,
      "geoinfo": {
        "display_name": "Sti Voldgaden, Avedøre Stationsby, Avedøre, Hvidovre Municipality, Capital Region of Denmark, 2660, Denmark",
        "road": "Sti Voldgaden",
        "house_number": null,
        "neighbourhood": null,
        "suburb": "Avedøre",
        "city_district": null,
        "city": null,
        "state": "Capital Region of Denmark",
        "postcode": "2660",
        "country": "Denmark",
        "country_code": "dk"
      },
      "address": "Sti Voldgaden, Hvidovre, Capital Region of Denmark, Denmark"
    },
    {
      "lat": 55.67919651790852,
      "lon": 12.451627433038647,
      "geoinfo": {
        "display_name": "237, Rødovre Parkvej, Rødovre, Rødovre Municipality, Capital Region of Denmark, 2610, Denmark",
        "road": "Rødovre Parkvej",
        "house_number": "237",
        "neighbourhood": null,
        "suburb": "Rødovre",
        "city_district": null,
        "city": null,
        "state": "Capital Region of Denmark",
        "postcode": "2610",
        "country": "Denmark",
        "country_code": "dk"
      },
      "address": "237, Rødovre Parkvej, Rødovre, Rødovre Municipality, Capital Region of Denmark, 2610, Denmark"
    },
    {
      "lat": 55.670623918103004,
      "lon": 12.451935503345505,
      "geoinfo": {
        "display_name": "Roskildevej, Irmabyen, Rødovre, Rødovre Municipality, Capital Region of Denmark, 2610, Denmark",
        "road": "Roskildevej",
        "house_number": null,
        "neighbourhood": "Irmabyen",
        "suburb": "Rødovre",
        "city_district": null,
        "city": null,
        "state": "Capital Region of Denmark",
        "postcode": "2610",
        "country": "Denmark",
        "country_code": "dk"
      },
      "address": "736, Roskildevej, Irmabyen, Rødovre, Rødovre Municipality, Capital Region of Denmark, 2610, Denmark"
    }
  ],
  "updated_at": "2025-10-19T03:39:47.440607+00:00",
  "_kind": "geo_samples"
}