{
  "country_code": "DK",
  "country": "Denmark",
  "city": "Kalundborg",
  "geonameid": 2619154,
  "target_addresses": 2,
  "samples": [
    {
      "lat": 55.66734331244383,
      "lon": 11.043172593022057,
      "geoinfo": {
        "display_name": "Asnæs Skovvej, Kalundborg Municipality, Region Zealand, 4400, Denmark",
        "road": "Asnæs Skovvej",
        "house_number": null,
        "neighbourhood": null,
        "suburb": null,
        "city_district": null,
        "city": null,
        "state": "Region Zealand",
        "postcode": "4400",
        "country": "Denmark",
        "country_code": "dk"
      },
      "address": "Asnæs Skovvej, Kalundborg, Region Zealand, Denmark"
    },
    {
      "lat": 55.69033958275317,
      "lon": 11.030840646747786,
      "geoinfo": {
        "display_name": "9G, Kystvejen, Myrekærshuse, Kalundborg, Kalundborg Municipality, Region Zealand, 4400, Denmark",
        "road": "Kystvejen",
        "house_number": "9G",
        "neighbourhood": null,
        "suburb": null,
        "city_district": null,
        "city": "Kalundborg",
        "state": "Region Zealand",
        "postcode": "4400",
        "country": "Denmark",
        "country_code": "dk"
      },
      "address": "9G Kystvejen, Kalundborg, Region Zealand, Denmark"
    },
    {
      "lat": 55.66782038219157,
      "lon": 11.109012755644377,
      "geoinfo": {
        "display_name": "2, Lyngvangen, Kalundborg Lyng, Kalundborg, Kalundborg Municipality, Region Zealand, 4400, Denmark",
        "road": "Lyngvangen",
        "house_number": "2",
        "neighbourhood": null,
        "suburb": null,
        "city_district": null,
        "city": "Kalundborg",
        "state": "Region Zealand",
        "postcode": "4400",
        "country": "Denmark",
        "country_code": "dk"
      },
      "address": "2, Lyngvangen, Kalundborg Lyng, Kalundborg, Kalundborg Municipality, Region Zealand, 4400, Denmark"
    },
    {
      "lat": 55.696714183062774,
      "lon": 11.104500602924553,
      "geoinfo": {
        "display_name": "Lerchenfeld, Lerchenfeldvej, Lerchenfeld, Gåsetofte, Kalundborg, Kalundborg Municipality, Region Zealand, 4400, Denmark",
        "road": "Lerchenfeldvej",
        "house_number": null,
        "neighbourhood": null,
        "suburb": null,
        "city_district": null,
        "city": "Kalundborg",
        "state": "Region Zealand",
        "postcode": "4400",
        "country": "Denmark",
        "country_code": "dk"
      },
      "address": "136, Lerchenfeldvej, Kalundborg, 4400 Region Zealand, Denmark"
    }
  ],
  "updated_at": "2025-10-19T02:17:36.925436+00:00",
  "_kind": "geo_samples"
}