{
  "country_code": "DK",
  "country": "Denmark",
  "city": "Kolding",
  "geonameid": 2618528,
  "target_addresses": 2,
  "samples": [
    {
      "lat": 55.50135359611758,
      "lon": 9.48943929237429,
      "geoinfo": {
        "display_name": "Troldhedestien, Kolding, Kolding Municipality, 6000, Denmark",
        "road": "Troldhedestien",
        "house_number": null,
        "neighbourhood": null,
        "suburb": null,
        "city_district": null,
        "city": "Kolding",
        "state": null,
        "postcode": "6000",
        "country": "Denmark",
        "country_code": "dk"
      },
      "address": "Troldhedestien, Kolding, Denmark"
    },
    {
      "lat": 55.462145414383315,
      "lon": 9.493201742839075,
      "geoinfo": {
        "display_name": "Dalbyvej, Dalby, Kolding, Kolding Municipality, 6000, Denmark",
        "road": "Dalbyvej",
        "house_number": null,
        "neighbourhood": null,
        "suburb": null,
        "city_district": null,
        "city": "Kolding",
        "state": null,
        "postcode": "6000",
        "country": "Denmark",
        "country_code": "dk"
      },
      "address": "Dalbyvej, Kolding, Denmark"
    },
    {
      "lat": 55.461906089348794,
      "lon": 9.518303099736377,
      "geoinfo": {
        "display_name": "6, Gammel Skartved, Dalby Mølle, Sønder Bjert, Kolding Municipality, 6091, Denmark",
        "road": "Gammel Skartved",
        "house_number": "6",
        "neighbourhood": null,
        "suburb": null,
        "city_district": null,
        "city": "Sønder Bjert",
        "state": null,
        "postcode": "6091",
        "country": "Denmark",
        "country_code": "dk"
      },
      "address": "6, Gammel Skartved, Dalby Mølle, Sønder Bjert, Kolding Municipality, 6091, Denmark"
    },
    {
      "lat": 55.49605869651735,
      "lon": 9.473477838144156,
      "geoinfo": {
        "display_name": "47, Nordre Ringvej, Seest, Kolding, Kolding Municipality, Region of Southern Denmark, 6000, Denmark",
        "road": "Nordre Ringvej",
        "house_number": "47",
        "neighbourhood": null,
        "suburb": "Seest",
        "city_district": null,
        "city": "Kolding",
        "state": "Region of Southern Denmark",
        "postcode": "6000",
        "country": "Denmark",
        "country_code": "dk"
      },
      "address": "47, Nordre Ringvej, Seest, Kolding, Kolding Municipality, Region of Southern Denmark, 6000, Denmark"
    }
  ],
  "updated_at": "2025-10-19T03:39:40.328833+00:00",
  "_kind": "geo_samples"
}