{
  "country_code": "DK",
  "country": "Denmark",
  "city": "Køge",
  "geonameid": 2618415,
  "target_addresses": 2,
  "samples": [
    {
      "lat": 55.46273382647816,
      "lon": 12.130691801817719,
      "geoinfo": {
        "display_name": "106, Ringstedvej, Krageskovbakke, Køge, Køge Municipality, Region Zealand, 4600, Denmark",
        "road": "Ringstedvej",
        "house_number": "106",
        "neighbourhood": null,
        "suburb": null,
        "city_district": null,
        "city": "Køge",
        "state": "Region Zealand",
        "postcode": "4600",
        "country": "Denmark",
        "country_code": "dk"
      },
      "address": "106 Ringstedvej, Køge, Region Zealand, Denmark"
    },
    {
      "lat": 55.487138961179795,
      "lon": 12.24080353883685,
      "geoinfo": {
        "display_name": "Solrød Strand, Solrød Municipality, Region Zealand, 2680, Denmark",
        "road": null,
        "house_number": null,
        "neighbourhood": null,
        "suburb": null,
        "city_district": null,
        "city": "Solrød Strand",
        "state": "Region Zealand",
        "postcode": "2680",
        "country": "Denmark",
        "country_code": "dk"
      },
      "address": "Køge, Region Zealand, Denmark"
    },
    {
      "lat": 55.434520735036415,
      "lon": 12.23786804645844,
      "geoinfo": {
        "display_name": "Vallø Strand, Strøby Egede, Stevns Municipality, Region Zealand, Denmark",
        "road": null,
        "house_number": null,
        "neighbourhood": "Vallø Strand",
        "suburb": null,
        "city_district": null,
        "city": "Strøby Egede",
        "state": "Region Zealand",
        "postcode": null,
        "country": "Denmark",
        "country_code": "dk"
      },
      "address": "256, Vallø Strand, Strøby Egede, Stevns Municipality, 55626 Region Zealand, Denmark"
    },
    {
      "lat": 55.45590496623158,
      "lon": 12.112515473147674,
      "geoinfo": {
        "display_name": "Grønnevej, Disvråggård, Lellinge, Køge Municipality, Region Zealand, 4623, Denmark",
        "road": "Grønnevej",
        "house_number": null,
        "neighbourhood": null,
        "suburb": null,
        "city_district": null,
        "city": "Lellinge",
        "state": "Region Zealand",
        "postcode": "4623",
        "country": "Denmark",
        "country_code": "dk"
      },
      "address": "258, Grønnevej, Disvråggård, Lellinge, Køge Municipality, Region Zealand, 4623, Denmark"
    }
  ],
  "updated_at": "2025-10-19T03:47:44.535894+00:00",
  "_kind": "geo_samples"
}