{
  "country_code": "DK",
  "country": "Denmark",
  "city": "Lillerød",
  "geonameid": 2617658,
  "target_addresses": 2,
  "samples": [
    {
      "lat": 55.88348426209108,
      "lon": 12.324752401775251,
      "geoinfo": {
        "display_name": "19, Tornebjerggårdsvej, Børstingerød, Hillerød, Allerød Municipality, Capital Region of Denmark, 3400, Denmark",
        "road": "Tornebjerggårdsvej",
        "house_number": "19",
        "neighbourhood": null,
        "suburb": null,
        "city_district": null,
        "city": "Hillerød",
        "state": "Capital Region of Denmark",
        "postcode": "3400",
        "country": "Denmark",
        "country_code": "dk"
      },
      "address": "19 Tornebjerggårdsvej, Lillerød, Capital Region of Denmark, Denmark"
    },
    {
      "lat": 55.88156200449972,
      "lon": 12.278457039999376,
      "geoinfo": {
        "display_name": "Lyngevej, Uvelse Enghave, Nørre Herlev, Hillerød Municipality, Capital Region of Denmark, 3540, Denmark",
        "road": "Lyngevej",
        "house_number": null,
        "neighbourhood": null,
        "suburb": null,
        "city_district": null,
        "city": "Nørre Herlev",
        "state": "Capital Region of Denmark",
        "postcode": "3540",
        "country": "Denmark",
        "country_code": "dk"
      },
      "address": "Lyngevej, Lillerød, Capital Region of Denmark, Denmark"
    },
    {
      "lat": 55.87157490851799,
      "lon": 12.274830651948204,
      "geoinfo": {
        "display_name": "Nørre-Herlevvej, Dyrelund, Hillerød Municipality, Capital Region of Denmark, 3540, Denmark",
        "road": "Nørre-Herlevvej",
        "house_number": null,
        "neighbourhood": null,
        "suburb": null,
        "city_district": null,
        "city": null,
        "state": "Capital Region of Denmark",
        "postcode": "3540",
        "country": "Denmark",
        "country_code": "dk"
      },
      "address": "719, Nørre-Herlevvej, Dyrelund, Hillerød Municipality, Capital Region of Denmark, 3540, Denmark"
    },
    {
      "lat": 55.86073761853952,
      "lon": 12.37026157478854,
      "geoinfo": {
        "display_name": "Allerødvej, Sortemose, Lillerød, Allerød Municipality, Capital Region of Denmark, 3450, Denmark",
        "road": "Allerødvej",
        "house_number": null,
        "neighbourhood": null,
        "suburb": "Sortemose",
        "city_district": null,
        "city": "Lillerød",
        "state": "Capital Region of Denmark",
        "postcode": "3450",
        "country": "Denmark",
        "country_code": "dk"
      },
      "address": "217, Allerødvej, Sortemose, Lillerød, Allerød Municipality, Capital Region of Denmark, 3450, Denmark"
    }
  ],
  "updated_at": "2025-10-19T03:39:33.229924+00:00",
  "_kind": "geo_samples"
}