{
  "country_code": "DK",
  "country": "Denmark",
  "city": "Næstved",
  "geonameid": 2616038,
  "target_addresses": 2,
  "samples": [
    {
      "lat": 55.22477190992753,
      "lon": 11.729887696497265,
      "geoinfo": {
        "display_name": "19, Tove Ditlevsens Vej, Digterkvarteret, Næstved, Naestved Municipality, Region Zealand, 4700, Denmark",
        "road": "Tove Ditlevsens Vej",
        "house_number": "19",
        "neighbourhood": null,
        "suburb": null,
        "city_district": null,
        "city": "Næstved",
        "state": "Region Zealand",
        "postcode": "4700",
        "country": "Denmark",
        "country_code": "dk"
      },
      "address": "19 Tove Ditlevsens Vej, Næstved, Region Zealand, Denmark"
    },
    {
      "lat": 55.224234087111924,
      "lon": 11.723393284497796,
      "geoinfo": {
        "display_name": "Vestre Ringvej, Grimstrup, Ålestokshuse, Næstved, Naestved Municipality, Region Zealand, 4700, Denmark",
        "road": "Vestre Ringvej",
        "house_number": null,
        "neighbourhood": "Grimstrup",
        "suburb": null,
        "city_district": null,
        "city": "Næstved",
        "state": "Region Zealand",
        "postcode": "4700",
        "country": "Denmark",
        "country_code": "dk"
      },
      "address": "Vestre Ringvej, Næstved, Region Zealand, Denmark"
    },
    {
      "lat": 55.232033387940746,
      "lon": 11.725120375464572,
      "geoinfo": {
        "display_name": "33A, Klosterlunden, Digterkvarteret, Næstved, Naestved Municipality, Region Zealand, 4700, Denmark",
        "road": "Klosterlunden",
        "house_number": "33A",
        "neighbourhood": null,
        "suburb": null,
        "city_district": null,
        "city": "Næstved",
        "state": "Region Zealand",
        "postcode": "4700",
        "country": "Denmark",
        "country_code": "dk"
      },
      "address": "33A, Klosterlunden, Digterkvarteret, Næstved, Naestved Municipality, Region Zealand, 4700, Denmark"
    },
    {
      "lat": 55.21947518333865,
      "lon": 11.769174239848015,
      "geoinfo": {
        "display_name": "Næstved Gynasium, Blommevej, Næstved, Naestved Municipality, Region Zealand, 4700, Denmark",
        "road": "Blommevej",
        "house_number": null,
        "neighbourhood": null,
        "suburb": null,
        "city_district": null,
        "city": "Næstved",
        "state": "Region Zealand",
        "postcode": "4700",
        "country": "Denmark",
        "country_code": "dk"
      },
      "address": "946, Blommevej, Næstved, 4700 Region Zealand, Denmark"
    }
  ],
  "updated_at": "2025-10-19T03:39:26.000430+00:00",
  "_kind": "geo_samples"
}