{
  "country_code": "DK",
  "country": "Denmark",
  "city": "Nørresundby",
  "geonameid": 2616235,
  "target_addresses": 2,
  "samples": [
    {
      "lat": 57.080507069645485,
      "lon": 9.94958666511491,
      "geoinfo": {
        "display_name": "4, Gisselfeldparken, Nørre Uttrup, Aalborg, Aalborg Municipality, North Denmark Region, 9400, Denmark",
        "road": "Gisselfeldparken",
        "house_number": "4",
        "neighbourhood": null,
        "suburb": "Nørre Uttrup",
        "city_district": null,
        "city": "Aalborg",
        "state": "North Denmark Region",
        "postcode": "9400",
        "country": "Denmark",
        "country_code": "dk"
      },
      "address": "4 Gisselfeldparken, Nørresundby, North Denmark Region, Denmark"
    },
    {
      "lat": 57.038433317785184,
      "lon": 9.892304180015586,
      "geoinfo": {
        "display_name": "Søndre Skovvej, Hasseris, Aalborg, Aalborg Municipality, North Denmark Region, 9000, Denmark",
        "road": "Søndre Skovvej",
        "house_number": null,
        "neighbourhood": null,
        "suburb": "Hasseris",
        "city_district": null,
        "city": "Aalborg",
        "state": "North Denmark Region",
        "postcode": "9000",
        "country": "Denmark",
        "country_code": "dk"
      },
      "address": "Søndre Skovvej, Nørresundby, North Denmark Region, Denmark"
    },
    {
      "lat": 57.04243409487473,
      "lon": 9.975496658196892,
      "geoinfo": {
        "display_name": "15, Forårsvej, Øster Sundby, Aalborg, Aalborg Municipality, North Denmark Region, 9220, Denmark",
        "road": "Forårsvej",
        "house_number": "15",
        "neighbourhood": null,
        "suburb": "Øster Sundby",
        "city_district": null,
        "city": "Aalborg",
        "state": "North Denmark Region",
        "postcode": "9220",
        "country": "Denmark",
        "country_code": "dk"
      },
      "address": "15, Forårsvej, Øster Sundby, Aalborg, Aalborg Municipality, North Denmark Region, 9220, Denmark"
    },
    {
      "lat": 57.065193945292386,
      "lon": 9.939346935034743,
      "geoinfo": {
        "display_name": "Hjørringvej, Stigsborg, Aalborg, Aalborg Municipality, North Denmark Region, 9400, Denmark",
        "road": "Hjørringvej",
        "house_number": null,
        "neighbourhood": null,
        "suburb": "Stigsborg",
        "city_district": null,
        "city": "Aalborg",
        "state": "North Denmark Region",
        "postcode": "9400",
        "country": "Denmark",
        "country_code": "dk"
      },
      "address": "395, Hjørringvej, Stigsborg, Aalborg, Aalborg Municipality, North Denmark Region, 9400, Denmark"
    }
  ],
  "updated_at": "2025-10-19T03:47:37.692626+00:00",
  "_kind": "geo_samples"
}