{
  "country_code": "DK",
  "country": "Denmark",
  "city": "Rødovre",
  "geonameid": 2614600,
  "target_addresses": 8,
  "samples": [
    {
      "lat": 55.70112247343774,
      "lon": 12.442567278655726,
      "geoinfo": {
        "display_name": "20, Dahliavej, Islev, Rødovre Municipality, Capital Region of Denmark, 2610, Denmark",
        "road": "Dahliavej",
        "house_number": "20",
        "neighbourhood": null,
        "suburb": "Islev",
        "city_district": null,
        "city": null,
        "state": "Capital Region of Denmark",
        "postcode": "2610",
        "country": "Denmark",
        "country_code": "dk"
      },
      "address": "20 Dahliavej, Rødovre, Capital Region of Denmark, Denmark"
    },
    {
      "lat": 55.694280163288205,
      "lon": 12.44726345251478,
      "geoinfo": {
        "display_name": "123, Fortvej, Rødovre, Rødovre Municipality, Capital Region of Denmark, 2610, Denmark",
        "road": "Fortvej",
        "house_number": "123",
        "neighbourhood": null,
        "suburb": "Rødovre",
        "city_district": null,
        "city": null,
        "state": "Capital Region of Denmark",
        "postcode": "2610",
        "country": "Denmark",
        "country_code": "dk"
      },
      "address": "123 Fortvej, Rødovre, Capital Region of Denmark, Denmark"
    },
    {
      "lat": 55.70496895027707,
      "lon": 12.474692731793626,
      "geoinfo": {
        "display_name": "229, Smørumvej, Brønshøj, Copenhagen, Copenhagen Municipality, Capital Region of Denmark, 2700, Denmark",
        "road": "Smørumvej",
        "house_number": "229",
        "neighbourhood": null,
        "suburb": "Brønshøj",
        "city_district": null,
        "city": "Copenhagen",
        "state": "Capital Region of Denmark",
        "postcode": "2700",
        "country": "Denmark",
        "country_code": "dk"
      },
      "address": "229, Smørumvej, Brønshøj, Copenhagen, Copenhagen Municipality, Capital Region of Denmark, 2700, Denmark"
    },
    {
      "lat": 55.65404004812927,
      "lon": 12.438816326627547,
      "geoinfo": {
        "display_name": "Hovedstien, Brøndbyøster, Brøndby Municipality, Glostrup, Capital Region of Denmark, 2605, Denmark",
        "road": "Hovedstien",
        "house_number": null,
        "neighbourhood": null,
        "suburb": "Brøndbyøster",
        "city_district": null,
        "city": "Glostrup",
        "state": "Capital Region of Denmark",
        "postcode": "2605",
        "country": "Denmark",
        "country_code": "dk"
      },
      "address": "635, Hovedstien, Brøndbyøster, Brøndby Municipality, Glostrup, Capital Region of Denmark, 2605, Denmark"
    },
    {
      "lat": 55.71542430925356,
      "lon": 12.471935295812985,
      "geoinfo": {
        "display_name": "Bystævneparken, Husum, Copenhagen, Copenhagen Municipality, Capital Region of Denmark, 2700, Denmark",
        "road": "Bystævneparken",
        "house_number": null,
        "neighbourhood": null,
        "suburb": "Husum",
        "city_district": null,
        "city": "Copenhagen",
        "state": "Capital Region of Denmark",
        "postcode": "2700",
        "country": "Denmark",
        "country_code": "dk"
      },
      "address": "122, Bystævneparken, Husum, Copenhagen, Copenhagen Municipality, Capital Region of Denmark, 2700, Denmark"
    },
    {
      "lat": 55.692631258733975,
      "lon": 12.461483736403066,
      "geoinfo": {
        "display_name": "275, Rødovrevej, Rødovre, Rødovre Municipality, Capital Region of Denmark, 2610, Denmark",
        "road": "Rødovrevej",
        "house_number": "275",
        "neighbourhood": null,
        "suburb": "Rødovre",
        "city_district": null,
        "city": null,
        "state": "Capital Region of Denmark",
        "postcode": "2610",
        "country": "Denmark",
        "country_code": "dk"
      },
      "address": "275, Rødovrevej, Rødovre, Rødovre Municipality, Capital Region of Denmark, 2610, Denmark"
    },
    {
      "lat": 55.68616850769212,
      "lon": 12.517667012741915,
      "geoinfo": {
        "display_name": "86B, Nyelandsvej, Frederiksberg, Frederiksberg Municipality, Capital Region of Denmark, 2000, Denmark",
        "road": "Nyelandsvej",
        "house_number": "86B",
        "neighbourhood": null,
        "suburb": null,
        "city_district": null,
        "city": "Frederiksberg",
        "state": "Capital Region of Denmark",
        "postcode": "2000",
        "country": "Denmark",
        "country_code": "dk"
      },
      "address": "86B, Nyelandsvej, Frederiksberg, Frederiksberg Municipality, Capital Region of Denmark, 2000, Denmark"
    },
    {
      "lat": 55.67935672111931,
      "lon": 12.381703351351186,
      "geoinfo": {
        "display_name": "11A, Naverland, Hersted Industripark, Glostrup, Albertslund Municipality, Capital Region of Denmark, 2600, Denmark",
        "road": "Naverland",
        "house_number": "11A",
        "neighbourhood": null,
        "suburb": null,
        "city_district": null,
        "city": "Glostrup",
        "state": "Capital Region of Denmark",
        "postcode": "2600",
        "country": "Denmark",
        "country_code": "dk"
      },
      "address": "11A, Naverland, Hersted Industripark, Glostrup, Albertslund Municipality, Capital Region of Denmark, 2600, Denmark"
    }
  ],
  "updated_at": "2025-10-19T04:08:28.146242+00:00",
  "_kind": "geo_samples"
}