{
  "country_code": "DK",
  "country": "Denmark",
  "city": "Stenløse",
  "geonameid": 2612629,
  "target_addresses": 2,
  "samples": [
    {
      "lat": 55.774586802793465,
      "lon": 12.155525798670912,
      "geoinfo": {
        "display_name": "Skolevej, Ølstykke, Egedal Municipality, Capital Region of Denmark, 3650, Denmark",
        "road": "Skolevej",
        "house_number": null,
        "neighbourhood": null,
        "suburb": null,
        "city_district": null,
        "city": "Ølstykke",
        "state": "Capital Region of Denmark",
        "postcode": "3650",
        "country": "Denmark",
        "country_code": "dk"
      },
      "address": "Skolevej, Stenløse, Capital Region of Denmark, Denmark"
    },
    {
      "lat": 55.807344853269655,
      "lon": 12.203683034354437,
      "geoinfo": {
        "display_name": "12, Kratvej, Ellekær, Stenløse, Egedal Municipality, Capital Region of Denmark, 3660, Denmark",
        "road": "Kratvej",
        "house_number": "12",
        "neighbourhood": null,
        "suburb": null,
        "city_district": null,
        "city": "Stenløse",
        "state": "Capital Region of Denmark",
        "postcode": "3660",
        "country": "Denmark",
        "country_code": "dk"
      },
      "address": "12 Kratvej, Stenløse, Capital Region of Denmark, Denmark"
    },
    {
      "lat": 55.79978326126518,
      "lon": 12.217394037186558,
      "geoinfo": {
        "display_name": "Baunehøjgård, 23A, Blomstervej, Ellekær, Stenløse, Egedal Municipality, Capital Region of Denmark, 3660, Denmark",
        "road": "Blomstervej",
        "house_number": "23A",
        "neighbourhood": null,
        "suburb": null,
        "city_district": null,
        "city": "Stenløse",
        "state": "Capital Region of Denmark",
        "postcode": "3660",
        "country": "Denmark",
        "country_code": "dk"
      },
      "address": "Baunehøjgård, 23A, Blomstervej, Ellekær, Stenløse, Egedal Municipality, Capital Region of Denmark, 3660, Denmark"
    },
    {
      "lat": 55.75271371086348,
      "lon": 12.147315838113375,
      "geoinfo": {
        "display_name": "72, Gulddyssevej, Roskilde, Roskilde Municipality, Region Zealand, 4000, Denmark",
        "road": "Gulddyssevej",
        "house_number": "72",
        "neighbourhood": null,
        "suburb": null,
        "city_district": null,
        "city": "Roskilde",
        "state": "Region Zealand",
        "postcode": "4000",
        "country": "Denmark",
        "country_code": "dk"
      },
      "address": "72, Gulddyssevej, Roskilde, Roskilde Municipality, Region Zealand, 4000, Denmark"
    }
  ],
  "updated_at": "2025-10-19T03:54:07.437043+00:00",
  "_kind": "geo_samples"
}