{
  "country_code": "DK",
  "country": "Denmark",
  "city": "Tilst",
  "geonameid": 2611720,
  "target_addresses": 8,
  "samples": [
    {
      "lat": 56.18730634588957,
      "lon": 10.096571879052611,
      "geoinfo": {
        "display_name": "Tilst Parkvej, Todderup, Tilst, Aarhus Municipality, Central Denmark Region, 8381, Denmark",
        "road": "Tilst Parkvej",
        "house_number": null,
        "neighbourhood": null,
        "suburb": null,
        "city_district": null,
        "city": "Tilst",
        "state": "Central Denmark Region",
        "postcode": "8381",
        "country": "Denmark",
        "country_code": "dk"
      },
      "address": "Tilst Parkvej, Tilst, Central Denmark Region, Denmark"
    },
    {
      "lat": 56.21021434306099,
      "lon": 10.105037848762727,
      "geoinfo": {
        "display_name": "Geding Byvej, Geding, Tilst, Aarhus Municipality, Central Denmark Region, 8381, Denmark",
        "road": "Geding Byvej",
        "house_number": null,
        "neighbourhood": null,
        "suburb": null,
        "city_district": null,
        "city": "Tilst",
        "state": "Central Denmark Region",
        "postcode": "8381",
        "country": "Denmark",
        "country_code": "dk"
      },
      "address": "Geding Byvej, Tilst, Central Denmark Region, Denmark"
    },
    {
      "lat": 56.215800109147835,
      "lon": 10.072355696997997,
      "geoinfo": {
        "display_name": "41, Kvottrupvej, Kvottrup, Sabro, Aarhus Municipality, Central Denmark Region, 8471, Denmark",
        "road": "Kvottrupvej",
        "house_number": "41",
        "neighbourhood": null,
        "suburb": null,
        "city_district": null,
        "city": "Sabro",
        "state": "Central Denmark Region",
        "postcode": "8471",
        "country": "Denmark",
        "country_code": "dk"
      },
      "address": "41, Kvottrupvej, Tilst, 8471 Central Denmark Region, Denmark"
    },
    {
      "lat": 56.21653109215348,
      "lon": 10.08977522137941,
      "geoinfo": {
        "display_name": "Brushøjvej, Enghøjgård, Kvottrup, Tilst, Aarhus Municipality, Central Denmark Region, 8381, Denmark",
        "road": "Brushøjvej",
        "house_number": null,
        "neighbourhood": null,
        "suburb": null,
        "city_district": null,
        "city": "Tilst",
        "state": "Central Denmark Region",
        "postcode": "8381",
        "country": "Denmark",
        "country_code": "dk"
      },
      "address": "135, Brushøjvej, Enghøjgård, Kvottrup, Tilst, Aarhus Municipality, Central Denmark Region, 8381, Denmark"
    },
    {
      "lat": 56.20898983882857,
      "lon": 10.082760341731207,
      "geoinfo": {
        "display_name": "Kvottrupvej, Kvottrup, Tilst, Aarhus Municipality, Central Denmark Region, 8381, Denmark",
        "road": "Kvottrupvej",
        "house_number": null,
        "neighbourhood": null,
        "suburb": null,
        "city_district": null,
        "city": "Tilst",
        "state": "Central Denmark Region",
        "postcode": "8381",
        "country": "Denmark",
        "country_code": "dk"
      },
      "address": "652, Kvottrupvej, Kvottrup, Tilst, Aarhus Municipality, Central Denmark Region, 8381, Denmark"
    },
    {
      "lat": 56.20653445473318,
      "lon": 10.060768572546088,
      "geoinfo": {
        "display_name": "Grønvej, Fårup, Mundelstrup, Aarhus Municipality, Central Denmark Region, 8471, Denmark",
        "road": "Grønvej",
        "house_number": null,
        "neighbourhood": null,
        "suburb": null,
        "city_district": null,
        "city": "Mundelstrup",
        "state": "Central Denmark Region",
        "postcode": "8471",
        "country": "Denmark",
        "country_code": "dk"
      },
      "address": "723, Grønvej, Tilst, 8471 Central Denmark Region, Denmark"
    },
    {
      "lat": 56.17872187615781,
      "lon": 10.036839954954479,
      "geoinfo": {
        "display_name": "Lyngbygård Golf, Lyngbygårdsvej, Aarhus Municipality, Central Denmark Region, 8462, Denmark",
        "road": "Lyngbygårdsvej",
        "house_number": null,
        "neighbourhood": null,
        "suburb": null,
        "city_district": null,
        "city": null,
        "state": "Central Denmark Region",
        "postcode": "8462",
        "country": "Denmark",
        "country_code": "dk"
      },
      "address": "252, Lyngbygårdsvej, Tilst, 8462 Central Denmark Region, Denmark"
    },
    {
      "lat": 56.18670391071772,
      "lon": 10.07464279315274,
      "geoinfo": {
        "display_name": "Munkevejen, Tvillinghøje, True, Aarhus Municipality, Central Denmark Region, 8381, Denmark",
        "road": "Munkevejen",
        "house_number": null,
        "neighbourhood": "Tvillinghøje",
        "suburb": null,
        "city_district": null,
        "city": "True",
        "state": "Central Denmark Region",
        "postcode": "8381",
        "country": "Denmark",
        "country_code": "dk"
      },
      "address": "877, Munkevejen, Tilst, 8381 Central Denmark Region, Denmark"
    }
  ],
  "updated_at": "2025-10-19T04:07:31.943808+00:00",
  "_kind": "geo_samples"
}