{
  "country_code": "DK",
  "country": "Denmark",
  "city": "Vordingborg",
  "geonameid": 2610020,
  "target_addresses": 8,
  "samples": [
    {
      "lat": 55.04646250169315,
      "lon": 11.882968495146537,
      "geoinfo": {
        "display_name": "Barmosevej, Østergård, Neder Vindinge, Vordingborg Municipality, Region Zealand, 4760, Denmark",
        "road": "Barmosevej",
        "house_number": null,
        "neighbourhood": null,
        "suburb": null,
        "city_district": null,
        "city": "Neder Vindinge",
        "state": "Region Zealand",
        "postcode": "4760",
        "country": "Denmark",
        "country_code": "dk"
      },
      "address": "Barmosevej, Vordingborg, Region Zealand, Denmark"
    },
    {
      "lat": 54.98344469650341,
      "lon": 11.949660957727504,
      "geoinfo": {
        "display_name": "Florke, Nyråd, Vordingborg Municipality, Region Zealand, 4760, Denmark",
        "road": null,
        "house_number": null,
        "neighbourhood": "Florke",
        "suburb": null,
        "city_district": null,
        "city": "Nyråd",
        "state": "Region Zealand",
        "postcode": "4760",
        "country": "Denmark",
        "country_code": "dk"
      },
      "address": "Florke, Vordingborg, Region Zealand, Denmark"
    },
    {
      "lat": 54.986565508782654,
      "lon": 11.85018468077065,
      "geoinfo": {
        "display_name": "Orehoved, Guldborgsund Municipality, Region Zealand, 4840, Denmark",
        "road": null,
        "house_number": null,
        "neighbourhood": null,
        "suburb": null,
        "city_district": null,
        "city": "Orehoved",
        "state": "Region Zealand",
        "postcode": "4840",
        "country": "Denmark",
        "country_code": "dk"
      },
      "address": "683, Vordingborg, 4840 Region Zealand, Denmark"
    },
    {
      "lat": 54.99802405606241,
      "lon": 11.930992063689452,
      "geoinfo": {
        "display_name": "3, Marienlyst, Rødesmedje, Vordingborg, Vordingborg Municipality, Region Zealand, 4760, Denmark",
        "road": "Marienlyst",
        "house_number": "3",
        "neighbourhood": null,
        "suburb": null,
        "city_district": null,
        "city": "Vordingborg",
        "state": "Region Zealand",
        "postcode": "4760",
        "country": "Denmark",
        "country_code": "dk"
      },
      "address": "3, Marienlyst, Rødesmedje, Vordingborg, Vordingborg Municipality, Region Zealand, 4760, Denmark"
    },
    {
      "lat": 55.03923332885576,
      "lon": 11.86372863892265,
      "geoinfo": {
        "display_name": "Langagervej, Langed, Stuby, Neder Vindinge, Vordingborg Municipality, Region Zealand, Denmark",
        "road": "Langagervej",
        "house_number": null,
        "neighbourhood": "Langed",
        "suburb": null,
        "city_district": null,
        "city": "Neder Vindinge",
        "state": "Region Zealand",
        "postcode": null,
        "country": "Denmark",
        "country_code": "dk"
      },
      "address": "224, Langagervej, Langed, Stuby, Neder Vindinge, Vordingborg Municipality, 80686 Region Zealand, Denmark"
    },
    {
      "lat": 54.98321610980702,
      "lon": 11.925346084213567,
      "geoinfo": {
        "display_name": "Masnedsund, Vordingborg Municipality, Region Zealand, 4760, Denmark",
        "road": null,
        "house_number": null,
        "neighbourhood": null,
        "suburb": null,
        "city_district": null,
        "city": "Masnedsund",
        "state": "Region Zealand",
        "postcode": "4760",
        "country": "Denmark",
        "country_code": "dk"
      },
      "address": "301, Masnedsund, Vordingborg Municipality, Region Zealand, 4760, Denmark"
    },
    {
      "lat": 55.031772874783584,
      "lon": 11.928565521347178,
      "geoinfo": {
        "display_name": "40, Ornebjergvej, Ornebjerg, Vordingborg, Vordingborg Municipality, Region Zealand, 4760, Denmark",
        "road": "Ornebjergvej",
        "house_number": "40",
        "neighbourhood": null,
        "suburb": null,
        "city_district": null,
        "city": "Vordingborg",
        "state": "Region Zealand",
        "postcode": "4760",
        "country": "Denmark",
        "country_code": "dk"
      },
      "address": "40, Ornebjergvej, Ornebjerg, Vordingborg, Vordingborg Municipality, Region Zealand, 4760, Denmark"
    },
    {
      "lat": 55.002794932885166,
      "lon": 11.864179999058477,
      "geoinfo": {
        "display_name": "Kystvejen, Ore, Vordingborg, Vordingborg Municipality, Region Zealand, Denmark",
        "road": "Kystvejen",
        "house_number": null,
        "neighbourhood": null,
        "suburb": null,
        "city_district": null,
        "city": "Vordingborg",
        "state": "Region Zealand",
        "postcode": null,
        "country": "Denmark",
        "country_code": "dk"
      },
      "address": "877, Kystvejen, Ore, Vordingborg, Vordingborg Municipality, 14224 Region Zealand, Denmark"
    }
  ],
  "updated_at": "2025-10-19T04:06:27.920155+00:00",
  "_kind": "geo_samples"
}