{
  "country_code": "NP",
  "country": "Nepal",
  "city": "Banepā",
  "geonameid": 1283679,
  "target_addresses": 3,
  "samples": [
    {
      "lat": 27.650033727690154,
      "lon": 85.51567536756734,
      "geoinfo": {
        "display_name": "Iplachhen tole, Banepa-04, Banepa, Kavrepalanchok, Bagamati Province, 46210, Nepal",
        "road": null,
        "house_number": null,
        "neighbourhood": "Iplachhen tole",
        "suburb": null,
        "city_district": "Banepa-04",
        "city": null,
        "state": "Bagamati Province",
        "postcode": "46210",
        "country": "Nepal",
        "country_code": "np"
      },
      "address": "Iplachhen tole, Banepā, Bagamati Province, Nepal"
    },
    {
      "lat": 27.606328382993045,
      "lon": 85.55497306558293,
      "geoinfo": {
        "display_name": "Dhulikhel-07, Dhulikhel, Kavrepalanchok, Bagamati Province, 09771, Nepal",
        "road": null,
        "house_number": null,
        "neighbourhood": null,
        "suburb": null,
        "city_district": "Dhulikhel-07",
        "city": null,
        "state": "Bagamati Province",
        "postcode": "09771",
        "country": "Nepal",
        "country_code": "np"
      },
      "address": "Dhulikhel-07, Banepā, Bagamati Province, Nepal"
    },
    {
      "lat": 27.60530579370533,
      "lon": 85.50680173041293,
      "geoinfo": {
        "display_name": "Paunauti-04, Panauti, Paunauti, Kavrepalanchok, Bagamati Province, 45209, Nepal",
        "road": null,
        "house_number": null,
        "neighbourhood": null,
        "suburb": null,
        "city_district": "Paunauti-04",
        "city": "Panauti",
        "state": "Bagamati Province",
        "postcode": "45209",
        "country": "Nepal",
        "country_code": "np"
      },
      "address": "Paunauti-04, Banepā, Bagamati Province, Nepal"
    },
    {
      "lat": 27.609158089746504,
      "lon": 85.51259542379485,
      "geoinfo": {
        "display_name": "बुद्धकाे कुवा, Way to Poudol, Sinagal, Banepa-11, Panauti, Banepa, Kavrepalanchok, Bagamati Province, 45210, Nepal",
        "road": "Way to Poudol",
        "house_number": null,
        "neighbourhood": "Sinagal",
        "suburb": null,
        "city_district": "Banepa-11",
        "city": "Panauti",
        "state": "Bagamati Province",
        "postcode": "45210",
        "country": "Nepal",
        "country_code": "np"
      },
      "address": "बुद्धकाे कुवा, Way to Poudol, Sinagal, Banepa-11, Panauti, Banepa, Kavrepalanchok, Bagamati Province, 45210, Nepal"
    },
    {
      "lat": 27.609947202740642,
      "lon": 85.56474409414788,
      "geoinfo": {
        "display_name": "Dhulikhel-07, Dhulikhel, Kavrepalanchok, Bagamati Province, 45200, Nepal",
        "road": null,
        "house_number": null,
        "neighbourhood": null,
        "suburb": null,
        "city_district": "Dhulikhel-07",
        "city": "Dhulikhel",
        "state": "Bagamati Province",
        "postcode": "45200",
        "country": "Nepal",
        "country_code": "np"
      },
      "address": "Dhulikhel-07, Dhulikhel, Kavrepalanchok, Bagamati Province, 45200, Nepal"
    },
    {
      "lat": 27.669385980027833,
      "lon": 85.52317521100906,
      "geoinfo": {
        "display_name": "Arunodaya-ghimireGaun Sadak, Banepa-03, Banepa, Kavrepalanchok, Bagamati Province, 46210, Nepal",
        "road": "Arunodaya-ghimireGaun Sadak",
        "house_number": null,
        "neighbourhood": null,
        "suburb": null,
        "city_district": "Banepa-03",
        "city": null,
        "state": "Bagamati Province",
        "postcode": "46210",
        "country": "Nepal",
        "country_code": "np"
      },
      "address": "239, Arunodaya-ghimireGaun Sadak, Banepā, 46210 Bagamati Province, Nepal"
    }
  ],
  "updated_at": "2025-10-19T06:26:28.752663+00:00",
  "_kind": "geo_samples"
}