{
  "country_code": "NP",
  "country": "Nepal",
  "city": "Birendranagar",
  "geonameid": 6254843,
  "target_addresses": 3,
  "samples": [
    {
      "lat": 28.57471308828969,
      "lon": 81.57997782155266,
      "geoinfo": {
        "display_name": "Birendranagar-02, Bangesimal, Birendranagar, Surkhet, Karnali Province, 21700, Nepal",
        "road": null,
        "house_number": null,
        "neighbourhood": null,
        "suburb": null,
        "city_district": "Birendranagar-02",
        "city": "Bangesimal",
        "state": "Karnali Province",
        "postcode": "21700",
        "country": "Nepal",
        "country_code": "np"
      },
      "address": "Birendranagar-02, Birendranagar, Karnali Province, Nepal"
    },
    {
      "lat": 28.631135977256335,
      "lon": 81.62464135906795,
      "geoinfo": {
        "display_name": "Dailekha Rajmarg, Katkuwa, Birendranagar-05, Birendranagar, Surkhet, Karnali Province, 21700, Nepal",
        "road": "Dailekha Rajmarg",
        "house_number": null,
        "neighbourhood": null,
        "suburb": null,
        "city_district": "Birendranagar-05",
        "city": "Birendranagar",
        "state": "Karnali Province",
        "postcode": "21700",
        "country": "Nepal",
        "country_code": "np"
      },
      "address": "Dailekha Rajmarg, Birendranagar, Karnali Province, Nepal"
    },
    {
      "lat": 28.59874631573991,
      "lon": 81.65182155266865,
      "geoinfo": {
        "display_name": "Karekhola, Birendranagar, Surkhet, Karnali Province, 21700, Nepal",
        "road": null,
        "house_number": null,
        "neighbourhood": null,
        "suburb": null,
        "city_district": null,
        "city": "Karekhola",
        "state": "Karnali Province",
        "postcode": "21700",
        "country": "Nepal",
        "country_code": "np"
      },
      "address": "Birendranagar, Karnali Province, Nepal"
    },
    {
      "lat": 28.594899086520346,
      "lon": 81.64742366641181,
      "geoinfo": {
        "display_name": "59DR012, Bastipur, Birendranagar-11, Birendranagar, Surkhet, Karnali Province, 21700, Nepal",
        "road": "59DR012",
        "house_number": null,
        "neighbourhood": "Bastipur",
        "suburb": null,
        "city_district": "Birendranagar-11",
        "city": "Birendranagar",
        "state": "Karnali Province",
        "postcode": "21700",
        "country": "Nepal",
        "country_code": "np"
      },
      "address": "59DR012, Bastipur, Birendranagar-11, Birendranagar, Surkhet, Karnali Province, 21700, Nepal"
    },
    {
      "lat": 28.62311821354802,
      "lon": 81.6003624926759,
      "geoinfo": {
        "display_name": "Smriti Tole, Khokre, Birendranagar-04, Birendranagar, Surkhet, Karnali Province, 21700, Nepal",
        "road": null,
        "house_number": null,
        "neighbourhood": "Smriti Tole",
        "suburb": null,
        "city_district": "Birendranagar-04",
        "city": "Birendranagar",
        "state": "Karnali Province",
        "postcode": "21700",
        "country": "Nepal",
        "country_code": "np"
      },
      "address": "Smriti Tole, Khokre, Birendranagar-04, Birendranagar, Surkhet, Karnali Province, 21700, Nepal"
    },
    {
      "lat": 28.610414651764387,
      "lon": 81.58107769587282,
      "geoinfo": {
        "display_name": "Dhodekhali, Birendranagar-01, Bangesimal, Birendranagar, Surkhet, Karnali Province, 21700, Nepal",
        "road": null,
        "house_number": null,
        "neighbourhood": null,
        "suburb": null,
        "city_district": "Birendranagar-01",
        "city": "Bangesimal",
        "state": "Karnali Province",
        "postcode": "21700",
        "country": "Nepal",
        "country_code": "np"
      },
      "address": "Dhodekhali, Birendranagar-01, Bangesimal, Birendranagar, Surkhet, Karnali Province, 21700, Nepal"
    }
  ],
  "updated_at": "2025-10-19T04:11:46.224858+00:00",
  "_kind": "geo_samples"
}