{
  "country_code": "NP",
  "country": "Nepal",
  "city": "Dhulikhel",
  "geonameid": 1283448,
  "target_addresses": 3,
  "samples": [
    {
      "lat": 27.646521320228,
      "lon": 85.53116646571144,
      "geoinfo": {
        "display_name": "Banepa-05, Ravi Opi, Banepa, Kavrepalanchok, Bagamati Province, 46210, Nepal",
        "road": null,
        "house_number": null,
        "neighbourhood": null,
        "suburb": null,
        "city_district": "Banepa-05",
        "city": "Ravi Opi",
        "state": "Bagamati Province",
        "postcode": "46210",
        "country": "Nepal",
        "country_code": "np"
      },
      "address": "Banepa-05, Dhulikhel, Bagamati Province, Nepal"
    },
    {
      "lat": 27.594312781408814,
      "lon": 85.57129955803816,
      "geoinfo": {
        "display_name": "24DR018, Dhulikhel-09, Kavre Bhanjyang, Dhulikhel, Kavrepalanchok, Bagamati Province, 45200, Nepal",
        "road": "24DR018",
        "house_number": null,
        "neighbourhood": null,
        "suburb": null,
        "city_district": "Dhulikhel-09",
        "city": "Kavre Bhanjyang",
        "state": "Bagamati Province",
        "postcode": "45200",
        "country": "Nepal",
        "country_code": "np"
      },
      "address": "24DR018, Dhulikhel, Bagamati Province, Nepal"
    },
    {
      "lat": 27.632653627914742,
      "lon": 85.57921807143256,
      "geoinfo": {
        "display_name": "Jogithumka, Dhulikhel-01, Dhulikhel, Kavrepalanchok, Bagamati Province, 45200, Nepal",
        "road": null,
        "house_number": null,
        "neighbourhood": null,
        "suburb": null,
        "city_district": "Dhulikhel-01",
        "city": "Dhulikhel",
        "state": "Bagamati Province",
        "postcode": "45200",
        "country": "Nepal",
        "country_code": "np"
      },
      "address": "Dhulikhel-01, Dhulikhel, Bagamati Province, Nepal"
    },
    {
      "lat": 27.617991809750166,
      "lon": 85.59155858122699,
      "geoinfo": {
        "display_name": "Dadelthok, Dhulikhel-08, Dhulikhel, Kavrepalanchok, Bagamati Province, 45200, Nepal",
        "road": null,
        "house_number": null,
        "neighbourhood": null,
        "suburb": null,
        "city_district": "Dhulikhel-08",
        "city": null,
        "state": "Bagamati Province",
        "postcode": "45200",
        "country": "Nepal",
        "country_code": "np"
      },
      "address": "Dadelthok, Dhulikhel-08, Dhulikhel, Kavrepalanchok, Bagamati Province, 45200, Nepal"
    },
    {
      "lat": 27.625772916326667,
      "lon": 85.54535457642224,
      "geoinfo": {
        "display_name": "Araniko Highway, Junction, Dhulikhel-04, Dhulikhel, Kavrepalanchok, Bagamati Province, 09771, Nepal",
        "road": "Araniko Highway",
        "house_number": null,
        "neighbourhood": "Junction",
        "suburb": null,
        "city_district": "Dhulikhel-04",
        "city": "Dhulikhel",
        "state": "Bagamati Province",
        "postcode": "09771",
        "country": "Nepal",
        "country_code": "np"
      },
      "address": "Araniko Highway, Junction, Dhulikhel-04, Dhulikhel, Kavrepalanchok, Bagamati Province, 09771, Nepal"
    },
    {
      "lat": 27.634948041870558,
      "lon": 85.56934718390309,
      "geoinfo": {
        "display_name": "उदब दाइको खेत, 24DR009, Dhulikhel-01, Dhulikhel, Kavrepalanchok, Bagamati Province, 09771, Nepal",
        "road": "24DR009",
        "house_number": null,
        "neighbourhood": null,
        "suburb": null,
        "city_district": "Dhulikhel-01",
        "city": null,
        "state": "Bagamati Province",
        "postcode": "09771",
        "country": "Nepal",
        "country_code": "np"
      },
      "address": "उदब दाइको खेत, 24DR009, Dhulikhel-01, Dhulikhel, Kavrepalanchok, Bagamati Province, 09771, Nepal"
    }
  ],
  "updated_at": "2025-10-19T06:01:15.941494+00:00",
  "_kind": "geo_samples"
}