{
  "country_code": "NP",
  "country": "Nepal",
  "city": "Dipayal",
  "geonameid": 6254845,
  "target_addresses": 3,
  "samples": [
    {
      "lat": 29.259892081039656,
      "lon": 80.93688640537368,
      "geoinfo": {
        "display_name": "NH65, Dipayal Silgadi-02, Dipayal, Dipayal Silgadi, Doti, Sudurpashchim Province, Nepal",
        "road": "NH65",
        "house_number": null,
        "neighbourhood": null,
        "suburb": null,
        "city_district": "Dipayal Silgadi-02",
        "city": "Dipayal",
        "state": "Sudurpashchim Province",
        "postcode": null,
        "country": "Nepal",
        "country_code": "np"
      },
      "address": "NH65, Dipayal, Sudurpashchim Province, Nepal"
    },
    {
      "lat": 29.266579801530472,
      "lon": 80.96200028122774,
      "geoinfo": {
        "display_name": "NH03, Lekthata, Dipayal Silgadi-05, Punnagau, Dipayal Silgadi, Doti, Sudurpashchim Province, Nepal",
        "road": "NH03",
        "house_number": null,
        "neighbourhood": null,
        "suburb": null,
        "city_district": "Dipayal Silgadi-05",
        "city": "Punnagau",
        "state": "Sudurpashchim Province",
        "postcode": null,
        "country": "Nepal",
        "country_code": "np"
      },
      "address": "NH03, Dipayal, Sudurpashchim Province, Nepal"
    },
    {
      "lat": 29.290824507755158,
      "lon": 80.95603354530185,
      "geoinfo": {
        "display_name": "Bagar, Dipayal Silgadi-02, Khullek, Dipayal Silgadi, Doti, Sudurpashchim Province, Nepal",
        "road": null,
        "house_number": null,
        "neighbourhood": null,
        "suburb": null,
        "city_district": "Dipayal Silgadi-02",
        "city": "Khullek",
        "state": "Sudurpashchim Province",
        "postcode": null,
        "country": "Nepal",
        "country_code": "np"
      },
      "address": "Dipayal Silgadi-02, Dipayal, Sudurpashchim Province, Nepal"
    },
    {
      "lat": 29.257603530144923,
      "lon": 80.90682873213011,
      "geoinfo": {
        "display_name": "Shree Bhageshower Aadharbhut School, NH03, Shikhar-06, Shikhar, Doti, Sudurpashchim Province, Nepal",
        "road": "NH03",
        "house_number": null,
        "neighbourhood": null,
        "suburb": null,
        "city_district": "Shikhar-06",
        "city": null,
        "state": "Sudurpashchim Province",
        "postcode": null,
        "country": "Nepal",
        "country_code": "np"
      },
      "address": "NH03, Dipayal, 46127 Sudurpashchim Province, Nepal"
    },
    {
      "lat": 29.259757994292777,
      "lon": 80.93431390592185,
      "geoinfo": {
        "display_name": "Patkani, Dipayal Silgadi-03, Dipayal, Dipayal Silgadi, Doti, Sudurpashchim Province, Nepal",
        "road": null,
        "house_number": null,
        "neighbourhood": null,
        "suburb": null,
        "city_district": "Dipayal Silgadi-03",
        "city": "Dipayal",
        "state": "Sudurpashchim Province",
        "postcode": null,
        "country": "Nepal",
        "country_code": "np"
      },
      "address": "835, Patkani, Dipayal Silgadi-03, Dipayal, Dipayal Silgadi, Doti, Sudurpashchim Province, Nepal"
    },
    {
      "lat": 29.248216951381988,
      "lon": 80.92633250872309,
      "geoinfo": {
        "display_name": "NH03, Pipalla Bazar, Dipayal Silgadi-04, Dipayal, Dipayal Silgadi, Doti, Sudurpashchim Province, Nepal",
        "road": "NH03",
        "house_number": null,
        "neighbourhood": null,
        "suburb": null,
        "city_district": "Dipayal Silgadi-04",
        "city": "Dipayal",
        "state": "Sudurpashchim Province",
        "postcode": null,
        "country": "Nepal",
        "country_code": "np"
      },
      "address": "NH03, Pipalla Bazar, Dipayal Silgadi-04, Dipayal, Dipayal Silgadi, Doti, Sudurpashchim Province, Nepal"
    }
  ],
  "updated_at": "2025-10-19T06:24:08.820879+00:00",
  "_kind": "geo_samples"
}