{
  "country_code": "NP",
  "country": "Nepal",
  "city": "Jaleshwar",
  "geonameid": 1283323,
  "target_addresses": 3,
  "samples": [
    {
      "lat": 26.613070559975466,
      "lon": 85.81026619618387,
      "geoinfo": {
        "display_name": "Bishnupur, Jaleshwar-05, Jaleshwar, Jaleswar, Mahottari, Madhesh Province, 45700, Nepal",
        "road": null,
        "house_number": null,
        "neighbourhood": null,
        "suburb": null,
        "city_district": "Jaleshwar-05",
        "city": "Jaleshwar",
        "state": "Madhesh Province",
        "postcode": "45700",
        "country": "Nepal",
        "country_code": "np"
      },
      "address": "Jaleshwar-05, Jaleshwar, Madhesh Province, Nepal"
    },
    {
      "lat": 26.6526269750171,
      "lon": 85.76563760109129,
      "geoinfo": {
        "display_name": "Nainhi Health Post, 18A007R, Nainhi, Jaleshwar-12, Jaleswar, Mahottari, Madhesh Province, 45700, Nepal",
        "road": "18A007R",
        "house_number": null,
        "neighbourhood": null,
        "suburb": null,
        "city_district": "Jaleshwar-12",
        "city": null,
        "state": "Madhesh Province",
        "postcode": "45700",
        "country": "Nepal",
        "country_code": "np"
      },
      "address": "18A007R, Jaleshwar, Madhesh Province, Nepal"
    },
    {
      "lat": 26.68135695597821,
      "lon": 85.77024201435994,
      "geoinfo": {
        "display_name": "Ajamarpatti, Ekdanra-03, Ekdanra, Mahottari, Madhesh Province, 45700, Nepal",
        "road": null,
        "house_number": null,
        "neighbourhood": null,
        "suburb": null,
        "city_district": "Ekdanra-03",
        "city": null,
        "state": "Madhesh Province",
        "postcode": "45700",
        "country": "Nepal",
        "country_code": "np"
      },
      "address": "Ekdanra-03, Jaleshwar, Madhesh Province, Nepal"
    },
    {
      "lat": 26.64626649614335,
      "lon": 85.79880033261628,
      "geoinfo": {
        "display_name": "Jaleshwar-02, Jaleshwar, Jaleswar, Mahottari, Madhesh Province, 45700, Nepal",
        "road": null,
        "house_number": null,
        "neighbourhood": null,
        "suburb": null,
        "city_district": "Jaleshwar-02",
        "city": "Jaleshwar",
        "state": "Madhesh Province",
        "postcode": "45700",
        "country": "Nepal",
        "country_code": "np"
      },
      "address": "Jaleshwar-02, Jaleshwar, Jaleswar, Mahottari, Madhesh Province, 45700, Nepal"
    },
    {
      "lat": 26.679150679876837,
      "lon": 85.79264053255245,
      "geoinfo": {
        "display_name": "KheduBaba Temple, F160, Rani Ratbara, Mahottari-04, Mahottari, Madhesh Province, 45700, Nepal",
        "road": "F160",
        "house_number": null,
        "neighbourhood": null,
        "suburb": null,
        "city_district": "Mahottari-04",
        "city": null,
        "state": "Madhesh Province",
        "postcode": "45700",
        "country": "Nepal",
        "country_code": "np"
      },
      "address": "F160, Jaleshwar, 45700 Madhesh Province, Nepal"
    },
    {
      "lat": 26.637347297535005,
      "lon": 85.80693093862766,
      "geoinfo": {
        "display_name": "Jaleshwar-Suga-Matihani Road, Suga Vawani, Jaleshwar-10, Jaleshwar, Jaleswar, Mahottari, Madhesh Province, 45700, Nepal",
        "road": "Jaleshwar-Suga-Matihani Road",
        "house_number": null,
        "neighbourhood": null,
        "suburb": null,
        "city_district": "Jaleshwar-10",
        "city": "Jaleshwar",
        "state": "Madhesh Province",
        "postcode": "45700",
        "country": "Nepal",
        "country_code": "np"
      },
      "address": "Jaleshwar-Suga-Matihani Road, Suga Vawani, Jaleshwar-10, Jaleshwar, Jaleswar, Mahottari, Madhesh Province, 45700, Nepal"
    }
  ],
  "updated_at": "2025-10-19T04:11:14.490591+00:00",
  "_kind": "geo_samples"
}