{
  "country_code": "NP",
  "country": "Nepal",
  "city": "Ki̇̄rtipur",
  "geonameid": 1283190,
  "target_addresses": 13,
  "samples": [
    {
      "lat": 27.643439457857575,
      "lon": 85.28288816997132,
      "geoinfo": {
        "display_name": "Dakshinkali-01, Dakshinkali Municipality, Kathmandu, Bagamati Province, 13775, Nepal",
        "road": null,
        "house_number": null,
        "neighbourhood": null,
        "suburb": null,
        "city_district": "Dakshinkali-01",
        "city": null,
        "state": "Bagamati Province",
        "postcode": "13775",
        "country": "Nepal",
        "country_code": "np"
      },
      "address": "Dakshinkali-01, Ki̇̄rtipur, Bagamati Province, Nepal"
    },
    {
      "lat": 27.664412967871375,
      "lon": 85.2947057511945,
      "geoinfo": {
        "display_name": "F22, Chobhar, Kirtipur-06, Kirtipur Municipality, Kathmandu, Bagamati Province, 13775, Nepal",
        "road": "F22",
        "house_number": null,
        "neighbourhood": null,
        "suburb": "Chobhar",
        "city_district": "Kirtipur-06",
        "city": null,
        "state": "Bagamati Province",
        "postcode": "13775",
        "country": "Nepal",
        "country_code": "np"
      },
      "address": "F22, Ki̇̄rtipur, Bagamati Province, Nepal"
    },
    {
      "lat": 27.644397930879993,
      "lon": 85.25901377311236,
      "geoinfo": {
        "display_name": "Champa Devi Temple, 27DR005, Dakshinkali-01, Bosan, Dakshinkali Municipality, Kathmandu, Bagamati Province, 13775, Nepal",
        "road": "27DR005",
        "house_number": null,
        "neighbourhood": null,
        "suburb": null,
        "city_district": "Dakshinkali-01",
        "city": "Bosan",
        "state": "Bagamati Province",
        "postcode": "13775",
        "country": "Nepal",
        "country_code": "np"
      },
      "address": "Champa Devi Temple, 27DR005, Dakshinkali-01, Bosan, Dakshinkali Municipality, Kathmandu, Bagamati Province, 13775, Nepal"
    },
    {
      "lat": 27.69903931743095,
      "lon": 85.25088322111027,
      "geoinfo": {
        "display_name": "Chandragiri-12, Naya Naikap, Chandragiri Municipality, Kathmandu, Bagamati Province, 44619, Nepal",
        "road": null,
        "house_number": null,
        "neighbourhood": null,
        "suburb": null,
        "city_district": "Chandragiri-12",
        "city": "Naya Naikap",
        "state": "Bagamati Province",
        "postcode": "44619",
        "country": "Nepal",
        "country_code": "np"
      },
      "address": "Chandragiri-12, Naya Naikap, Chandragiri Municipality, Kathmandu, Bagamati Province, 44619, Nepal"
    },
    {
      "lat": 27.68793612917341,
      "lon": 85.25793766155874,
      "geoinfo": {
        "display_name": "Chandragiri-14, Naya Naikap, Chandragiri Municipality, Kathmandu, Bagamati Province, 44618, Nepal",
        "road": null,
        "house_number": null,
        "neighbourhood": null,
        "suburb": null,
        "city_district": "Chandragiri-14",
        "city": "Naya Naikap",
        "state": "Bagamati Province",
        "postcode": "44618",
        "country": "Nepal",
        "country_code": "np"
      },
      "address": "Chandragiri-14, Naya Naikap, Chandragiri Municipality, Kathmandu, Bagamati Province, 44618, Nepal"
    },
    {
      "lat": 27.63646361403397,
      "lon": 85.28141547456572,
      "geoinfo": {
        "display_name": "27DR004, Dakshinkali-01, Dakshinkali, Dakshinkali Municipality, Kathmandu, Bagamati Province, 13775, Nepal",
        "road": "27DR004",
        "house_number": null,
        "neighbourhood": null,
        "suburb": null,
        "city_district": "Dakshinkali-01",
        "city": "Dakshinkali",
        "state": "Bagamati Province",
        "postcode": "13775",
        "country": "Nepal",
        "country_code": "np"
      },
      "address": "27DR004, Dakshinkali-01, Dakshinkali, Dakshinkali Municipality, Kathmandu, Bagamati Province, 13775, Nepal"
    },
    {
      "lat": 27.6562714423617,
      "lon": 85.27559731291099,
      "geoinfo": {
        "display_name": "Langocha, Taudaha, Kirtipur-06, Kirtipur Municipality, Kathmandu, Bagamati Province, 44618, Nepal",
        "road": null,
        "house_number": null,
        "neighbourhood": "Langocha",
        "suburb": "Taudaha",
        "city_district": "Kirtipur-06",
        "city": null,
        "state": "Bagamati Province",
        "postcode": "44618",
        "country": "Nepal",
        "country_code": "np"
      },
      "address": "Langocha, Taudaha, Kirtipur-06, Kirtipur Municipality, Kathmandu, Bagamati Province, 44618, Nepal"
    },
    {
      "lat": 27.670505121479955,
      "lon": 85.28093766387057,
      "geoinfo": {
        "display_name": "Jhigu tiba  saving credit Co operative Ltd., Shahid Path, Shalik, Kirtipur-08, Kirtipur Municipality, Kathmandu, Bagamati Province, 44618, Nepal",
        "road": "Shahid Path",
        "house_number": null,
        "neighbourhood": "Shalik",
        "suburb": null,
        "city_district": "Kirtipur-08",
        "city": null,
        "state": "Bagamati Province",
        "postcode": "44618",
        "country": "Nepal",
        "country_code": "np"
      },
      "address": "Jhigu tiba  saving credit Co operative Ltd., Shahid Path, Shalik, Kirtipur-08, Kirtipur Municipality, Kathmandu, Bagamati Province, 44618, Nepal"
    },
    {
      "lat": 27.64181612469891,
      "lon": 85.24922424166509,
      "geoinfo": {
        "display_name": "Dakshinkali-09, Dakshinkali Municipality, Kathmandu, Bagamati Province, Nepal",
        "road": null,
        "house_number": null,
        "neighbourhood": null,
        "suburb": null,
        "city_district": "Dakshinkali-09",
        "city": null,
        "state": "Bagamati Province",
        "postcode": null,
        "country": "Nepal",
        "country_code": "np"
      },
      "address": "Dakshinkali-09, Dakshinkali Municipality, Kathmandu, 78494 Bagamati Province, Nepal"
    },
    {
      "lat": 27.66724530111811,
      "lon": 85.2797898235982,
      "geoinfo": {
        "display_name": "Fish farm, Ajaya marga, Samocha, Chobhar, Kirtipur-06, Kirtipur Municipality, Kathmandu, Bagamati Province, 44618, Nepal",
        "road": "Ajaya marga",
        "house_number": null,
        "neighbourhood": "Samocha",
        "suburb": "Chobhar",
        "city_district": "Kirtipur-06",
        "city": null,
        "state": "Bagamati Province",
        "postcode": "44618",
        "country": "Nepal",
        "country_code": "np"
      },
      "address": "Fish farm, Ajaya marga, Samocha, Chobhar, Kirtipur-06, Kirtipur Municipality, Kathmandu, Bagamati Province, 44618, Nepal"
    },
    {
      "lat": 27.65530508962161,
      "lon": 85.31732244494806,
      "geoinfo": {
        "display_name": "Jupiter Marg Paschim, Bishal Chowk, Nakhudol, Lalitpur-14, Lalitpur, Lalitpur Metropolitan City, Lalitpur, Bagamati Province, 44702, Nepal",
        "road": "Jupiter Marg Paschim",
        "house_number": null,
        "neighbourhood": "Bishal Chowk",
        "suburb": "Nakhudol",
        "city_district": "Lalitpur-14",
        "city": "Lalitpur",
        "state": "Bagamati Province",
        "postcode": "44702",
        "country": "Nepal",
        "country_code": "np"
      },
      "address": "Jupiter Marg Paschim, Bishal Chowk, Nakhudol, Lalitpur-14, Lalitpur, Lalitpur Metropolitan City, Lalitpur, Bagamati Province, 44702, Nepal"
    },
    {
      "lat": 27.666135908648453,
      "lon": 85.3128965302606,
      "geoinfo": {
        "display_name": "Subigya's Home, Kathmandu Ringroad, Nakhu Bajar, Ekantakuna, Lalitpur-13, Lalitpur, Lalitpur Metropolitan City, Lalitpur, Bagamati Province, 40000, Nepal",
        "road": "Kathmandu Ringroad",
        "house_number": null,
        "neighbourhood": "Nakhu Bajar",
        "suburb": "Ekantakuna",
        "city_district": "Lalitpur-13",
        "city": "Lalitpur",
        "state": "Bagamati Province",
        "postcode": "40000",
        "country": "Nepal",
        "country_code": "np"
      },
      "address": "Subigya's Home, Kathmandu Ringroad, Nakhu Bajar, Ekantakuna, Lalitpur-13, Lalitpur, Lalitpur Metropolitan City, Lalitpur, Bagamati Province, 40000, Nepal"
    },
    {
      "lat": 27.64062858333697,
      "lon": 85.25933921733379,
      "geoinfo": {
        "display_name": "Rock climbing crag, F121, Dakshinkali-09, Dakshinkali, Dakshinkali Municipality, Kathmandu, Bagamati Province, 13775, Nepal",
        "road": "F121",
        "house_number": null,
        "neighbourhood": null,
        "suburb": null,
        "city_district": "Dakshinkali-09",
        "city": "Dakshinkali",
        "state": "Bagamati Province",
        "postcode": "13775",
        "country": "Nepal",
        "country_code": "np"
      },
      "address": "Rock climbing crag, F121, Dakshinkali-09, Dakshinkali, Dakshinkali Municipality, Kathmandu, Bagamati Province, 13775, Nepal"
    }
  ],
  "updated_at": "2025-10-19T06:01:55.791694+00:00",
  "_kind": "geo_samples"
}