{
  "country_code": "NP",
  "country": "Nepal",
  "city": "Rājbirāj",
  "geonameid": 1282884,
  "target_addresses": 3,
  "samples": [
    {
      "lat": 26.58305314531358,
      "lon": 86.74331905677454,
      "geoinfo": {
        "display_name": "Rupani-05, Rupani, Saptari, Madhesh Province, 54600, Nepal",
        "road": null,
        "house_number": null,
        "neighbourhood": null,
        "suburb": null,
        "city_district": "Rupani-05",
        "city": null,
        "state": "Madhesh Province",
        "postcode": "54600",
        "country": "Nepal",
        "country_code": "np"
      },
      "address": "Rupani-05, Rājbirāj, Madhesh Province, Nepal"
    },
    {
      "lat": 26.504835208166327,
      "lon": 86.74602049180876,
      "geoinfo": {
        "display_name": "Kunauli Road(Way To Rajbiraj), Bishnupur-06, Rajbiraj, Bishnupur, Saptari, Madhesh Province, 54600, Nepal",
        "road": "Kunauli Road(Way To Rajbiraj)",
        "house_number": null,
        "neighbourhood": null,
        "suburb": null,
        "city_district": "Bishnupur-06",
        "city": "Rajbiraj",
        "state": "Madhesh Province",
        "postcode": "54600",
        "country": "Nepal",
        "country_code": "np"
      },
      "address": "Kunauli Road(Way To Rajbiraj), Rājbirāj, Madhesh Province, Nepal"
    },
    {
      "lat": 26.56068910174988,
      "lon": 86.78564808700156,
      "geoinfo": {
        "display_name": "Pakari, Mahadeva-01, Mahadeva, Saptari, Madhesh Province, 54600, Nepal",
        "road": null,
        "house_number": null,
        "neighbourhood": null,
        "suburb": null,
        "city_district": "Mahadeva-01",
        "city": null,
        "state": "Madhesh Province",
        "postcode": "54600",
        "country": "Nepal",
        "country_code": "np"
      },
      "address": "Mahadeva-01, Rājbirāj, Madhesh Province, Nepal"
    },
    {
      "lat": 26.543786146830502,
      "lon": 86.75551948231717,
      "geoinfo": {
        "display_name": "rajdevi chok, Rajbiraj-02, Rajbiraj, Saptari, Madhesh Province, 54600, Nepal",
        "road": null,
        "house_number": null,
        "neighbourhood": "rajdevi chok",
        "suburb": null,
        "city_district": "Rajbiraj-02",
        "city": "Rajbiraj",
        "state": "Madhesh Province",
        "postcode": "54600",
        "country": "Nepal",
        "country_code": "np"
      },
      "address": "929, rajdevi chok, Rājbirāj, 54600 Madhesh Province, Nepal"
    },
    {
      "lat": 26.524507827348735,
      "lon": 86.73804289359984,
      "geoinfo": {
        "display_name": "Bishnupur-06, Rajbiraj, Bishnupur, Saptari, Madhesh Province, 54600, Nepal",
        "road": null,
        "house_number": null,
        "neighbourhood": null,
        "suburb": null,
        "city_district": "Bishnupur-06",
        "city": "Rajbiraj",
        "state": "Madhesh Province",
        "postcode": "54600",
        "country": "Nepal",
        "country_code": "np"
      },
      "address": "Bishnupur-06, Rājbirāj, 54600 Madhesh Province, Nepal"
    },
    {
      "lat": 26.562890743478114,
      "lon": 86.74484089132177,
      "geoinfo": {
        "display_name": "nepal oil corporation, F4, Rajbiraj-09, Rajbiraj, Saptari, Madhesh Province, 54600, Nepal",
        "road": "F4",
        "house_number": null,
        "neighbourhood": null,
        "suburb": null,
        "city_district": "Rajbiraj-09",
        "city": "Rajbiraj",
        "state": "Madhesh Province",
        "postcode": "54600",
        "country": "Nepal",
        "country_code": "np"
      },
      "address": "nepal oil corporation, F4, Rajbiraj-09, Rajbiraj, Saptari, Madhesh Province, 54600, Nepal"
    }
  ],
  "updated_at": "2025-10-19T04:52:28.445773+00:00",
  "_kind": "geo_samples"
}