{
  "country_code": "NP",
  "country": "Nepal",
  "city": "Siraha",
  "geonameid": 1282770,
  "target_addresses": 14,
  "samples": [
    {
      "lat": 26.630605636491687,
      "lon": 86.229394577099,
      "geoinfo": {
        "display_name": "Siraha-19, Siraha, Madhesh Province, Nepal",
        "road": null,
        "house_number": null,
        "neighbourhood": null,
        "suburb": null,
        "city_district": "Siraha-19",
        "city": null,
        "state": "Madhesh Province",
        "postcode": null,
        "country": "Nepal",
        "country_code": "np"
      },
      "address": "Siraha-19, Siraha, Madhesh Province, Nepal"
    },
    {
      "lat": 26.65689140108915,
      "lon": 86.16929067610177,
      "geoinfo": {
        "display_name": "Kamala-04, Kamala, Dhanusha, Madhesh Province, Nepal",
        "road": null,
        "house_number": null,
        "neighbourhood": null,
        "suburb": null,
        "city_district": "Kamala-04",
        "city": null,
        "state": "Madhesh Province",
        "postcode": null,
        "country": "Nepal",
        "country_code": "np"
      },
      "address": "Kamala-04, Siraha, Madhesh Province, Nepal"
    },
    {
      "lat": 26.67806226521698,
      "lon": 86.16789365628073,
      "geoinfo": {
        "display_name": "Kamala-05, Kamala, Dhanusha, Madhesh Province, Nepal",
        "road": null,
        "house_number": null,
        "neighbourhood": null,
        "suburb": null,
        "city_district": "Kamala-05",
        "city": null,
        "state": "Madhesh Province",
        "postcode": null,
        "country": "Nepal",
        "country_code": "np"
      },
      "address": "Kamala-05, Siraha, Madhesh Province, Nepal"
    },
    {
      "lat": 26.68995814786845,
      "lon": 86.20570187742942,
      "geoinfo": {
        "display_name": "Siraha-12, Siraha, Madhesh Province, Nepal",
        "road": null,
        "house_number": null,
        "neighbourhood": null,
        "suburb": null,
        "city_district": "Siraha-12",
        "city": null,
        "state": "Madhesh Province",
        "postcode": null,
        "country": "Nepal",
        "country_code": "np"
      },
      "address": "Siraha-12, Siraha, Madhesh Province, Nepal"
    },
    {
      "lat": 26.62145590224628,
      "lon": 86.1855367453169,
      "geoinfo": {
        "display_name": "Siraha-17, Madar, Siraha, Madhesh Province, Nepal",
        "road": null,
        "house_number": null,
        "neighbourhood": null,
        "suburb": null,
        "city_district": "Siraha-17",
        "city": "Madar",
        "state": "Madhesh Province",
        "postcode": null,
        "country": "Nepal",
        "country_code": "np"
      },
      "address": "Siraha-17, Madar, Siraha, 28522 Madhesh Province, Nepal"
    },
    {
      "lat": 26.626588111792913,
      "lon": 86.2362795594298,
      "geoinfo": {
        "display_name": "Siraha-19, Siraha, Madhesh Province, 56500, Nepal",
        "road": null,
        "house_number": null,
        "neighbourhood": null,
        "suburb": null,
        "city_district": "Siraha-19",
        "city": null,
        "state": "Madhesh Province",
        "postcode": "56500",
        "country": "Nepal",
        "country_code": "np"
      },
      "address": "Siraha-19, Siraha, Madhesh Province, 56500, Nepal"
    },
    {
      "lat": 26.623395522860353,
      "lon": 86.22035077867281,
      "geoinfo": {
        "display_name": "Siraha-18, Siraha, Madhesh Province, Nepal",
        "road": null,
        "house_number": null,
        "neighbourhood": null,
        "suburb": null,
        "city_district": "Siraha-18",
        "city": null,
        "state": "Madhesh Province",
        "postcode": null,
        "country": "Nepal",
        "country_code": "np"
      },
      "address": "Siraha-18, Siraha, 46890 Madhesh Province, Nepal"
    },
    {
      "lat": 26.640264803880083,
      "lon": 86.20651617060086,
      "geoinfo": {
        "display_name": "Khirauna gau Road, Siraha-03, Siraha, Madhesh Province, Nepal",
        "road": "Khirauna gau Road",
        "house_number": null,
        "neighbourhood": null,
        "suburb": null,
        "city_district": "Siraha-03",
        "city": "Siraha",
        "state": "Madhesh Province",
        "postcode": null,
        "country": "Nepal",
        "country_code": "np"
      },
      "address": "528, Khirauna gau Road, Siraha-03, Siraha, Madhesh Province, Nepal"
    },
    {
      "lat": 26.67405047085631,
      "lon": 86.16569127312279,
      "geoinfo": {
        "display_name": "Kamala-05, Kamala, Dhanusha, Madhesh Province, Nepal",
        "road": null,
        "house_number": null,
        "neighbourhood": null,
        "suburb": null,
        "city_district": "Kamala-05",
        "city": null,
        "state": "Madhesh Province",
        "postcode": null,
        "country": "Nepal",
        "country_code": "np"
      },
      "address": "Kamala-05, Siraha, 93663 Madhesh Province, Nepal"
    },
    {
      "lat": 26.611208773753106,
      "lon": 86.19974316623363,
      "geoinfo": {
        "display_name": "Siraha-15, Siraha, Madhesh Province, Nepal",
        "road": null,
        "house_number": null,
        "neighbourhood": null,
        "suburb": null,
        "city_district": "Siraha-15",
        "city": null,
        "state": "Madhesh Province",
        "postcode": null,
        "country": "Nepal",
        "country_code": "np"
      },
      "address": "Siraha-15, Siraha, 80189 Madhesh Province, Nepal"
    },
    {
      "lat": 26.64784424421237,
      "lon": 86.20933905498653,
      "geoinfo": {
        "display_name": "Siraha-02, Siraha, Madhesh Province, Nepal",
        "road": null,
        "house_number": null,
        "neighbourhood": null,
        "suburb": null,
        "city_district": "Siraha-02",
        "city": "Siraha",
        "state": "Madhesh Province",
        "postcode": null,
        "country": "Nepal",
        "country_code": "np"
      },
      "address": "Siraha-02, Siraha, 25907 Madhesh Province, Nepal"
    },
    {
      "lat": 26.68728285138864,
      "lon": 86.17555674928857,
      "geoinfo": {
        "display_name": "Kamala-05, Kamala, Dhanusha, Madhesh Province, Nepal",
        "road": null,
        "house_number": null,
        "neighbourhood": null,
        "suburb": null,
        "city_district": "Kamala-05",
        "city": null,
        "state": "Madhesh Province",
        "postcode": null,
        "country": "Nepal",
        "country_code": "np"
      },
      "address": "Kamala-05, Siraha, 99184 Madhesh Province, Nepal"
    },
    {
      "lat": 26.676772921458902,
      "lon": 86.19614945262367,
      "geoinfo": {
        "display_name": "Siraha-12, Siraha, Madhesh Province, Nepal",
        "road": null,
        "house_number": null,
        "neighbourhood": null,
        "suburb": null,
        "city_district": "Siraha-12",
        "city": "Siraha",
        "state": "Madhesh Province",
        "postcode": null,
        "country": "Nepal",
        "country_code": "np"
      },
      "address": "Siraha-12, Siraha, 68682 Madhesh Province, Nepal"
    },
    {
      "lat": 26.624373698325936,
      "lon": 86.20071656594841,
      "geoinfo": {
        "display_name": "Siraha-14, Siraha, Madhesh Province, Nepal",
        "road": null,
        "house_number": null,
        "neighbourhood": null,
        "suburb": null,
        "city_district": "Siraha-14",
        "city": null,
        "state": "Madhesh Province",
        "postcode": null,
        "country": "Nepal",
        "country_code": "np"
      },
      "address": "Siraha-14, Siraha, 42444 Madhesh Province, Nepal"
    }
  ],
  "updated_at": "2025-10-19T06:01:17.474536+00:00",
  "_kind": "geo_samples"
}