{
  "country_code": "NP",
  "country": "Nepal",
  "city": "Tulsi̇̄pur",
  "geonameid": 1282635,
  "target_addresses": 3,
  "samples": [
    {
      "lat": 28.15279155822334,
      "lon": 82.3217961394756,
      "geoinfo": {
        "display_name": "Kharchawa, Tulsipur Ward No. 7, Tulsipur, Dang, Lumbini Province, 22412, Nepal",
        "road": null,
        "house_number": null,
        "neighbourhood": null,
        "suburb": null,
        "city_district": "Tulsipur Ward No. 7",
        "city": "Tulsipur",
        "state": "Lumbini Province",
        "postcode": "22412",
        "country": "Nepal",
        "country_code": "np"
      },
      "address": "Tulsipur Ward No. 7, Tulsi̇̄pur, Lumbini Province, Nepal"
    },
    {
      "lat": 28.121073820961254,
      "lon": 82.25117794568314,
      "geoinfo": {
        "display_name": "NH09, Balapur, Tulsipur Ward No. 2, Tulsipur, Dang, Lumbini Province, Nepal",
        "road": "NH09",
        "house_number": null,
        "neighbourhood": null,
        "suburb": null,
        "city_district": "Tulsipur Ward No. 2",
        "city": "Tulsipur",
        "state": "Lumbini Province",
        "postcode": null,
        "country": "Nepal",
        "country_code": "np"
      },
      "address": "NH09, Tulsi̇̄pur, Lumbini Province, Nepal"
    },
    {
      "lat": 28.133100399154984,
      "lon": 82.30102546969503,
      "geoinfo": {
        "display_name": "Birendra Chok, Tulsipur Ward No. 5, Tulsipur, Dang, Lumbini Province, 22412, Nepal",
        "road": null,
        "house_number": null,
        "neighbourhood": "Birendra Chok",
        "suburb": null,
        "city_district": "Tulsipur Ward No. 5",
        "city": "Tulsipur",
        "state": "Lumbini Province",
        "postcode": "22412",
        "country": "Nepal",
        "country_code": "np"
      },
      "address": "Birendra Chok, Tulsi̇̄pur, Lumbini Province, Nepal"
    },
    {
      "lat": 28.120999606638378,
      "lon": 82.28344458664365,
      "geoinfo": {
        "display_name": "Dumrigaun, Tulsi Gaushala, Tulsipur Ward No. 6, Tulsipur, Dang, Lumbini Province, 22412, Nepal",
        "road": null,
        "house_number": null,
        "neighbourhood": "Dumrigaun",
        "suburb": null,
        "city_district": "Tulsipur Ward No. 6",
        "city": "Tulsipur",
        "state": "Lumbini Province",
        "postcode": "22412",
        "country": "Nepal",
        "country_code": "np"
      },
      "address": "924, Dumrigaun, Tulsi̇̄pur, 22412 Lumbini Province, Nepal"
    },
    {
      "lat": 28.12505655744926,
      "lon": 82.28309289898337,
      "geoinfo": {
        "display_name": "Amritpur, Tulsipur Ward No. 8, Tulsipur, Dang, Lumbini Province, 22412, Nepal",
        "road": null,
        "house_number": null,
        "neighbourhood": "Amritpur",
        "suburb": null,
        "city_district": "Tulsipur Ward No. 8",
        "city": "Tulsipur",
        "state": "Lumbini Province",
        "postcode": "22412",
        "country": "Nepal",
        "country_code": "np"
      },
      "address": "764, Amritpur, Tulsi̇̄pur, 22412 Lumbini Province, Nepal"
    },
    {
      "lat": 28.116380049256975,
      "lon": 82.26949670580646,
      "geoinfo": {
        "display_name": "Amritpur, Tulsipur Ward No. 8, Tikari, Tulsipur, Dang, Lumbini Province, 22412, Nepal",
        "road": null,
        "house_number": null,
        "neighbourhood": "Amritpur",
        "suburb": null,
        "city_district": "Tulsipur Ward No. 8",
        "city": "Tikari",
        "state": "Lumbini Province",
        "postcode": "22412",
        "country": "Nepal",
        "country_code": "np"
      },
      "address": "750, Amritpur, Tulsi̇̄pur, 22412 Lumbini Province, Nepal"
    }
  ],
  "updated_at": "2025-10-19T06:23:36.134985+00:00",
  "_kind": "geo_samples"
}