{
  "country_code": "NP",
  "country": "Nepal",
  "city": "Ṭikāpur",
  "geonameid": 1282666,
  "target_addresses": 3,
  "samples": [
    {
      "lat": 28.54091906986025,
      "lon": 81.14189656840858,
      "geoinfo": {
        "display_name": "Tikapur-01, Lyakpur kamaiya basti jamara wari, Tikapur, Kailali, Sudurpashchim Province, Nepal",
        "road": null,
        "house_number": null,
        "neighbourhood": null,
        "suburb": null,
        "city_district": "Tikapur-01",
        "city": "Lyakpur kamaiya basti jamara wari",
        "state": "Sudurpashchim Province",
        "postcode": null,
        "country": "Nepal",
        "country_code": "np"
      },
      "address": "Tikapur-01, Ṭikāpur, Sudurpashchim Province, Nepal"
    },
    {
      "lat": 28.50799635743059,
      "lon": 81.16200314938645,
      "geoinfo": {
        "display_name": "Tikapur-02, Tikapur, Kailali, Sudurpashchim Province, Nepal",
        "road": null,
        "house_number": null,
        "neighbourhood": null,
        "suburb": null,
        "city_district": "Tikapur-02",
        "city": null,
        "state": "Sudurpashchim Province",
        "postcode": null,
        "country": "Nepal",
        "country_code": "np"
      },
      "address": "Tikapur-02, Ṭikāpur, Sudurpashchim Province, Nepal"
    },
    {
      "lat": 28.554273706207184,
      "lon": 81.11896062292439,
      "geoinfo": {
        "display_name": "Janaki-03, Durgauli Chowk, Janaki, Kailali, Sudurpashchim Province, 10902, Nepal",
        "road": null,
        "house_number": null,
        "neighbourhood": null,
        "suburb": null,
        "city_district": "Janaki-03",
        "city": "Durgauli Chowk",
        "state": "Sudurpashchim Province",
        "postcode": "10902",
        "country": "Nepal",
        "country_code": "np"
      },
      "address": "Janaki-03, Ṭikāpur, Sudurpashchim Province, Nepal"
    },
    {
      "lat": 28.517367031850505,
      "lon": 81.10457358717477,
      "geoinfo": {
        "display_name": "Tikapur-01, Tikapur, Kailali, Sudurpashchim Province, 10902, Nepal",
        "road": null,
        "house_number": null,
        "neighbourhood": null,
        "suburb": null,
        "city_district": "Tikapur-01",
        "city": "Tikapur",
        "state": "Sudurpashchim Province",
        "postcode": "10902",
        "country": "Nepal",
        "country_code": "np"
      },
      "address": "Tikapur-01, Ṭikāpur, 10902 Sudurpashchim Province, Nepal"
    },
    {
      "lat": 28.487593221129636,
      "lon": 81.11461095401448,
      "geoinfo": {
        "display_name": "Nuklipur, Tikapur-05, Karmi Danda, Tikapur, Kailali, Sudurpashchim Province, Nepal",
        "road": null,
        "house_number": null,
        "neighbourhood": null,
        "suburb": null,
        "city_district": "Tikapur-05",
        "city": "Karmi Danda",
        "state": "Sudurpashchim Province",
        "postcode": null,
        "country": "Nepal",
        "country_code": "np"
      },
      "address": "Tikapur-05, Ṭikāpur, 96456 Sudurpashchim Province, Nepal"
    },
    {
      "lat": 28.505820472418154,
      "lon": 81.10541237144155,
      "geoinfo": {
        "display_name": "Tikapur-02, Tikapur, Kailali, Sudurpashchim Province, Nepal",
        "road": null,
        "house_number": null,
        "neighbourhood": null,
        "suburb": null,
        "city_district": "Tikapur-02",
        "city": "Tikapur",
        "state": "Sudurpashchim Province",
        "postcode": null,
        "country": "Nepal",
        "country_code": "np"
      },
      "address": "Tikapur-02, Ṭikāpur, 03756 Sudurpashchim Province, Nepal"
    }
  ],
  "updated_at": "2025-10-19T06:19:36.905293+00:00",
  "_kind": "geo_samples"
}