{
  "country_code": "TW",
  "country": "Taiwan",
  "city": "Chang-hua",
  "geonameid": 1679136,
  "target_addresses": 2,
  "samples": [
    {
      "lat": 24.07400885475515,
      "lon": 120.57984198251727,
      "geoinfo": {
        "display_name": "安溪東路, Wailiao, Anxi Village, Changhua City, Changhua County, 500047, Taiwan",
        "road": "安溪東路",
        "house_number": null,
        "neighbourhood": null,
        "suburb": null,
        "city_district": "Anxi Village",
        "city": "Changhua City",
        "state": null,
        "postcode": "500047",
        "country": "Taiwan",
        "country_code": "tw"
      },
      "address": "安溪東路, Chang-hua, Taiwan"
    },
    {
      "lat": 24.0556332672449,
      "lon": 120.53439240898967,
      "geoinfo": {
        "display_name": "100之9號, Section 1, Zhongshan Road, Dabu, Nanxing Village, Changhua City, Changhua County, 50072, Taiwan",
        "road": "Section 1, Zhongshan Road",
        "house_number": "100之9號",
        "neighbourhood": null,
        "suburb": null,
        "city_district": "Nanxing Village",
        "city": "Changhua City",
        "state": null,
        "postcode": "50072",
        "country": "Taiwan",
        "country_code": "tw"
      },
      "address": "100之9號 Section 1, Zhongshan Road, Chang-hua, Taiwan"
    },
    {
      "lat": 24.05728018040278,
      "lon": 120.54323404815386,
      "geoinfo": {
        "display_name": "48號, 大埔路255巷, Dairenkeng, Yanhe Village, Changhua City, Changhua County, 50072, Taiwan",
        "road": "大埔路255巷",
        "house_number": "48號",
        "neighbourhood": null,
        "suburb": null,
        "city_district": "Yanhe Village",
        "city": "Changhua City",
        "state": null,
        "postcode": "50072",
        "country": "Taiwan",
        "country_code": "tw"
      },
      "address": "48號, 大埔路255巷, Dairenkeng, Yanhe Village, Changhua City, Changhua County, 50072, Taiwan"
    },
    {
      "lat": 24.04907278736828,
      "lon": 120.54051125981368,
      "geoinfo": {
        "display_name": "215號, 宮口巷, Liaocuo, Baisha Village, Huatan Township, Changhua County, 771, Taiwan",
        "road": "宮口巷",
        "house_number": "215號",
        "neighbourhood": null,
        "suburb": null,
        "city_district": "Baisha Village",
        "city": "Huatan Township",
        "state": null,
        "postcode": "771",
        "country": "Taiwan",
        "country_code": "tw"
      },
      "address": "215號, 宮口巷, Liaocuo, Baisha Village, Huatan Township, Changhua County, 771, Taiwan"
    }
  ],
  "updated_at": "2025-10-19T07:18:14.894800+00:00",
  "_kind": "geo_samples"
}