{
  "country_code": "TW",
  "country": "Taiwan",
  "city": "Chiayi City",
  "geonameid": 1678836,
  "target_addresses": 2,
  "samples": [
    {
      "lat": 23.489897519795036,
      "lon": 120.40266055065563,
      "geoinfo": {
        "display_name": "Beigang Road, Daxi Village, West District, 竹子腳, Chiayi, 600, Taiwan",
        "road": "Beigang Road",
        "house_number": null,
        "neighbourhood": "Daxi Village",
        "suburb": "West District",
        "city_district": null,
        "city": "Chiayi",
        "state": null,
        "postcode": "600",
        "country": "Taiwan",
        "country_code": "tw"
      },
      "address": "Beigang Road, Chiayi City, Taiwan"
    },
    {
      "lat": 23.476417325007557,
      "lon": 120.40877464771329,
      "geoinfo": {
        "display_name": "大溪路, Daxi Village, West District, Daxicuo, Chiayi, 600, Taiwan",
        "road": "大溪路",
        "house_number": null,
        "neighbourhood": "Daxi Village",
        "suburb": "West District",
        "city_district": null,
        "city": "Chiayi",
        "state": null,
        "postcode": "600",
        "country": "Taiwan",
        "country_code": "tw"
      },
      "address": "738, 大溪路, Daxi Village, West District, Daxicuo, Chiayi, 600, Taiwan"
    },
    {
      "lat": 23.452514604169227,
      "lon": 120.4275413944355,
      "geoinfo": {
        "display_name": "1之222號, 崎子頭, Kuanshi Village, Shuishang Township, Chiayi County, 60090, Taiwan",
        "road": null,
        "house_number": "1之222號",
        "neighbourhood": null,
        "suburb": null,
        "city_district": "Kuanshi Village",
        "city": "Shuishang Township",
        "state": null,
        "postcode": "60090",
        "country": "Taiwan",
        "country_code": "tw"
      },
      "address": "1之222號, 崎子頭, Kuanshi Village, Shuishang Township, Chiayi County, 60090, Taiwan"
    }
  ],
  "updated_at": "2025-10-19T07:18:07.340995+00:00",
  "_kind": "geo_samples"
}