{
  "country_code": "TW",
  "country": "Taiwan",
  "city": "Citong",
  "geonameid": 1666323,
  "target_addresses": 2,
  "samples": [
    {
      "lat": 23.759012835815852,
      "lon": 120.50073078250348,
      "geoinfo": {
        "display_name": "16, Beiping Road, Annan, Citong Village, Citong Township, Yunlin County, 64743, Taiwan",
        "road": "Beiping Road",
        "house_number": "16",
        "neighbourhood": null,
        "suburb": null,
        "city_district": "Citong Village",
        "city": "Citong Township",
        "state": null,
        "postcode": "64743",
        "country": "Taiwan",
        "country_code": "tw"
      },
      "address": "16 Beiping Road, Citong, Taiwan"
    },
    {
      "lat": 23.747192207857285,
      "lon": 120.52235018667947,
      "geoinfo": {
        "display_name": "120之3, 油車, Puwei Village, Citong Township, Yunlin County, 64743, Taiwan",
        "road": null,
        "house_number": "120之3",
        "neighbourhood": null,
        "suburb": null,
        "city_district": "Puwei Village",
        "city": "Citong Township",
        "state": null,
        "postcode": "64743",
        "country": "Taiwan",
        "country_code": "tw"
      },
      "address": "Puwei Village, Citong, Taiwan"
    },
    {
      "lat": 23.75514704815034,
      "lon": 120.48919202994159,
      "geoinfo": {
        "display_name": "51, Gancuo Village, Gancuo, Citong Township, Yunlin County, 64743, Taiwan",
        "road": null,
        "house_number": "51",
        "neighbourhood": null,
        "suburb": null,
        "city_district": "Gancuo Village",
        "city": "Citong Township",
        "state": null,
        "postcode": "64743",
        "country": "Taiwan",
        "country_code": "tw"
      },
      "address": "51, Gancuo Village, Gancuo, Citong Township, Yunlin County, 64743, Taiwan"
    },
    {
      "lat": 23.774205973561752,
      "lon": 120.4718821057418,
      "geoinfo": {
        "display_name": "西螺交流道, Dingpitou, Bitou Village, Xiluo Township, Yunlin County, 64882, Taiwan",
        "road": "西螺交流道",
        "house_number": null,
        "neighbourhood": null,
        "suburb": null,
        "city_district": "Bitou Village",
        "city": "Xiluo Township",
        "state": null,
        "postcode": "64882",
        "country": "Taiwan",
        "country_code": "tw"
      },
      "address": "591, 西螺交流道, Dingpitou, Bitou Village, Xiluo Township, Yunlin County, 64882, Taiwan"
    }
  ],
  "updated_at": "2025-10-19T05:07:41.679620+00:00",
  "_kind": "geo_samples"
}