{
  "country_code": "TW",
  "country": "Taiwan",
  "city": "Douliu",
  "geonameid": 1665196,
  "target_addresses": 2,
  "samples": [
    {
      "lat": 23.695401021576735,
      "lon": 120.55758179896033,
      "geoinfo": {
        "display_name": "64, 林頭, Lintou Village, Douliu City, Yunlin County, 640004, Taiwan",
        "road": null,
        "house_number": "64",
        "neighbourhood": null,
        "suburb": null,
        "city_district": "Lintou Village",
        "city": "Douliu City",
        "state": null,
        "postcode": "640004",
        "country": "Taiwan",
        "country_code": "tw"
      },
      "address": "Lintou Village, Douliu, Taiwan"
    },
    {
      "lat": 23.70185358812489,
      "lon": 120.49690916786862,
      "geoinfo": {
        "display_name": "110, 長平路, Dabeishi, Changping Village, Douliu City, Yunlin County, 64054, Taiwan",
        "road": "長平路",
        "house_number": "110",
        "neighbourhood": null,
        "suburb": null,
        "city_district": "Changping Village",
        "city": "Douliu City",
        "state": null,
        "postcode": "64054",
        "country": "Taiwan",
        "country_code": "tw"
      },
      "address": "110 長平路, Douliu, Taiwan"
    },
    {
      "lat": 23.665303143677722,
      "lon": 120.54705575520057,
      "geoinfo": {
        "display_name": "雲193, Xinpou, Tianxin Village, Gukeng Township, Yunlin County, 64650, Taiwan",
        "road": "雲193",
        "house_number": null,
        "neighbourhood": null,
        "suburb": null,
        "city_district": "Tianxin Village",
        "city": "Gukeng Township",
        "state": null,
        "postcode": "64650",
        "country": "Taiwan",
        "country_code": "tw"
      },
      "address": "雲193, Xinpou, Tianxin Village, Gukeng Township, Yunlin County, 64650, Taiwan"
    },
    {
      "lat": 23.738705418756066,
      "lon": 120.51972388982847,
      "geoinfo": {
        "display_name": "25之15, Damei, Damei Village, Citong Township, Yunlin County, 64743, Taiwan",
        "road": null,
        "house_number": "25之15",
        "neighbourhood": null,
        "suburb": null,
        "city_district": "Damei Village",
        "city": "Citong Township",
        "state": null,
        "postcode": "64743",
        "country": "Taiwan",
        "country_code": "tw"
      },
      "address": "25之15, Damei, Damei Village, Citong Township, Yunlin County, 64743, Taiwan"
    }
  ],
  "updated_at": "2025-10-19T07:17:04.103504+00:00",
  "_kind": "geo_samples"
}