{
  "country_code": "TW",
  "country": "Taiwan",
  "city": "Kaohsiung",
  "geonameid": 1673820,
  "target_addresses": 5,
  "samples": [
    {
      "lat": 22.635280659936157,
      "lon": 120.31475773287245,
      "geoinfo": {
        "display_name": "3號, 尚文街20巷, Shunchang Village, Xinxing District, Kaohsiung, 800, Taiwan",
        "road": "尚文街20巷",
        "house_number": "3號",
        "neighbourhood": "Shunchang Village",
        "suburb": "Xinxing District",
        "city_district": null,
        "city": "Kaohsiung",
        "state": null,
        "postcode": "800",
        "country": "Taiwan",
        "country_code": "tw"
      },
      "address": "3號 尚文街20巷, Kaohsiung, Taiwan"
    },
    {
      "lat": 22.59572711577489,
      "lon": 120.31540752991188,
      "geoinfo": {
        "display_name": "Kaisyuan 4th Road, Xingbang Village, Qianzhen District, 前鎮, Kaohsiung, 806, Taiwan",
        "road": "Kaisyuan 4th Road",
        "house_number": null,
        "neighbourhood": "Xingbang Village",
        "suburb": "Qianzhen District",
        "city_district": null,
        "city": "Kaohsiung",
        "state": null,
        "postcode": "806",
        "country": "Taiwan",
        "country_code": "tw"
      },
      "address": "Kaisyuan 4th Road, Kaohsiung, Taiwan"
    },
    {
      "lat": 22.654824365759154,
      "lon": 120.32561379814862,
      "geoinfo": {
        "display_name": "157號, Benhe Street, Benhe Village, Sanmin District, Kaohsiung, 807, Taiwan",
        "road": "Benhe Street",
        "house_number": "157號",
        "neighbourhood": "Benhe Village",
        "suburb": "Sanmin District",
        "city_district": null,
        "city": "Kaohsiung",
        "state": null,
        "postcode": "807",
        "country": "Taiwan",
        "country_code": "tw"
      },
      "address": "157號, Benhe Street, Benhe Village, Sanmin District, Kaohsiung, 807, Taiwan"
    },
    {
      "lat": 22.644557671493846,
      "lon": 120.33616376270301,
      "geoinfo": {
        "display_name": "Kaohsiung Municipal Yangming Elementary School, 52, Yide Road, Baoyu Village, Sanmin District, Kaohsiung, 80777, Taiwan",
        "road": "Yide Road",
        "house_number": "52",
        "neighbourhood": "Baoyu Village",
        "suburb": "Sanmin District",
        "city_district": null,
        "city": "Kaohsiung",
        "state": null,
        "postcode": "80777",
        "country": "Taiwan",
        "country_code": "tw"
      },
      "address": "Kaohsiung Municipal Yangming Elementary School, 52, Yide Road, Baoyu Village, Sanmin District, Kaohsiung, 80777, Taiwan"
    },
    {
      "lat": 22.628478540384773,
      "lon": 120.27076704280172,
      "geoinfo": {
        "display_name": "National Sun Yat-sen University, 70, Lianhai Road, Taoyuan Village, Gushan District, Kaohsiung, 804, Taiwan",
        "road": "Lianhai Road",
        "house_number": "70",
        "neighbourhood": "Taoyuan Village",
        "suburb": "Gushan District",
        "city_district": null,
        "city": "Kaohsiung",
        "state": null,
        "postcode": "804",
        "country": "Taiwan",
        "country_code": "tw"
      },
      "address": "National Sun Yat-sen University, 70, Lianhai Road, Taoyuan Village, Gushan District, Kaohsiung, 804, Taiwan"
    },
    {
      "lat": 22.622493283737928,
      "lon": 120.35418041043636,
      "geoinfo": {
        "display_name": "鳳凌廣場, Xingzhong Village, Fengshan District, Kaohsiung, 830, Taiwan",
        "road": "鳳凌廣場",
        "house_number": null,
        "neighbourhood": "Xingzhong Village",
        "suburb": "Fengshan District",
        "city_district": null,
        "city": "Kaohsiung",
        "state": null,
        "postcode": "830",
        "country": "Taiwan",
        "country_code": "tw"
      },
      "address": "330, 鳳凌廣場, Xingzhong Village, Fengshan District, Kaohsiung, 830, Taiwan"
    }
  ],
  "updated_at": "2025-10-19T06:30:54.773705+00:00",
  "_kind": "geo_samples"
}