{
  "country_code": "TW",
  "country": "Taiwan",
  "city": "Linnei",
  "geonameid": 1672869,
  "target_addresses": 2,
  "samples": [
    {
      "lat": 23.75992282338332,
      "lon": 120.61909501602752,
      "geoinfo": {
        "display_name": "林內國小, 111, Zhongzheng Road, Xinxing, Linnan Village, Linnei Township, Yunlin County, 643, Taiwan",
        "road": "Zhongzheng Road",
        "house_number": "111",
        "neighbourhood": null,
        "suburb": null,
        "city_district": "Linnan Village",
        "city": "Linnei Township",
        "state": null,
        "postcode": "643",
        "country": "Taiwan",
        "country_code": "tw"
      },
      "address": "111 Zhongzheng Road, Linnei, Taiwan"
    },
    {
      "lat": 23.758884733473874,
      "lon": 120.6046066130637,
      "geoinfo": {
        "display_name": "Formosa Freeway, Chang'an, Linzhong Village, Linnei Township, Yunlin County, 643, Taiwan",
        "road": "Formosa Freeway",
        "house_number": null,
        "neighbourhood": null,
        "suburb": null,
        "city_district": "Linzhong Village",
        "city": "Linnei Township",
        "state": null,
        "postcode": "643",
        "country": "Taiwan",
        "country_code": "tw"
      },
      "address": "Formosa Freeway, Linnei, Taiwan"
    },
    {
      "lat": 23.76707446495526,
      "lon": 120.59175035343638,
      "geoinfo": {
        "display_name": "3, 塩讚, Wutu Village, Linnei Township, Yunlin County, 643, Taiwan",
        "road": null,
        "house_number": "3",
        "neighbourhood": null,
        "suburb": null,
        "city_district": "Wutu Village",
        "city": "Linnei Township",
        "state": null,
        "postcode": "643",
        "country": "Taiwan",
        "country_code": "tw"
      },
      "address": "3, 塩讚, Wutu Village, Linnei Township, Yunlin County, 643, Taiwan"
    },
    {
      "lat": 23.784411804297992,
      "lon": 120.66030568952249,
      "geoinfo": {
        "display_name": "Dump Truck Makeshift Road, Xiangyuanjiao, Xiaping Village, Zhushan Township, Nantou County, 557002, Taiwan",
        "road": "Dump Truck Makeshift Road",
        "house_number": null,
        "neighbourhood": null,
        "suburb": null,
        "city_district": "Xiaping Village",
        "city": "Zhushan Township",
        "state": null,
        "postcode": "557002",
        "country": "Taiwan",
        "country_code": "tw"
      },
      "address": "745, Dump Truck Makeshift Road, Xiangyuanjiao, Xiaping Village, Zhushan Township, Nantou County, 557002, Taiwan"
    }
  ],
  "updated_at": "2025-10-19T07:22:14.572305+00:00",
  "_kind": "geo_samples"
}