{
  "country_code": "TW",
  "country": "Taiwan",
  "city": "Taichung",
  "geonameid": 1668399,
  "target_addresses": 2,
  "samples": [
    {
      "lat": 24.180498119403097,
      "lon": 120.66253559334707,
      "geoinfo": {
        "display_name": "Shunping 3rd Street, 水湳經貿園區, Beitun District, 水湳經貿園區, Taichung, 406, Taiwan",
        "road": "Shunping 3rd Street",
        "house_number": null,
        "neighbourhood": null,
        "suburb": "Beitun District",
        "city_district": null,
        "city": "Taichung",
        "state": null,
        "postcode": "406",
        "country": "Taiwan",
        "country_code": "tw"
      },
      "address": "Shunping 3rd Street, Taichung, Taiwan"
    },
    {
      "lat": 24.13615764710649,
      "lon": 120.64478040760524,
      "geoinfo": {
        "display_name": "394號, Wenxin S. 2nd Road, Xiangxin Village, Nantun District, Tianxin, Taichung, 408009, Taiwan",
        "road": "Wenxin S. 2nd Road",
        "house_number": "394號",
        "neighbourhood": "Xiangxin Village",
        "suburb": "Nantun District",
        "city_district": null,
        "city": "Taichung",
        "state": null,
        "postcode": "408009",
        "country": "Taiwan",
        "country_code": "tw"
      },
      "address": "394號 Wenxin S. 2nd Road, Taichung, Taiwan"
    },
    {
      "lat": 24.10364062059929,
      "lon": 120.6889161235195,
      "geoinfo": {
        "display_name": "238號, Section 2, Zhongxing Road, Zhongxin Village, Dali District, Tianliao, Taichung, 412041, Taiwan",
        "road": "Section 2, Zhongxing Road",
        "house_number": "238號",
        "neighbourhood": "Zhongxin Village",
        "suburb": "Dali District",
        "city_district": null,
        "city": "Taichung",
        "state": null,
        "postcode": "412041",
        "country": "Taiwan",
        "country_code": "tw"
      },
      "address": "238號, Section 2, Zhongxing Road, Zhongxin Village, Dali District, Tianliao, Taichung, 412041, Taiwan"
    },
    {
      "lat": 24.14525088939518,
      "lon": 120.64557370964432,
      "geoinfo": {
        "display_name": "Wenxin Road Section 1, Tianxin Village, Nantun District, Tianxin, Taichung, 408386, Taiwan",
        "road": "Wenxin Road Section 1",
        "house_number": null,
        "neighbourhood": "Tianxin Village",
        "suburb": "Nantun District",
        "city_district": null,
        "city": "Taichung",
        "state": null,
        "postcode": "408386",
        "country": "Taiwan",
        "country_code": "tw"
      },
      "address": "Wenxin Road Section 1, Tianxin Village, Nantun District, Tianxin, Taichung, 408386, Taiwan"
    }
  ],
  "updated_at": "2025-10-19T07:21:49.867611+00:00",
  "_kind": "geo_samples"
}