{
  "country_code": "TW",
  "country": "Taiwan",
  "city": "Tainan",
  "geonameid": 1668355,
  "target_addresses": 2,
  "samples": [
    {
      "lat": 22.993448893777497,
      "lon": 120.25499049027131,
      "geoinfo": {
        "display_name": "88號, 永大路一段5巷, 鹽地仔, Kunshan Village, Yongkang District, Tainan, 710, Taiwan",
        "road": "永大路一段5巷",
        "house_number": "88號",
        "neighbourhood": null,
        "suburb": "Kunshan Village",
        "city_district": null,
        "city": "Tainan",
        "state": null,
        "postcode": "710",
        "country": "Taiwan",
        "country_code": "tw"
      },
      "address": "88號 永大路一段5巷, Tainan, Taiwan"
    },
    {
      "lat": 22.991237430419684,
      "lon": 120.18147755314162,
      "geoinfo": {
        "display_name": "47號, 永華三街, Jianping Village, Anping District, Tainan, 708, Taiwan",
        "road": "永華三街",
        "house_number": "47號",
        "neighbourhood": "Jianping Village",
        "suburb": "Anping District",
        "city_district": null,
        "city": "Tainan",
        "state": null,
        "postcode": "708",
        "country": "Taiwan",
        "country_code": "tw"
      },
      "address": "47號 永華三街, Tainan, Taiwan"
    },
    {
      "lat": 23.02854151854092,
      "lon": 120.20007765486703,
      "geoinfo": {
        "display_name": "海佃國小, 56號, Jun’an Road Section 5, Xidong Village, Annan District, Tainan, 709, Taiwan",
        "road": "Jun’an Road Section 5",
        "house_number": "56號",
        "neighbourhood": null,
        "suburb": "Xidong Village",
        "city_district": null,
        "city": "Tainan",
        "state": null,
        "postcode": "709",
        "country": "Taiwan",
        "country_code": "tw"
      },
      "address": "海佃國小, 56號, Jun’an Road Section 5, Xidong Village, Annan District, Tainan, 709, Taiwan"
    },
    {
      "lat": 22.977290827659616,
      "lon": 120.20463052180425,
      "geoinfo": {
        "display_name": "13號, Nanmen Road, Zhuxi Village, South District, Tainan, 702, Taiwan",
        "road": "Nanmen Road",
        "house_number": "13號",
        "neighbourhood": "Zhuxi Village",
        "suburb": "South District",
        "city_district": null,
        "city": "Tainan",
        "state": null,
        "postcode": "702",
        "country": "Taiwan",
        "country_code": "tw"
      },
      "address": "13號, Nanmen Road, Zhuxi Village, South District, Tainan, 702, Taiwan"
    }
  ],
  "updated_at": "2025-10-19T07:21:11.466255+00:00",
  "_kind": "geo_samples"
}