{
  "country_code": "TW",
  "country": "Taiwan",
  "city": "Taoyuan",
  "geonameid": 1667905,
  "target_addresses": 2,
  "samples": [
    {
      "lat": 24.99709996991221,
      "lon": 121.2844524842445,
      "geoinfo": {
        "display_name": "111號, 國際路二段219巷, Wenzhong Village, Taoyuan District, Taoyuan City, 330, Taiwan",
        "road": "國際路二段219巷",
        "house_number": "111號",
        "neighbourhood": null,
        "suburb": "Wenzhong Village",
        "city_district": null,
        "city": "Taoyuan City",
        "state": null,
        "postcode": "330",
        "country": "Taiwan",
        "country_code": "tw"
      },
      "address": "111號 國際路二段219巷, Taoyuan, Taiwan"
    },
    {
      "lat": 25.026503696010497,
      "lon": 121.33593843211293,
      "geoinfo": {
        "display_name": "楓樹坑步道, Fengweikeng, Fengshu Village, Guishan District, Taoyuan City, 333, Taiwan",
        "road": "楓樹坑步道",
        "house_number": null,
        "neighbourhood": null,
        "suburb": "Fengshu Village",
        "city_district": null,
        "city": "Taoyuan City",
        "state": null,
        "postcode": "333",
        "country": "Taiwan",
        "country_code": "tw"
      },
      "address": "楓樹坑步道, Taoyuan, Taiwan"
    },
    {
      "lat": 24.9951291559175,
      "lon": 121.34871686222701,
      "geoinfo": {
        "display_name": "萬壽路二段539巷, Xiashe, Datong Village, Guishan District, Taoyuan City, 333, Taiwan",
        "road": "萬壽路二段539巷",
        "house_number": null,
        "neighbourhood": null,
        "suburb": "Datong Village",
        "city_district": null,
        "city": "Taoyuan City",
        "state": null,
        "postcode": "333",
        "country": "Taiwan",
        "country_code": "tw"
      },
      "address": "萬壽路二段539巷, Xiashe, Datong Village, Guishan District, Taoyuan City, 333, Taiwan"
    },
    {
      "lat": 24.9631492475859,
      "lon": 121.33919618153753,
      "geoinfo": {
        "display_name": "181號, 西湖街, Zhonghu Village, Yingge District, 鳳鳴, New Taipei, 239, Taiwan",
        "road": "西湖街",
        "house_number": "181號",
        "neighbourhood": "Zhonghu Village",
        "suburb": "Yingge District",
        "city_district": null,
        "city": "New Taipei",
        "state": null,
        "postcode": "239",
        "country": "Taiwan",
        "country_code": "tw"
      },
      "address": "181號, 西湖街, Zhonghu Village, Yingge District, 鳳鳴, New Taipei, 239, Taiwan"
    }
  ],
  "updated_at": "2025-10-19T07:20:56.673816+00:00",
  "_kind": "geo_samples"
}