{
  "country_code": "TW",
  "country": "Taiwan",
  "city": "Toufen",
  "geonameid": 1667027,
  "target_addresses": 2,
  "samples": [
    {
      "lat": 24.652663456066456,
      "lon": 120.89825403215463,
      "geoinfo": {
        "display_name": "廣興路, Luchukeng, Guangxing Village, Toufen, Miaoli County, 361030, Taiwan",
        "road": "廣興路",
        "house_number": null,
        "neighbourhood": null,
        "suburb": null,
        "city_district": "Guangxing Village",
        "city": "Toufen",
        "state": null,
        "postcode": "361030",
        "country": "Taiwan",
        "country_code": "tw"
      },
      "address": "廣興路, Toufen, Taiwan"
    },
    {
      "lat": 24.66198747738555,
      "lon": 120.88141915591508,
      "geoinfo": {
        "display_name": "119號, Jianfeng Road, Luchukeng, Guangxing Village, Toufen, Miaoli County, 350, Taiwan",
        "road": "Jianfeng Road",
        "house_number": "119號",
        "neighbourhood": null,
        "suburb": null,
        "city_district": "Guangxing Village",
        "city": "Toufen",
        "state": null,
        "postcode": "350",
        "country": "Taiwan",
        "country_code": "tw"
      },
      "address": "119號 Jianfeng Road, Toufen, Taiwan"
    },
    {
      "lat": 24.689945667093717,
      "lon": 120.95041113661306,
      "geoinfo": {
        "display_name": "Laoqi, Liudong Village, Toufen, Miaoli County, 35152, Taiwan",
        "road": null,
        "house_number": null,
        "neighbourhood": null,
        "suburb": null,
        "city_district": "Liudong Village",
        "city": "Toufen",
        "state": null,
        "postcode": "35152",
        "country": "Taiwan",
        "country_code": "tw"
      },
      "address": "135, Laoqi, Liudong Village, Toufen, Miaoli County, 35152, Taiwan"
    },
    {
      "lat": 24.695558704376086,
      "lon": 120.87275865320427,
      "geoinfo": {
        "display_name": "138號, 公教路, Qiaozitou, Shengfu Village, Zhunan Town, Miaoli County, 350, Taiwan",
        "road": "公教路",
        "house_number": "138號",
        "neighbourhood": null,
        "suburb": null,
        "city_district": "Shengfu Village",
        "city": "Zhunan Town",
        "state": null,
        "postcode": "350",
        "country": "Taiwan",
        "country_code": "tw"
      },
      "address": "138號, 公教路, Qiaozitou, Shengfu Village, Zhunan Town, Miaoli County, 350, Taiwan"
    }
  ],
  "updated_at": "2025-10-19T10:31:10.309778+00:00",
  "_kind": "geo_samples"
}