{
  "country_code": "TW",
  "country": "Taiwan",
  "city": "Yongjing",
  "geonameid": 1665259,
  "target_addresses": 2,
  "samples": [
    {
      "lat": 23.935997428393264,
      "lon": 120.51929815614359,
      "geoinfo": {
        "display_name": "33之9號, Sinan Road, Nanqi Village, Yongjing Township, Changhua County, 513, Taiwan",
        "road": "Sinan Road",
        "house_number": "33之9號",
        "neighbourhood": null,
        "suburb": null,
        "city_district": "Nanqi Village",
        "city": "Yongjing Township",
        "state": null,
        "postcode": "513",
        "country": "Taiwan",
        "country_code": "tw"
      },
      "address": "33之9號 Sinan Road, Yongjing, Taiwan"
    },
    {
      "lat": 23.928109145398533,
      "lon": 120.5339611812916,
      "geoinfo": {
        "display_name": "Dongpan Road, Tong'anzhai, Tongren Village, Yongjing Township, Changhua County, 51247, Taiwan",
        "road": "Dongpan Road",
        "house_number": null,
        "neighbourhood": null,
        "suburb": null,
        "city_district": "Tongren Village",
        "city": "Yongjing Township",
        "state": null,
        "postcode": "51247",
        "country": "Taiwan",
        "country_code": "tw"
      },
      "address": "Dongpan Road, Yongjing, Taiwan"
    },
    {
      "lat": 23.93196558482303,
      "lon": 120.53908298567487,
      "geoinfo": {
        "display_name": "101號, Wangcuo Road, Renli Village, Yongjing Township, Changhua County, 51247, Taiwan",
        "road": "Wangcuo Road",
        "house_number": "101號",
        "neighbourhood": null,
        "suburb": null,
        "city_district": "Renli Village",
        "city": "Yongjing Township",
        "state": null,
        "postcode": "51247",
        "country": "Taiwan",
        "country_code": "tw"
      },
      "address": "101號, Wangcuo Road, Renli Village, Yongjing Township, Changhua County, 51247, Taiwan"
    },
    {
      "lat": 23.927127553958265,
      "lon": 120.5869090286585,
      "geoinfo": {
        "display_name": "70號, 新雅路120巷, Zhenweizi, Daming Village, Yuanlin City, Changhua County, 51141, Taiwan",
        "road": "新雅路120巷",
        "house_number": "70號",
        "neighbourhood": null,
        "suburb": null,
        "city_district": "Daming Village",
        "city": "Yuanlin City",
        "state": null,
        "postcode": "51141",
        "country": "Taiwan",
        "country_code": "tw"
      },
      "address": "70號, 新雅路120巷, Zhenweizi, Daming Village, Yuanlin City, Changhua County, 51141, Taiwan"
    }
  ],
  "updated_at": "2025-10-19T07:21:41.726501+00:00",
  "_kind": "geo_samples"
}