{
  "country_code": "DJ",
  "country": "Djibouti",
  "city": "Arta",
  "geonameid": 225037,
  "target_addresses": 17,
  "samples": [
    {
      "lat": 11.533450593817408,
      "lon": 42.876968959237246,
      "geoinfo": {
        "display_name": "Ouéa أويا, Arta, Djibouti",
        "road": null,
        "house_number": null,
        "neighbourhood": null,
        "suburb": null,
        "city_district": null,
        "city": "Ouéa أويا",
        "state": "Arta",
        "postcode": null,
        "country": "Djibouti",
        "country_code": "dj"
      },
      "address": "Arta, Arta, Djibouti"
    },
    {
      "lat": 11.52634265730141,
      "lon": 42.88754727540221,
      "geoinfo": {
        "display_name": "Route nationale 1, Ouéa أويا, Arta, Djibouti",
        "road": "Route nationale 1",
        "house_number": null,
        "neighbourhood": null,
        "suburb": null,
        "city_district": null,
        "city": "Ouéa أويا",
        "state": "Arta",
        "postcode": null,
        "country": "Djibouti",
        "country_code": "dj"
      },
      "address": "Route nationale 1, Arta, Arta, Djibouti"
    },
    {
      "lat": 11.530318709855809,
      "lon": 42.85652110828768,
      "geoinfo": {
        "display_name": "التنزه عرتا, Route Nationale 4 / الطريق الوطني رقم 4, Artà, Arta, Djibouti",
        "road": "Route Nationale 4 / الطريق الوطني رقم 4",
        "house_number": null,
        "neighbourhood": null,
        "suburb": null,
        "city_district": null,
        "city": "Artà",
        "state": "Arta",
        "postcode": null,
        "country": "Djibouti",
        "country_code": "dj"
      },
      "address": "Route Nationale 4 / الطريق الوطني رقم 4, Arta, Arta, Djibouti"
    },
    {
      "lat": 11.494086863936761,
      "lon": 42.82906174209819,
      "geoinfo": {
        "display_name": "Piste du CECAP طريق المركز التدريب القتالي في الشاطئ عرتا, Artà, Arta, Djibouti",
        "road": "Piste du CECAP طريق المركز التدريب القتالي في الشاطئ عرتا",
        "house_number": null,
        "neighbourhood": null,
        "suburb": null,
        "city_district": null,
        "city": "Artà",
        "state": "Arta",
        "postcode": null,
        "country": "Djibouti",
        "country_code": "dj"
      },
      "address": "Piste du CECAP طريق المركز التدريب القتالي في الشاطئ عرتا, Arta, Arta, Djibouti"
    },
    {
      "lat": 11.540416513473003,
      "lon": 42.83833981406806,
      "geoinfo": {
        "display_name": "بوعلي, Route Nationale الطريق الوطني رقم 4, Artà, Arta, Djibouti",
        "road": "Route Nationale الطريق الوطني رقم 4",
        "house_number": null,
        "neighbourhood": null,
        "suburb": null,
        "city_district": null,
        "city": "Artà",
        "state": "Arta",
        "postcode": null,
        "country": "Djibouti",
        "country_code": "dj"
      },
      "address": "Route Nationale الطريق الوطني رقم 4, Arta, Arta, Djibouti"
    },
    {
      "lat": 11.530067263878882,
      "lon": 42.825040155188496,
      "geoinfo": {
        "display_name": "Place du Centre ساحة المركز, Artà, Arta, Djibouti",
        "road": null,
        "house_number": null,
        "neighbourhood": null,
        "suburb": null,
        "city_district": null,
        "city": "Artà",
        "state": "Arta",
        "postcode": null,
        "country": "Djibouti",
        "country_code": "dj"
      },
      "address": "289, Place du Centre ساحة المركز, Artà, 33287 Arta, Djibouti"
    },
    {
      "lat": 11.513494370104015,
      "lon": 42.89498037235191,
      "geoinfo": {
        "display_name": "Ouéa أويا, Arta, Djibouti",
        "road": null,
        "house_number": null,
        "neighbourhood": null,
        "suburb": null,
        "city_district": null,
        "city": "Ouéa أويا",
        "state": "Arta",
        "postcode": null,
        "country": "Djibouti",
        "country_code": "dj"
      },
      "address": "309, Ouéa أويا, 15105 Arta, Djibouti"
    },
    {
      "lat": 11.49493169145386,
      "lon": 42.84721933434909,
      "geoinfo": {
        "display_name": "Route nationale 1, Ouéa أويا, Arta, Djibouti",
        "road": "Route nationale 1",
        "house_number": null,
        "neighbourhood": null,
        "suburb": null,
        "city_district": null,
        "city": "Ouéa أويا",
        "state": "Arta",
        "postcode": null,
        "country": "Djibouti",
        "country_code": "dj"
      },
      "address": "Route nationale 1, Arta, 23152 Arta, Djibouti"
    },
    {
      "lat": 11.53947297116881,
      "lon": 42.86174161898711,
      "geoinfo": {
        "display_name": "La Maison des Randonneurs منزل التنزه عرتا, Route Nationale 4 / الطريق الوطني رقم 4, Artà, Arta, Djibouti",
        "road": "Route Nationale 4 / الطريق الوطني رقم 4",
        "house_number": null,
        "neighbourhood": null,
        "suburb": null,
        "city_district": null,
        "city": "Artà",
        "state": "Arta",
        "postcode": null,
        "country": "Djibouti",
        "country_code": "dj"
      },
      "address": "La Maison des Randonneurs منزل التنزه عرتا, Route Nationale 4 / الطريق الوطني رقم 4, Artà, Arta, Djibouti"
    },
    {
      "lat": 11.535779938116644,
      "lon": 42.831920169854726,
      "geoinfo": {
        "display_name": "دوردرا, Route Nationale الطريق الوطني رقم 4, Artà, Arta, Djibouti",
        "road": "Route Nationale الطريق الوطني رقم 4",
        "house_number": null,
        "neighbourhood": null,
        "suburb": null,
        "city_district": null,
        "city": "Artà",
        "state": "Arta",
        "postcode": null,
        "country": "Djibouti",
        "country_code": "dj"
      },
      "address": "Route Nationale الطريق الوطني رقم 4, Arta, 92951 Arta, Djibouti"
    },
    {
      "lat": 11.487489629729081,
      "lon": 42.84851247274394,
      "geoinfo": {
        "display_name": "Ouéa أويا, Arta, Djibouti",
        "road": null,
        "house_number": null,
        "neighbourhood": null,
        "suburb": null,
        "city_district": null,
        "city": "Ouéa أويا",
        "state": "Arta",
        "postcode": null,
        "country": "Djibouti",
        "country_code": "dj"
      },
      "address": "447, Ouéa أويا, 35509 Arta, Djibouti"
    },
    {
      "lat": 11.530954967054358,
      "lon": 42.80934406262914,
      "geoinfo": {
        "display_name": "Piste du CECAP طريق المركز التدريب القتالي في الشاطئ عرتا, Artà, Arta, Djibouti",
        "road": "Piste du CECAP طريق المركز التدريب القتالي في الشاطئ عرتا",
        "house_number": null,
        "neighbourhood": null,
        "suburb": null,
        "city_district": null,
        "city": "Artà",
        "state": "Arta",
        "postcode": null,
        "country": "Djibouti",
        "country_code": "dj"
      },
      "address": "702, Piste du CECAP طريق المركز التدريب القتالي في الشاطئ عرتا, Artà, 88965 Arta, Djibouti"
    },
    {
      "lat": 11.53192262574694,
      "lon": 42.82495367735895,
      "geoinfo": {
        "display_name": "Place du Centre ساحة المركز, Artà, Arta, Djibouti",
        "road": null,
        "house_number": null,
        "neighbourhood": null,
        "suburb": null,
        "city_district": null,
        "city": "Artà",
        "state": "Arta",
        "postcode": null,
        "country": "Djibouti",
        "country_code": "dj"
      },
      "address": "276, Place du Centre ساحة المركز, Artà, 08240 Arta, Djibouti"
    },
    {
      "lat": 11.540503793641186,
      "lon": 42.84303539110199,
      "geoinfo": {
        "display_name": "بوعلي, Route Nationale الطريق الوطني رقم 4, Artà, Arta, Djibouti",
        "road": "Route Nationale الطريق الوطني رقم 4",
        "house_number": null,
        "neighbourhood": null,
        "suburb": null,
        "city_district": null,
        "city": "Artà",
        "state": "Arta",
        "postcode": null,
        "country": "Djibouti",
        "country_code": "dj"
      },
      "address": "Route Nationale الطريق الوطني رقم 4, Arta, 70716 Arta, Djibouti"
    },
    {
      "lat": 11.522957596316582,
      "lon": 42.859940780022946,
      "geoinfo": {
        "display_name": "Route Nationale 4 / الطريق الوطني رقم 4, Artà, Arta, Djibouti",
        "road": "Route Nationale 4 / الطريق الوطني رقم 4",
        "house_number": null,
        "neighbourhood": null,
        "suburb": null,
        "city_district": null,
        "city": "Artà",
        "state": "Arta",
        "postcode": null,
        "country": "Djibouti",
        "country_code": "dj"
      },
      "address": "Route Nationale 4 / الطريق الوطني رقم 4, Artà, Arta, Djibouti"
    },
    {
      "lat": 11.521005260685302,
      "lon": 42.84166878603222,
      "geoinfo": {
        "display_name": "Hôtel de la Paix فندق السلام, 12, Route Nationale الطريق الوطني رقم 4, Artà, Arta, Djibouti",
        "road": "Route Nationale الطريق الوطني رقم 4",
        "house_number": "12",
        "neighbourhood": null,
        "suburb": null,
        "city_district": null,
        "city": "Artà",
        "state": "Arta",
        "postcode": null,
        "country": "Djibouti",
        "country_code": "dj"
      },
      "address": "Hôtel de la Paix فندق السلام, 12, Route Nationale الطريق الوطني رقم 4, Artà, Arta, Djibouti"
    },
    {
      "lat": 11.53135267421295,
      "lon": 42.8601172312641,
      "geoinfo": {
        "display_name": "Route Nationale 4 / الطريق الوطني رقم 4, Artà, Arta, Djibouti",
        "road": "Route Nationale 4 / الطريق الوطني رقم 4",
        "house_number": null,
        "neighbourhood": null,
        "suburb": null,
        "city_district": null,
        "city": "Artà",
        "state": "Arta",
        "postcode": null,
        "country": "Djibouti",
        "country_code": "dj"
      },
      "address": "Route Nationale 4 / الطريق الوطني رقم 4, Arta, Arta, Djibouti"
    },
    {
      "lat": 11.48868197292429,
      "lon": 42.85531730264975,
      "geoinfo": {
        "display_name": "Ouéa أويا, Arta, Djibouti",
        "road": null,
        "house_number": null,
        "neighbourhood": null,
        "suburb": null,
        "city_district": null,
        "city": "Ouéa أويا",
        "state": "Arta",
        "postcode": null,
        "country": "Djibouti",
        "country_code": "dj"
      },
      "address": "791, Ouéa أويا, 29134 Arta, Djibouti"
    },
    {
      "lat": 11.486047011067107,
      "lon": 42.85433459062444,
      "geoinfo": {
        "display_name": "Ouéa أويا, Arta, Djibouti",
        "road": null,
        "house_number": null,
        "neighbourhood": null,
        "suburb": null,
        "city_district": null,
        "city": "Ouéa أويا",
        "state": "Arta",
        "postcode": null,
        "country": "Djibouti",
        "country_code": "dj"
      },
      "address": "081, Ouéa أويا, 43629 Arta, Djibouti"
    },
    {
      "lat": 11.535902084103794,
      "lon": 42.81645170381177,
      "geoinfo": {
        "display_name": "Piste du CECAP طريق المركز التدريب القتالي في الشاطئ عرتا, Artà, Arta, Djibouti",
        "road": "Piste du CECAP طريق المركز التدريب القتالي في الشاطئ عرتا",
        "house_number": null,
        "neighbourhood": null,
        "suburb": null,
        "city_district": null,
        "city": "Artà",
        "state": "Arta",
        "postcode": null,
        "country": "Djibouti",
        "country_code": "dj"
      },
      "address": "457, Piste du CECAP طريق المركز التدريب القتالي في الشاطئ عرتا, Artà, 46215 Arta, Djibouti"
    }
  ],
  "updated_at": "2025-10-19T04:30:39.820116+00:00",
  "_kind": "geo_samples"
}