{
  "country_code": "GM",
  "country": "Gambia",
  "city": "Abuko",
  "geonameid": 2413990,
  "target_addresses": 50,
  "samples": [
    {
      "lat": 13.42881462821931,
      "lon": -16.67700603800731,
      "geoinfo": {
        "display_name": "Bundung Six Junction, Serrekunda, Brikama, Kanifing Municipal Council, The Gambia",
        "road": null,
        "house_number": null,
        "neighbourhood": null,
        "suburb": null,
        "city_district": null,
        "city": "Serrekunda",
        "state": "Kanifing Municipal Council",
        "postcode": null,
        "country": "The Gambia",
        "country_code": "gm"
      },
      "address": "Abuko, Kanifing Municipal Council, Gambia"
    },
    {
      "lat": 13.397421444607474,
      "lon": -16.66003278718474,
      "geoinfo": {
        "display_name": "Abuko, Kombo North/Saint Mary, Brikama, West Coast Division, The Gambia",
        "road": null,
        "house_number": null,
        "neighbourhood": null,
        "suburb": null,
        "city_district": null,
        "city": "Abuko",
        "state": "West Coast Division",
        "postcode": null,
        "country": "The Gambia",
        "country_code": "gm"
      },
      "address": "Abuko, West Coast Division, Gambia"
    },
    {
      "lat": 13.395058697947803,
      "lon": -16.645862274652274,
      "geoinfo": {
        "display_name": "Abuko Nature Reserve Trail, Abuko, Lamin, Kombo North/Saint Mary, Brikama, West Coast Division, The Gambia",
        "road": "Abuko Nature Reserve Trail",
        "house_number": null,
        "neighbourhood": null,
        "suburb": null,
        "city_district": null,
        "city": "Lamin",
        "state": "West Coast Division",
        "postcode": null,
        "country": "The Gambia",
        "country_code": "gm"
      },
      "address": "Abuko Nature Reserve Trail, Abuko, West Coast Division, Gambia"
    },
    {
      "lat": 13.392287727342419,
      "lon": -16.62436453672315,
      "geoinfo": {
        "display_name": "Boardwalk, Anna Street, Lamin, Kombo North/Saint Mary, Brikama, West Coast Division, The Gambia",
        "road": "Anna Street",
        "house_number": null,
        "neighbourhood": null,
        "suburb": null,
        "city_district": null,
        "city": "Lamin",
        "state": "West Coast Division",
        "postcode": null,
        "country": "The Gambia",
        "country_code": "gm"
      },
      "address": "Anna Street, Abuko, West Coast Division, Gambia"
    },
    {
      "lat": 13.406783320902592,
      "lon": -16.661434068170195,
      "geoinfo": {
        "display_name": "Faji Kunda, Abuko, Kombo North/Saint Mary, Brikama, West Coast Division, The Gambia",
        "road": null,
        "house_number": null,
        "neighbourhood": null,
        "suburb": null,
        "city_district": null,
        "city": "Abuko",
        "state": "West Coast Division",
        "postcode": null,
        "country": "The Gambia",
        "country_code": "gm"
      },
      "address": "Abuko, 05925 West Coast Division, Gambia"
    },
    {
      "lat": 13.396386402907572,
      "lon": -16.66978688871289,
      "geoinfo": {
        "display_name": "Wellingara, Kombo North/Saint Mary, Brikama, West Coast Division, The Gambia",
        "road": null,
        "house_number": null,
        "neighbourhood": null,
        "suburb": null,
        "city_district": null,
        "city": "Wellingara",
        "state": "West Coast Division",
        "postcode": null,
        "country": "The Gambia",
        "country_code": "gm"
      },
      "address": "Abuko, 07336 West Coast Division, Gambia"
    },
    {
      "lat": 13.424074465433947,
      "lon": -16.663885405603477,
      "geoinfo": {
        "display_name": "Tallinding, Talinding South, Serrekunda, Kanifing Municipal Council, The Gambia",
        "road": null,
        "house_number": null,
        "neighbourhood": null,
        "suburb": "Tallinding",
        "city_district": null,
        "city": "Serrekunda",
        "state": "Kanifing Municipal Council",
        "postcode": null,
        "country": "The Gambia",
        "country_code": "gm"
      },
      "address": "Tallinding, Talinding South, Serrekunda, 30047 Kanifing Municipal Council, The Gambia"
    },
    {
      "lat": 13.436280275815765,
      "lon": -16.686266332117704,
      "geoinfo": {
        "display_name": "Dippa Kunda, Serrekunda, Kanifing Municipal Council, The Gambia",
        "road": null,
        "house_number": null,
        "neighbourhood": null,
        "suburb": null,
        "city_district": null,
        "city": "Serrekunda",
        "state": "Kanifing Municipal Council",
        "postcode": null,
        "country": "The Gambia",
        "country_code": "gm"
      },
      "address": "460, Dippa Kunda, Serrekunda, 19813 Kanifing Municipal Council, The Gambia"
    },
    {
      "lat": 13.381041942231322,
      "lon": -16.67885677836329,
      "geoinfo": {
        "display_name": "Old Yundum, Kombo North/Saint Mary, Brikama, West Coast Division, The Gambia",
        "road": null,
        "house_number": null,
        "neighbourhood": null,
        "suburb": null,
        "city_district": null,
        "city": "Old Yundum",
        "state": "West Coast Division",
        "postcode": null,
        "country": "The Gambia",
        "country_code": "gm"
      },
      "address": "762, Old Yundum, Kombo North/Saint Mary, Brikama, 80280 West Coast Division, The Gambia"
    },
    {
      "lat": 13.410158509109417,
      "lon": -16.687093818920424,
      "geoinfo": {
        "display_name": "Sareh, Kombo North/Saint Mary, Brikama, West Coast Division, The Gambia",
        "road": null,
        "house_number": null,
        "neighbourhood": null,
        "suburb": null,
        "city_district": null,
        "city": "Sareh",
        "state": "West Coast Division",
        "postcode": null,
        "country": "The Gambia",
        "country_code": "gm"
      },
      "address": "793, Sareh, Kombo North/Saint Mary, Brikama, 12372 West Coast Division, The Gambia"
    },
    {
      "lat": 13.408661462908652,
      "lon": -16.677727496804334,
      "geoinfo": {
        "display_name": "Wellingara, Kombo North/Saint Mary, Brikama, West Coast Division, The Gambia",
        "road": null,
        "house_number": null,
        "neighbourhood": null,
        "suburb": null,
        "city_district": null,
        "city": "Wellingara",
        "state": "West Coast Division",
        "postcode": null,
        "country": "The Gambia",
        "country_code": "gm"
      },
      "address": "749, Wellingara, Kombo North/Saint Mary, Brikama, 07174 West Coast Division, The Gambia"
    },
    {
      "lat": 13.396993872012386,
      "lon": -16.65155166075882,
      "geoinfo": {
        "display_name": "Abuko, Kombo North/Saint Mary, Brikama, West Coast Division, The Gambia",
        "road": null,
        "house_number": null,
        "neighbourhood": null,
        "suburb": null,
        "city_district": null,
        "city": "Abuko",
        "state": "West Coast Division",
        "postcode": null,
        "country": "The Gambia",
        "country_code": "gm"
      },
      "address": "818, Abuko, Kombo North/Saint Mary, Brikama, 27845 West Coast Division, The Gambia"
    },
    {
      "lat": 13.421375378162603,
      "lon": -16.614687746967757,
      "geoinfo": {
        "display_name": "Kanifing, Kanifing Municipal Council, The Gambia",
        "road": null,
        "house_number": null,
        "neighbourhood": null,
        "suburb": null,
        "city_district": null,
        "city": "Kanifing",
        "state": "Kanifing Municipal Council",
        "postcode": null,
        "country": "The Gambia",
        "country_code": "gm"
      },
      "address": "732, Kanifing, 98787 Kanifing Municipal Council, The Gambia"
    },
    {
      "lat": 13.424722324010562,
      "lon": -16.659842402543,
      "geoinfo": {
        "display_name": "Tallinding, Talinding South, Serrekunda, Kanifing Municipal Council, The Gambia",
        "road": null,
        "house_number": null,
        "neighbourhood": null,
        "suburb": "Tallinding",
        "city_district": null,
        "city": "Serrekunda",
        "state": "Kanifing Municipal Council",
        "postcode": null,
        "country": "The Gambia",
        "country_code": "gm"
      },
      "address": "601, Tallinding, Talinding South, Serrekunda, 49899 Kanifing Municipal Council, The Gambia"
    },
    {
      "lat": 13.379960970490696,
      "lon": -16.693042334602275,
      "geoinfo": {
        "display_name": "Old Yundum, Kombo North/Saint Mary, Brikama, West Coast Division, The Gambia",
        "road": null,
        "house_number": null,
        "neighbourhood": null,
        "suburb": null,
        "city_district": null,
        "city": "Old Yundum",
        "state": "West Coast Division",
        "postcode": null,
        "country": "The Gambia",
        "country_code": "gm"
      },
      "address": "873, Old Yundum, Kombo North/Saint Mary, Brikama, 91312 West Coast Division, The Gambia"
    },
    {
      "lat": 13.426999510959353,
      "lon": -16.62696995491865,
      "geoinfo": {
        "display_name": "Kanifing, Kanifing Municipal Council, The Gambia",
        "road": null,
        "house_number": null,
        "neighbourhood": null,
        "suburb": null,
        "city_district": null,
        "city": "Kanifing",
        "state": "Kanifing Municipal Council",
        "postcode": null,
        "country": "The Gambia",
        "country_code": "gm"
      },
      "address": "944, Kanifing, 59007 Kanifing Municipal Council, The Gambia"
    },
    {
      "lat": 13.414654967919507,
      "lon": -16.654114761638887,
      "geoinfo": {
        "display_name": "Faji Kunda, Abuko, Kombo North/Saint Mary, Brikama, West Coast Division, The Gambia",
        "road": null,
        "house_number": null,
        "neighbourhood": null,
        "suburb": null,
        "city_district": null,
        "city": "Abuko",
        "state": "West Coast Division",
        "postcode": null,
        "country": "The Gambia",
        "country_code": "gm"
      },
      "address": "035, Faji Kunda, Abuko, Kombo North/Saint Mary, Brikama, 05344 West Coast Division, The Gambia"
    },
    {
      "lat": 13.361347376719836,
      "lon": -16.668029953225822,
      "geoinfo": {
        "display_name": "Banjulinding, Kombo North/Saint Mary, Brikama, West Coast Division, The Gambia",
        "road": null,
        "house_number": null,
        "neighbourhood": null,
        "suburb": null,
        "city_district": null,
        "city": "Banjulinding",
        "state": "West Coast Division",
        "postcode": null,
        "country": "The Gambia",
        "country_code": "gm"
      },
      "address": "203, Banjulinding, Kombo North/Saint Mary, Brikama, 15204 West Coast Division, The Gambia"
    },
    {
      "lat": 13.402291711833072,
      "lon": -16.640865185051176,
      "geoinfo": {
        "display_name": "Lamin, Kombo North/Saint Mary, Brikama, West Coast Division, The Gambia",
        "road": null,
        "house_number": null,
        "neighbourhood": null,
        "suburb": null,
        "city_district": null,
        "city": "Lamin",
        "state": "West Coast Division",
        "postcode": null,
        "country": "The Gambia",
        "country_code": "gm"
      },
      "address": "406, Lamin, Kombo North/Saint Mary, Brikama, 29406 West Coast Division, The Gambia"
    },
    {
      "lat": 13.405245518320179,
      "lon": -16.658092630331744,
      "geoinfo": {
        "display_name": "Abuko, Kombo North/Saint Mary, Brikama, West Coast Division, The Gambia",
        "road": null,
        "house_number": null,
        "neighbourhood": null,
        "suburb": null,
        "city_district": null,
        "city": "Abuko",
        "state": "West Coast Division",
        "postcode": null,
        "country": "The Gambia",
        "country_code": "gm"
      },
      "address": "241, Abuko, Kombo North/Saint Mary, Brikama, 99507 West Coast Division, The Gambia"
    },
    {
      "lat": 13.403691679714376,
      "lon": -16.65758991639458,
      "geoinfo": {
        "display_name": "Brikama Highway, Abuko, Kombo North/Saint Mary, Brikama, West Coast Division, The Gambia",
        "road": "Brikama Highway",
        "house_number": null,
        "neighbourhood": null,
        "suburb": null,
        "city_district": null,
        "city": "Abuko",
        "state": "West Coast Division",
        "postcode": null,
        "country": "The Gambia",
        "country_code": "gm"
      },
      "address": "998, Brikama Highway, Abuko, Kombo North/Saint Mary, Brikama, 98922 West Coast Division, The Gambia"
    },
    {
      "lat": 13.403447483366946,
      "lon": -16.653318370466213,
      "geoinfo": {
        "display_name": "Abuko, Kombo North/Saint Mary, Brikama, West Coast Division, The Gambia",
        "road": null,
        "house_number": null,
        "neighbourhood": null,
        "suburb": null,
        "city_district": null,
        "city": "Abuko",
        "state": "West Coast Division",
        "postcode": null,
        "country": "The Gambia",
        "country_code": "gm"
      },
      "address": "803, Abuko, Kombo North/Saint Mary, Brikama, 42722 West Coast Division, The Gambia"
    },
    {
      "lat": 13.403113112210223,
      "lon": -16.654199225416278,
      "geoinfo": {
        "display_name": "Abuko, Kombo North/Saint Mary, Brikama, West Coast Division, The Gambia",
        "road": null,
        "house_number": null,
        "neighbourhood": null,
        "suburb": null,
        "city_district": null,
        "city": "Abuko",
        "state": "West Coast Division",
        "postcode": null,
        "country": "The Gambia",
        "country_code": "gm"
      },
      "address": "151, Abuko, Kombo North/Saint Mary, Brikama, 10873 West Coast Division, The Gambia"
    },
    {
      "lat": 13.40255889891384,
      "lon": -16.656004820870923,
      "geoinfo": {
        "display_name": "Brikama Highway, Abuko, Kombo North/Saint Mary, Brikama, West Coast Division, The Gambia",
        "road": "Brikama Highway",
        "house_number": null,
        "neighbourhood": null,
        "suburb": null,
        "city_district": null,
        "city": "Abuko",
        "state": "West Coast Division",
        "postcode": null,
        "country": "The Gambia",
        "country_code": "gm"
      },
      "address": "894, Brikama Highway, Abuko, Kombo North/Saint Mary, Brikama, 79445 West Coast Division, The Gambia"
    },
    {
      "lat": 13.405840819010784,
      "lon": -16.655309861789885,
      "geoinfo": {
        "display_name": "Abuko, Kombo North/Saint Mary, Brikama, West Coast Division, The Gambia",
        "road": null,
        "house_number": null,
        "neighbourhood": null,
        "suburb": null,
        "city_district": null,
        "city": "Abuko",
        "state": "West Coast Division",
        "postcode": null,
        "country": "The Gambia",
        "country_code": "gm"
      },
      "address": "582, Abuko, Kombo North/Saint Mary, Brikama, 57777 West Coast Division, The Gambia"
    },
    {
      "lat": 13.404923687207496,
      "lon": -16.65570935425118,
      "geoinfo": {
        "display_name": "Abuko, Kombo North/Saint Mary, Brikama, West Coast Division, The Gambia",
        "road": null,
        "house_number": null,
        "neighbourhood": null,
        "suburb": null,
        "city_district": null,
        "city": "Abuko",
        "state": "West Coast Division",
        "postcode": null,
        "country": "The Gambia",
        "country_code": "gm"
      },
      "address": "883, Abuko, Kombo North/Saint Mary, Brikama, 88874 West Coast Division, The Gambia"
    },
    {
      "lat": 13.403873905649087,
      "lon": -16.65612910175338,
      "geoinfo": {
        "display_name": "Abuko, Kombo North/Saint Mary, Brikama, West Coast Division, The Gambia",
        "road": null,
        "house_number": null,
        "neighbourhood": null,
        "suburb": null,
        "city_district": null,
        "city": "Abuko",
        "state": "West Coast Division",
        "postcode": null,
        "country": "The Gambia",
        "country_code": "gm"
      },
      "address": "923, Abuko, Kombo North/Saint Mary, Brikama, 41654 West Coast Division, The Gambia"
    },
    {
      "lat": 13.405804996315739,
      "lon": -16.657958963263845,
      "geoinfo": {
        "display_name": "Abuko, Kombo North/Saint Mary, Brikama, West Coast Division, The Gambia",
        "road": null,
        "house_number": null,
        "neighbourhood": null,
        "suburb": null,
        "city_district": null,
        "city": "Abuko",
        "state": "West Coast Division",
        "postcode": null,
        "country": "The Gambia",
        "country_code": "gm"
      },
      "address": "396, Abuko, Kombo North/Saint Mary, Brikama, 97498 West Coast Division, The Gambia"
    },
    {
      "lat": 13.401922065133464,
      "lon": -16.657113779798426,
      "geoinfo": {
        "display_name": "Brikama Highway, Abuko, Kombo North/Saint Mary, Brikama, West Coast Division, The Gambia",
        "road": "Brikama Highway",
        "house_number": null,
        "neighbourhood": null,
        "suburb": null,
        "city_district": null,
        "city": "Abuko",
        "state": "West Coast Division",
        "postcode": null,
        "country": "The Gambia",
        "country_code": "gm"
      },
      "address": "572, Brikama Highway, Abuko, Kombo North/Saint Mary, Brikama, 22327 West Coast Division, The Gambia"
    },
    {
      "lat": 13.402443495598128,
      "lon": -16.65413404685917,
      "geoinfo": {
        "display_name": "Abuko, Kombo North/Saint Mary, Brikama, West Coast Division, The Gambia",
        "road": null,
        "house_number": null,
        "neighbourhood": null,
        "suburb": null,
        "city_district": null,
        "city": "Abuko",
        "state": "West Coast Division",
        "postcode": null,
        "country": "The Gambia",
        "country_code": "gm"
      },
      "address": "110, Abuko, Kombo North/Saint Mary, Brikama, 02816 West Coast Division, The Gambia"
    },
    {
      "lat": 13.404287745047823,
      "lon": -16.65580905908839,
      "geoinfo": {
        "display_name": "Abuko, Kombo North/Saint Mary, Brikama, West Coast Division, The Gambia",
        "road": null,
        "house_number": null,
        "neighbourhood": null,
        "suburb": null,
        "city_district": null,
        "city": "Abuko",
        "state": "West Coast Division",
        "postcode": null,
        "country": "The Gambia",
        "country_code": "gm"
      },
      "address": "851, Abuko, Kombo North/Saint Mary, Brikama, 87667 West Coast Division, The Gambia"
    },
    {
      "lat": 13.403408254936055,
      "lon": -16.65656981428896,
      "geoinfo": {
        "display_name": "Brikama Highway, Abuko, Kombo North/Saint Mary, Brikama, West Coast Division, The Gambia",
        "road": "Brikama Highway",
        "house_number": null,
        "neighbourhood": null,
        "suburb": null,
        "city_district": null,
        "city": "Abuko",
        "state": "West Coast Division",
        "postcode": null,
        "country": "The Gambia",
        "country_code": "gm"
      },
      "address": "792, Brikama Highway, Abuko, Kombo North/Saint Mary, Brikama, 24566 West Coast Division, The Gambia"
    },
    {
      "lat": 13.40457378848048,
      "lon": -16.65581169743563,
      "geoinfo": {
        "display_name": "Abuko, Kombo North/Saint Mary, Brikama, West Coast Division, The Gambia",
        "road": null,
        "house_number": null,
        "neighbourhood": null,
        "suburb": null,
        "city_district": null,
        "city": "Abuko",
        "state": "West Coast Division",
        "postcode": null,
        "country": "The Gambia",
        "country_code": "gm"
      },
      "address": "559, Abuko, Kombo North/Saint Mary, Brikama, 08865 West Coast Division, The Gambia"
    },
    {
      "lat": 13.405418092341062,
      "lon": -16.65394926969297,
      "geoinfo": {
        "display_name": "Abuko, Kombo North/Saint Mary, Brikama, West Coast Division, The Gambia",
        "road": null,
        "house_number": null,
        "neighbourhood": null,
        "suburb": null,
        "city_district": null,
        "city": "Abuko",
        "state": "West Coast Division",
        "postcode": null,
        "country": "The Gambia",
        "country_code": "gm"
      },
      "address": "691, Abuko, Kombo North/Saint Mary, Brikama, 30367 West Coast Division, The Gambia"
    },
    {
      "lat": 13.40500401692658,
      "lon": -16.65357986799926,
      "geoinfo": {
        "display_name": "Abuko, Kombo North/Saint Mary, Brikama, West Coast Division, The Gambia",
        "road": null,
        "house_number": null,
        "neighbourhood": null,
        "suburb": null,
        "city_district": null,
        "city": "Abuko",
        "state": "West Coast Division",
        "postcode": null,
        "country": "The Gambia",
        "country_code": "gm"
      },
      "address": "021, Abuko, Kombo North/Saint Mary, Brikama, 97510 West Coast Division, The Gambia"
    },
    {
      "lat": 13.405224188071367,
      "lon": -16.655967888709526,
      "geoinfo": {
        "display_name": "Abuko, Kombo North/Saint Mary, Brikama, West Coast Division, The Gambia",
        "road": null,
        "house_number": null,
        "neighbourhood": null,
        "suburb": null,
        "city_district": null,
        "city": "Abuko",
        "state": "West Coast Division",
        "postcode": null,
        "country": "The Gambia",
        "country_code": "gm"
      },
      "address": "234, Abuko, Kombo North/Saint Mary, Brikama, 16827 West Coast Division, The Gambia"
    },
    {
      "lat": 13.402755944575507,
      "lon": -16.654546510911313,
      "geoinfo": {
        "display_name": "Abuko, Kombo North/Saint Mary, Brikama, West Coast Division, The Gambia",
        "road": null,
        "house_number": null,
        "neighbourhood": null,
        "suburb": null,
        "city_district": null,
        "city": "Abuko",
        "state": "West Coast Division",
        "postcode": null,
        "country": "The Gambia",
        "country_code": "gm"
      },
      "address": "777, Abuko, Kombo North/Saint Mary, Brikama, 81435 West Coast Division, The Gambia"
    },
    {
      "lat": 13.406460208342514,
      "lon": -16.654394949082242,
      "geoinfo": {
        "display_name": "Abuko, Kombo North/Saint Mary, Brikama, West Coast Division, The Gambia",
        "road": null,
        "house_number": null,
        "neighbourhood": null,
        "suburb": null,
        "city_district": null,
        "city": "Abuko",
        "state": "West Coast Division",
        "postcode": null,
        "country": "The Gambia",
        "country_code": "gm"
      },
      "address": "229, Abuko, Kombo North/Saint Mary, Brikama, 23987 West Coast Division, The Gambia"
    },
    {
      "lat": 13.405158845626996,
      "lon": -16.653554359444467,
      "geoinfo": {
        "display_name": "Abuko, Kombo North/Saint Mary, Brikama, West Coast Division, The Gambia",
        "road": null,
        "house_number": null,
        "neighbourhood": null,
        "suburb": null,
        "city_district": null,
        "city": "Abuko",
        "state": "West Coast Division",
        "postcode": null,
        "country": "The Gambia",
        "country_code": "gm"
      },
      "address": "329, Abuko, Kombo North/Saint Mary, Brikama, 15901 West Coast Division, The Gambia"
    },
    {
      "lat": 13.401502231614286,
      "lon": -16.65608852936726,
      "geoinfo": {
        "display_name": "Abuko, Kombo North/Saint Mary, Brikama, West Coast Division, The Gambia",
        "road": null,
        "house_number": null,
        "neighbourhood": null,
        "suburb": null,
        "city_district": null,
        "city": "Abuko",
        "state": "West Coast Division",
        "postcode": null,
        "country": "The Gambia",
        "country_code": "gm"
      },
      "address": "923, Abuko, Kombo North/Saint Mary, Brikama, 84213 West Coast Division, The Gambia"
    },
    {
      "lat": 13.402680765429546,
      "lon": -16.65758524818837,
      "geoinfo": {
        "display_name": "Brikama Highway, Abuko, Kombo North/Saint Mary, Brikama, West Coast Division, The Gambia",
        "road": "Brikama Highway",
        "house_number": null,
        "neighbourhood": null,
        "suburb": null,
        "city_district": null,
        "city": "Abuko",
        "state": "West Coast Division",
        "postcode": null,
        "country": "The Gambia",
        "country_code": "gm"
      },
      "address": "458, Brikama Highway, Abuko, Kombo North/Saint Mary, Brikama, 19571 West Coast Division, The Gambia"
    },
    {
      "lat": 13.40266573682227,
      "lon": -16.657096105533935,
      "geoinfo": {
        "display_name": "Brikama Highway, Abuko, Kombo North/Saint Mary, Brikama, West Coast Division, The Gambia",
        "road": "Brikama Highway",
        "house_number": null,
        "neighbourhood": null,
        "suburb": null,
        "city_district": null,
        "city": "Abuko",
        "state": "West Coast Division",
        "postcode": null,
        "country": "The Gambia",
        "country_code": "gm"
      },
      "address": "001, Brikama Highway, Abuko, Kombo North/Saint Mary, Brikama, 19938 West Coast Division, The Gambia"
    },
    {
      "lat": 13.404897787852997,
      "lon": -16.654642385167435,
      "geoinfo": {
        "display_name": "Abuko, Kombo North/Saint Mary, Brikama, West Coast Division, The Gambia",
        "road": null,
        "house_number": null,
        "neighbourhood": null,
        "suburb": null,
        "city_district": null,
        "city": "Abuko",
        "state": "West Coast Division",
        "postcode": null,
        "country": "The Gambia",
        "country_code": "gm"
      },
      "address": "852, Abuko, Kombo North/Saint Mary, Brikama, 48440 West Coast Division, The Gambia"
    },
    {
      "lat": 13.40342033738297,
      "lon": -16.654597887177907,
      "geoinfo": {
        "display_name": "Abuko, Kombo North/Saint Mary, Brikama, West Coast Division, The Gambia",
        "road": null,
        "house_number": null,
        "neighbourhood": null,
        "suburb": null,
        "city_district": null,
        "city": "Abuko",
        "state": "West Coast Division",
        "postcode": null,
        "country": "The Gambia",
        "country_code": "gm"
      },
      "address": "704, Abuko, Kombo North/Saint Mary, Brikama, 37224 West Coast Division, The Gambia"
    },
    {
      "lat": 13.403076704778298,
      "lon": -16.655802503690662,
      "geoinfo": {
        "display_name": "Abuko, Kombo North/Saint Mary, Brikama, West Coast Division, The Gambia",
        "road": null,
        "house_number": null,
        "neighbourhood": null,
        "suburb": null,
        "city_district": null,
        "city": "Abuko",
        "state": "West Coast Division",
        "postcode": null,
        "country": "The Gambia",
        "country_code": "gm"
      },
      "address": "475, Abuko, Kombo North/Saint Mary, Brikama, 07746 West Coast Division, The Gambia"
    },
    {
      "lat": 13.404673882721795,
      "lon": -16.65499836900227,
      "geoinfo": {
        "display_name": "Abuko, Kombo North/Saint Mary, Brikama, West Coast Division, The Gambia",
        "road": null,
        "house_number": null,
        "neighbourhood": null,
        "suburb": null,
        "city_district": null,
        "city": "Abuko",
        "state": "West Coast Division",
        "postcode": null,
        "country": "The Gambia",
        "country_code": "gm"
      },
      "address": "224, Abuko, Kombo North/Saint Mary, Brikama, 14624 West Coast Division, The Gambia"
    },
    {
      "lat": 13.402996249793757,
      "lon": -16.657174125052332,
      "geoinfo": {
        "display_name": "GNPC, Brikama Highway, Tallinding, Abuko, Kombo North/Saint Mary, Brikama, West Coast Division, The Gambia",
        "road": "Brikama Highway",
        "house_number": null,
        "neighbourhood": null,
        "suburb": "Tallinding",
        "city_district": null,
        "city": "Abuko",
        "state": "West Coast Division",
        "postcode": null,
        "country": "The Gambia",
        "country_code": "gm"
      },
      "address": "613, Brikama Highway, Abuko, 14427 West Coast Division, Gambia"
    },
    {
      "lat": 13.403476136278556,
      "lon": -16.65536418970184,
      "geoinfo": {
        "display_name": "Abuko, Kombo North/Saint Mary, Brikama, West Coast Division, The Gambia",
        "road": null,
        "house_number": null,
        "neighbourhood": null,
        "suburb": null,
        "city_district": null,
        "city": "Abuko",
        "state": "West Coast Division",
        "postcode": null,
        "country": "The Gambia",
        "country_code": "gm"
      },
      "address": "088, Abuko, Kombo North/Saint Mary, Brikama, 26320 West Coast Division, The Gambia"
    },
    {
      "lat": 13.404573315068944,
      "lon": -16.656911799587405,
      "geoinfo": {
        "display_name": "Abuko, Kombo North/Saint Mary, Brikama, West Coast Division, The Gambia",
        "road": null,
        "house_number": null,
        "neighbourhood": null,
        "suburb": null,
        "city_district": null,
        "city": "Abuko",
        "state": "West Coast Division",
        "postcode": null,
        "country": "The Gambia",
        "country_code": "gm"
      },
      "address": "426, Abuko, Kombo North/Saint Mary, Brikama, 37487 West Coast Division, The Gambia"
    },
    {
      "lat": 13.405098256972138,
      "lon": -16.655812266899176,
      "geoinfo": {
        "display_name": "Abuko, Kombo North/Saint Mary, Brikama, West Coast Division, The Gambia",
        "road": null,
        "house_number": null,
        "neighbourhood": null,
        "suburb": null,
        "city_district": null,
        "city": "Abuko",
        "state": "West Coast Division",
        "postcode": null,
        "country": "The Gambia",
        "country_code": "gm"
      },
      "address": "724, Abuko, Kombo North/Saint Mary, Brikama, 50733 West Coast Division, The Gambia"
    },
    {
      "lat": 13.404774764062536,
      "lon": -16.657213384283892,
      "geoinfo": {
        "display_name": "Abuko, Kombo North/Saint Mary, Brikama, West Coast Division, The Gambia",
        "road": null,
        "house_number": null,
        "neighbourhood": null,
        "suburb": null,
        "city_district": null,
        "city": "Abuko",
        "state": "West Coast Division",
        "postcode": null,
        "country": "The Gambia",
        "country_code": "gm"
      },
      "address": "926, Abuko, Kombo North/Saint Mary, Brikama, 43083 West Coast Division, The Gambia"
    },
    {
      "lat": 13.402454230124931,
      "lon": -16.653764013604686,
      "geoinfo": {
        "display_name": "Abuko, Kombo North/Saint Mary, Brikama, West Coast Division, The Gambia",
        "road": null,
        "house_number": null,
        "neighbourhood": null,
        "suburb": null,
        "city_district": null,
        "city": "Abuko",
        "state": "West Coast Division",
        "postcode": null,
        "country": "The Gambia",
        "country_code": "gm"
      },
      "address": "160, Abuko, Kombo North/Saint Mary, Brikama, 98817 West Coast Division, The Gambia"
    },
    {
      "lat": 13.403388909648143,
      "lon": -16.658086498045986,
      "geoinfo": {
        "display_name": "Abuko, Kombo North/Saint Mary, Brikama, West Coast Division, The Gambia",
        "road": null,
        "house_number": null,
        "neighbourhood": null,
        "suburb": null,
        "city_district": null,
        "city": "Abuko",
        "state": "West Coast Division",
        "postcode": null,
        "country": "The Gambia",
        "country_code": "gm"
      },
      "address": "918, Abuko, Kombo North/Saint Mary, Brikama, 40221 West Coast Division, The Gambia"
    },
    {
      "lat": 13.404442931447594,
      "lon": -16.654794966210943,
      "geoinfo": {
        "display_name": "Abuko, Kombo North/Saint Mary, Brikama, West Coast Division, The Gambia",
        "road": null,
        "house_number": null,
        "neighbourhood": null,
        "suburb": null,
        "city_district": null,
        "city": "Abuko",
        "state": "West Coast Division",
        "postcode": null,
        "country": "The Gambia",
        "country_code": "gm"
      },
      "address": "654, Abuko, Kombo North/Saint Mary, Brikama, 08916 West Coast Division, The Gambia"
    },
    {
      "lat": 13.401798339902763,
      "lon": -16.65618651811683,
      "geoinfo": {
        "display_name": "Brikama Highway, Abuko, Kombo North/Saint Mary, Brikama, West Coast Division, The Gambia",
        "road": "Brikama Highway",
        "house_number": null,
        "neighbourhood": null,
        "suburb": null,
        "city_district": null,
        "city": "Abuko",
        "state": "West Coast Division",
        "postcode": null,
        "country": "The Gambia",
        "country_code": "gm"
      },
      "address": "903, Brikama Highway, Abuko, Kombo North/Saint Mary, Brikama, 51592 West Coast Division, The Gambia"
    },
    {
      "lat": 13.401836978004425,
      "lon": -16.65680592312554,
      "geoinfo": {
        "display_name": "Abuko, Kombo North/Saint Mary, Brikama, West Coast Division, The Gambia",
        "road": null,
        "house_number": null,
        "neighbourhood": null,
        "suburb": null,
        "city_district": null,
        "city": "Abuko",
        "state": "West Coast Division",
        "postcode": null,
        "country": "The Gambia",
        "country_code": "gm"
      },
      "address": "225, Abuko, Kombo North/Saint Mary, Brikama, 28912 West Coast Division, The Gambia"
    },
    {
      "lat": 13.404140885038023,
      "lon": -16.65619830581588,
      "geoinfo": {
        "display_name": "Abuko, Kombo North/Saint Mary, Brikama, West Coast Division, The Gambia",
        "road": null,
        "house_number": null,
        "neighbourhood": null,
        "suburb": null,
        "city_district": null,
        "city": "Abuko",
        "state": "West Coast Division",
        "postcode": null,
        "country": "The Gambia",
        "country_code": "gm"
      },
      "address": "102, Abuko, Kombo North/Saint Mary, Brikama, 86201 West Coast Division, The Gambia"
    }
  ],
  "updated_at": "2025-10-22T00:21:47.070534+00:00",
  "_kind": "geo_samples"
}