{
  "country_code": "GM",
  "country": "Gambia",
  "city": "Bakau New Town",
  "geonameid": 12640499,
  "target_addresses": 50,
  "samples": [
    {
      "lat": 13.474137845678412,
      "lon": -16.65897812119597,
      "geoinfo": {
        "display_name": "Old Cape Road, Garden, Old Bakau and Cape Point, Serrekunda, Kanifing Municipal Council, The Gambia",
        "road": "Old Cape Road",
        "house_number": null,
        "neighbourhood": null,
        "suburb": null,
        "city_district": null,
        "city": "Serrekunda",
        "state": "Kanifing Municipal Council",
        "postcode": null,
        "country": "The Gambia",
        "country_code": "gm"
      },
      "address": "Old Cape Road, Bakau New Town, Kanifing Municipal Council, Gambia"
    },
    {
      "lat": 13.507804705926107,
      "lon": -16.70496780015227,
      "geoinfo": {
        "display_name": "Kanifing, Kanifing Municipal Council, The Gambia",
        "road": null,
        "house_number": null,
        "neighbourhood": null,
        "suburb": null,
        "city_district": null,
        "city": "Kanifing",
        "state": "Kanifing Municipal Council",
        "postcode": null,
        "country": "The Gambia",
        "country_code": "gm"
      },
      "address": "Bakau New Town, Kanifing Municipal Council, Gambia"
    },
    {
      "lat": 13.480251474920754,
      "lon": -16.69146539486743,
      "geoinfo": {
        "display_name": "St Paul's Church, Atlantic Boulevard, Bakau Newtown, Bakau, Bakau New Town and Fajara, Serrekunda, Kanifing Municipal Council, The Gambia",
        "road": "Atlantic Boulevard",
        "house_number": null,
        "neighbourhood": "Bakau Newtown",
        "suburb": "Bakau",
        "city_district": null,
        "city": "Serrekunda",
        "state": "Kanifing Municipal Council",
        "postcode": null,
        "country": "The Gambia",
        "country_code": "gm"
      },
      "address": "Atlantic Boulevard, Bakau New Town, Kanifing Municipal Council, Gambia"
    },
    {
      "lat": 13.505496976422451,
      "lon": -16.669811021278907,
      "geoinfo": {
        "display_name": "Bakau, Bakau New Town and Fajara, Serrekunda, Kanifing Municipal Council, The Gambia",
        "road": null,
        "house_number": null,
        "neighbourhood": null,
        "suburb": "Bakau",
        "city_district": null,
        "city": "Serrekunda",
        "state": "Kanifing Municipal Council",
        "postcode": null,
        "country": "The Gambia",
        "country_code": "gm"
      },
      "address": "Bakau, Bakau New Town, Kanifing Municipal Council, Gambia"
    },
    {
      "lat": 13.472384534120923,
      "lon": -16.676668072973275,
      "geoinfo": {
        "display_name": "Bakau Newtown, Bakau, Bakau New Town and Fajara, Serrekunda, Kanifing Municipal Council, The Gambia",
        "road": null,
        "house_number": null,
        "neighbourhood": "Bakau Newtown",
        "suburb": "Bakau",
        "city_district": null,
        "city": "Serrekunda",
        "state": "Kanifing Municipal Council",
        "postcode": null,
        "country": "The Gambia",
        "country_code": "gm"
      },
      "address": "254, Bakau Newtown, Bakau, Bakau New Town and Fajara, Serrekunda, 10310 Kanifing Municipal Council, The Gambia"
    },
    {
      "lat": 13.5115091844432,
      "lon": -16.692595848767244,
      "geoinfo": {
        "display_name": "Bakau, Bakau New Town and Fajara, Serrekunda, Kanifing Municipal Council, The Gambia",
        "road": null,
        "house_number": null,
        "neighbourhood": null,
        "suburb": "Bakau",
        "city_district": null,
        "city": "Serrekunda",
        "state": "Kanifing Municipal Council",
        "postcode": null,
        "country": "The Gambia",
        "country_code": "gm"
      },
      "address": "115, Bakau, Bakau New Town and Fajara, Serrekunda, 77697 Kanifing Municipal Council, The Gambia"
    },
    {
      "lat": 13.450353433501887,
      "lon": -16.711447053306788,
      "geoinfo": {
        "display_name": "Kotu Palma Rima Road, Kololi, Kombo North/Saint Mary, Brikama, Kanifing Municipal Council, The Gambia",
        "road": "Kotu Palma Rima Road",
        "house_number": null,
        "neighbourhood": null,
        "suburb": "Kololi",
        "city_district": null,
        "city": null,
        "state": "Kanifing Municipal Council",
        "postcode": null,
        "country": "The Gambia",
        "country_code": "gm"
      },
      "address": "446, Kotu Palma Rima Road, Kololi, Kombo North/Saint Mary, Brikama, 55711 Kanifing Municipal Council, The Gambia"
    },
    {
      "lat": 13.456163109995858,
      "lon": -16.656717636054815,
      "geoinfo": {
        "display_name": "Old Jeshwang, Serrekunda, Kanifing Municipal Council, The Gambia",
        "road": null,
        "house_number": null,
        "neighbourhood": "Old Jeshwang",
        "suburb": null,
        "city_district": null,
        "city": "Serrekunda",
        "state": "Kanifing Municipal Council",
        "postcode": null,
        "country": "The Gambia",
        "country_code": "gm"
      },
      "address": "294, Old Jeshwang, Serrekunda, 09423 Kanifing Municipal Council, The Gambia"
    },
    {
      "lat": 13.474890542023001,
      "lon": -16.683764090023573,
      "geoinfo": {
        "display_name": "Landing Kotoring Street, Bakau Newtown, Bakau, Bakau New Town and Fajara, Serrekunda, Kanifing Municipal Council, The Gambia",
        "road": "Landing Kotoring Street",
        "house_number": null,
        "neighbourhood": "Bakau Newtown",
        "suburb": "Bakau",
        "city_district": null,
        "city": "Serrekunda",
        "state": "Kanifing Municipal Council",
        "postcode": null,
        "country": "The Gambia",
        "country_code": "gm"
      },
      "address": "397, Landing Kotoring Street, Bakau Newtown, Bakau, Bakau New Town and Fajara, Serrekunda, 33215 Kanifing Municipal Council, The Gambia"
    },
    {
      "lat": 13.472876826769388,
      "lon": -16.687646197179575,
      "geoinfo": {
        "display_name": "Medical Research Council, Dakar street, Bakau Newtown, Fajara, Bakau New Town and Fajara, Serrekunda, Kanifing Municipal Council, The Gambia",
        "road": "Dakar street",
        "house_number": null,
        "neighbourhood": "Bakau Newtown",
        "suburb": "Fajara",
        "city_district": null,
        "city": "Serrekunda",
        "state": "Kanifing Municipal Council",
        "postcode": null,
        "country": "The Gambia",
        "country_code": "gm"
      },
      "address": "330, Dakar street, Bakau New Town, 09569 Kanifing Municipal Council, Gambia"
    },
    {
      "lat": 13.475324138656438,
      "lon": -16.6853397673222,
      "geoinfo": {
        "display_name": "Bakau Newtown, Fajara, Bakau New Town and Fajara, Serrekunda, Kanifing Municipal Council, The Gambia",
        "road": null,
        "house_number": null,
        "neighbourhood": "Bakau Newtown",
        "suburb": "Fajara",
        "city_district": null,
        "city": "Serrekunda",
        "state": "Kanifing Municipal Council",
        "postcode": null,
        "country": "The Gambia",
        "country_code": "gm"
      },
      "address": "648, Bakau Newtown, Fajara, Bakau New Town and Fajara, Serrekunda, 61967 Kanifing Municipal Council, The Gambia"
    },
    {
      "lat": 13.473448643512295,
      "lon": -16.685172509526613,
      "geoinfo": {
        "display_name": "Medical Research Council, Dakar street, Bakau Newtown, Fajara, Bakau New Town and Fajara, Serrekunda, Kanifing Municipal Council, The Gambia",
        "road": "Dakar street",
        "house_number": null,
        "neighbourhood": "Bakau Newtown",
        "suburb": "Fajara",
        "city_district": null,
        "city": "Serrekunda",
        "state": "Kanifing Municipal Council",
        "postcode": null,
        "country": "The Gambia",
        "country_code": "gm"
      },
      "address": "172, Dakar street, Bakau New Town, 23323 Kanifing Municipal Council, Gambia"
    },
    {
      "lat": 13.472523791728804,
      "lon": -16.68252206580405,
      "geoinfo": {
        "display_name": "Bakau Newtown, Bakau, Bakau New Town and Fajara, Serrekunda, Kanifing Municipal Council, The Gambia",
        "road": null,
        "house_number": null,
        "neighbourhood": "Bakau Newtown",
        "suburb": "Bakau",
        "city_district": null,
        "city": "Serrekunda",
        "state": "Kanifing Municipal Council",
        "postcode": null,
        "country": "The Gambia",
        "country_code": "gm"
      },
      "address": "115, Bakau Newtown, Bakau, Bakau New Town and Fajara, Serrekunda, 81616 Kanifing Municipal Council, The Gambia"
    },
    {
      "lat": 13.473944402348447,
      "lon": -16.684720077812173,
      "geoinfo": {
        "display_name": "Bakau Newtown, Fajara, Bakau New Town and Fajara, Serrekunda, Kanifing Municipal Council, The Gambia",
        "road": null,
        "house_number": null,
        "neighbourhood": "Bakau Newtown",
        "suburb": "Fajara",
        "city_district": null,
        "city": "Serrekunda",
        "state": "Kanifing Municipal Council",
        "postcode": null,
        "country": "The Gambia",
        "country_code": "gm"
      },
      "address": "893, Bakau Newtown, Fajara, Bakau New Town and Fajara, Serrekunda, 47306 Kanifing Municipal Council, The Gambia"
    },
    {
      "lat": 13.473877503147529,
      "lon": -16.687723531186567,
      "geoinfo": {
        "display_name": "Medical Research Council, Dakar street, Bakau Newtown, Fajara, Bakau New Town and Fajara, Serrekunda, Kanifing Municipal Council, The Gambia",
        "road": "Dakar street",
        "house_number": null,
        "neighbourhood": "Bakau Newtown",
        "suburb": "Fajara",
        "city_district": null,
        "city": "Serrekunda",
        "state": "Kanifing Municipal Council",
        "postcode": null,
        "country": "The Gambia",
        "country_code": "gm"
      },
      "address": "156, Dakar street, Bakau New Town, 66165 Kanifing Municipal Council, Gambia"
    },
    {
      "lat": 13.47512448143198,
      "lon": -16.685259689883967,
      "geoinfo": {
        "display_name": "Bakau Newtown, Fajara, Bakau New Town and Fajara, Serrekunda, Kanifing Municipal Council, The Gambia",
        "road": null,
        "house_number": null,
        "neighbourhood": "Bakau Newtown",
        "suburb": "Fajara",
        "city_district": null,
        "city": "Serrekunda",
        "state": "Kanifing Municipal Council",
        "postcode": null,
        "country": "The Gambia",
        "country_code": "gm"
      },
      "address": "803, Bakau Newtown, Fajara, Bakau New Town and Fajara, Serrekunda, 01270 Kanifing Municipal Council, The Gambia"
    },
    {
      "lat": 13.471775317114542,
      "lon": -16.685607982992362,
      "geoinfo": {
        "display_name": "Marina Junior School, Garba Jahumpa Road, Bakau Newtown, Fajara, Bakau New Town and Fajara, Serrekunda, Kanifing Municipal Council, The Gambia",
        "road": "Garba Jahumpa Road",
        "house_number": null,
        "neighbourhood": "Bakau Newtown",
        "suburb": "Fajara",
        "city_district": null,
        "city": "Serrekunda",
        "state": "Kanifing Municipal Council",
        "postcode": null,
        "country": "The Gambia",
        "country_code": "gm"
      },
      "address": "892, Garba Jahumpa Road, Bakau New Town, 83708 Kanifing Municipal Council, Gambia"
    },
    {
      "lat": 13.472568631123227,
      "lon": -16.685412812970313,
      "geoinfo": {
        "display_name": "Marina Junior School, Garba Jahumpa Road, Bakau Newtown, Fajara, Bakau New Town and Fajara, Serrekunda, Kanifing Municipal Council, The Gambia",
        "road": "Garba Jahumpa Road",
        "house_number": null,
        "neighbourhood": "Bakau Newtown",
        "suburb": "Fajara",
        "city_district": null,
        "city": "Serrekunda",
        "state": "Kanifing Municipal Council",
        "postcode": null,
        "country": "The Gambia",
        "country_code": "gm"
      },
      "address": "905, Garba Jahumpa Road, Bakau New Town, 14739 Kanifing Municipal Council, Gambia"
    },
    {
      "lat": 13.474347283793348,
      "lon": -16.68518175293113,
      "geoinfo": {
        "display_name": "Bakau Newtown, Fajara, Bakau New Town and Fajara, Serrekunda, Kanifing Municipal Council, The Gambia",
        "road": null,
        "house_number": null,
        "neighbourhood": "Bakau Newtown",
        "suburb": "Fajara",
        "city_district": null,
        "city": "Serrekunda",
        "state": "Kanifing Municipal Council",
        "postcode": null,
        "country": "The Gambia",
        "country_code": "gm"
      },
      "address": "607, Bakau Newtown, Fajara, Bakau New Town and Fajara, Serrekunda, 93197 Kanifing Municipal Council, The Gambia"
    },
    {
      "lat": 13.472840727171066,
      "lon": -16.687063254189486,
      "geoinfo": {
        "display_name": "Medical Research Council, Dakar street, Bakau Newtown, Fajara, Bakau New Town and Fajara, Serrekunda, Kanifing Municipal Council, The Gambia",
        "road": "Dakar street",
        "house_number": null,
        "neighbourhood": "Bakau Newtown",
        "suburb": "Fajara",
        "city_district": null,
        "city": "Serrekunda",
        "state": "Kanifing Municipal Council",
        "postcode": null,
        "country": "The Gambia",
        "country_code": "gm"
      },
      "address": "348, Dakar street, Bakau New Town, 00777 Kanifing Municipal Council, Gambia"
    },
    {
      "lat": 13.473813886630854,
      "lon": -16.68570464849445,
      "geoinfo": {
        "display_name": "Medical Research Council, Dakar street, Bakau Newtown, Fajara, Bakau New Town and Fajara, Serrekunda, Kanifing Municipal Council, The Gambia",
        "road": "Dakar street",
        "house_number": null,
        "neighbourhood": "Bakau Newtown",
        "suburb": "Fajara",
        "city_district": null,
        "city": "Serrekunda",
        "state": "Kanifing Municipal Council",
        "postcode": null,
        "country": "The Gambia",
        "country_code": "gm"
      },
      "address": "256, Dakar street, Bakau New Town, 14971 Kanifing Municipal Council, Gambia"
    },
    {
      "lat": 13.474693137735734,
      "lon": -16.68508076959167,
      "geoinfo": {
        "display_name": "Bakau Newtown, Bakau, Bakau New Town and Fajara, Serrekunda, Kanifing Municipal Council, The Gambia",
        "road": null,
        "house_number": null,
        "neighbourhood": "Bakau Newtown",
        "suburb": "Bakau",
        "city_district": null,
        "city": "Serrekunda",
        "state": "Kanifing Municipal Council",
        "postcode": null,
        "country": "The Gambia",
        "country_code": "gm"
      },
      "address": "384, Bakau Newtown, Bakau, Bakau New Town and Fajara, Serrekunda, 57808 Kanifing Municipal Council, The Gambia"
    },
    {
      "lat": 13.474316616474159,
      "lon": -16.684892428044854,
      "geoinfo": {
        "display_name": "Bakau Newtown, Fajara, Bakau New Town and Fajara, Serrekunda, Kanifing Municipal Council, The Gambia",
        "road": null,
        "house_number": null,
        "neighbourhood": "Bakau Newtown",
        "suburb": "Fajara",
        "city_district": null,
        "city": "Serrekunda",
        "state": "Kanifing Municipal Council",
        "postcode": null,
        "country": "The Gambia",
        "country_code": "gm"
      },
      "address": "762, Bakau Newtown, Fajara, Bakau New Town and Fajara, Serrekunda, 48909 Kanifing Municipal Council, The Gambia"
    },
    {
      "lat": 13.471079149970326,
      "lon": -16.686678938523713,
      "geoinfo": {
        "display_name": "Marina International High School, Garba Jahumpa Road, Bakau Newtown, Fajara, Bakau New Town and Fajara, Serrekunda, Kanifing Municipal Council, The Gambia",
        "road": "Garba Jahumpa Road",
        "house_number": null,
        "neighbourhood": "Bakau Newtown",
        "suburb": "Fajara",
        "city_district": null,
        "city": "Serrekunda",
        "state": "Kanifing Municipal Council",
        "postcode": null,
        "country": "The Gambia",
        "country_code": "gm"
      },
      "address": "519, Garba Jahumpa Road, Bakau New Town, 51314 Kanifing Municipal Council, Gambia"
    },
    {
      "lat": 13.472218063867473,
      "lon": -16.684409511428125,
      "geoinfo": {
        "display_name": "Bakau Newtown, Fajara, Bakau New Town and Fajara, Serrekunda, Kanifing Municipal Council, The Gambia",
        "road": null,
        "house_number": null,
        "neighbourhood": "Bakau Newtown",
        "suburb": "Fajara",
        "city_district": null,
        "city": "Serrekunda",
        "state": "Kanifing Municipal Council",
        "postcode": null,
        "country": "The Gambia",
        "country_code": "gm"
      },
      "address": "932, Bakau Newtown, Fajara, Bakau New Town and Fajara, Serrekunda, 28629 Kanifing Municipal Council, The Gambia"
    },
    {
      "lat": 13.472169749897079,
      "lon": -16.682618099824897,
      "geoinfo": {
        "display_name": "Garba Jahumpa Road, Bakau Newtown, Fajara, Bakau New Town and Fajara, Serrekunda, Kanifing Municipal Council, The Gambia",
        "road": "Garba Jahumpa Road",
        "house_number": null,
        "neighbourhood": "Bakau Newtown",
        "suburb": "Fajara",
        "city_district": null,
        "city": "Serrekunda",
        "state": "Kanifing Municipal Council",
        "postcode": null,
        "country": "The Gambia",
        "country_code": "gm"
      },
      "address": "553, Garba Jahumpa Road, Bakau Newtown, Fajara, Bakau New Town and Fajara, Serrekunda, 52201 Kanifing Municipal Council, The Gambia"
    },
    {
      "lat": 13.47352887234148,
      "lon": -16.684820581491998,
      "geoinfo": {
        "display_name": "Bakau Newtown, Fajara, Bakau New Town and Fajara, Serrekunda, Kanifing Municipal Council, The Gambia",
        "road": null,
        "house_number": null,
        "neighbourhood": "Bakau Newtown",
        "suburb": "Fajara",
        "city_district": null,
        "city": "Serrekunda",
        "state": "Kanifing Municipal Council",
        "postcode": null,
        "country": "The Gambia",
        "country_code": "gm"
      },
      "address": "349, Bakau Newtown, Fajara, Bakau New Town and Fajara, Serrekunda, 03752 Kanifing Municipal Council, The Gambia"
    },
    {
      "lat": 13.473338203946701,
      "lon": -16.68243760181991,
      "geoinfo": {
        "display_name": "Landing Kotoring Street, Bakau Newtown, Bakau, Bakau New Town and Fajara, Serrekunda, Kanifing Municipal Council, The Gambia",
        "road": "Landing Kotoring Street",
        "house_number": null,
        "neighbourhood": "Bakau Newtown",
        "suburb": "Bakau",
        "city_district": null,
        "city": "Serrekunda",
        "state": "Kanifing Municipal Council",
        "postcode": null,
        "country": "The Gambia",
        "country_code": "gm"
      },
      "address": "965, Landing Kotoring Street, Bakau Newtown, Bakau, Bakau New Town and Fajara, Serrekunda, 80428 Kanifing Municipal Council, The Gambia"
    },
    {
      "lat": 13.471366385912479,
      "lon": -16.686499167811505,
      "geoinfo": {
        "display_name": "Garba Jahumpa Road, Bakau Newtown, Fajara, Bakau New Town and Fajara, Serrekunda, Kanifing Municipal Council, The Gambia",
        "road": "Garba Jahumpa Road",
        "house_number": null,
        "neighbourhood": "Bakau Newtown",
        "suburb": "Fajara",
        "city_district": null,
        "city": "Serrekunda",
        "state": "Kanifing Municipal Council",
        "postcode": null,
        "country": "The Gambia",
        "country_code": "gm"
      },
      "address": "567, Garba Jahumpa Road, Bakau Newtown, Fajara, Bakau New Town and Fajara, Serrekunda, 72951 Kanifing Municipal Council, The Gambia"
    },
    {
      "lat": 13.473734126541622,
      "lon": -16.68682416369706,
      "geoinfo": {
        "display_name": "Medical Research Council, Accra Lane, Bakau Newtown, Fajara, Bakau New Town and Fajara, Serrekunda, Kanifing Municipal Council, The Gambia",
        "road": "Accra Lane",
        "house_number": null,
        "neighbourhood": "Bakau Newtown",
        "suburb": "Fajara",
        "city_district": null,
        "city": "Serrekunda",
        "state": "Kanifing Municipal Council",
        "postcode": null,
        "country": "The Gambia",
        "country_code": "gm"
      },
      "address": "692, Accra Lane, Bakau New Town, 59897 Kanifing Municipal Council, Gambia"
    },
    {
      "lat": 13.472944450105732,
      "lon": -16.685888192774847,
      "geoinfo": {
        "display_name": "Medical Research Council, Accra Lane, Bakau Newtown, Fajara, Bakau New Town and Fajara, Serrekunda, Kanifing Municipal Council, The Gambia",
        "road": "Accra Lane",
        "house_number": null,
        "neighbourhood": "Bakau Newtown",
        "suburb": "Fajara",
        "city_district": null,
        "city": "Serrekunda",
        "state": "Kanifing Municipal Council",
        "postcode": null,
        "country": "The Gambia",
        "country_code": "gm"
      },
      "address": "834, Accra Lane, Bakau New Town, 59537 Kanifing Municipal Council, Gambia"
    },
    {
      "lat": 13.4716258771645,
      "lon": -16.686425509346105,
      "geoinfo": {
        "display_name": "Garba Jahumpa Road, Bakau Newtown, Fajara, Bakau New Town and Fajara, Serrekunda, Kanifing Municipal Council, The Gambia",
        "road": "Garba Jahumpa Road",
        "house_number": null,
        "neighbourhood": "Bakau Newtown",
        "suburb": "Fajara",
        "city_district": null,
        "city": "Serrekunda",
        "state": "Kanifing Municipal Council",
        "postcode": null,
        "country": "The Gambia",
        "country_code": "gm"
      },
      "address": "067, Garba Jahumpa Road, Bakau Newtown, Fajara, Bakau New Town and Fajara, Serrekunda, 75723 Kanifing Municipal Council, The Gambia"
    },
    {
      "lat": 13.473950686741155,
      "lon": -16.686256379699547,
      "geoinfo": {
        "display_name": "Medical Research Council, Accra Lane, Bakau Newtown, Fajara, Bakau New Town and Fajara, Serrekunda, Kanifing Municipal Council, The Gambia",
        "road": "Accra Lane",
        "house_number": null,
        "neighbourhood": "Bakau Newtown",
        "suburb": "Fajara",
        "city_district": null,
        "city": "Serrekunda",
        "state": "Kanifing Municipal Council",
        "postcode": null,
        "country": "The Gambia",
        "country_code": "gm"
      },
      "address": "276, Accra Lane, Bakau New Town, 35900 Kanifing Municipal Council, Gambia"
    },
    {
      "lat": 13.47124552707612,
      "lon": -16.684889390907884,
      "geoinfo": {
        "display_name": "Garba Jahumpa Road, Bakau Newtown, Fajara, Bakau New Town and Fajara, Serrekunda, Kanifing Municipal Council, The Gambia",
        "road": "Garba Jahumpa Road",
        "house_number": null,
        "neighbourhood": "Bakau Newtown",
        "suburb": "Fajara",
        "city_district": null,
        "city": "Serrekunda",
        "state": "Kanifing Municipal Council",
        "postcode": null,
        "country": "The Gambia",
        "country_code": "gm"
      },
      "address": "597, Garba Jahumpa Road, Bakau Newtown, Fajara, Bakau New Town and Fajara, Serrekunda, 25764 Kanifing Municipal Council, The Gambia"
    },
    {
      "lat": 13.472985944902227,
      "lon": -16.684207888239566,
      "geoinfo": {
        "display_name": "Bakau Newtown, Fajara, Bakau New Town and Fajara, Serrekunda, Kanifing Municipal Council, The Gambia",
        "road": null,
        "house_number": null,
        "neighbourhood": "Bakau Newtown",
        "suburb": "Fajara",
        "city_district": null,
        "city": "Serrekunda",
        "state": "Kanifing Municipal Council",
        "postcode": null,
        "country": "The Gambia",
        "country_code": "gm"
      },
      "address": "806, Bakau Newtown, Fajara, Bakau New Town and Fajara, Serrekunda, 71903 Kanifing Municipal Council, The Gambia"
    },
    {
      "lat": 13.471956095080216,
      "lon": -16.68259218718655,
      "geoinfo": {
        "display_name": "Garba Jahumpa Road, Bakau Newtown, Fajara, Bakau New Town and Fajara, Serrekunda, Kanifing Municipal Council, The Gambia",
        "road": "Garba Jahumpa Road",
        "house_number": null,
        "neighbourhood": "Bakau Newtown",
        "suburb": "Fajara",
        "city_district": null,
        "city": "Serrekunda",
        "state": "Kanifing Municipal Council",
        "postcode": null,
        "country": "The Gambia",
        "country_code": "gm"
      },
      "address": "685, Garba Jahumpa Road, Bakau Newtown, Fajara, Bakau New Town and Fajara, Serrekunda, 80701 Kanifing Municipal Council, The Gambia"
    },
    {
      "lat": 13.473850998026483,
      "lon": -16.68766989293343,
      "geoinfo": {
        "display_name": "Medical Research Council, Accra Lane, Bakau Newtown, Fajara, Bakau New Town and Fajara, Serrekunda, Kanifing Municipal Council, The Gambia",
        "road": "Accra Lane",
        "house_number": null,
        "neighbourhood": "Bakau Newtown",
        "suburb": "Fajara",
        "city_district": null,
        "city": "Serrekunda",
        "state": "Kanifing Municipal Council",
        "postcode": null,
        "country": "The Gambia",
        "country_code": "gm"
      },
      "address": "375, Accra Lane, Bakau New Town, 45276 Kanifing Municipal Council, Gambia"
    },
    {
      "lat": 13.471857624014795,
      "lon": -16.683714228109558,
      "geoinfo": {
        "display_name": "Bakau Newtown, Bakau, Bakau New Town and Fajara, Serrekunda, Kanifing Municipal Council, The Gambia",
        "road": null,
        "house_number": null,
        "neighbourhood": "Bakau Newtown",
        "suburb": "Bakau",
        "city_district": null,
        "city": "Serrekunda",
        "state": "Kanifing Municipal Council",
        "postcode": null,
        "country": "The Gambia",
        "country_code": "gm"
      },
      "address": "055, Bakau Newtown, Bakau, Bakau New Town and Fajara, Serrekunda, 56608 Kanifing Municipal Council, The Gambia"
    },
    {
      "lat": 13.473765229848832,
      "lon": -16.685181041795236,
      "geoinfo": {
        "display_name": "Medical Research Council, Accra Lane, Bakau Newtown, Fajara, Bakau New Town and Fajara, Serrekunda, Kanifing Municipal Council, The Gambia",
        "road": "Accra Lane",
        "house_number": null,
        "neighbourhood": "Bakau Newtown",
        "suburb": "Fajara",
        "city_district": null,
        "city": "Serrekunda",
        "state": "Kanifing Municipal Council",
        "postcode": null,
        "country": "The Gambia",
        "country_code": "gm"
      },
      "address": "571, Accra Lane, Bakau New Town, 68154 Kanifing Municipal Council, Gambia"
    },
    {
      "lat": 13.474025122026108,
      "lon": -16.68446541643054,
      "geoinfo": {
        "display_name": "J. J. Baker Street, Bakau Newtown, Bakau, Bakau New Town and Fajara, Serrekunda, Kanifing Municipal Council, The Gambia",
        "road": "J. J. Baker Street",
        "house_number": null,
        "neighbourhood": "Bakau Newtown",
        "suburb": "Bakau",
        "city_district": null,
        "city": "Serrekunda",
        "state": "Kanifing Municipal Council",
        "postcode": null,
        "country": "The Gambia",
        "country_code": "gm"
      },
      "address": "274, J. J. Baker Street, Bakau Newtown, Bakau, Bakau New Town and Fajara, Serrekunda, 11115 Kanifing Municipal Council, The Gambia"
    },
    {
      "lat": 13.473879468739236,
      "lon": -16.68324986591185,
      "geoinfo": {
        "display_name": "J. J. Baker Street, Bakau Newtown, Bakau, Bakau New Town and Fajara, Serrekunda, Kanifing Municipal Council, The Gambia",
        "road": "J. J. Baker Street",
        "house_number": null,
        "neighbourhood": "Bakau Newtown",
        "suburb": "Bakau",
        "city_district": null,
        "city": "Serrekunda",
        "state": "Kanifing Municipal Council",
        "postcode": null,
        "country": "The Gambia",
        "country_code": "gm"
      },
      "address": "812, J. J. Baker Street, Bakau Newtown, Bakau, Bakau New Town and Fajara, Serrekunda, 73694 Kanifing Municipal Council, The Gambia"
    },
    {
      "lat": 13.470976678506377,
      "lon": -16.68547656417785,
      "geoinfo": {
        "display_name": "Garba Jahumpa Road, Bakau Newtown, Fajara, Bakau New Town and Fajara, Serrekunda, Kanifing Municipal Council, The Gambia",
        "road": "Garba Jahumpa Road",
        "house_number": null,
        "neighbourhood": "Bakau Newtown",
        "suburb": "Fajara",
        "city_district": null,
        "city": "Serrekunda",
        "state": "Kanifing Municipal Council",
        "postcode": null,
        "country": "The Gambia",
        "country_code": "gm"
      },
      "address": "524, Garba Jahumpa Road, Bakau Newtown, Fajara, Bakau New Town and Fajara, Serrekunda, 39390 Kanifing Municipal Council, The Gambia"
    },
    {
      "lat": 13.473437885910151,
      "lon": -16.686774824247998,
      "geoinfo": {
        "display_name": "Medical Research Council, Accra Lane, Bakau Newtown, Fajara, Bakau New Town and Fajara, Serrekunda, Kanifing Municipal Council, The Gambia",
        "road": "Accra Lane",
        "house_number": null,
        "neighbourhood": "Bakau Newtown",
        "suburb": "Fajara",
        "city_district": null,
        "city": "Serrekunda",
        "state": "Kanifing Municipal Council",
        "postcode": null,
        "country": "The Gambia",
        "country_code": "gm"
      },
      "address": "404, Accra Lane, Bakau New Town, 43082 Kanifing Municipal Council, Gambia"
    },
    {
      "lat": 13.47223353200212,
      "lon": -16.68571409414533,
      "geoinfo": {
        "display_name": "Marina Junior School, Garba Jahumpa Road, Bakau Newtown, Fajara, Bakau New Town and Fajara, Serrekunda, Kanifing Municipal Council, The Gambia",
        "road": "Garba Jahumpa Road",
        "house_number": null,
        "neighbourhood": "Bakau Newtown",
        "suburb": "Fajara",
        "city_district": null,
        "city": "Serrekunda",
        "state": "Kanifing Municipal Council",
        "postcode": null,
        "country": "The Gambia",
        "country_code": "gm"
      },
      "address": "706, Garba Jahumpa Road, Bakau New Town, 92756 Kanifing Municipal Council, Gambia"
    },
    {
      "lat": 13.473732941538813,
      "lon": -16.68643053578317,
      "geoinfo": {
        "display_name": "Medical Research Council, Accra Lane, Bakau Newtown, Fajara, Bakau New Town and Fajara, Serrekunda, Kanifing Municipal Council, The Gambia",
        "road": "Accra Lane",
        "house_number": null,
        "neighbourhood": "Bakau Newtown",
        "suburb": "Fajara",
        "city_district": null,
        "city": "Serrekunda",
        "state": "Kanifing Municipal Council",
        "postcode": null,
        "country": "The Gambia",
        "country_code": "gm"
      },
      "address": "663, Accra Lane, Bakau New Town, 93385 Kanifing Municipal Council, Gambia"
    },
    {
      "lat": 13.473274998349874,
      "lon": -16.6840307250157,
      "geoinfo": {
        "display_name": "J. J. Baker Street, Bakau Newtown, Bakau, Bakau New Town and Fajara, Serrekunda, Kanifing Municipal Council, The Gambia",
        "road": "J. J. Baker Street",
        "house_number": null,
        "neighbourhood": "Bakau Newtown",
        "suburb": "Bakau",
        "city_district": null,
        "city": "Serrekunda",
        "state": "Kanifing Municipal Council",
        "postcode": null,
        "country": "The Gambia",
        "country_code": "gm"
      },
      "address": "931, J. J. Baker Street, Bakau Newtown, Bakau, Bakau New Town and Fajara, Serrekunda, 23383 Kanifing Municipal Council, The Gambia"
    },
    {
      "lat": 13.471534024822807,
      "lon": -16.68344809335005,
      "geoinfo": {
        "display_name": "Garba Jahumpa Road, Bakau Newtown, Fajara, Bakau New Town and Fajara, Serrekunda, Kanifing Municipal Council, The Gambia",
        "road": "Garba Jahumpa Road",
        "house_number": null,
        "neighbourhood": "Bakau Newtown",
        "suburb": "Fajara",
        "city_district": null,
        "city": "Serrekunda",
        "state": "Kanifing Municipal Council",
        "postcode": null,
        "country": "The Gambia",
        "country_code": "gm"
      },
      "address": "932, Garba Jahumpa Road, Bakau Newtown, Fajara, Bakau New Town and Fajara, Serrekunda, 77481 Kanifing Municipal Council, The Gambia"
    },
    {
      "lat": 13.471150093545278,
      "lon": -16.684501599962243,
      "geoinfo": {
        "display_name": "Garba Jahumpa Road, Bakau Newtown, Fajara, Bakau New Town and Fajara, Serrekunda, Kanifing Municipal Council, The Gambia",
        "road": "Garba Jahumpa Road",
        "house_number": null,
        "neighbourhood": "Bakau Newtown",
        "suburb": "Fajara",
        "city_district": null,
        "city": "Serrekunda",
        "state": "Kanifing Municipal Council",
        "postcode": null,
        "country": "The Gambia",
        "country_code": "gm"
      },
      "address": "002, Garba Jahumpa Road, Bakau Newtown, Fajara, Bakau New Town and Fajara, Serrekunda, 63322 Kanifing Municipal Council, The Gambia"
    },
    {
      "lat": 13.47080828216574,
      "lon": -16.68454958226741,
      "geoinfo": {
        "display_name": "Garba Jahumpa Road, Bakau Newtown, Fajara, Bakau New Town and Fajara, Serrekunda, Kanifing Municipal Council, The Gambia",
        "road": "Garba Jahumpa Road",
        "house_number": null,
        "neighbourhood": "Bakau Newtown",
        "suburb": "Fajara",
        "city_district": null,
        "city": "Serrekunda",
        "state": "Kanifing Municipal Council",
        "postcode": null,
        "country": "The Gambia",
        "country_code": "gm"
      },
      "address": "973, Garba Jahumpa Road, Bakau Newtown, Fajara, Bakau New Town and Fajara, Serrekunda, 77898 Kanifing Municipal Council, The Gambia"
    },
    {
      "lat": 13.473843883279157,
      "lon": -16.686958046447664,
      "geoinfo": {
        "display_name": "Medical Research Council, Accra Lane, Bakau Newtown, Fajara, Bakau New Town and Fajara, Serrekunda, Kanifing Municipal Council, The Gambia",
        "road": "Accra Lane",
        "house_number": null,
        "neighbourhood": "Bakau Newtown",
        "suburb": "Fajara",
        "city_district": null,
        "city": "Serrekunda",
        "state": "Kanifing Municipal Council",
        "postcode": null,
        "country": "The Gambia",
        "country_code": "gm"
      },
      "address": "871, Accra Lane, Bakau New Town, 69421 Kanifing Municipal Council, Gambia"
    },
    {
      "lat": 13.475139397322861,
      "lon": -16.686743126840938,
      "geoinfo": {
        "display_name": "Medical Research Council, Accra Lane, Bakau Newtown, Fajara, Bakau New Town and Fajara, Serrekunda, Kanifing Municipal Council, The Gambia",
        "road": "Accra Lane",
        "house_number": null,
        "neighbourhood": "Bakau Newtown",
        "suburb": "Fajara",
        "city_district": null,
        "city": "Serrekunda",
        "state": "Kanifing Municipal Council",
        "postcode": null,
        "country": "The Gambia",
        "country_code": "gm"
      },
      "address": "165, Accra Lane, Bakau New Town, 40045 Kanifing Municipal Council, Gambia"
    }
  ],
  "updated_at": "2025-10-22T00:25:17.538745+00:00",
  "_kind": "geo_samples"
}