{
  "country_code": "GM",
  "country": "Gambia",
  "city": "Bakau",
  "geonameid": 2413920,
  "target_addresses": 50,
  "samples": [
    {
      "lat": 13.442858848473893,
      "lon": -16.656052658228802,
      "geoinfo": {
        "display_name": "New Jeshwang, Ebo Town, New Jeshwang and Ebo Town, Serrekunda, Kanifing Municipal Council, The Gambia",
        "road": null,
        "house_number": null,
        "neighbourhood": "New Jeshwang",
        "suburb": "Ebo Town",
        "city_district": null,
        "city": "Serrekunda",
        "state": "Kanifing Municipal Council",
        "postcode": null,
        "country": "The Gambia",
        "country_code": "gm"
      },
      "address": "New Jeshwang, Bakau, Kanifing Municipal Council, Gambia"
    },
    {
      "lat": 13.507333998892284,
      "lon": -16.658775933542984,
      "geoinfo": {
        "display_name": "Bakau, Bakau New Town and Fajara, Serrekunda, Kanifing Municipal Council, The Gambia",
        "road": null,
        "house_number": null,
        "neighbourhood": null,
        "suburb": "Bakau",
        "city_district": null,
        "city": "Serrekunda",
        "state": "Kanifing Municipal Council",
        "postcode": null,
        "country": "The Gambia",
        "country_code": "gm"
      },
      "address": "Bakau, Bakau, Kanifing Municipal Council, Gambia"
    },
    {
      "lat": 13.507932040820299,
      "lon": -16.706705680184065,
      "geoinfo": {
        "display_name": "Kanifing, Kanifing Municipal Council, The Gambia",
        "road": null,
        "house_number": null,
        "neighbourhood": null,
        "suburb": null,
        "city_district": null,
        "city": "Kanifing",
        "state": "Kanifing Municipal Council",
        "postcode": null,
        "country": "The Gambia",
        "country_code": "gm"
      },
      "address": "Bakau, Kanifing Municipal Council, Gambia"
    },
    {
      "lat": 13.490736080076276,
      "lon": -16.708395684631085,
      "geoinfo": {
        "display_name": "Fajara, Bakau New Town and Fajara, Serrekunda, Kanifing Municipal Council, The Gambia",
        "road": null,
        "house_number": null,
        "neighbourhood": null,
        "suburb": "Fajara",
        "city_district": null,
        "city": "Serrekunda",
        "state": "Kanifing Municipal Council",
        "postcode": null,
        "country": "The Gambia",
        "country_code": "gm"
      },
      "address": "Fajara, Bakau, Kanifing Municipal Council, Gambia"
    },
    {
      "lat": 13.467563616189208,
      "lon": -16.68644845079652,
      "geoinfo": {
        "display_name": "Bakau Newtown, Fajara, Bakau New Town and Fajara, Serrekunda, Kanifing Municipal Council, The Gambia",
        "road": null,
        "house_number": null,
        "neighbourhood": "Bakau Newtown",
        "suburb": "Fajara",
        "city_district": null,
        "city": "Serrekunda",
        "state": "Kanifing Municipal Council",
        "postcode": null,
        "country": "The Gambia",
        "country_code": "gm"
      },
      "address": "Bakau Newtown, Bakau, 41784 Kanifing Municipal Council, Gambia"
    },
    {
      "lat": 13.443858377877643,
      "lon": -16.686706428056866,
      "geoinfo": {
        "display_name": "Dippa Kunda, Serrekunda, Kanifing Municipal Council, The Gambia",
        "road": null,
        "house_number": null,
        "neighbourhood": null,
        "suburb": null,
        "city_district": null,
        "city": "Serrekunda",
        "state": "Kanifing Municipal Council",
        "postcode": null,
        "country": "The Gambia",
        "country_code": "gm"
      },
      "address": "Bakau, 83097 Kanifing Municipal Council, Gambia"
    },
    {
      "lat": 13.448298429266018,
      "lon": -16.687650720744227,
      "geoinfo": {
        "display_name": "Manjai Kunda, Serrekunda, Kanifing Municipal Council, The Gambia",
        "road": null,
        "house_number": null,
        "neighbourhood": null,
        "suburb": "Manjai Kunda",
        "city_district": null,
        "city": "Serrekunda",
        "state": "Kanifing Municipal Council",
        "postcode": null,
        "country": "The Gambia",
        "country_code": "gm"
      },
      "address": "Manjai Kunda, Serrekunda, 35431 Kanifing Municipal Council, The Gambia"
    },
    {
      "lat": 13.500716645000587,
      "lon": -16.704090451406117,
      "geoinfo": {
        "display_name": "Fajara, Bakau New Town and Fajara, Serrekunda, Kanifing Municipal Council, The Gambia",
        "road": null,
        "house_number": null,
        "neighbourhood": null,
        "suburb": "Fajara",
        "city_district": null,
        "city": "Serrekunda",
        "state": "Kanifing Municipal Council",
        "postcode": null,
        "country": "The Gambia",
        "country_code": "gm"
      },
      "address": "450, Fajara, Bakau New Town and Fajara, Serrekunda, 39751 Kanifing Municipal Council, The Gambia"
    },
    {
      "lat": 13.485218016773505,
      "lon": -16.69986318532046,
      "geoinfo": {
        "display_name": "Bakau Newtown, Bakau, Bakau New Town and Fajara, Serrekunda, Kanifing Municipal Council, The Gambia",
        "road": null,
        "house_number": null,
        "neighbourhood": "Bakau Newtown",
        "suburb": "Bakau",
        "city_district": null,
        "city": "Serrekunda",
        "state": "Kanifing Municipal Council",
        "postcode": null,
        "country": "The Gambia",
        "country_code": "gm"
      },
      "address": "067, Bakau Newtown, Bakau, Bakau New Town and Fajara, Serrekunda, 82743 Kanifing Municipal Council, The Gambia"
    },
    {
      "lat": 13.501547824932752,
      "lon": -16.68763378596795,
      "geoinfo": {
        "display_name": "Bakau, Bakau New Town and Fajara, Serrekunda, Kanifing Municipal Council, The Gambia",
        "road": null,
        "house_number": null,
        "neighbourhood": null,
        "suburb": "Bakau",
        "city_district": null,
        "city": "Serrekunda",
        "state": "Kanifing Municipal Council",
        "postcode": null,
        "country": "The Gambia",
        "country_code": "gm"
      },
      "address": "726, Bakau, Bakau New Town and Fajara, Serrekunda, 01452 Kanifing Municipal Council, The Gambia"
    },
    {
      "lat": 13.44154281580725,
      "lon": -16.706191045515162,
      "geoinfo": {
        "display_name": "Kololi Road, Bakoteh, Serrekunda, Brikama, Kanifing Municipal Council, The Gambia",
        "road": "Kololi Road",
        "house_number": null,
        "neighbourhood": null,
        "suburb": null,
        "city_district": null,
        "city": "Serrekunda",
        "state": "Kanifing Municipal Council",
        "postcode": null,
        "country": "The Gambia",
        "country_code": "gm"
      },
      "address": "798, Kololi Road, Bakoteh, Serrekunda, Brikama, 85195 Kanifing Municipal Council, The Gambia"
    },
    {
      "lat": 13.474209591290363,
      "lon": -16.707285407498624,
      "geoinfo": {
        "display_name": "Kotu beach, Bakau New Town and Fajara, Serrekunda, Kanifing Municipal Council, The Gambia",
        "road": null,
        "house_number": null,
        "neighbourhood": "Kotu beach",
        "suburb": null,
        "city_district": null,
        "city": "Serrekunda",
        "state": "Kanifing Municipal Council",
        "postcode": null,
        "country": "The Gambia",
        "country_code": "gm"
      },
      "address": "838, Kotu beach, Bakau New Town and Fajara, Serrekunda, 42892 Kanifing Municipal Council, The Gambia"
    },
    {
      "lat": 13.45111941732601,
      "lon": -16.64748573035283,
      "geoinfo": {
        "display_name": "Old Jeshwang, Serrekunda, Kanifing Municipal Council, The Gambia",
        "road": null,
        "house_number": null,
        "neighbourhood": "Old Jeshwang",
        "suburb": null,
        "city_district": null,
        "city": "Serrekunda",
        "state": "Kanifing Municipal Council",
        "postcode": null,
        "country": "The Gambia",
        "country_code": "gm"
      },
      "address": "574, Old Jeshwang, Serrekunda, 28876 Kanifing Municipal Council, The Gambia"
    },
    {
      "lat": 13.491756059775355,
      "lon": -16.704040882816436,
      "geoinfo": {
        "display_name": "Fajara, Bakau New Town and Fajara, Serrekunda, Kanifing Municipal Council, The Gambia",
        "road": null,
        "house_number": null,
        "neighbourhood": null,
        "suburb": "Fajara",
        "city_district": null,
        "city": "Serrekunda",
        "state": "Kanifing Municipal Council",
        "postcode": null,
        "country": "The Gambia",
        "country_code": "gm"
      },
      "address": "203, Fajara, Bakau New Town and Fajara, Serrekunda, 60166 Kanifing Municipal Council, The Gambia"
    },
    {
      "lat": 13.497043602542083,
      "lon": -16.644680271202045,
      "geoinfo": {
        "display_name": "Bakau, Bakau New Town and Fajara, Serrekunda, Kanifing Municipal Council, The Gambia",
        "road": null,
        "house_number": null,
        "neighbourhood": null,
        "suburb": "Bakau",
        "city_district": null,
        "city": "Serrekunda",
        "state": "Kanifing Municipal Council",
        "postcode": null,
        "country": "The Gambia",
        "country_code": "gm"
      },
      "address": "982, Bakau, Bakau New Town and Fajara, Serrekunda, 66550 Kanifing Municipal Council, The Gambia"
    },
    {
      "lat": 13.456002008837691,
      "lon": -16.693821759502256,
      "geoinfo": {
        "display_name": "Bertil Harding Highway, Manjai Kunda, Serrekunda, Kanifing Municipal Council, The Gambia",
        "road": "Bertil Harding Highway",
        "house_number": null,
        "neighbourhood": null,
        "suburb": null,
        "city_district": null,
        "city": "Serrekunda",
        "state": "Kanifing Municipal Council",
        "postcode": null,
        "country": "The Gambia",
        "country_code": "gm"
      },
      "address": "436, Bertil Harding Highway, Manjai Kunda, Serrekunda, 54019 Kanifing Municipal Council, The Gambia"
    },
    {
      "lat": 13.499216969642356,
      "lon": -16.684967337786215,
      "geoinfo": {
        "display_name": "Bakau, Bakau New Town and Fajara, Serrekunda, Kanifing Municipal Council, The Gambia",
        "road": null,
        "house_number": null,
        "neighbourhood": null,
        "suburb": "Bakau",
        "city_district": null,
        "city": "Serrekunda",
        "state": "Kanifing Municipal Council",
        "postcode": null,
        "country": "The Gambia",
        "country_code": "gm"
      },
      "address": "997, Bakau, Bakau New Town and Fajara, Serrekunda, 22170 Kanifing Municipal Council, The Gambia"
    },
    {
      "lat": 13.465748958361809,
      "lon": -16.6494917053944,
      "geoinfo": {
        "display_name": "Banjul - Serrekunda Highway, Old Jeshwang, Kanifing, Kanifing Municipal Council, The Gambia",
        "road": "Banjul - Serrekunda Highway",
        "house_number": null,
        "neighbourhood": "Old Jeshwang",
        "suburb": null,
        "city_district": null,
        "city": "Kanifing",
        "state": "Kanifing Municipal Council",
        "postcode": null,
        "country": "The Gambia",
        "country_code": "gm"
      },
      "address": "002, Banjul - Serrekunda Highway, Old Jeshwang, Kanifing, 96994 Kanifing Municipal Council, The Gambia"
    },
    {
      "lat": 13.45018216105074,
      "lon": -16.705849970263948,
      "geoinfo": {
        "display_name": "Kololi, Serrekunda, Kanifing Municipal Council, The Gambia",
        "road": null,
        "house_number": null,
        "neighbourhood": null,
        "suburb": null,
        "city_district": null,
        "city": "Serrekunda",
        "state": "Kanifing Municipal Council",
        "postcode": null,
        "country": "The Gambia",
        "country_code": "gm"
      },
      "address": "186, Kololi, Serrekunda, 39071 Kanifing Municipal Council, The Gambia"
    },
    {
      "lat": 13.479112277474467,
      "lon": -16.684331348102916,
      "geoinfo": {
        "display_name": "Bakau Newtown, Bakau, Bakau New Town and Fajara, Serrekunda, Kanifing Municipal Council, The Gambia",
        "road": null,
        "house_number": null,
        "neighbourhood": "Bakau Newtown",
        "suburb": "Bakau",
        "city_district": null,
        "city": "Serrekunda",
        "state": "Kanifing Municipal Council",
        "postcode": null,
        "country": "The Gambia",
        "country_code": "gm"
      },
      "address": "092, Bakau Newtown, Bakau, Bakau New Town and Fajara, Serrekunda, 14607 Kanifing Municipal Council, The Gambia"
    },
    {
      "lat": 13.477246315231325,
      "lon": -16.681364422880463,
      "geoinfo": {
        "display_name": "Bakau Newtown, Bakau, Bakau New Town and Fajara, Serrekunda, Kanifing Municipal Council, The Gambia",
        "road": null,
        "house_number": null,
        "neighbourhood": "Bakau Newtown",
        "suburb": "Bakau",
        "city_district": null,
        "city": "Serrekunda",
        "state": "Kanifing Municipal Council",
        "postcode": null,
        "country": "The Gambia",
        "country_code": "gm"
      },
      "address": "836, Bakau Newtown, Bakau, Bakau New Town and Fajara, Serrekunda, 17266 Kanifing Municipal Council, The Gambia"
    },
    {
      "lat": 13.476675491941183,
      "lon": -16.68409528211561,
      "geoinfo": {
        "display_name": "Landing Kotoring Street, Bakau Newtown, Bakau, Bakau New Town and Fajara, Serrekunda, Kanifing Municipal Council, The Gambia",
        "road": "Landing Kotoring Street",
        "house_number": null,
        "neighbourhood": "Bakau Newtown",
        "suburb": "Bakau",
        "city_district": null,
        "city": "Serrekunda",
        "state": "Kanifing Municipal Council",
        "postcode": null,
        "country": "The Gambia",
        "country_code": "gm"
      },
      "address": "720, Landing Kotoring Street, Bakau Newtown, Bakau, Bakau New Town and Fajara, Serrekunda, 62704 Kanifing Municipal Council, The Gambia"
    },
    {
      "lat": 13.479511981941236,
      "lon": -16.684007588456822,
      "geoinfo": {
        "display_name": "Bakau Newtown, Bakau, Bakau New Town and Fajara, Serrekunda, Kanifing Municipal Council, The Gambia",
        "road": null,
        "house_number": null,
        "neighbourhood": "Bakau Newtown",
        "suburb": "Bakau",
        "city_district": null,
        "city": "Serrekunda",
        "state": "Kanifing Municipal Council",
        "postcode": null,
        "country": "The Gambia",
        "country_code": "gm"
      },
      "address": "304, Bakau Newtown, Bakau, Bakau New Town and Fajara, Serrekunda, 11870 Kanifing Municipal Council, The Gambia"
    },
    {
      "lat": 13.4777519727472,
      "lon": -16.683928180979184,
      "geoinfo": {
        "display_name": "Banjul American International School (BAIS), Atlantic Boulevard, Bakau Newtown, Bakau, Bakau New Town and Fajara, Serrekunda, Kanifing Municipal Council, The Gambia",
        "road": "Atlantic Boulevard",
        "house_number": null,
        "neighbourhood": "Bakau Newtown",
        "suburb": "Bakau",
        "city_district": null,
        "city": "Serrekunda",
        "state": "Kanifing Municipal Council",
        "postcode": null,
        "country": "The Gambia",
        "country_code": "gm"
      },
      "address": "668, Atlantic Boulevard, Bakau, 18057 Kanifing Municipal Council, Gambia"
    },
    {
      "lat": 13.478647741076557,
      "lon": -16.680893625769023,
      "geoinfo": {
        "display_name": "Bakau Newtown, Bakau, Bakau New Town and Fajara, Serrekunda, Kanifing Municipal Council, The Gambia",
        "road": null,
        "house_number": null,
        "neighbourhood": "Bakau Newtown",
        "suburb": "Bakau",
        "city_district": null,
        "city": "Serrekunda",
        "state": "Kanifing Municipal Council",
        "postcode": null,
        "country": "The Gambia",
        "country_code": "gm"
      },
      "address": "178, Bakau Newtown, Bakau, Bakau New Town and Fajara, Serrekunda, 54731 Kanifing Municipal Council, The Gambia"
    },
    {
      "lat": 13.480051044581431,
      "lon": -16.683218980111555,
      "geoinfo": {
        "display_name": "Bakau Newtown, Bakau, Bakau New Town and Fajara, Serrekunda, Kanifing Municipal Council, The Gambia",
        "road": null,
        "house_number": null,
        "neighbourhood": "Bakau Newtown",
        "suburb": "Bakau",
        "city_district": null,
        "city": "Serrekunda",
        "state": "Kanifing Municipal Council",
        "postcode": null,
        "country": "The Gambia",
        "country_code": "gm"
      },
      "address": "103, Bakau Newtown, Bakau, Bakau New Town and Fajara, Serrekunda, 30003 Kanifing Municipal Council, The Gambia"
    },
    {
      "lat": 13.4801257613357,
      "lon": -16.683468731213086,
      "geoinfo": {
        "display_name": "Bakau Newtown, Bakau, Bakau New Town and Fajara, Serrekunda, Kanifing Municipal Council, The Gambia",
        "road": null,
        "house_number": null,
        "neighbourhood": "Bakau Newtown",
        "suburb": "Bakau",
        "city_district": null,
        "city": "Serrekunda",
        "state": "Kanifing Municipal Council",
        "postcode": null,
        "country": "The Gambia",
        "country_code": "gm"
      },
      "address": "437, Bakau Newtown, Bakau, Bakau New Town and Fajara, Serrekunda, 71353 Kanifing Municipal Council, The Gambia"
    },
    {
      "lat": 13.477589201339832,
      "lon": -16.683497217524128,
      "geoinfo": {
        "display_name": "Farimang Singhateh Street, Bakau Newtown, Bakau, Bakau New Town and Fajara, Serrekunda, Kanifing Municipal Council, The Gambia",
        "road": "Farimang Singhateh Street",
        "house_number": null,
        "neighbourhood": "Bakau Newtown",
        "suburb": "Bakau",
        "city_district": null,
        "city": "Serrekunda",
        "state": "Kanifing Municipal Council",
        "postcode": null,
        "country": "The Gambia",
        "country_code": "gm"
      },
      "address": "216, Farimang Singhateh Street, Bakau Newtown, Bakau, Bakau New Town and Fajara, Serrekunda, 60018 Kanifing Municipal Council, The Gambia"
    },
    {
      "lat": 13.4771676805299,
      "lon": -16.679968519006692,
      "geoinfo": {
        "display_name": "Bakau Newtown, Bakau, Bakau New Town and Fajara, Serrekunda, Kanifing Municipal Council, The Gambia",
        "road": null,
        "house_number": null,
        "neighbourhood": "Bakau Newtown",
        "suburb": "Bakau",
        "city_district": null,
        "city": "Serrekunda",
        "state": "Kanifing Municipal Council",
        "postcode": null,
        "country": "The Gambia",
        "country_code": "gm"
      },
      "address": "718, Bakau Newtown, Bakau, Bakau New Town and Fajara, Serrekunda, 44490 Kanifing Municipal Council, The Gambia"
    },
    {
      "lat": 13.477694027956963,
      "lon": -16.67995085151332,
      "geoinfo": {
        "display_name": "Bakau Newtown, Bakau, Bakau New Town and Fajara, Serrekunda, Kanifing Municipal Council, The Gambia",
        "road": null,
        "house_number": null,
        "neighbourhood": "Bakau Newtown",
        "suburb": "Bakau",
        "city_district": null,
        "city": "Serrekunda",
        "state": "Kanifing Municipal Council",
        "postcode": null,
        "country": "The Gambia",
        "country_code": "gm"
      },
      "address": "361, Bakau Newtown, Bakau, Bakau New Town and Fajara, Serrekunda, 73516 Kanifing Municipal Council, The Gambia"
    },
    {
      "lat": 13.479314228265698,
      "lon": -16.68375287314754,
      "geoinfo": {
        "display_name": "Bakau Newtown, Bakau, Bakau New Town and Fajara, Serrekunda, Kanifing Municipal Council, The Gambia",
        "road": null,
        "house_number": null,
        "neighbourhood": "Bakau Newtown",
        "suburb": "Bakau",
        "city_district": null,
        "city": "Serrekunda",
        "state": "Kanifing Municipal Council",
        "postcode": null,
        "country": "The Gambia",
        "country_code": "gm"
      },
      "address": "744, Bakau Newtown, Bakau, Bakau New Town and Fajara, Serrekunda, 03114 Kanifing Municipal Council, The Gambia"
    },
    {
      "lat": 13.477802154183697,
      "lon": -16.683126816126777,
      "geoinfo": {
        "display_name": "Farimang Singhateh Street, Bakau Newtown, Bakau, Bakau New Town and Fajara, Serrekunda, Kanifing Municipal Council, The Gambia",
        "road": "Farimang Singhateh Street",
        "house_number": null,
        "neighbourhood": "Bakau Newtown",
        "suburb": "Bakau",
        "city_district": null,
        "city": "Serrekunda",
        "state": "Kanifing Municipal Council",
        "postcode": null,
        "country": "The Gambia",
        "country_code": "gm"
      },
      "address": "044, Farimang Singhateh Street, Bakau Newtown, Bakau, Bakau New Town and Fajara, Serrekunda, 26469 Kanifing Municipal Council, The Gambia"
    },
    {
      "lat": 13.478062495441039,
      "lon": -16.683899458883882,
      "geoinfo": {
        "display_name": "Delegation of the European Union, 74, Atlantic Boulevard, Bakau Newtown, Bakau, Bakau New Town and Fajara, Serrekunda, Kanifing Municipal Council, The Gambia",
        "road": "Atlantic Boulevard",
        "house_number": "74",
        "neighbourhood": "Bakau Newtown",
        "suburb": "Bakau",
        "city_district": null,
        "city": "Serrekunda",
        "state": "Kanifing Municipal Council",
        "postcode": null,
        "country": "The Gambia",
        "country_code": "gm"
      },
      "address": "74, Atlantic Boulevard, Bakau, 64780 Kanifing Municipal Council, Gambia"
    },
    {
      "lat": 13.479434407030796,
      "lon": -16.679672880921217,
      "geoinfo": {
        "display_name": "Atlantic Boulevard, Bakau Newtown, Bakau, Bakau New Town and Fajara, Serrekunda, Kanifing Municipal Council, The Gambia",
        "road": "Atlantic Boulevard",
        "house_number": null,
        "neighbourhood": "Bakau Newtown",
        "suburb": "Bakau",
        "city_district": null,
        "city": "Serrekunda",
        "state": "Kanifing Municipal Council",
        "postcode": null,
        "country": "The Gambia",
        "country_code": "gm"
      },
      "address": "477, Atlantic Boulevard, Bakau Newtown, Bakau, Bakau New Town and Fajara, Serrekunda, 75251 Kanifing Municipal Council, The Gambia"
    },
    {
      "lat": 13.47765678972387,
      "lon": -16.6833215984516,
      "geoinfo": {
        "display_name": "Farimang Singhateh Street, Bakau Newtown, Bakau, Bakau New Town and Fajara, Serrekunda, Kanifing Municipal Council, The Gambia",
        "road": "Farimang Singhateh Street",
        "house_number": null,
        "neighbourhood": "Bakau Newtown",
        "suburb": "Bakau",
        "city_district": null,
        "city": "Serrekunda",
        "state": "Kanifing Municipal Council",
        "postcode": null,
        "country": "The Gambia",
        "country_code": "gm"
      },
      "address": "268, Farimang Singhateh Street, Bakau Newtown, Bakau, Bakau New Town and Fajara, Serrekunda, 94354 Kanifing Municipal Council, The Gambia"
    },
    {
      "lat": 13.478198098557337,
      "lon": -16.68307603881209,
      "geoinfo": {
        "display_name": "Delegation of the European Union, 74, Atlantic Boulevard, Bakau Newtown, Bakau, Bakau New Town and Fajara, Serrekunda, Kanifing Municipal Council, The Gambia",
        "road": "Atlantic Boulevard",
        "house_number": "74",
        "neighbourhood": "Bakau Newtown",
        "suburb": "Bakau",
        "city_district": null,
        "city": "Serrekunda",
        "state": "Kanifing Municipal Council",
        "postcode": null,
        "country": "The Gambia",
        "country_code": "gm"
      },
      "address": "74, Atlantic Boulevard, Bakau, 07940 Kanifing Municipal Council, Gambia"
    },
    {
      "lat": 13.479333472742049,
      "lon": -16.684248291006167,
      "geoinfo": {
        "display_name": "Bakau Newtown, Bakau, Bakau New Town and Fajara, Serrekunda, Kanifing Municipal Council, The Gambia",
        "road": null,
        "house_number": null,
        "neighbourhood": "Bakau Newtown",
        "suburb": "Bakau",
        "city_district": null,
        "city": "Serrekunda",
        "state": "Kanifing Municipal Council",
        "postcode": null,
        "country": "The Gambia",
        "country_code": "gm"
      },
      "address": "469, Bakau Newtown, Bakau, Bakau New Town and Fajara, Serrekunda, 90872 Kanifing Municipal Council, The Gambia"
    },
    {
      "lat": 13.478864252103396,
      "lon": -16.683230040750033,
      "geoinfo": {
        "display_name": "Bakau Newtown, Bakau, Bakau New Town and Fajara, Serrekunda, Kanifing Municipal Council, The Gambia",
        "road": null,
        "house_number": null,
        "neighbourhood": "Bakau Newtown",
        "suburb": "Bakau",
        "city_district": null,
        "city": "Serrekunda",
        "state": "Kanifing Municipal Council",
        "postcode": null,
        "country": "The Gambia",
        "country_code": "gm"
      },
      "address": "617, Bakau Newtown, Bakau, Bakau New Town and Fajara, Serrekunda, 49018 Kanifing Municipal Council, The Gambia"
    },
    {
      "lat": 13.477722480605337,
      "lon": -16.682499565481127,
      "geoinfo": {
        "display_name": "Bakau Newtown, Bakau, Bakau New Town and Fajara, Serrekunda, Kanifing Municipal Council, The Gambia",
        "road": null,
        "house_number": null,
        "neighbourhood": "Bakau Newtown",
        "suburb": "Bakau",
        "city_district": null,
        "city": "Serrekunda",
        "state": "Kanifing Municipal Council",
        "postcode": null,
        "country": "The Gambia",
        "country_code": "gm"
      },
      "address": "264, Bakau Newtown, Bakau, Bakau New Town and Fajara, Serrekunda, 98830 Kanifing Municipal Council, The Gambia"
    },
    {
      "lat": 13.47890022737417,
      "lon": -16.68091012739503,
      "geoinfo": {
        "display_name": "Bakau Newtown, Bakau, Bakau New Town and Fajara, Serrekunda, Kanifing Municipal Council, The Gambia",
        "road": null,
        "house_number": null,
        "neighbourhood": "Bakau Newtown",
        "suburb": "Bakau",
        "city_district": null,
        "city": "Serrekunda",
        "state": "Kanifing Municipal Council",
        "postcode": null,
        "country": "The Gambia",
        "country_code": "gm"
      },
      "address": "452, Bakau Newtown, Bakau, Bakau New Town and Fajara, Serrekunda, 42937 Kanifing Municipal Council, The Gambia"
    },
    {
      "lat": 13.477226648258972,
      "lon": -16.68447164502634,
      "geoinfo": {
        "display_name": "Landing Kotoring Street, Bakau Newtown, Bakau, Bakau New Town and Fajara, Serrekunda, Kanifing Municipal Council, The Gambia",
        "road": "Landing Kotoring Street",
        "house_number": null,
        "neighbourhood": "Bakau Newtown",
        "suburb": "Bakau",
        "city_district": null,
        "city": "Serrekunda",
        "state": "Kanifing Municipal Council",
        "postcode": null,
        "country": "The Gambia",
        "country_code": "gm"
      },
      "address": "207, Landing Kotoring Street, Bakau Newtown, Bakau, Bakau New Town and Fajara, Serrekunda, 24877 Kanifing Municipal Council, The Gambia"
    },
    {
      "lat": 13.476785454471994,
      "lon": -16.679950063848473,
      "geoinfo": {
        "display_name": "Bakau Newtown, Bakau, Bakau New Town and Fajara, Serrekunda, Kanifing Municipal Council, The Gambia",
        "road": null,
        "house_number": null,
        "neighbourhood": "Bakau Newtown",
        "suburb": "Bakau",
        "city_district": null,
        "city": "Serrekunda",
        "state": "Kanifing Municipal Council",
        "postcode": null,
        "country": "The Gambia",
        "country_code": "gm"
      },
      "address": "616, Bakau Newtown, Bakau, Bakau New Town and Fajara, Serrekunda, 15703 Kanifing Municipal Council, The Gambia"
    },
    {
      "lat": 13.477547005452251,
      "lon": -16.683312037630927,
      "geoinfo": {
        "display_name": "Farimang Singhateh Street, Bakau Newtown, Bakau, Bakau New Town and Fajara, Serrekunda, Kanifing Municipal Council, The Gambia",
        "road": "Farimang Singhateh Street",
        "house_number": null,
        "neighbourhood": "Bakau Newtown",
        "suburb": "Bakau",
        "city_district": null,
        "city": "Serrekunda",
        "state": "Kanifing Municipal Council",
        "postcode": null,
        "country": "The Gambia",
        "country_code": "gm"
      },
      "address": "370, Farimang Singhateh Street, Bakau Newtown, Bakau, Bakau New Town and Fajara, Serrekunda, 71968 Kanifing Municipal Council, The Gambia"
    },
    {
      "lat": 13.47750200730651,
      "lon": -16.683303112231638,
      "geoinfo": {
        "display_name": "Farimang Singhateh Street, Bakau Newtown, Bakau, Bakau New Town and Fajara, Serrekunda, Kanifing Municipal Council, The Gambia",
        "road": "Farimang Singhateh Street",
        "house_number": null,
        "neighbourhood": "Bakau Newtown",
        "suburb": "Bakau",
        "city_district": null,
        "city": "Serrekunda",
        "state": "Kanifing Municipal Council",
        "postcode": null,
        "country": "The Gambia",
        "country_code": "gm"
      },
      "address": "153, Farimang Singhateh Street, Bakau Newtown, Bakau, Bakau New Town and Fajara, Serrekunda, 72205 Kanifing Municipal Council, The Gambia"
    },
    {
      "lat": 13.478602519215794,
      "lon": -16.683173121610942,
      "geoinfo": {
        "display_name": "Bakau Newtown, Bakau, Bakau New Town and Fajara, Serrekunda, Kanifing Municipal Council, The Gambia",
        "road": null,
        "house_number": null,
        "neighbourhood": "Bakau Newtown",
        "suburb": "Bakau",
        "city_district": null,
        "city": "Serrekunda",
        "state": "Kanifing Municipal Council",
        "postcode": null,
        "country": "The Gambia",
        "country_code": "gm"
      },
      "address": "894, Bakau Newtown, Bakau, Bakau New Town and Fajara, Serrekunda, 51349 Kanifing Municipal Council, The Gambia"
    },
    {
      "lat": 13.477040696729835,
      "lon": -16.683471299512146,
      "geoinfo": {
        "display_name": "Bakau Newtown, Bakau, Bakau New Town and Fajara, Serrekunda, Kanifing Municipal Council, The Gambia",
        "road": null,
        "house_number": null,
        "neighbourhood": "Bakau Newtown",
        "suburb": "Bakau",
        "city_district": null,
        "city": "Serrekunda",
        "state": "Kanifing Municipal Council",
        "postcode": null,
        "country": "The Gambia",
        "country_code": "gm"
      },
      "address": "508, Bakau Newtown, Bakau, Bakau New Town and Fajara, Serrekunda, 51827 Kanifing Municipal Council, The Gambia"
    },
    {
      "lat": 13.479760361826335,
      "lon": -16.6822918291853,
      "geoinfo": {
        "display_name": "Bakau Newtown, Bakau, Bakau New Town and Fajara, Serrekunda, Kanifing Municipal Council, The Gambia",
        "road": null,
        "house_number": null,
        "neighbourhood": "Bakau Newtown",
        "suburb": "Bakau",
        "city_district": null,
        "city": "Serrekunda",
        "state": "Kanifing Municipal Council",
        "postcode": null,
        "country": "The Gambia",
        "country_code": "gm"
      },
      "address": "350, Bakau Newtown, Bakau, Bakau New Town and Fajara, Serrekunda, 70180 Kanifing Municipal Council, The Gambia"
    },
    {
      "lat": 13.480209223908346,
      "lon": -16.68027703858431,
      "geoinfo": {
        "display_name": "Atlantic Boulevard, Bakau Newtown, Bakau, Bakau New Town and Fajara, Serrekunda, Kanifing Municipal Council, The Gambia",
        "road": "Atlantic Boulevard",
        "house_number": null,
        "neighbourhood": "Bakau Newtown",
        "suburb": "Bakau",
        "city_district": null,
        "city": "Serrekunda",
        "state": "Kanifing Municipal Council",
        "postcode": null,
        "country": "The Gambia",
        "country_code": "gm"
      },
      "address": "721, Atlantic Boulevard, Bakau Newtown, Bakau, Bakau New Town and Fajara, Serrekunda, 31085 Kanifing Municipal Council, The Gambia"
    },
    {
      "lat": 13.479380422492433,
      "lon": -16.680296967631993,
      "geoinfo": {
        "display_name": "Atlantic Boulevard, Bakau Newtown, Bakau, Bakau New Town and Fajara, Serrekunda, Kanifing Municipal Council, The Gambia",
        "road": "Atlantic Boulevard",
        "house_number": null,
        "neighbourhood": "Bakau Newtown",
        "suburb": "Bakau",
        "city_district": null,
        "city": "Serrekunda",
        "state": "Kanifing Municipal Council",
        "postcode": null,
        "country": "The Gambia",
        "country_code": "gm"
      },
      "address": "029, Atlantic Boulevard, Bakau Newtown, Bakau, Bakau New Town and Fajara, Serrekunda, 58150 Kanifing Municipal Council, The Gambia"
    },
    {
      "lat": 13.479820036816266,
      "lon": -16.680166248911927,
      "geoinfo": {
        "display_name": "Atlantic Boulevard, Bakau Newtown, Bakau, Bakau New Town and Fajara, Serrekunda, Kanifing Municipal Council, The Gambia",
        "road": "Atlantic Boulevard",
        "house_number": null,
        "neighbourhood": "Bakau Newtown",
        "suburb": "Bakau",
        "city_district": null,
        "city": "Serrekunda",
        "state": "Kanifing Municipal Council",
        "postcode": null,
        "country": "The Gambia",
        "country_code": "gm"
      },
      "address": "787, Atlantic Boulevard, Bakau Newtown, Bakau, Bakau New Town and Fajara, Serrekunda, 10946 Kanifing Municipal Council, The Gambia"
    },
    {
      "lat": 13.47723315896399,
      "lon": -16.681912520222532,
      "geoinfo": {
        "display_name": "Bakau Newtown, Bakau, Bakau New Town and Fajara, Serrekunda, Kanifing Municipal Council, The Gambia",
        "road": null,
        "house_number": null,
        "neighbourhood": "Bakau Newtown",
        "suburb": "Bakau",
        "city_district": null,
        "city": "Serrekunda",
        "state": "Kanifing Municipal Council",
        "postcode": null,
        "country": "The Gambia",
        "country_code": "gm"
      },
      "address": "865, Bakau Newtown, Bakau, Bakau New Town and Fajara, Serrekunda, 00922 Kanifing Municipal Council, The Gambia"
    },
    {
      "lat": 13.478168108494089,
      "lon": -16.68272648861876,
      "geoinfo": {
        "display_name": "Atlantic Boulevard, Bakau Newtown, Bakau, Bakau New Town and Fajara, Serrekunda, Kanifing Municipal Council, The Gambia",
        "road": "Atlantic Boulevard",
        "house_number": null,
        "neighbourhood": "Bakau Newtown",
        "suburb": "Bakau",
        "city_district": null,
        "city": "Serrekunda",
        "state": "Kanifing Municipal Council",
        "postcode": null,
        "country": "The Gambia",
        "country_code": "gm"
      },
      "address": "576, Atlantic Boulevard, Bakau Newtown, Bakau, Bakau New Town and Fajara, Serrekunda, 87682 Kanifing Municipal Council, The Gambia"
    },
    {
      "lat": 13.476817274652076,
      "lon": -16.679590754497468,
      "geoinfo": {
        "display_name": "Bakau Newtown, Bakau, Bakau New Town and Fajara, Serrekunda, Kanifing Municipal Council, The Gambia",
        "road": null,
        "house_number": null,
        "neighbourhood": "Bakau Newtown",
        "suburb": "Bakau",
        "city_district": null,
        "city": "Serrekunda",
        "state": "Kanifing Municipal Council",
        "postcode": null,
        "country": "The Gambia",
        "country_code": "gm"
      },
      "address": "737, Bakau Newtown, Bakau, Bakau New Town and Fajara, Serrekunda, 37157 Kanifing Municipal Council, The Gambia"
    },
    {
      "lat": 13.47761494921294,
      "lon": -16.683161106851912,
      "geoinfo": {
        "display_name": "Farimang Singhateh Street, Bakau Newtown, Bakau, Bakau New Town and Fajara, Serrekunda, Kanifing Municipal Council, The Gambia",
        "road": "Farimang Singhateh Street",
        "house_number": null,
        "neighbourhood": "Bakau Newtown",
        "suburb": "Bakau",
        "city_district": null,
        "city": "Serrekunda",
        "state": "Kanifing Municipal Council",
        "postcode": null,
        "country": "The Gambia",
        "country_code": "gm"
      },
      "address": "021, Farimang Singhateh Street, Bakau Newtown, Bakau, Bakau New Town and Fajara, Serrekunda, 76666 Kanifing Municipal Council, The Gambia"
    },
    {
      "lat": 13.476090290027372,
      "lon": -16.682089790752347,
      "geoinfo": {
        "display_name": "Farimang Singhateh Street, Bakau Newtown, Bakau, Bakau New Town and Fajara, Serrekunda, Kanifing Municipal Council, The Gambia",
        "road": "Farimang Singhateh Street",
        "house_number": null,
        "neighbourhood": "Bakau Newtown",
        "suburb": "Bakau",
        "city_district": null,
        "city": "Serrekunda",
        "state": "Kanifing Municipal Council",
        "postcode": null,
        "country": "The Gambia",
        "country_code": "gm"
      },
      "address": "038, Farimang Singhateh Street, Bakau Newtown, Bakau, Bakau New Town and Fajara, Serrekunda, 45127 Kanifing Municipal Council, The Gambia"
    }
  ],
  "updated_at": "2025-10-22T00:19:02.554245+00:00",
  "_kind": "geo_samples"
}