{
  "country_code": "GM",
  "country": "Gambia",
  "city": "Bakoti",
  "geonameid": 2413915,
  "target_addresses": 50,
  "samples": [
    {
      "lat": 13.444889120857203,
      "lon": -16.682532785697518,
      "geoinfo": {
        "display_name": "Dippa Kunda, Serrekunda, Kanifing Municipal Council, The Gambia",
        "road": null,
        "house_number": null,
        "neighbourhood": null,
        "suburb": null,
        "city_district": null,
        "city": "Serrekunda",
        "state": "Kanifing Municipal Council",
        "postcode": null,
        "country": "The Gambia",
        "country_code": "gm"
      },
      "address": "199, Dippa Kunda, Serrekunda, 60990 Kanifing Municipal Council, The Gambia"
    },
    {
      "lat": 13.406014459890907,
      "lon": -16.701452457088244,
      "geoinfo": {
        "display_name": "Sukuta, Kombo North/Saint Mary, Brikama, West Coast Division, The Gambia",
        "road": null,
        "house_number": null,
        "neighbourhood": null,
        "suburb": null,
        "city_district": null,
        "city": "Sukuta",
        "state": "West Coast Division",
        "postcode": null,
        "country": "The Gambia",
        "country_code": "gm"
      },
      "address": "303, Sukuta, Kombo North/Saint Mary, Brikama, 75410 West Coast Division, The Gambia"
    },
    {
      "lat": 13.431008224531894,
      "lon": -16.707190370787373,
      "geoinfo": {
        "display_name": "Kololi, Sukuta, Kombo North/Saint Mary, Brikama, West Coast Division, The Gambia",
        "road": null,
        "house_number": null,
        "neighbourhood": null,
        "suburb": "Kololi",
        "city_district": null,
        "city": "Sukuta",
        "state": "West Coast Division",
        "postcode": null,
        "country": "The Gambia",
        "country_code": "gm"
      },
      "address": "994, Kololi, Sukuta, Kombo North/Saint Mary, Brikama, 42698 West Coast Division, The Gambia"
    },
    {
      "lat": 13.39936177381585,
      "lon": -16.675868954684358,
      "geoinfo": {
        "display_name": "Wellingara, Kombo North/Saint Mary, Brikama, West Coast Division, The Gambia",
        "road": null,
        "house_number": null,
        "neighbourhood": null,
        "suburb": null,
        "city_district": null,
        "city": "Wellingara",
        "state": "West Coast Division",
        "postcode": null,
        "country": "The Gambia",
        "country_code": "gm"
      },
      "address": "333, Wellingara, Kombo North/Saint Mary, Brikama, 71223 West Coast Division, The Gambia"
    },
    {
      "lat": 13.432041054513984,
      "lon": -16.697774136079143,
      "geoinfo": {
        "display_name": "Bakoteh, Sukuta, Kombo North/Saint Mary, Brikama, West Coast Division, The Gambia",
        "road": null,
        "house_number": null,
        "neighbourhood": null,
        "suburb": null,
        "city_district": null,
        "city": "Sukuta",
        "state": "West Coast Division",
        "postcode": null,
        "country": "The Gambia",
        "country_code": "gm"
      },
      "address": "039, Bakoteh, Sukuta, Kombo North/Saint Mary, Brikama, 73263 West Coast Division, The Gambia"
    },
    {
      "lat": 13.43196496904892,
      "lon": -16.699208498402623,
      "geoinfo": {
        "display_name": "Bakoteh, Sukuta, Kombo North/Saint Mary, Brikama, West Coast Division, The Gambia",
        "road": null,
        "house_number": null,
        "neighbourhood": null,
        "suburb": null,
        "city_district": null,
        "city": "Sukuta",
        "state": "West Coast Division",
        "postcode": null,
        "country": "The Gambia",
        "country_code": "gm"
      },
      "address": "529, Bakoteh, Sukuta, Kombo North/Saint Mary, Brikama, 56562 West Coast Division, The Gambia"
    },
    {
      "lat": 13.430702017458236,
      "lon": -16.697615658837567,
      "geoinfo": {
        "display_name": "Bakoteh, Sukuta, Kombo North/Saint Mary, Brikama, West Coast Division, The Gambia",
        "road": null,
        "house_number": null,
        "neighbourhood": null,
        "suburb": null,
        "city_district": null,
        "city": "Sukuta",
        "state": "West Coast Division",
        "postcode": null,
        "country": "The Gambia",
        "country_code": "gm"
      },
      "address": "615, Bakoteh, Sukuta, Kombo North/Saint Mary, Brikama, 42056 West Coast Division, The Gambia"
    },
    {
      "lat": 13.432158308106109,
      "lon": -16.699269916470957,
      "geoinfo": {
        "display_name": "Bakoteh, Sukuta, Kombo North/Saint Mary, Brikama, West Coast Division, The Gambia",
        "road": null,
        "house_number": null,
        "neighbourhood": null,
        "suburb": null,
        "city_district": null,
        "city": "Sukuta",
        "state": "West Coast Division",
        "postcode": null,
        "country": "The Gambia",
        "country_code": "gm"
      },
      "address": "447, Bakoteh, Sukuta, Kombo North/Saint Mary, Brikama, 07069 West Coast Division, The Gambia"
    },
    {
      "lat": 13.429056257046295,
      "lon": -16.69710949277182,
      "geoinfo": {
        "display_name": "Sayerjobe Avenue, Bakoteh, Sukuta, Kombo North/Saint Mary, Brikama, West Coast Division, The Gambia",
        "road": "Sayerjobe Avenue",
        "house_number": null,
        "neighbourhood": null,
        "suburb": null,
        "city_district": null,
        "city": "Sukuta",
        "state": "West Coast Division",
        "postcode": null,
        "country": "The Gambia",
        "country_code": "gm"
      },
      "address": "568, Sayerjobe Avenue, Bakoteh, Sukuta, Kombo North/Saint Mary, Brikama, 58321 West Coast Division, The Gambia"
    },
    {
      "lat": 13.431059436444807,
      "lon": -16.699968352257336,
      "geoinfo": {
        "display_name": "Bakoteh, Sukuta, Kombo North/Saint Mary, Brikama, West Coast Division, The Gambia",
        "road": null,
        "house_number": null,
        "neighbourhood": null,
        "suburb": null,
        "city_district": null,
        "city": "Sukuta",
        "state": "West Coast Division",
        "postcode": null,
        "country": "The Gambia",
        "country_code": "gm"
      },
      "address": "486, Bakoteh, Sukuta, Kombo North/Saint Mary, Brikama, 69334 West Coast Division, The Gambia"
    },
    {
      "lat": 13.428604856344501,
      "lon": -16.698302356489375,
      "geoinfo": {
        "display_name": "Sayerjobe Avenue, Bakoteh, Sukuta, Kombo North/Saint Mary, Brikama, West Coast Division, The Gambia",
        "road": "Sayerjobe Avenue",
        "house_number": null,
        "neighbourhood": null,
        "suburb": null,
        "city_district": null,
        "city": "Sukuta",
        "state": "West Coast Division",
        "postcode": null,
        "country": "The Gambia",
        "country_code": "gm"
      },
      "address": "879, Sayerjobe Avenue, Bakoteh, Sukuta, Kombo North/Saint Mary, Brikama, 89604 West Coast Division, The Gambia"
    },
    {
      "lat": 13.429773377656796,
      "lon": -16.700085673294723,
      "geoinfo": {
        "display_name": "Bakoteh, Sukuta, Kombo North/Saint Mary, Brikama, West Coast Division, The Gambia",
        "road": null,
        "house_number": null,
        "neighbourhood": null,
        "suburb": null,
        "city_district": null,
        "city": "Sukuta",
        "state": "West Coast Division",
        "postcode": null,
        "country": "The Gambia",
        "country_code": "gm"
      },
      "address": "308, Bakoteh, Sukuta, Kombo North/Saint Mary, Brikama, 19830 West Coast Division, The Gambia"
    },
    {
      "lat": 13.428634086753561,
      "lon": -16.697046805713693,
      "geoinfo": {
        "display_name": "Bakoteh, Sukuta, Kombo North/Saint Mary, Brikama, West Coast Division, The Gambia",
        "road": null,
        "house_number": null,
        "neighbourhood": null,
        "suburb": null,
        "city_district": null,
        "city": "Sukuta",
        "state": "West Coast Division",
        "postcode": null,
        "country": "The Gambia",
        "country_code": "gm"
      },
      "address": "213, Bakoteh, Sukuta, Kombo North/Saint Mary, Brikama, 07522 West Coast Division, The Gambia"
    },
    {
      "lat": 13.429973363951946,
      "lon": -16.695564031754326,
      "geoinfo": {
        "display_name": "Bakoteh, Sukuta, Kombo North/Saint Mary, Brikama, West Coast Division, The Gambia",
        "road": null,
        "house_number": null,
        "neighbourhood": null,
        "suburb": null,
        "city_district": null,
        "city": "Sukuta",
        "state": "West Coast Division",
        "postcode": null,
        "country": "The Gambia",
        "country_code": "gm"
      },
      "address": "812, Bakoteh, Sukuta, Kombo North/Saint Mary, Brikama, 97579 West Coast Division, The Gambia"
    },
    {
      "lat": 13.431987569200983,
      "lon": -16.699801627571617,
      "geoinfo": {
        "display_name": "Bakoteh, Sukuta, Kombo North/Saint Mary, Brikama, West Coast Division, The Gambia",
        "road": null,
        "house_number": null,
        "neighbourhood": null,
        "suburb": null,
        "city_district": null,
        "city": "Sukuta",
        "state": "West Coast Division",
        "postcode": null,
        "country": "The Gambia",
        "country_code": "gm"
      },
      "address": "130, Bakoteh, Sukuta, Kombo North/Saint Mary, Brikama, 81851 West Coast Division, The Gambia"
    },
    {
      "lat": 13.43145452242021,
      "lon": -16.69620512455045,
      "geoinfo": {
        "display_name": "Bakoteh, Sukuta, Kombo North/Saint Mary, Brikama, West Coast Division, The Gambia",
        "road": null,
        "house_number": null,
        "neighbourhood": null,
        "suburb": null,
        "city_district": null,
        "city": "Sukuta",
        "state": "West Coast Division",
        "postcode": null,
        "country": "The Gambia",
        "country_code": "gm"
      },
      "address": "548, Bakoteh, Sukuta, Kombo North/Saint Mary, Brikama, 83485 West Coast Division, The Gambia"
    },
    {
      "lat": 13.429935728143473,
      "lon": -16.69744835508027,
      "geoinfo": {
        "display_name": "Bakoteh, Sukuta, Kombo North/Saint Mary, Brikama, West Coast Division, The Gambia",
        "road": null,
        "house_number": null,
        "neighbourhood": null,
        "suburb": null,
        "city_district": null,
        "city": "Sukuta",
        "state": "West Coast Division",
        "postcode": null,
        "country": "The Gambia",
        "country_code": "gm"
      },
      "address": "732, Bakoteh, Sukuta, Kombo North/Saint Mary, Brikama, 68276 West Coast Division, The Gambia"
    },
    {
      "lat": 13.429419430330004,
      "lon": -16.700129249026087,
      "geoinfo": {
        "display_name": "Bakoteh, Sukuta, Kombo North/Saint Mary, Brikama, West Coast Division, The Gambia",
        "road": null,
        "house_number": null,
        "neighbourhood": null,
        "suburb": null,
        "city_district": null,
        "city": "Sukuta",
        "state": "West Coast Division",
        "postcode": null,
        "country": "The Gambia",
        "country_code": "gm"
      },
      "address": "233, Bakoteh, Sukuta, Kombo North/Saint Mary, Brikama, 27367 West Coast Division, The Gambia"
    },
    {
      "lat": 13.428504809271285,
      "lon": -16.699363154957627,
      "geoinfo": {
        "display_name": "Bakoteh, Sukuta, Kombo North/Saint Mary, Brikama, West Coast Division, The Gambia",
        "road": null,
        "house_number": null,
        "neighbourhood": null,
        "suburb": null,
        "city_district": null,
        "city": "Sukuta",
        "state": "West Coast Division",
        "postcode": null,
        "country": "The Gambia",
        "country_code": "gm"
      },
      "address": "967, Bakoteh, Sukuta, Kombo North/Saint Mary, Brikama, 23231 West Coast Division, The Gambia"
    },
    {
      "lat": 13.429084366406844,
      "lon": -16.700003444950475,
      "geoinfo": {
        "display_name": "Bakoteh, Sukuta, Kombo North/Saint Mary, Brikama, West Coast Division, The Gambia",
        "road": null,
        "house_number": null,
        "neighbourhood": null,
        "suburb": null,
        "city_district": null,
        "city": "Sukuta",
        "state": "West Coast Division",
        "postcode": null,
        "country": "The Gambia",
        "country_code": "gm"
      },
      "address": "897, Bakoteh, Sukuta, Kombo North/Saint Mary, Brikama, 49663 West Coast Division, The Gambia"
    },
    {
      "lat": 13.428566412159,
      "lon": -16.696159821305145,
      "geoinfo": {
        "display_name": "Bakoteh, Sukuta, Kombo North/Saint Mary, Brikama, West Coast Division, The Gambia",
        "road": null,
        "house_number": null,
        "neighbourhood": null,
        "suburb": null,
        "city_district": null,
        "city": "Sukuta",
        "state": "West Coast Division",
        "postcode": null,
        "country": "The Gambia",
        "country_code": "gm"
      },
      "address": "714, Bakoteh, Sukuta, Kombo North/Saint Mary, Brikama, 24556 West Coast Division, The Gambia"
    },
    {
      "lat": 13.428202548899474,
      "lon": -16.699704901493345,
      "geoinfo": {
        "display_name": "Bakoteh, Sukuta, Kombo North/Saint Mary, Brikama, West Coast Division, The Gambia",
        "road": null,
        "house_number": null,
        "neighbourhood": null,
        "suburb": null,
        "city_district": null,
        "city": "Sukuta",
        "state": "West Coast Division",
        "postcode": null,
        "country": "The Gambia",
        "country_code": "gm"
      },
      "address": "283, Bakoteh, Sukuta, Kombo North/Saint Mary, Brikama, 30960 West Coast Division, The Gambia"
    },
    {
      "lat": 13.431780491228874,
      "lon": -16.698620337870135,
      "geoinfo": {
        "display_name": "Bakoteh, Sukuta, Kombo North/Saint Mary, Brikama, West Coast Division, The Gambia",
        "road": null,
        "house_number": null,
        "neighbourhood": null,
        "suburb": null,
        "city_district": null,
        "city": "Sukuta",
        "state": "West Coast Division",
        "postcode": null,
        "country": "The Gambia",
        "country_code": "gm"
      },
      "address": "203, Bakoteh, Sukuta, Kombo North/Saint Mary, Brikama, 93409 West Coast Division, The Gambia"
    },
    {
      "lat": 13.427803595111287,
      "lon": -16.697445866560177,
      "geoinfo": {
        "display_name": "Bakoteh, Sukuta, Kombo North/Saint Mary, Brikama, West Coast Division, The Gambia",
        "road": null,
        "house_number": null,
        "neighbourhood": null,
        "suburb": null,
        "city_district": null,
        "city": "Sukuta",
        "state": "West Coast Division",
        "postcode": null,
        "country": "The Gambia",
        "country_code": "gm"
      },
      "address": "999, Bakoteh, Sukuta, Kombo North/Saint Mary, Brikama, 29970 West Coast Division, The Gambia"
    },
    {
      "lat": 13.43230025007781,
      "lon": -16.697376932584774,
      "geoinfo": {
        "display_name": "Bakoteh, Sukuta, Kombo North/Saint Mary, Brikama, West Coast Division, The Gambia",
        "road": null,
        "house_number": null,
        "neighbourhood": null,
        "suburb": null,
        "city_district": null,
        "city": "Sukuta",
        "state": "West Coast Division",
        "postcode": null,
        "country": "The Gambia",
        "country_code": "gm"
      },
      "address": "806, Bakoteh, Sukuta, Kombo North/Saint Mary, Brikama, 17940 West Coast Division, The Gambia"
    },
    {
      "lat": 13.428847768673178,
      "lon": -16.69635717388566,
      "geoinfo": {
        "display_name": "Bakoteh, Sukuta, Kombo North/Saint Mary, Brikama, West Coast Division, The Gambia",
        "road": null,
        "house_number": null,
        "neighbourhood": null,
        "suburb": null,
        "city_district": null,
        "city": "Sukuta",
        "state": "West Coast Division",
        "postcode": null,
        "country": "The Gambia",
        "country_code": "gm"
      },
      "address": "508, Bakoteh, Sukuta, Kombo North/Saint Mary, Brikama, 29953 West Coast Division, The Gambia"
    },
    {
      "lat": 13.431576680303804,
      "lon": -16.697619662102085,
      "geoinfo": {
        "display_name": "Bakoteh, Sukuta, Kombo North/Saint Mary, Brikama, West Coast Division, The Gambia",
        "road": null,
        "house_number": null,
        "neighbourhood": null,
        "suburb": null,
        "city_district": null,
        "city": "Sukuta",
        "state": "West Coast Division",
        "postcode": null,
        "country": "The Gambia",
        "country_code": "gm"
      },
      "address": "341, Bakoteh, Sukuta, Kombo North/Saint Mary, Brikama, 50371 West Coast Division, The Gambia"
    },
    {
      "lat": 13.4291450016433,
      "lon": -16.696510563228543,
      "geoinfo": {
        "display_name": "Bakoteh, Sukuta, Kombo North/Saint Mary, Brikama, West Coast Division, The Gambia",
        "road": null,
        "house_number": null,
        "neighbourhood": null,
        "suburb": null,
        "city_district": null,
        "city": "Sukuta",
        "state": "West Coast Division",
        "postcode": null,
        "country": "The Gambia",
        "country_code": "gm"
      },
      "address": "768, Bakoteh, Sukuta, Kombo North/Saint Mary, Brikama, 25492 West Coast Division, The Gambia"
    },
    {
      "lat": 13.429199915048507,
      "lon": -16.69794475425854,
      "geoinfo": {
        "display_name": "Sanchaba Road, Bakoteh, Sukuta, Kombo North/Saint Mary, Brikama, West Coast Division, The Gambia",
        "road": "Sanchaba Road",
        "house_number": null,
        "neighbourhood": null,
        "suburb": null,
        "city_district": null,
        "city": "Sukuta",
        "state": "West Coast Division",
        "postcode": null,
        "country": "The Gambia",
        "country_code": "gm"
      },
      "address": "860, Sanchaba Road, Bakoteh, Sukuta, Kombo North/Saint Mary, Brikama, 23936 West Coast Division, The Gambia"
    },
    {
      "lat": 13.430132831432811,
      "lon": -16.700458247730115,
      "geoinfo": {
        "display_name": "Bakoteh, Sukuta, Kombo North/Saint Mary, Brikama, West Coast Division, The Gambia",
        "road": null,
        "house_number": null,
        "neighbourhood": null,
        "suburb": null,
        "city_district": null,
        "city": "Sukuta",
        "state": "West Coast Division",
        "postcode": null,
        "country": "The Gambia",
        "country_code": "gm"
      },
      "address": "474, Bakoteh, Sukuta, Kombo North/Saint Mary, Brikama, 40365 West Coast Division, The Gambia"
    },
    {
      "lat": 13.428340503377083,
      "lon": -16.69721313991435,
      "geoinfo": {
        "display_name": "Bakoteh, Sukuta, Kombo North/Saint Mary, Brikama, West Coast Division, The Gambia",
        "road": null,
        "house_number": null,
        "neighbourhood": null,
        "suburb": null,
        "city_district": null,
        "city": "Sukuta",
        "state": "West Coast Division",
        "postcode": null,
        "country": "The Gambia",
        "country_code": "gm"
      },
      "address": "781, Bakoteh, Sukuta, Kombo North/Saint Mary, Brikama, 97870 West Coast Division, The Gambia"
    },
    {
      "lat": 13.43017437810245,
      "lon": -16.695582627899377,
      "geoinfo": {
        "display_name": "Sayerjobe Avenue, Bakoteh, Sukuta, Kombo North/Saint Mary, Brikama, West Coast Division, The Gambia",
        "road": "Sayerjobe Avenue",
        "house_number": null,
        "neighbourhood": null,
        "suburb": null,
        "city_district": null,
        "city": "Sukuta",
        "state": "West Coast Division",
        "postcode": null,
        "country": "The Gambia",
        "country_code": "gm"
      },
      "address": "170, Sayerjobe Avenue, Bakoteh, Sukuta, Kombo North/Saint Mary, Brikama, 89672 West Coast Division, The Gambia"
    },
    {
      "lat": 13.43060027096458,
      "lon": -16.698166019507653,
      "geoinfo": {
        "display_name": "Bakoteh, Sukuta, Kombo North/Saint Mary, Brikama, West Coast Division, The Gambia",
        "road": null,
        "house_number": null,
        "neighbourhood": null,
        "suburb": null,
        "city_district": null,
        "city": "Sukuta",
        "state": "West Coast Division",
        "postcode": null,
        "country": "The Gambia",
        "country_code": "gm"
      },
      "address": "135, Bakoteh, Sukuta, Kombo North/Saint Mary, Brikama, 76624 West Coast Division, The Gambia"
    },
    {
      "lat": 13.432103146861413,
      "lon": -16.699971824530493,
      "geoinfo": {
        "display_name": "Sayerjobe Avenue, Bakoteh, Sukuta, Kombo North/Saint Mary, Brikama, West Coast Division, The Gambia",
        "road": "Sayerjobe Avenue",
        "house_number": null,
        "neighbourhood": null,
        "suburb": null,
        "city_district": null,
        "city": "Sukuta",
        "state": "West Coast Division",
        "postcode": null,
        "country": "The Gambia",
        "country_code": "gm"
      },
      "address": "487, Sayerjobe Avenue, Bakoteh, Sukuta, Kombo North/Saint Mary, Brikama, 49781 West Coast Division, The Gambia"
    },
    {
      "lat": 13.430898780740536,
      "lon": -16.699558602863082,
      "geoinfo": {
        "display_name": "Bakoteh, Sukuta, Kombo North/Saint Mary, Brikama, West Coast Division, The Gambia",
        "road": null,
        "house_number": null,
        "neighbourhood": null,
        "suburb": null,
        "city_district": null,
        "city": "Sukuta",
        "state": "West Coast Division",
        "postcode": null,
        "country": "The Gambia",
        "country_code": "gm"
      },
      "address": "538, Bakoteh, Sukuta, Kombo North/Saint Mary, Brikama, 35941 West Coast Division, The Gambia"
    },
    {
      "lat": 13.427877069492908,
      "lon": -16.698316073736766,
      "geoinfo": {
        "display_name": "Sayerjobe Avenue, Bakoteh, Sukuta, Kombo North/Saint Mary, Brikama, West Coast Division, The Gambia",
        "road": "Sayerjobe Avenue",
        "house_number": null,
        "neighbourhood": null,
        "suburb": null,
        "city_district": null,
        "city": "Sukuta",
        "state": "West Coast Division",
        "postcode": null,
        "country": "The Gambia",
        "country_code": "gm"
      },
      "address": "957, Sayerjobe Avenue, Bakoteh, Sukuta, Kombo North/Saint Mary, Brikama, 48642 West Coast Division, The Gambia"
    },
    {
      "lat": 13.431921223566489,
      "lon": -16.698658492218946,
      "geoinfo": {
        "display_name": "Bakoteh, Sukuta, Kombo North/Saint Mary, Brikama, West Coast Division, The Gambia",
        "road": null,
        "house_number": null,
        "neighbourhood": null,
        "suburb": null,
        "city_district": null,
        "city": "Sukuta",
        "state": "West Coast Division",
        "postcode": null,
        "country": "The Gambia",
        "country_code": "gm"
      },
      "address": "382, Bakoteh, Sukuta, Kombo North/Saint Mary, Brikama, 18886 West Coast Division, The Gambia"
    },
    {
      "lat": 13.429928575354221,
      "lon": -16.700661904240377,
      "geoinfo": {
        "display_name": "Bakoteh, Sukuta, Kombo North/Saint Mary, Brikama, West Coast Division, The Gambia",
        "road": null,
        "house_number": null,
        "neighbourhood": null,
        "suburb": null,
        "city_district": null,
        "city": "Sukuta",
        "state": "West Coast Division",
        "postcode": null,
        "country": "The Gambia",
        "country_code": "gm"
      },
      "address": "143, Bakoteh, Sukuta, Kombo North/Saint Mary, Brikama, 71172 West Coast Division, The Gambia"
    },
    {
      "lat": 13.42868472973045,
      "lon": -16.695966946085747,
      "geoinfo": {
        "display_name": "Bakoteh, Sukuta, Kombo North/Saint Mary, Brikama, West Coast Division, The Gambia",
        "road": null,
        "house_number": null,
        "neighbourhood": null,
        "suburb": null,
        "city_district": null,
        "city": "Sukuta",
        "state": "West Coast Division",
        "postcode": null,
        "country": "The Gambia",
        "country_code": "gm"
      },
      "address": "045, Bakoteh, Sukuta, Kombo North/Saint Mary, Brikama, 77082 West Coast Division, The Gambia"
    },
    {
      "lat": 13.429802495168628,
      "lon": -16.696380298064327,
      "geoinfo": {
        "display_name": "Sayerjobe Avenue, Bakoteh, Sukuta, Kombo North/Saint Mary, Brikama, West Coast Division, The Gambia",
        "road": "Sayerjobe Avenue",
        "house_number": null,
        "neighbourhood": null,
        "suburb": null,
        "city_district": null,
        "city": "Sukuta",
        "state": "West Coast Division",
        "postcode": null,
        "country": "The Gambia",
        "country_code": "gm"
      },
      "address": "205, Sayerjobe Avenue, Bakoteh, Sukuta, Kombo North/Saint Mary, Brikama, 04305 West Coast Division, The Gambia"
    },
    {
      "lat": 13.430003193396802,
      "lon": -16.696720113814127,
      "geoinfo": {
        "display_name": "Bakoteh, Sukuta, Kombo North/Saint Mary, Brikama, West Coast Division, The Gambia",
        "road": null,
        "house_number": null,
        "neighbourhood": null,
        "suburb": null,
        "city_district": null,
        "city": "Sukuta",
        "state": "West Coast Division",
        "postcode": null,
        "country": "The Gambia",
        "country_code": "gm"
      },
      "address": "571, Bakoteh, Sukuta, Kombo North/Saint Mary, Brikama, 35491 West Coast Division, The Gambia"
    },
    {
      "lat": 13.42994360640605,
      "lon": -16.69748316855033,
      "geoinfo": {
        "display_name": "Bakoteh, Sukuta, Kombo North/Saint Mary, Brikama, West Coast Division, The Gambia",
        "road": null,
        "house_number": null,
        "neighbourhood": null,
        "suburb": null,
        "city_district": null,
        "city": "Sukuta",
        "state": "West Coast Division",
        "postcode": null,
        "country": "The Gambia",
        "country_code": "gm"
      },
      "address": "579, Bakoteh, Sukuta, Kombo North/Saint Mary, Brikama, 17892 West Coast Division, The Gambia"
    },
    {
      "lat": 13.429095728494744,
      "lon": -16.69865248313625,
      "geoinfo": {
        "display_name": "Bakoteh, Sukuta, Kombo North/Saint Mary, Brikama, West Coast Division, The Gambia",
        "road": null,
        "house_number": null,
        "neighbourhood": null,
        "suburb": null,
        "city_district": null,
        "city": "Sukuta",
        "state": "West Coast Division",
        "postcode": null,
        "country": "The Gambia",
        "country_code": "gm"
      },
      "address": "250, Bakoteh, Sukuta, Kombo North/Saint Mary, Brikama, 83985 West Coast Division, The Gambia"
    },
    {
      "lat": 13.431282203779142,
      "lon": -16.699372027016246,
      "geoinfo": {
        "display_name": "Bakoteh, Sukuta, Kombo North/Saint Mary, Brikama, West Coast Division, The Gambia",
        "road": null,
        "house_number": null,
        "neighbourhood": null,
        "suburb": null,
        "city_district": null,
        "city": "Sukuta",
        "state": "West Coast Division",
        "postcode": null,
        "country": "The Gambia",
        "country_code": "gm"
      },
      "address": "626, Bakoteh, Sukuta, Kombo North/Saint Mary, Brikama, 87069 West Coast Division, The Gambia"
    },
    {
      "lat": 13.430407700172315,
      "lon": -16.69966173833974,
      "geoinfo": {
        "display_name": "Sanchaba Road, Bakoteh, Sukuta, Kombo North/Saint Mary, Brikama, West Coast Division, The Gambia",
        "road": "Sanchaba Road",
        "house_number": null,
        "neighbourhood": null,
        "suburb": null,
        "city_district": null,
        "city": "Sukuta",
        "state": "West Coast Division",
        "postcode": null,
        "country": "The Gambia",
        "country_code": "gm"
      },
      "address": "578, Sanchaba Road, Bakoteh, Sukuta, Kombo North/Saint Mary, Brikama, 96542 West Coast Division, The Gambia"
    },
    {
      "lat": 13.429287048560747,
      "lon": -16.69946405271036,
      "geoinfo": {
        "display_name": "Bakoteh, Sukuta, Kombo North/Saint Mary, Brikama, West Coast Division, The Gambia",
        "road": null,
        "house_number": null,
        "neighbourhood": null,
        "suburb": null,
        "city_district": null,
        "city": "Sukuta",
        "state": "West Coast Division",
        "postcode": null,
        "country": "The Gambia",
        "country_code": "gm"
      },
      "address": "869, Bakoteh, Sukuta, Kombo North/Saint Mary, Brikama, 21460 West Coast Division, The Gambia"
    },
    {
      "lat": 13.430251190822068,
      "lon": -16.696685379949205,
      "geoinfo": {
        "display_name": "Bakoteh, Sukuta, Kombo North/Saint Mary, Brikama, West Coast Division, The Gambia",
        "road": null,
        "house_number": null,
        "neighbourhood": null,
        "suburb": null,
        "city_district": null,
        "city": "Sukuta",
        "state": "West Coast Division",
        "postcode": null,
        "country": "The Gambia",
        "country_code": "gm"
      },
      "address": "679, Bakoteh, Sukuta, Kombo North/Saint Mary, Brikama, 52881 West Coast Division, The Gambia"
    },
    {
      "lat": 13.43163477232528,
      "lon": -16.698216470017165,
      "geoinfo": {
        "display_name": "Bakoteh, Sukuta, Kombo North/Saint Mary, Brikama, West Coast Division, The Gambia",
        "road": null,
        "house_number": null,
        "neighbourhood": null,
        "suburb": null,
        "city_district": null,
        "city": "Sukuta",
        "state": "West Coast Division",
        "postcode": null,
        "country": "The Gambia",
        "country_code": "gm"
      },
      "address": "040, Bakoteh, Sukuta, Kombo North/Saint Mary, Brikama, 47570 West Coast Division, The Gambia"
    },
    {
      "lat": 13.430117198153372,
      "lon": -16.70062078934248,
      "geoinfo": {
        "display_name": "Bakoteh, Sukuta, Kombo North/Saint Mary, Brikama, West Coast Division, The Gambia",
        "road": null,
        "house_number": null,
        "neighbourhood": null,
        "suburb": null,
        "city_district": null,
        "city": "Sukuta",
        "state": "West Coast Division",
        "postcode": null,
        "country": "The Gambia",
        "country_code": "gm"
      },
      "address": "526, Bakoteh, Sukuta, Kombo North/Saint Mary, Brikama, 15527 West Coast Division, The Gambia"
    },
    {
      "lat": 13.43040621557218,
      "lon": -16.69947344226997,
      "geoinfo": {
        "display_name": "Sanchaba Road, Bakoteh, Sukuta, Kombo North/Saint Mary, Brikama, West Coast Division, The Gambia",
        "road": "Sanchaba Road",
        "house_number": null,
        "neighbourhood": null,
        "suburb": null,
        "city_district": null,
        "city": "Sukuta",
        "state": "West Coast Division",
        "postcode": null,
        "country": "The Gambia",
        "country_code": "gm"
      },
      "address": "515, Sanchaba Road, Bakoteh, Sukuta, Kombo North/Saint Mary, Brikama, 36788 West Coast Division, The Gambia"
    }
  ],
  "updated_at": "2025-10-22T00:17:35.584106+00:00",
  "_kind": "geo_samples"
}