{
  "country_code": "GM",
  "country": "Gambia",
  "city": "Brikama",
  "geonameid": 2413753,
  "target_addresses": 50,
  "samples": [
    {
      "lat": 13.310938457355146,
      "lon": -16.648340580835605,
      "geoinfo": {
        "display_name": "Busumbala, Kombo North/Saint Mary, Brikama, West Coast Division, The Gambia",
        "road": null,
        "house_number": null,
        "neighbourhood": null,
        "suburb": null,
        "city_district": null,
        "city": "Busumbala",
        "state": "West Coast Division",
        "postcode": null,
        "country": "The Gambia",
        "country_code": "gm"
      },
      "address": "Brikama, West Coast Division, Gambia"
    },
    {
      "lat": 13.300358380464099,
      "lon": -16.663400906406714,
      "geoinfo": {
        "display_name": "National Beekeepers Association, Brikama Highway, Yundum, Kombo North/Saint Mary, Brikama, West Coast Division, The Gambia",
        "road": "Brikama Highway",
        "house_number": null,
        "neighbourhood": null,
        "suburb": null,
        "city_district": null,
        "city": "Yundum",
        "state": "West Coast Division",
        "postcode": null,
        "country": "The Gambia",
        "country_code": "gm"
      },
      "address": "Brikama Highway, Brikama, West Coast Division, Gambia"
    },
    {
      "lat": 13.23249301003736,
      "lon": -16.62727712682197,
      "geoinfo": {
        "display_name": "Busura Highway, Penyem, Brikama, West Coast Division, The Gambia",
        "road": "Busura Highway",
        "house_number": null,
        "neighbourhood": null,
        "suburb": null,
        "city_district": null,
        "city": "Penyem",
        "state": "West Coast Division",
        "postcode": null,
        "country": "The Gambia",
        "country_code": "gm"
      },
      "address": "Busura Highway, Brikama, West Coast Division, Gambia"
    },
    {
      "lat": 13.265066859328252,
      "lon": -16.6133616986008,
      "geoinfo": {
        "display_name": "Mandinaba, Brikama, West Coast Division, The Gambia",
        "road": null,
        "house_number": null,
        "neighbourhood": null,
        "suburb": null,
        "city_district": null,
        "city": "Mandinaba",
        "state": "West Coast Division",
        "postcode": null,
        "country": "The Gambia",
        "country_code": "gm"
      },
      "address": "529, Mandinaba, Brikama, 03848 West Coast Division, The Gambia"
    },
    {
      "lat": 13.276637925403847,
      "lon": -16.635167733340054,
      "geoinfo": {
        "display_name": "Brikama, Kombo North/Saint Mary, Brikama, West Coast Division, The Gambia",
        "road": null,
        "house_number": null,
        "neighbourhood": null,
        "suburb": null,
        "city_district": null,
        "city": "Brikama",
        "state": "West Coast Division",
        "postcode": null,
        "country": "The Gambia",
        "country_code": "gm"
      },
      "address": "206, Brikama, Kombo North/Saint Mary, Brikama, 89786 West Coast Division, The Gambia"
    },
    {
      "lat": 13.25672082294108,
      "lon": -16.61114800208081,
      "geoinfo": {
        "display_name": "Baransanghoto Road, Tubakuta, Brikama, West Coast Division, The Gambia",
        "road": "Baransanghoto Road",
        "house_number": null,
        "neighbourhood": null,
        "suburb": null,
        "city_district": null,
        "city": "Tubakuta",
        "state": "West Coast Division",
        "postcode": null,
        "country": "The Gambia",
        "country_code": "gm"
      },
      "address": "533, Baransanghoto Road, Tubakuta, Brikama, 91757 West Coast Division, The Gambia"
    },
    {
      "lat": 13.285858062242662,
      "lon": -16.67409059884039,
      "geoinfo": {
        "display_name": "Kombo North/Saint Mary, Brikama, West Coast Division, The Gambia",
        "road": null,
        "house_number": null,
        "neighbourhood": null,
        "suburb": null,
        "city_district": null,
        "city": null,
        "state": "West Coast Division",
        "postcode": null,
        "country": "The Gambia",
        "country_code": "gm"
      },
      "address": "435, Brikama, 31831 West Coast Division, Gambia"
    },
    {
      "lat": 13.269590425490707,
      "lon": -16.649940795248384,
      "geoinfo": {
        "display_name": "Brikama, Kombo North/Saint Mary, Brikama, West Coast Division, The Gambia",
        "road": null,
        "house_number": null,
        "neighbourhood": null,
        "suburb": null,
        "city_district": null,
        "city": "Brikama",
        "state": "West Coast Division",
        "postcode": null,
        "country": "The Gambia",
        "country_code": "gm"
      },
      "address": "773, Brikama, Kombo North/Saint Mary, Brikama, 63480 West Coast Division, The Gambia"
    },
    {
      "lat": 13.269535180694144,
      "lon": -16.64799117904223,
      "geoinfo": {
        "display_name": "Manduar Highway, Brikama, Kombo North/Saint Mary, Brikama, West Coast Division, The Gambia",
        "road": "Manduar Highway",
        "house_number": null,
        "neighbourhood": null,
        "suburb": null,
        "city_district": null,
        "city": "Brikama",
        "state": "West Coast Division",
        "postcode": null,
        "country": "The Gambia",
        "country_code": "gm"
      },
      "address": "409, Manduar Highway, Brikama, Kombo North/Saint Mary, Brikama, 26201 West Coast Division, The Gambia"
    },
    {
      "lat": 13.271057124421342,
      "lon": -16.649995376091567,
      "geoinfo": {
        "display_name": "Brikama, Kombo North/Saint Mary, Brikama, West Coast Division, The Gambia",
        "road": null,
        "house_number": null,
        "neighbourhood": null,
        "suburb": null,
        "city_district": null,
        "city": "Brikama",
        "state": "West Coast Division",
        "postcode": null,
        "country": "The Gambia",
        "country_code": "gm"
      },
      "address": "735, Brikama, Kombo North/Saint Mary, Brikama, 88524 West Coast Division, The Gambia"
    },
    {
      "lat": 13.272643192185598,
      "lon": -16.650578710302696,
      "geoinfo": {
        "display_name": "Kiti Street, Brikama, Kombo North/Saint Mary, Brikama, West Coast Division, The Gambia",
        "road": "Kiti Street",
        "house_number": null,
        "neighbourhood": null,
        "suburb": null,
        "city_district": null,
        "city": "Brikama",
        "state": "West Coast Division",
        "postcode": null,
        "country": "The Gambia",
        "country_code": "gm"
      },
      "address": "992, Kiti Street, Brikama, Kombo North/Saint Mary, Brikama, 11366 West Coast Division, The Gambia"
    },
    {
      "lat": 13.270446081516658,
      "lon": -16.64734197584762,
      "geoinfo": {
        "display_name": "Brikama, Kombo North/Saint Mary, Brikama, West Coast Division, The Gambia",
        "road": null,
        "house_number": null,
        "neighbourhood": null,
        "suburb": null,
        "city_district": null,
        "city": "Brikama",
        "state": "West Coast Division",
        "postcode": null,
        "country": "The Gambia",
        "country_code": "gm"
      },
      "address": "140, Brikama, Kombo North/Saint Mary, Brikama, 32195 West Coast Division, The Gambia"
    },
    {
      "lat": 13.272756023399726,
      "lon": -16.647738636282053,
      "geoinfo": {
        "display_name": "Brikama Market, 2th Avenue, Brikama, Kombo North/Saint Mary, Brikama, West Coast Division, The Gambia",
        "road": "2th Avenue",
        "house_number": null,
        "neighbourhood": null,
        "suburb": null,
        "city_district": null,
        "city": "Brikama",
        "state": "West Coast Division",
        "postcode": null,
        "country": "The Gambia",
        "country_code": "gm"
      },
      "address": "2th Avenue, Brikama, 26682 West Coast Division, Gambia"
    },
    {
      "lat": 13.271605226332479,
      "lon": -16.651211081760415,
      "geoinfo": {
        "display_name": "Brikama, Kombo North/Saint Mary, Brikama, West Coast Division, The Gambia",
        "road": null,
        "house_number": null,
        "neighbourhood": null,
        "suburb": null,
        "city_district": null,
        "city": "Brikama",
        "state": "West Coast Division",
        "postcode": null,
        "country": "The Gambia",
        "country_code": "gm"
      },
      "address": "078, Brikama, Kombo North/Saint Mary, Brikama, 96933 West Coast Division, The Gambia"
    },
    {
      "lat": 13.27011821420513,
      "lon": -16.649944288819785,
      "geoinfo": {
        "display_name": "Brikama, Kombo North/Saint Mary, Brikama, West Coast Division, The Gambia",
        "road": null,
        "house_number": null,
        "neighbourhood": null,
        "suburb": null,
        "city_district": null,
        "city": "Brikama",
        "state": "West Coast Division",
        "postcode": null,
        "country": "The Gambia",
        "country_code": "gm"
      },
      "address": "469, Brikama, Kombo North/Saint Mary, Brikama, 52099 West Coast Division, The Gambia"
    },
    {
      "lat": 13.268725519699183,
      "lon": -16.649306673978597,
      "geoinfo": {
        "display_name": "Brikama, West Coast Division, The Gambia",
        "road": null,
        "house_number": null,
        "neighbourhood": null,
        "suburb": null,
        "city_district": null,
        "city": "Brikama",
        "state": "West Coast Division",
        "postcode": null,
        "country": "The Gambia",
        "country_code": "gm"
      },
      "address": "647, Brikama, 08542 West Coast Division, The Gambia"
    },
    {
      "lat": 13.27128248290007,
      "lon": -16.648529282844734,
      "geoinfo": {
        "display_name": "Brikama Highway, Brikama, Kombo North/Saint Mary, Brikama, West Coast Division, The Gambia",
        "road": "Brikama Highway",
        "house_number": null,
        "neighbourhood": null,
        "suburb": null,
        "city_district": null,
        "city": "Brikama",
        "state": "West Coast Division",
        "postcode": null,
        "country": "The Gambia",
        "country_code": "gm"
      },
      "address": "978, Brikama Highway, Brikama, Kombo North/Saint Mary, Brikama, 07900 West Coast Division, The Gambia"
    },
    {
      "lat": 13.27384305825712,
      "lon": -16.64870688967257,
      "geoinfo": {
        "display_name": "Brikama Market, 2th Avenue, Brikama, Kombo North/Saint Mary, Brikama, West Coast Division, The Gambia",
        "road": "2th Avenue",
        "house_number": null,
        "neighbourhood": null,
        "suburb": null,
        "city_district": null,
        "city": "Brikama",
        "state": "West Coast Division",
        "postcode": null,
        "country": "The Gambia",
        "country_code": "gm"
      },
      "address": "2th Avenue, Brikama, 09375 West Coast Division, Gambia"
    },
    {
      "lat": 13.27109945169048,
      "lon": -16.650549700729794,
      "geoinfo": {
        "display_name": "Kiti Street, Brikama, Kombo North/Saint Mary, Brikama, West Coast Division, The Gambia",
        "road": "Kiti Street",
        "house_number": null,
        "neighbourhood": null,
        "suburb": null,
        "city_district": null,
        "city": "Brikama",
        "state": "West Coast Division",
        "postcode": null,
        "country": "The Gambia",
        "country_code": "gm"
      },
      "address": "413, Kiti Street, Brikama, Kombo North/Saint Mary, Brikama, 38698 West Coast Division, The Gambia"
    },
    {
      "lat": 13.271665023761502,
      "lon": -16.648816269685927,
      "geoinfo": {
        "display_name": "Brikama Market, 2th Avenue, Brikama, Kombo North/Saint Mary, Brikama, West Coast Division, The Gambia",
        "road": "2th Avenue",
        "house_number": null,
        "neighbourhood": null,
        "suburb": null,
        "city_district": null,
        "city": "Brikama",
        "state": "West Coast Division",
        "postcode": null,
        "country": "The Gambia",
        "country_code": "gm"
      },
      "address": "2th Avenue, Brikama, 93649 West Coast Division, Gambia"
    },
    {
      "lat": 13.271861538425943,
      "lon": -16.647953537911842,
      "geoinfo": {
        "display_name": "Brikama Market, 2th Avenue, Brikama, Kombo North/Saint Mary, Brikama, West Coast Division, The Gambia",
        "road": "2th Avenue",
        "house_number": null,
        "neighbourhood": null,
        "suburb": null,
        "city_district": null,
        "city": "Brikama",
        "state": "West Coast Division",
        "postcode": null,
        "country": "The Gambia",
        "country_code": "gm"
      },
      "address": "2th Avenue, Brikama, 83476 West Coast Division, Gambia"
    },
    {
      "lat": 13.268887041317742,
      "lon": -16.649496906733773,
      "geoinfo": {
        "display_name": "Brikama, Kombo North/Saint Mary, Brikama, West Coast Division, The Gambia",
        "road": null,
        "house_number": null,
        "neighbourhood": null,
        "suburb": null,
        "city_district": null,
        "city": "Brikama",
        "state": "West Coast Division",
        "postcode": null,
        "country": "The Gambia",
        "country_code": "gm"
      },
      "address": "842, Brikama, Kombo North/Saint Mary, Brikama, 88256 West Coast Division, The Gambia"
    },
    {
      "lat": 13.272482660680026,
      "lon": -16.65004638286133,
      "geoinfo": {
        "display_name": "Kiti Street, Brikama, Kombo North/Saint Mary, Brikama, West Coast Division, The Gambia",
        "road": "Kiti Street",
        "house_number": null,
        "neighbourhood": null,
        "suburb": null,
        "city_district": null,
        "city": "Brikama",
        "state": "West Coast Division",
        "postcode": null,
        "country": "The Gambia",
        "country_code": "gm"
      },
      "address": "066, Kiti Street, Brikama, Kombo North/Saint Mary, Brikama, 22078 West Coast Division, The Gambia"
    },
    {
      "lat": 13.273260922718453,
      "lon": -16.651107317989464,
      "geoinfo": {
        "display_name": "Brikama, Kombo North/Saint Mary, Brikama, West Coast Division, The Gambia",
        "road": null,
        "house_number": null,
        "neighbourhood": null,
        "suburb": null,
        "city_district": null,
        "city": "Brikama",
        "state": "West Coast Division",
        "postcode": null,
        "country": "The Gambia",
        "country_code": "gm"
      },
      "address": "687, Brikama, Kombo North/Saint Mary, Brikama, 72364 West Coast Division, The Gambia"
    },
    {
      "lat": 13.27186491176062,
      "lon": -16.64901473670175,
      "geoinfo": {
        "display_name": "Brikama Market, Brikama Highway, Brikama, Kombo North/Saint Mary, Brikama, West Coast Division, The Gambia",
        "road": "Brikama Highway",
        "house_number": null,
        "neighbourhood": null,
        "suburb": null,
        "city_district": null,
        "city": "Brikama",
        "state": "West Coast Division",
        "postcode": null,
        "country": "The Gambia",
        "country_code": "gm"
      },
      "address": "417, Brikama Highway, Brikama, 88457 West Coast Division, Gambia"
    },
    {
      "lat": 13.270845572205104,
      "lon": -16.650545627310034,
      "geoinfo": {
        "display_name": "Kiti Street, Brikama, Kombo North/Saint Mary, Brikama, West Coast Division, The Gambia",
        "road": "Kiti Street",
        "house_number": null,
        "neighbourhood": null,
        "suburb": null,
        "city_district": null,
        "city": "Brikama",
        "state": "West Coast Division",
        "postcode": null,
        "country": "The Gambia",
        "country_code": "gm"
      },
      "address": "425, Kiti Street, Brikama, Kombo North/Saint Mary, Brikama, 42597 West Coast Division, The Gambia"
    },
    {
      "lat": 13.27374882662329,
      "lon": -16.650696882998428,
      "geoinfo": {
        "display_name": "3th Avenue, Brikama, Kombo North/Saint Mary, Brikama, West Coast Division, The Gambia",
        "road": "3th Avenue",
        "house_number": null,
        "neighbourhood": null,
        "suburb": null,
        "city_district": null,
        "city": "Brikama",
        "state": "West Coast Division",
        "postcode": null,
        "country": "The Gambia",
        "country_code": "gm"
      },
      "address": "3th Avenue, Brikama, Kombo North/Saint Mary, Brikama, 35105 West Coast Division, The Gambia"
    },
    {
      "lat": 13.27307825999784,
      "lon": -16.649277525001736,
      "geoinfo": {
        "display_name": "Brikama Market, Brikama Highway, Brikama, Kombo North/Saint Mary, Brikama, West Coast Division, The Gambia",
        "road": "Brikama Highway",
        "house_number": null,
        "neighbourhood": null,
        "suburb": null,
        "city_district": null,
        "city": "Brikama",
        "state": "West Coast Division",
        "postcode": null,
        "country": "The Gambia",
        "country_code": "gm"
      },
      "address": "676, Brikama Highway, Brikama, 32566 West Coast Division, Gambia"
    },
    {
      "lat": 13.269693826939534,
      "lon": -16.649289248731193,
      "geoinfo": {
        "display_name": "Brikama, Kombo North/Saint Mary, Brikama, West Coast Division, The Gambia",
        "road": null,
        "house_number": null,
        "neighbourhood": null,
        "suburb": null,
        "city_district": null,
        "city": "Brikama",
        "state": "West Coast Division",
        "postcode": null,
        "country": "The Gambia",
        "country_code": "gm"
      },
      "address": "480, Brikama, Kombo North/Saint Mary, Brikama, 32431 West Coast Division, The Gambia"
    },
    {
      "lat": 13.270546019095509,
      "lon": -16.650461413115295,
      "geoinfo": {
        "display_name": "Brikama, Kombo North/Saint Mary, Brikama, West Coast Division, The Gambia",
        "road": null,
        "house_number": null,
        "neighbourhood": null,
        "suburb": null,
        "city_district": null,
        "city": "Brikama",
        "state": "West Coast Division",
        "postcode": null,
        "country": "The Gambia",
        "country_code": "gm"
      },
      "address": "542, Brikama, Kombo North/Saint Mary, Brikama, 07388 West Coast Division, The Gambia"
    },
    {
      "lat": 13.273215378970276,
      "lon": -16.647686770477776,
      "geoinfo": {
        "display_name": "Brikama Market, Brikama Highway, Brikama, Kombo North/Saint Mary, Brikama, West Coast Division, The Gambia",
        "road": "Brikama Highway",
        "house_number": null,
        "neighbourhood": null,
        "suburb": null,
        "city_district": null,
        "city": "Brikama",
        "state": "West Coast Division",
        "postcode": null,
        "country": "The Gambia",
        "country_code": "gm"
      },
      "address": "524, Brikama Highway, Brikama, 51359 West Coast Division, Gambia"
    },
    {
      "lat": 13.270622092492077,
      "lon": -16.649434520176975,
      "geoinfo": {
        "display_name": "Brikama, Kombo North/Saint Mary, Brikama, West Coast Division, The Gambia",
        "road": null,
        "house_number": null,
        "neighbourhood": null,
        "suburb": null,
        "city_district": null,
        "city": "Brikama",
        "state": "West Coast Division",
        "postcode": null,
        "country": "The Gambia",
        "country_code": "gm"
      },
      "address": "636, Brikama, Kombo North/Saint Mary, Brikama, 96257 West Coast Division, The Gambia"
    },
    {
      "lat": 13.271875095238094,
      "lon": -16.65076009407575,
      "geoinfo": {
        "display_name": "Brikama, Kombo North/Saint Mary, Brikama, West Coast Division, The Gambia",
        "road": null,
        "house_number": null,
        "neighbourhood": null,
        "suburb": null,
        "city_district": null,
        "city": "Brikama",
        "state": "West Coast Division",
        "postcode": null,
        "country": "The Gambia",
        "country_code": "gm"
      },
      "address": "146, Brikama, Kombo North/Saint Mary, Brikama, 62239 West Coast Division, The Gambia"
    },
    {
      "lat": 13.272975973271135,
      "lon": -16.648777043465603,
      "geoinfo": {
        "display_name": "Brikama Market, Brikama Highway, Brikama, Kombo North/Saint Mary, Brikama, West Coast Division, The Gambia",
        "road": "Brikama Highway",
        "house_number": null,
        "neighbourhood": null,
        "suburb": null,
        "city_district": null,
        "city": "Brikama",
        "state": "West Coast Division",
        "postcode": null,
        "country": "The Gambia",
        "country_code": "gm"
      },
      "address": "927, Brikama Highway, Brikama, 72702 West Coast Division, Gambia"
    },
    {
      "lat": 13.271264486518307,
      "lon": -16.649560843779074,
      "geoinfo": {
        "display_name": "EE minimarket, Brikama Highway, Brikama, Kombo North/Saint Mary, Brikama, West Coast Division, The Gambia",
        "road": "Brikama Highway",
        "house_number": null,
        "neighbourhood": null,
        "suburb": null,
        "city_district": null,
        "city": "Brikama",
        "state": "West Coast Division",
        "postcode": null,
        "country": "The Gambia",
        "country_code": "gm"
      },
      "address": "284, Brikama Highway, Brikama, 48196 West Coast Division, Gambia"
    },
    {
      "lat": 13.271227703992487,
      "lon": -16.65217061158348,
      "geoinfo": {
        "display_name": "Brikama, Kombo North/Saint Mary, Brikama, West Coast Division, The Gambia",
        "road": null,
        "house_number": null,
        "neighbourhood": null,
        "suburb": null,
        "city_district": null,
        "city": "Brikama",
        "state": "West Coast Division",
        "postcode": null,
        "country": "The Gambia",
        "country_code": "gm"
      },
      "address": "680, Brikama, Kombo North/Saint Mary, Brikama, 29185 West Coast Division, The Gambia"
    },
    {
      "lat": 13.27041858996638,
      "lon": -16.649762058758938,
      "geoinfo": {
        "display_name": "Brikama, Kombo North/Saint Mary, Brikama, West Coast Division, The Gambia",
        "road": null,
        "house_number": null,
        "neighbourhood": null,
        "suburb": null,
        "city_district": null,
        "city": "Brikama",
        "state": "West Coast Division",
        "postcode": null,
        "country": "The Gambia",
        "country_code": "gm"
      },
      "address": "490, Brikama, Kombo North/Saint Mary, Brikama, 45898 West Coast Division, The Gambia"
    },
    {
      "lat": 13.268695638389518,
      "lon": -16.64985283995008,
      "geoinfo": {
        "display_name": "Brikama, Kombo North/Saint Mary, Brikama, West Coast Division, The Gambia",
        "road": null,
        "house_number": null,
        "neighbourhood": null,
        "suburb": null,
        "city_district": null,
        "city": "Brikama",
        "state": "West Coast Division",
        "postcode": null,
        "country": "The Gambia",
        "country_code": "gm"
      },
      "address": "228, Brikama, Kombo North/Saint Mary, Brikama, 90255 West Coast Division, The Gambia"
    },
    {
      "lat": 13.26959501667788,
      "lon": -16.648410613849688,
      "geoinfo": {
        "display_name": "Brikama, West Coast Division, The Gambia",
        "road": null,
        "house_number": null,
        "neighbourhood": null,
        "suburb": null,
        "city_district": null,
        "city": "Brikama",
        "state": "West Coast Division",
        "postcode": null,
        "country": "The Gambia",
        "country_code": "gm"
      },
      "address": "269, Brikama, 12471 West Coast Division, The Gambia"
    },
    {
      "lat": 13.272935839703187,
      "lon": -16.6478169031485,
      "geoinfo": {
        "display_name": "Brikama Market, Brikama Highway, Brikama, Kombo North/Saint Mary, Brikama, West Coast Division, The Gambia",
        "road": "Brikama Highway",
        "house_number": null,
        "neighbourhood": null,
        "suburb": null,
        "city_district": null,
        "city": "Brikama",
        "state": "West Coast Division",
        "postcode": null,
        "country": "The Gambia",
        "country_code": "gm"
      },
      "address": "066, Brikama Highway, Brikama, 77564 West Coast Division, Gambia"
    },
    {
      "lat": 13.272184247215106,
      "lon": -16.64881170891294,
      "geoinfo": {
        "display_name": "Brikama Market, Brikama Highway, Brikama, Kombo North/Saint Mary, Brikama, West Coast Division, The Gambia",
        "road": "Brikama Highway",
        "house_number": null,
        "neighbourhood": null,
        "suburb": null,
        "city_district": null,
        "city": "Brikama",
        "state": "West Coast Division",
        "postcode": null,
        "country": "The Gambia",
        "country_code": "gm"
      },
      "address": "175, Brikama Highway, Brikama, 24209 West Coast Division, Gambia"
    },
    {
      "lat": 13.270166039797774,
      "lon": -16.648798796767018,
      "geoinfo": {
        "display_name": "Brikama, Kombo North/Saint Mary, Brikama, West Coast Division, The Gambia",
        "road": null,
        "house_number": null,
        "neighbourhood": null,
        "suburb": null,
        "city_district": null,
        "city": "Brikama",
        "state": "West Coast Division",
        "postcode": null,
        "country": "The Gambia",
        "country_code": "gm"
      },
      "address": "938, Brikama, Kombo North/Saint Mary, Brikama, 37380 West Coast Division, The Gambia"
    },
    {
      "lat": 13.270887268162685,
      "lon": -16.649409176406927,
      "geoinfo": {
        "display_name": "Brikama, Kombo North/Saint Mary, Brikama, West Coast Division, The Gambia",
        "road": null,
        "house_number": null,
        "neighbourhood": null,
        "suburb": null,
        "city_district": null,
        "city": "Brikama",
        "state": "West Coast Division",
        "postcode": null,
        "country": "The Gambia",
        "country_code": "gm"
      },
      "address": "393, Brikama, Kombo North/Saint Mary, Brikama, 54071 West Coast Division, The Gambia"
    },
    {
      "lat": 13.270155346919267,
      "lon": -16.651596706269853,
      "geoinfo": {
        "display_name": "Bonanza Win, Kiti Street, Brikama, Kombo North/Saint Mary, Brikama, West Coast Division, The Gambia",
        "road": "Kiti Street",
        "house_number": null,
        "neighbourhood": null,
        "suburb": null,
        "city_district": null,
        "city": "Brikama",
        "state": "West Coast Division",
        "postcode": null,
        "country": "The Gambia",
        "country_code": "gm"
      },
      "address": "896, Kiti Street, Brikama, 60264 West Coast Division, Gambia"
    },
    {
      "lat": 13.271647523339382,
      "lon": -16.65152650170583,
      "geoinfo": {
        "display_name": "Brikama, Kombo North/Saint Mary, Brikama, West Coast Division, The Gambia",
        "road": null,
        "house_number": null,
        "neighbourhood": null,
        "suburb": null,
        "city_district": null,
        "city": "Brikama",
        "state": "West Coast Division",
        "postcode": null,
        "country": "The Gambia",
        "country_code": "gm"
      },
      "address": "846, Brikama, Kombo North/Saint Mary, Brikama, 23323 West Coast Division, The Gambia"
    },
    {
      "lat": 13.270890161707753,
      "lon": -16.651134160755188,
      "geoinfo": {
        "display_name": "Kiti Street, Brikama, Kombo North/Saint Mary, Brikama, West Coast Division, The Gambia",
        "road": "Kiti Street",
        "house_number": null,
        "neighbourhood": null,
        "suburb": null,
        "city_district": null,
        "city": "Brikama",
        "state": "West Coast Division",
        "postcode": null,
        "country": "The Gambia",
        "country_code": "gm"
      },
      "address": "893, Kiti Street, Brikama, Kombo North/Saint Mary, Brikama, 39948 West Coast Division, The Gambia"
    },
    {
      "lat": 13.2715283960021,
      "lon": -16.649450803993595,
      "geoinfo": {
        "display_name": "EE minimarket, Brikama Highway, Brikama, Kombo North/Saint Mary, Brikama, West Coast Division, The Gambia",
        "road": "Brikama Highway",
        "house_number": null,
        "neighbourhood": null,
        "suburb": null,
        "city_district": null,
        "city": "Brikama",
        "state": "West Coast Division",
        "postcode": null,
        "country": "The Gambia",
        "country_code": "gm"
      },
      "address": "801, Brikama Highway, Brikama, 36921 West Coast Division, Gambia"
    },
    {
      "lat": 13.274014185090099,
      "lon": -16.649517366742767,
      "geoinfo": {
        "display_name": "Brikama Police Station, Brikama Highway, Brikama, Kombo North/Saint Mary, Brikama, West Coast Division, The Gambia",
        "road": "Brikama Highway",
        "house_number": null,
        "neighbourhood": null,
        "suburb": null,
        "city_district": null,
        "city": "Brikama",
        "state": "West Coast Division",
        "postcode": null,
        "country": "The Gambia",
        "country_code": "gm"
      },
      "address": "240, Brikama Highway, Brikama, 45540 West Coast Division, Gambia"
    },
    {
      "lat": 13.273713542610038,
      "lon": -16.648164032667978,
      "geoinfo": {
        "display_name": "Brikama Market, Brikama Highway, Brikama, Kombo North/Saint Mary, Brikama, West Coast Division, The Gambia",
        "road": "Brikama Highway",
        "house_number": null,
        "neighbourhood": null,
        "suburb": null,
        "city_district": null,
        "city": "Brikama",
        "state": "West Coast Division",
        "postcode": null,
        "country": "The Gambia",
        "country_code": "gm"
      },
      "address": "528, Brikama Highway, Brikama, 58151 West Coast Division, Gambia"
    },
    {
      "lat": 13.271169947467822,
      "lon": -16.65145868815597,
      "geoinfo": {
        "display_name": "Brikama, Kombo North/Saint Mary, Brikama, West Coast Division, The Gambia",
        "road": null,
        "house_number": null,
        "neighbourhood": null,
        "suburb": null,
        "city_district": null,
        "city": "Brikama",
        "state": "West Coast Division",
        "postcode": null,
        "country": "The Gambia",
        "country_code": "gm"
      },
      "address": "518, Brikama, Kombo North/Saint Mary, Brikama, 62116 West Coast Division, The Gambia"
    }
  ],
  "updated_at": "2025-10-22T00:13:20.498895+00:00",
  "_kind": "geo_samples"
}