{
  "country_code": "GM",
  "country": "Gambia",
  "city": "Brufut",
  "geonameid": 2413745,
  "target_addresses": 50,
  "samples": [
    {
      "lat": 13.378338419143489,
      "lon": -16.786281161284386,
      "geoinfo": {
        "display_name": "Coastal Road, TAF Brufut Gardens Estate, Turntable, Brusubi Phase 1, Sukuta, Kombo North/Saint Mary, Brikama, West Coast Division, The Gambia",
        "road": "Coastal Road",
        "house_number": null,
        "neighbourhood": null,
        "suburb": "Brusubi Phase 1",
        "city_district": null,
        "city": "Sukuta",
        "state": "West Coast Division",
        "postcode": null,
        "country": "The Gambia",
        "country_code": "gm"
      },
      "address": "Coastal Road, Brufut, West Coast Division, Gambia"
    },
    {
      "lat": 13.381284544687228,
      "lon": -16.711708534936562,
      "geoinfo": {
        "display_name": "Old Yundum, Kombo North/Saint Mary, Brikama, West Coast Division, The Gambia",
        "road": null,
        "house_number": null,
        "neighbourhood": null,
        "suburb": null,
        "city_district": null,
        "city": "Old Yundum",
        "state": "West Coast Division",
        "postcode": null,
        "country": "The Gambia",
        "country_code": "gm"
      },
      "address": "Brufut, West Coast Division, Gambia"
    },
    {
      "lat": 13.400588397488953,
      "lon": -16.737529120381968,
      "geoinfo": {
        "display_name": "Brusubi Phase 1, Kombo North/Saint Mary, Brikama, West Coast Division, The Gambia",
        "road": null,
        "house_number": null,
        "neighbourhood": null,
        "suburb": "Brusubi Phase 1",
        "city_district": null,
        "city": null,
        "state": "West Coast Division",
        "postcode": null,
        "country": "The Gambia",
        "country_code": "gm"
      },
      "address": "Brusubi Phase 1, Brufut, West Coast Division, Gambia"
    },
    {
      "lat": 13.412911840726489,
      "lon": -16.752421637555056,
      "geoinfo": {
        "display_name": "Tranquil, Kombo North/Saint Mary, Brikama, West Coast Division, The Gambia",
        "road": null,
        "house_number": null,
        "neighbourhood": null,
        "suburb": "Tranquil",
        "city_district": null,
        "city": null,
        "state": "West Coast Division",
        "postcode": null,
        "country": "The Gambia",
        "country_code": "gm"
      },
      "address": "Tranquil, Brufut, West Coast Division, Gambia"
    },
    {
      "lat": 13.383746033224796,
      "lon": -16.73361819420917,
      "geoinfo": {
        "display_name": "Brufut Willinkama, Tintinto, Kombo North/Saint Mary, Brikama, West Coast Division, The Gambia",
        "road": null,
        "house_number": null,
        "neighbourhood": null,
        "suburb": "Brufut Willinkama",
        "city_district": null,
        "city": "Tintinto",
        "state": "West Coast Division",
        "postcode": null,
        "country": "The Gambia",
        "country_code": "gm"
      },
      "address": "206, Brufut Willinkama, Tintinto, Kombo North/Saint Mary, Brikama, 05078 West Coast Division, The Gambia"
    },
    {
      "lat": 13.42740627708583,
      "lon": -16.74144030640445,
      "geoinfo": {
        "display_name": "Bijilo, Sukuta, Kombo North/Saint Mary, Brikama, West Coast Division, The Gambia",
        "road": null,
        "house_number": null,
        "neighbourhood": null,
        "suburb": "Bijilo",
        "city_district": null,
        "city": "Sukuta",
        "state": "West Coast Division",
        "postcode": null,
        "country": "The Gambia",
        "country_code": "gm"
      },
      "address": "266, Bijilo, Sukuta, Kombo North/Saint Mary, Brikama, 45073 West Coast Division, The Gambia"
    },
    {
      "lat": 13.399462184708957,
      "lon": -16.780245553279794,
      "geoinfo": {
        "display_name": "Ghanatown, Brikama, West Coast Division, The Gambia",
        "road": null,
        "house_number": null,
        "neighbourhood": null,
        "suburb": null,
        "city_district": null,
        "city": "Ghanatown",
        "state": "West Coast Division",
        "postcode": null,
        "country": "The Gambia",
        "country_code": "gm"
      },
      "address": "243, Ghanatown, Brikama, 26592 West Coast Division, The Gambia"
    },
    {
      "lat": 13.375720952984558,
      "lon": -16.766009847595523,
      "geoinfo": {
        "display_name": "Ghanatown, Kombo North/Saint Mary, Brikama, West Coast Division, The Gambia",
        "road": null,
        "house_number": null,
        "neighbourhood": null,
        "suburb": null,
        "city_district": null,
        "city": "Ghanatown",
        "state": "West Coast Division",
        "postcode": null,
        "country": "The Gambia",
        "country_code": "gm"
      },
      "address": "315, Brufut, 95369 West Coast Division, Gambia"
    },
    {
      "lat": 13.383979201384323,
      "lon": -16.75265355602755,
      "geoinfo": {
        "display_name": "Brufut Heights, Brufut, Kombo North/Saint Mary, Brikama, West Coast Division, The Gambia",
        "road": null,
        "house_number": null,
        "neighbourhood": null,
        "suburb": "Brufut Heights",
        "city_district": null,
        "city": "Brufut",
        "state": "West Coast Division",
        "postcode": null,
        "country": "The Gambia",
        "country_code": "gm"
      },
      "address": "979, Brufut Heights, Brufut, Kombo North/Saint Mary, Brikama, 39903 West Coast Division, The Gambia"
    },
    {
      "lat": 13.385054082115778,
      "lon": -16.75184467758564,
      "geoinfo": {
        "display_name": "Brufut, Kombo North/Saint Mary, Brikama, West Coast Division, The Gambia",
        "road": null,
        "house_number": null,
        "neighbourhood": null,
        "suburb": null,
        "city_district": null,
        "city": "Brufut",
        "state": "West Coast Division",
        "postcode": null,
        "country": "The Gambia",
        "country_code": "gm"
      },
      "address": "509, Brufut, Kombo North/Saint Mary, Brikama, 07707 West Coast Division, The Gambia"
    },
    {
      "lat": 13.384659737178172,
      "lon": -16.753652927431926,
      "geoinfo": {
        "display_name": "Brufut, Kombo North/Saint Mary, Brikama, West Coast Division, The Gambia",
        "road": null,
        "house_number": null,
        "neighbourhood": null,
        "suburb": null,
        "city_district": null,
        "city": "Brufut",
        "state": "West Coast Division",
        "postcode": null,
        "country": "The Gambia",
        "country_code": "gm"
      },
      "address": "926, Brufut, Kombo North/Saint Mary, Brikama, 53449 West Coast Division, The Gambia"
    },
    {
      "lat": 13.384320798152283,
      "lon": -16.751374348819983,
      "geoinfo": {
        "display_name": "Brufut, Kombo North/Saint Mary, Brikama, West Coast Division, The Gambia",
        "road": null,
        "house_number": null,
        "neighbourhood": null,
        "suburb": null,
        "city_district": null,
        "city": "Brufut",
        "state": "West Coast Division",
        "postcode": null,
        "country": "The Gambia",
        "country_code": "gm"
      },
      "address": "584, Brufut, Kombo North/Saint Mary, Brikama, 49081 West Coast Division, The Gambia"
    },
    {
      "lat": 13.382918234320506,
      "lon": -16.752504387573648,
      "geoinfo": {
        "display_name": "Brufut Heights, Brufut, Kombo North/Saint Mary, Brikama, West Coast Division, The Gambia",
        "road": null,
        "house_number": null,
        "neighbourhood": null,
        "suburb": "Brufut Heights",
        "city_district": null,
        "city": "Brufut",
        "state": "West Coast Division",
        "postcode": null,
        "country": "The Gambia",
        "country_code": "gm"
      },
      "address": "440, Brufut Heights, Brufut, Kombo North/Saint Mary, Brikama, 80239 West Coast Division, The Gambia"
    },
    {
      "lat": 13.383918820826722,
      "lon": -16.753585589945132,
      "geoinfo": {
        "display_name": "Brufut, Kombo North/Saint Mary, Brikama, West Coast Division, The Gambia",
        "road": null,
        "house_number": null,
        "neighbourhood": null,
        "suburb": null,
        "city_district": null,
        "city": "Brufut",
        "state": "West Coast Division",
        "postcode": null,
        "country": "The Gambia",
        "country_code": "gm"
      },
      "address": "918, Brufut, Kombo North/Saint Mary, Brikama, 38116 West Coast Division, The Gambia"
    },
    {
      "lat": 13.385239696678958,
      "lon": -16.751135017623305,
      "geoinfo": {
        "display_name": "Brufut Heights, Brufut, Kombo North/Saint Mary, Brikama, West Coast Division, The Gambia",
        "road": null,
        "house_number": null,
        "neighbourhood": null,
        "suburb": "Brufut Heights",
        "city_district": null,
        "city": "Brufut",
        "state": "West Coast Division",
        "postcode": null,
        "country": "The Gambia",
        "country_code": "gm"
      },
      "address": "300, Brufut Heights, Brufut, Kombo North/Saint Mary, Brikama, 77958 West Coast Division, The Gambia"
    },
    {
      "lat": 13.38367258509755,
      "lon": -16.753763483603077,
      "geoinfo": {
        "display_name": "Brufut, Kombo North/Saint Mary, Brikama, West Coast Division, The Gambia",
        "road": null,
        "house_number": null,
        "neighbourhood": null,
        "suburb": null,
        "city_district": null,
        "city": "Brufut",
        "state": "West Coast Division",
        "postcode": null,
        "country": "The Gambia",
        "country_code": "gm"
      },
      "address": "950, Brufut, Kombo North/Saint Mary, Brikama, 36342 West Coast Division, The Gambia"
    },
    {
      "lat": 13.384453256167031,
      "lon": -16.75151398672845,
      "geoinfo": {
        "display_name": "Brufut, Kombo North/Saint Mary, Brikama, West Coast Division, The Gambia",
        "road": null,
        "house_number": null,
        "neighbourhood": null,
        "suburb": null,
        "city_district": null,
        "city": "Brufut",
        "state": "West Coast Division",
        "postcode": null,
        "country": "The Gambia",
        "country_code": "gm"
      },
      "address": "426, Brufut, Kombo North/Saint Mary, Brikama, 08825 West Coast Division, The Gambia"
    },
    {
      "lat": 13.384092662610664,
      "lon": -16.749351250921556,
      "geoinfo": {
        "display_name": "Gamtel Road, Tranquil, Brufut, Kombo North/Saint Mary, Brikama, West Coast Division, The Gambia",
        "road": "Gamtel Road",
        "house_number": null,
        "neighbourhood": null,
        "suburb": "Tranquil",
        "city_district": null,
        "city": "Brufut",
        "state": "West Coast Division",
        "postcode": null,
        "country": "The Gambia",
        "country_code": "gm"
      },
      "address": "428, Gamtel Road, Tranquil, Brufut, Kombo North/Saint Mary, Brikama, 93381 West Coast Division, The Gambia"
    },
    {
      "lat": 13.383290677238534,
      "lon": -16.75094341291067,
      "geoinfo": {
        "display_name": "Brufut, Kombo North/Saint Mary, Brikama, West Coast Division, The Gambia",
        "road": null,
        "house_number": null,
        "neighbourhood": null,
        "suburb": null,
        "city_district": null,
        "city": "Brufut",
        "state": "West Coast Division",
        "postcode": null,
        "country": "The Gambia",
        "country_code": "gm"
      },
      "address": "790, Brufut, Kombo North/Saint Mary, Brikama, 31628 West Coast Division, The Gambia"
    },
    {
      "lat": 13.383930673156755,
      "lon": -16.752344630631548,
      "geoinfo": {
        "display_name": "Brufut Heights, Brufut, Kombo North/Saint Mary, Brikama, West Coast Division, The Gambia",
        "road": null,
        "house_number": null,
        "neighbourhood": null,
        "suburb": "Brufut Heights",
        "city_district": null,
        "city": "Brufut",
        "state": "West Coast Division",
        "postcode": null,
        "country": "The Gambia",
        "country_code": "gm"
      },
      "address": "535, Brufut Heights, Brufut, Kombo North/Saint Mary, Brikama, 07519 West Coast Division, The Gambia"
    },
    {
      "lat": 13.383357584118185,
      "lon": -16.74879014482704,
      "geoinfo": {
        "display_name": "Aja Fatou Bah Nursery School, Gamtel Road, Tranquil, Brufut, Kombo North/Saint Mary, Brikama, West Coast Division, The Gambia",
        "road": "Gamtel Road",
        "house_number": null,
        "neighbourhood": null,
        "suburb": "Tranquil",
        "city_district": null,
        "city": "Brufut",
        "state": "West Coast Division",
        "postcode": null,
        "country": "The Gambia",
        "country_code": "gm"
      },
      "address": "519, Gamtel Road, Brufut, 39925 West Coast Division, Gambia"
    },
    {
      "lat": 13.386662064305094,
      "lon": -16.75064184116065,
      "geoinfo": {
        "display_name": "Brufut Heights, Brufut, Kombo North/Saint Mary, Brikama, West Coast Division, The Gambia",
        "road": null,
        "house_number": null,
        "neighbourhood": null,
        "suburb": "Brufut Heights",
        "city_district": null,
        "city": "Brufut",
        "state": "West Coast Division",
        "postcode": null,
        "country": "The Gambia",
        "country_code": "gm"
      },
      "address": "951, Brufut Heights, Brufut, Kombo North/Saint Mary, Brikama, 23003 West Coast Division, The Gambia"
    },
    {
      "lat": 13.38303848083395,
      "lon": -16.75215668079534,
      "geoinfo": {
        "display_name": "Brufut Heights, Brufut, Kombo North/Saint Mary, Brikama, West Coast Division, The Gambia",
        "road": null,
        "house_number": null,
        "neighbourhood": null,
        "suburb": "Brufut Heights",
        "city_district": null,
        "city": "Brufut",
        "state": "West Coast Division",
        "postcode": null,
        "country": "The Gambia",
        "country_code": "gm"
      },
      "address": "628, Brufut Heights, Brufut, Kombo North/Saint Mary, Brikama, 27320 West Coast Division, The Gambia"
    },
    {
      "lat": 13.383496874334469,
      "lon": -16.752412619587936,
      "geoinfo": {
        "display_name": "Brufut Heights, Brufut, Kombo North/Saint Mary, Brikama, West Coast Division, The Gambia",
        "road": null,
        "house_number": null,
        "neighbourhood": null,
        "suburb": "Brufut Heights",
        "city_district": null,
        "city": "Brufut",
        "state": "West Coast Division",
        "postcode": null,
        "country": "The Gambia",
        "country_code": "gm"
      },
      "address": "624, Brufut Heights, Brufut, Kombo North/Saint Mary, Brikama, 88641 West Coast Division, The Gambia"
    },
    {
      "lat": 13.385827763103299,
      "lon": -16.752686931254708,
      "geoinfo": {
        "display_name": "Brufut, Kombo North/Saint Mary, Brikama, West Coast Division, The Gambia",
        "road": null,
        "house_number": null,
        "neighbourhood": null,
        "suburb": null,
        "city_district": null,
        "city": "Brufut",
        "state": "West Coast Division",
        "postcode": null,
        "country": "The Gambia",
        "country_code": "gm"
      },
      "address": "594, Brufut, Kombo North/Saint Mary, Brikama, 55346 West Coast Division, The Gambia"
    },
    {
      "lat": 13.38635983974097,
      "lon": -16.75266990001526,
      "geoinfo": {
        "display_name": "Brufut Heights, Brufut, Kombo North/Saint Mary, Brikama, West Coast Division, The Gambia",
        "road": null,
        "house_number": null,
        "neighbourhood": null,
        "suburb": "Brufut Heights",
        "city_district": null,
        "city": "Brufut",
        "state": "West Coast Division",
        "postcode": null,
        "country": "The Gambia",
        "country_code": "gm"
      },
      "address": "316, Brufut Heights, Brufut, Kombo North/Saint Mary, Brikama, 95252 West Coast Division, The Gambia"
    },
    {
      "lat": 13.38502601311658,
      "lon": -16.753312908013125,
      "geoinfo": {
        "display_name": "TAF Brufut Gardens Estate, Brufut Heights, Brufut, Kombo North/Saint Mary, Brikama, West Coast Division, The Gambia",
        "road": null,
        "house_number": null,
        "neighbourhood": null,
        "suburb": "Brufut Heights",
        "city_district": null,
        "city": "Brufut",
        "state": "West Coast Division",
        "postcode": null,
        "country": "The Gambia",
        "country_code": "gm"
      },
      "address": "847, Brufut Heights, Brufut, 29483 West Coast Division, Gambia"
    },
    {
      "lat": 13.382901168900775,
      "lon": -16.752252311388762,
      "geoinfo": {
        "display_name": "Brufut Heights, Brufut, Kombo North/Saint Mary, Brikama, West Coast Division, The Gambia",
        "road": null,
        "house_number": null,
        "neighbourhood": null,
        "suburb": "Brufut Heights",
        "city_district": null,
        "city": "Brufut",
        "state": "West Coast Division",
        "postcode": null,
        "country": "The Gambia",
        "country_code": "gm"
      },
      "address": "494, Brufut Heights, Brufut, Kombo North/Saint Mary, Brikama, 36497 West Coast Division, The Gambia"
    },
    {
      "lat": 13.384804330615605,
      "lon": -16.750724064640906,
      "geoinfo": {
        "display_name": "Brufut Heights, Brufut, Kombo North/Saint Mary, Brikama, West Coast Division, The Gambia",
        "road": null,
        "house_number": null,
        "neighbourhood": null,
        "suburb": "Brufut Heights",
        "city_district": null,
        "city": "Brufut",
        "state": "West Coast Division",
        "postcode": null,
        "country": "The Gambia",
        "country_code": "gm"
      },
      "address": "674, Brufut Heights, Brufut, Kombo North/Saint Mary, Brikama, 53926 West Coast Division, The Gambia"
    },
    {
      "lat": 13.383985968550677,
      "lon": -16.751433087928564,
      "geoinfo": {
        "display_name": "Brufut, Kombo North/Saint Mary, Brikama, West Coast Division, The Gambia",
        "road": null,
        "house_number": null,
        "neighbourhood": null,
        "suburb": null,
        "city_district": null,
        "city": "Brufut",
        "state": "West Coast Division",
        "postcode": null,
        "country": "The Gambia",
        "country_code": "gm"
      },
      "address": "610, Brufut, Kombo North/Saint Mary, Brikama, 23560 West Coast Division, The Gambia"
    },
    {
      "lat": 13.38584009749768,
      "lon": -16.750055244756936,
      "geoinfo": {
        "display_name": "Brufut Heights, Brufut, Kombo North/Saint Mary, Brikama, West Coast Division, The Gambia",
        "road": null,
        "house_number": null,
        "neighbourhood": null,
        "suburb": "Brufut Heights",
        "city_district": null,
        "city": "Brufut",
        "state": "West Coast Division",
        "postcode": null,
        "country": "The Gambia",
        "country_code": "gm"
      },
      "address": "474, Brufut Heights, Brufut, Kombo North/Saint Mary, Brikama, 35178 West Coast Division, The Gambia"
    },
    {
      "lat": 13.382553151631871,
      "lon": -16.7509970987349,
      "geoinfo": {
        "display_name": "Brufut, Kombo North/Saint Mary, Brikama, West Coast Division, The Gambia",
        "road": null,
        "house_number": null,
        "neighbourhood": null,
        "suburb": null,
        "city_district": null,
        "city": "Brufut",
        "state": "West Coast Division",
        "postcode": null,
        "country": "The Gambia",
        "country_code": "gm"
      },
      "address": "184, Brufut, Kombo North/Saint Mary, Brikama, 72297 West Coast Division, The Gambia"
    },
    {
      "lat": 13.383148370851808,
      "lon": -16.74911087447967,
      "geoinfo": {
        "display_name": "Brufut, Kombo North/Saint Mary, Brikama, West Coast Division, The Gambia",
        "road": null,
        "house_number": null,
        "neighbourhood": null,
        "suburb": null,
        "city_district": null,
        "city": "Brufut",
        "state": "West Coast Division",
        "postcode": null,
        "country": "The Gambia",
        "country_code": "gm"
      },
      "address": "756, Brufut, Kombo North/Saint Mary, Brikama, 77743 West Coast Division, The Gambia"
    },
    {
      "lat": 13.386222585485017,
      "lon": -16.750017048506777,
      "geoinfo": {
        "display_name": "Brufut Heights, Brufut, Kombo North/Saint Mary, Brikama, West Coast Division, The Gambia",
        "road": null,
        "house_number": null,
        "neighbourhood": null,
        "suburb": "Brufut Heights",
        "city_district": null,
        "city": "Brufut",
        "state": "West Coast Division",
        "postcode": null,
        "country": "The Gambia",
        "country_code": "gm"
      },
      "address": "218, Brufut Heights, Brufut, Kombo North/Saint Mary, Brikama, 33420 West Coast Division, The Gambia"
    },
    {
      "lat": 13.383695745401162,
      "lon": -16.75218399392714,
      "geoinfo": {
        "display_name": "Brufut Heights, Brufut, Kombo North/Saint Mary, Brikama, West Coast Division, The Gambia",
        "road": null,
        "house_number": null,
        "neighbourhood": null,
        "suburb": "Brufut Heights",
        "city_district": null,
        "city": "Brufut",
        "state": "West Coast Division",
        "postcode": null,
        "country": "The Gambia",
        "country_code": "gm"
      },
      "address": "262, Brufut Heights, Brufut, Kombo North/Saint Mary, Brikama, 13623 West Coast Division, The Gambia"
    },
    {
      "lat": 13.384262612516345,
      "lon": -16.752134845127873,
      "geoinfo": {
        "display_name": "Brufut Heights, Brufut, Kombo North/Saint Mary, Brikama, West Coast Division, The Gambia",
        "road": null,
        "house_number": null,
        "neighbourhood": null,
        "suburb": "Brufut Heights",
        "city_district": null,
        "city": "Brufut",
        "state": "West Coast Division",
        "postcode": null,
        "country": "The Gambia",
        "country_code": "gm"
      },
      "address": "121, Brufut Heights, Brufut, Kombo North/Saint Mary, Brikama, 21782 West Coast Division, The Gambia"
    },
    {
      "lat": 13.386500853143032,
      "lon": -16.750515431541988,
      "geoinfo": {
        "display_name": "Brufut Heights, Brufut, Kombo North/Saint Mary, Brikama, West Coast Division, The Gambia",
        "road": null,
        "house_number": null,
        "neighbourhood": null,
        "suburb": "Brufut Heights",
        "city_district": null,
        "city": "Brufut",
        "state": "West Coast Division",
        "postcode": null,
        "country": "The Gambia",
        "country_code": "gm"
      },
      "address": "511, Brufut Heights, Brufut, Kombo North/Saint Mary, Brikama, 74509 West Coast Division, The Gambia"
    },
    {
      "lat": 13.386244477697192,
      "lon": -16.75303641361452,
      "geoinfo": {
        "display_name": "Brufut, Kombo North/Saint Mary, Brikama, West Coast Division, The Gambia",
        "road": null,
        "house_number": null,
        "neighbourhood": null,
        "suburb": null,
        "city_district": null,
        "city": "Brufut",
        "state": "West Coast Division",
        "postcode": null,
        "country": "The Gambia",
        "country_code": "gm"
      },
      "address": "343, Brufut, Kombo North/Saint Mary, Brikama, 72707 West Coast Division, The Gambia"
    }
  ],
  "updated_at": "2025-10-22T00:10:26.109193+00:00",
  "_kind": "geo_samples"
}