{
  "country_code": "GM",
  "country": "Gambia",
  "city": "Farafenni",
  "geonameid": 2413515,
  "target_addresses": 50,
  "samples": [
    {
      "lat": 13.605540646047409,
      "lon": -15.604746061139453,
      "geoinfo": {
        "display_name": "Keur Ayip Guèye, Communauté rurale de Médina Sabakh, Arrondissement de Médina Sabakh, Département de Nioro du Rip, Kaolack Region, Senegal",
        "road": null,
        "house_number": null,
        "neighbourhood": null,
        "suburb": null,
        "city_district": null,
        "city": "Communauté rurale de Médina Sabakh",
        "state": null,
        "postcode": null,
        "country": "Senegal",
        "country_code": "sn"
      },
      "address": "Farafenni, Gambia"
    },
    {
      "lat": 13.578849043587192,
      "lon": -15.593859172548163,
      "geoinfo": {
        "display_name": "Farafenni, Illiasa, Kerewan, North Bank Division, The Gambia",
        "road": null,
        "house_number": null,
        "neighbourhood": null,
        "suburb": null,
        "city_district": null,
        "city": "Farafenni",
        "state": "North Bank Division",
        "postcode": null,
        "country": "The Gambia",
        "country_code": "gm"
      },
      "address": "Farafenni, North Bank Division, Gambia"
    },
    {
      "lat": 13.565163785105238,
      "lon": -15.56205943103308,
      "geoinfo": {
        "display_name": "North Bank Road, Dibba Kunda Nguku, Ngayen Sanjal, Sabach Sanjal, Kerewan, North Bank Division, The Gambia",
        "road": "North Bank Road",
        "house_number": null,
        "neighbourhood": null,
        "suburb": null,
        "city_district": null,
        "city": "Ngayen Sanjal",
        "state": "North Bank Division",
        "postcode": null,
        "country": "The Gambia",
        "country_code": "gm"
      },
      "address": "North Bank Road, Farafenni, North Bank Division, Gambia"
    },
    {
      "lat": 13.60576491720491,
      "lon": -15.608145471194307,
      "geoinfo": {
        "display_name": "N 4, Ndiba Ndiayenne, Communauté rurale de Médina Sabakh, Arrondissement de Médina Sabakh, Département de Nioro du Rip, Kaolack Region, Senegal",
        "road": "N 4",
        "house_number": null,
        "neighbourhood": null,
        "suburb": null,
        "city_district": null,
        "city": "Communauté rurale de Médina Sabakh",
        "state": null,
        "postcode": null,
        "country": "Senegal",
        "country_code": "sn"
      },
      "address": "N 4, Farafenni, North Bank Division, Gambia"
    },
    {
      "lat": 13.558183731957559,
      "lon": -15.582808436512622,
      "geoinfo": {
        "display_name": "Trans-Gambia Highway, Bereto, Illiasa, Kerewan, North Bank Division, The Gambia",
        "road": "Trans-Gambia Highway",
        "house_number": null,
        "neighbourhood": null,
        "suburb": null,
        "city_district": null,
        "city": "Bereto",
        "state": "North Bank Division",
        "postcode": null,
        "country": "The Gambia",
        "country_code": "gm"
      },
      "address": "233, Trans-Gambia Highway, Farafenni, 99429 North Bank Division, Gambia"
    },
    {
      "lat": 13.525025871397299,
      "lon": -15.601454107239006,
      "geoinfo": {
        "display_name": "Mbayen Demba Jagne, Illiasa, Kerewan, North Bank Division, The Gambia",
        "road": null,
        "house_number": null,
        "neighbourhood": null,
        "suburb": null,
        "city_district": null,
        "city": "Mbayen Demba Jagne",
        "state": "North Bank Division",
        "postcode": null,
        "country": "The Gambia",
        "country_code": "gm"
      },
      "address": "115, Farafenni, 88697 North Bank Division, Gambia"
    },
    {
      "lat": 13.56901133368463,
      "lon": -15.585885698575005,
      "geoinfo": {
        "display_name": "University of The Gambia Farafenni Campus, North Bank Road, Kunjo, Illiasa, Kerewan, North Bank Division, The Gambia",
        "road": "North Bank Road",
        "house_number": null,
        "neighbourhood": null,
        "suburb": null,
        "city_district": null,
        "city": "Kunjo",
        "state": "North Bank Division",
        "postcode": null,
        "country": "The Gambia",
        "country_code": "gm"
      },
      "address": "136, North Bank Road, Farafenni, 12119 North Bank Division, Gambia"
    },
    {
      "lat": 13.569176452855718,
      "lon": -15.59559684799066,
      "geoinfo": {
        "display_name": "Farafenni, Illiasa, Kerewan, North Bank Division, The Gambia",
        "road": null,
        "house_number": null,
        "neighbourhood": null,
        "suburb": null,
        "city_district": null,
        "city": "Farafenni",
        "state": "North Bank Division",
        "postcode": null,
        "country": "The Gambia",
        "country_code": "gm"
      },
      "address": "610, Farafenni, Illiasa, Kerewan, 33172 North Bank Division, The Gambia"
    },
    {
      "lat": 13.565655489235748,
      "lon": -15.597433256956863,
      "geoinfo": {
        "display_name": "Farafenni, Illiasa, Kerewan, North Bank Division, The Gambia",
        "road": null,
        "house_number": null,
        "neighbourhood": null,
        "suburb": null,
        "city_district": null,
        "city": "Farafenni",
        "state": "North Bank Division",
        "postcode": null,
        "country": "The Gambia",
        "country_code": "gm"
      },
      "address": "969, Farafenni, Illiasa, Kerewan, 32197 North Bank Division, The Gambia"
    },
    {
      "lat": 13.565791064431846,
      "lon": -15.600846231342727,
      "geoinfo": {
        "display_name": "Jigimar, Illiasa, Kerewan, North Bank Division, The Gambia",
        "road": null,
        "house_number": null,
        "neighbourhood": null,
        "suburb": null,
        "city_district": null,
        "city": "Jigimar",
        "state": "North Bank Division",
        "postcode": null,
        "country": "The Gambia",
        "country_code": "gm"
      },
      "address": "230, Farafenni, 41346 North Bank Division, Gambia"
    },
    {
      "lat": 13.565179385957538,
      "lon": -15.600967285918045,
      "geoinfo": {
        "display_name": "Farafenni, Illiasa, Kerewan, North Bank Division, The Gambia",
        "road": null,
        "house_number": null,
        "neighbourhood": null,
        "suburb": null,
        "city_district": null,
        "city": "Farafenni",
        "state": "North Bank Division",
        "postcode": null,
        "country": "The Gambia",
        "country_code": "gm"
      },
      "address": "725, Farafenni, Illiasa, Kerewan, 59740 North Bank Division, The Gambia"
    },
    {
      "lat": 13.565510078954174,
      "lon": -15.597969163701475,
      "geoinfo": {
        "display_name": "Farafenni, Illiasa, Kerewan, North Bank Division, The Gambia",
        "road": null,
        "house_number": null,
        "neighbourhood": null,
        "suburb": null,
        "city_district": null,
        "city": "Farafenni",
        "state": "North Bank Division",
        "postcode": null,
        "country": "The Gambia",
        "country_code": "gm"
      },
      "address": "471, Farafenni, Illiasa, Kerewan, 49039 North Bank Division, The Gambia"
    },
    {
      "lat": 13.564781802458645,
      "lon": -15.600857922198664,
      "geoinfo": {
        "display_name": "Farafenni, Illiasa, Kerewan, North Bank Division, The Gambia",
        "road": null,
        "house_number": null,
        "neighbourhood": null,
        "suburb": null,
        "city_district": null,
        "city": "Farafenni",
        "state": "North Bank Division",
        "postcode": null,
        "country": "The Gambia",
        "country_code": "gm"
      },
      "address": "331, Farafenni, Illiasa, Kerewan, 76486 North Bank Division, The Gambia"
    },
    {
      "lat": 13.56861687372822,
      "lon": -15.599205546399869,
      "geoinfo": {
        "display_name": "Farafenni, Illiasa, Kerewan, North Bank Division, The Gambia",
        "road": null,
        "house_number": null,
        "neighbourhood": null,
        "suburb": null,
        "city_district": null,
        "city": "Farafenni",
        "state": "North Bank Division",
        "postcode": null,
        "country": "The Gambia",
        "country_code": "gm"
      },
      "address": "677, Farafenni, Illiasa, Kerewan, 43509 North Bank Division, The Gambia"
    },
    {
      "lat": 13.565599497085481,
      "lon": -15.599331995828255,
      "geoinfo": {
        "display_name": "Farafenni, Illiasa, Kerewan, North Bank Division, The Gambia",
        "road": null,
        "house_number": null,
        "neighbourhood": null,
        "suburb": null,
        "city_district": null,
        "city": "Farafenni",
        "state": "North Bank Division",
        "postcode": null,
        "country": "The Gambia",
        "country_code": "gm"
      },
      "address": "376, Farafenni, Illiasa, Kerewan, 75217 North Bank Division, The Gambia"
    },
    {
      "lat": 13.565461749793874,
      "lon": -15.600732776443813,
      "geoinfo": {
        "display_name": "Jigimar, Illiasa, Kerewan, North Bank Division, The Gambia",
        "road": null,
        "house_number": null,
        "neighbourhood": null,
        "suburb": null,
        "city_district": null,
        "city": "Jigimar",
        "state": "North Bank Division",
        "postcode": null,
        "country": "The Gambia",
        "country_code": "gm"
      },
      "address": "934, Farafenni, 36552 North Bank Division, Gambia"
    },
    {
      "lat": 13.567493043572643,
      "lon": -15.60079893251273,
      "geoinfo": {
        "display_name": "Farafenni, Illiasa, Kerewan, North Bank Division, The Gambia",
        "road": null,
        "house_number": null,
        "neighbourhood": null,
        "suburb": null,
        "city_district": null,
        "city": "Farafenni",
        "state": "North Bank Division",
        "postcode": null,
        "country": "The Gambia",
        "country_code": "gm"
      },
      "address": "220, Farafenni, Illiasa, Kerewan, 12963 North Bank Division, The Gambia"
    },
    {
      "lat": 13.569306576661356,
      "lon": -15.599533301197654,
      "geoinfo": {
        "display_name": "Farafenni, Illiasa, Kerewan, North Bank Division, The Gambia",
        "road": null,
        "house_number": null,
        "neighbourhood": null,
        "suburb": null,
        "city_district": null,
        "city": "Farafenni",
        "state": "North Bank Division",
        "postcode": null,
        "country": "The Gambia",
        "country_code": "gm"
      },
      "address": "445, Farafenni, Illiasa, Kerewan, 83252 North Bank Division, The Gambia"
    },
    {
      "lat": 13.568069707256681,
      "lon": -15.601020213398389,
      "geoinfo": {
        "display_name": "Farafenni, Illiasa, Kerewan, North Bank Division, The Gambia",
        "road": null,
        "house_number": null,
        "neighbourhood": null,
        "suburb": null,
        "city_district": null,
        "city": "Farafenni",
        "state": "North Bank Division",
        "postcode": null,
        "country": "The Gambia",
        "country_code": "gm"
      },
      "address": "904, Farafenni, Illiasa, Kerewan, 57412 North Bank Division, The Gambia"
    },
    {
      "lat": 13.567241746411739,
      "lon": -15.600204772397548,
      "geoinfo": {
        "display_name": "Farafenni, Illiasa, Kerewan, North Bank Division, The Gambia",
        "road": null,
        "house_number": null,
        "neighbourhood": null,
        "suburb": null,
        "city_district": null,
        "city": "Farafenni",
        "state": "North Bank Division",
        "postcode": null,
        "country": "The Gambia",
        "country_code": "gm"
      },
      "address": "015, Farafenni, Illiasa, Kerewan, 56061 North Bank Division, The Gambia"
    },
    {
      "lat": 13.56544800270554,
      "lon": -15.600220557998451,
      "geoinfo": {
        "display_name": "Farafenni, Illiasa, Kerewan, North Bank Division, The Gambia",
        "road": null,
        "house_number": null,
        "neighbourhood": null,
        "suburb": null,
        "city_district": null,
        "city": "Farafenni",
        "state": "North Bank Division",
        "postcode": null,
        "country": "The Gambia",
        "country_code": "gm"
      },
      "address": "713, Farafenni, Illiasa, Kerewan, 81633 North Bank Division, The Gambia"
    },
    {
      "lat": 13.567174418130275,
      "lon": -15.59904646464797,
      "geoinfo": {
        "display_name": "Farafenni, Illiasa, Kerewan, North Bank Division, The Gambia",
        "road": null,
        "house_number": null,
        "neighbourhood": null,
        "suburb": null,
        "city_district": null,
        "city": "Farafenni",
        "state": "North Bank Division",
        "postcode": null,
        "country": "The Gambia",
        "country_code": "gm"
      },
      "address": "919, Farafenni, Illiasa, Kerewan, 01203 North Bank Division, The Gambia"
    },
    {
      "lat": 13.565067062313364,
      "lon": -15.598583793748388,
      "geoinfo": {
        "display_name": "Jigimar, Illiasa, Kerewan, North Bank Division, The Gambia",
        "road": null,
        "house_number": null,
        "neighbourhood": null,
        "suburb": null,
        "city_district": null,
        "city": "Jigimar",
        "state": "North Bank Division",
        "postcode": null,
        "country": "The Gambia",
        "country_code": "gm"
      },
      "address": "259, Farafenni, 58105 North Bank Division, Gambia"
    },
    {
      "lat": 13.565876210501159,
      "lon": -15.598187777457158,
      "geoinfo": {
        "display_name": "Jigimar, Illiasa, Kerewan, North Bank Division, The Gambia",
        "road": null,
        "house_number": null,
        "neighbourhood": null,
        "suburb": null,
        "city_district": null,
        "city": "Jigimar",
        "state": "North Bank Division",
        "postcode": null,
        "country": "The Gambia",
        "country_code": "gm"
      },
      "address": "757, Farafenni, 17081 North Bank Division, Gambia"
    },
    {
      "lat": 13.56600646212213,
      "lon": -15.60129533082717,
      "geoinfo": {
        "display_name": "Farafenni, Illiasa, Kerewan, North Bank Division, The Gambia",
        "road": null,
        "house_number": null,
        "neighbourhood": null,
        "suburb": null,
        "city_district": null,
        "city": "Farafenni",
        "state": "North Bank Division",
        "postcode": null,
        "country": "The Gambia",
        "country_code": "gm"
      },
      "address": "433, Farafenni, Illiasa, Kerewan, 20546 North Bank Division, The Gambia"
    },
    {
      "lat": 13.566154971271276,
      "lon": -15.602367109426858,
      "geoinfo": {
        "display_name": "Farafenni, Illiasa, Kerewan, North Bank Division, The Gambia",
        "road": null,
        "house_number": null,
        "neighbourhood": null,
        "suburb": null,
        "city_district": null,
        "city": "Farafenni",
        "state": "North Bank Division",
        "postcode": null,
        "country": "The Gambia",
        "country_code": "gm"
      },
      "address": "784, Farafenni, Illiasa, Kerewan, 65515 North Bank Division, The Gambia"
    },
    {
      "lat": 13.566006938957992,
      "lon": -15.598200124592935,
      "geoinfo": {
        "display_name": "Jigimar, Illiasa, Kerewan, North Bank Division, The Gambia",
        "road": null,
        "house_number": null,
        "neighbourhood": null,
        "suburb": null,
        "city_district": null,
        "city": "Jigimar",
        "state": "North Bank Division",
        "postcode": null,
        "country": "The Gambia",
        "country_code": "gm"
      },
      "address": "899, Farafenni, 89089 North Bank Division, Gambia"
    },
    {
      "lat": 13.568952817631923,
      "lon": -15.601102385421772,
      "geoinfo": {
        "display_name": "Farafenni, Illiasa, Kerewan, North Bank Division, The Gambia",
        "road": null,
        "house_number": null,
        "neighbourhood": null,
        "suburb": null,
        "city_district": null,
        "city": "Farafenni",
        "state": "North Bank Division",
        "postcode": null,
        "country": "The Gambia",
        "country_code": "gm"
      },
      "address": "189, Farafenni, Illiasa, Kerewan, 03139 North Bank Division, The Gambia"
    },
    {
      "lat": 13.566782195845155,
      "lon": -15.601971678170914,
      "geoinfo": {
        "display_name": "Farafenni, Illiasa, Kerewan, North Bank Division, The Gambia",
        "road": null,
        "house_number": null,
        "neighbourhood": null,
        "suburb": null,
        "city_district": null,
        "city": "Farafenni",
        "state": "North Bank Division",
        "postcode": null,
        "country": "The Gambia",
        "country_code": "gm"
      },
      "address": "756, Farafenni, Illiasa, Kerewan, 16799 North Bank Division, The Gambia"
    },
    {
      "lat": 13.566358144220716,
      "lon": -15.602618478768393,
      "geoinfo": {
        "display_name": "Farafenni, Illiasa, Kerewan, North Bank Division, The Gambia",
        "road": null,
        "house_number": null,
        "neighbourhood": null,
        "suburb": null,
        "city_district": null,
        "city": "Farafenni",
        "state": "North Bank Division",
        "postcode": null,
        "country": "The Gambia",
        "country_code": "gm"
      },
      "address": "457, Farafenni, Illiasa, Kerewan, 65022 North Bank Division, The Gambia"
    },
    {
      "lat": 13.567158247142295,
      "lon": -15.599696076390336,
      "geoinfo": {
        "display_name": "Farafenni, Illiasa, Kerewan, North Bank Division, The Gambia",
        "road": null,
        "house_number": null,
        "neighbourhood": null,
        "suburb": null,
        "city_district": null,
        "city": "Farafenni",
        "state": "North Bank Division",
        "postcode": null,
        "country": "The Gambia",
        "country_code": "gm"
      },
      "address": "037, Farafenni, Illiasa, Kerewan, 11330 North Bank Division, The Gambia"
    },
    {
      "lat": 13.567990436532838,
      "lon": -15.599879674690085,
      "geoinfo": {
        "display_name": "Farafenni, Illiasa, Kerewan, North Bank Division, The Gambia",
        "road": null,
        "house_number": null,
        "neighbourhood": null,
        "suburb": null,
        "city_district": null,
        "city": "Farafenni",
        "state": "North Bank Division",
        "postcode": null,
        "country": "The Gambia",
        "country_code": "gm"
      },
      "address": "603, Farafenni, Illiasa, Kerewan, 73987 North Bank Division, The Gambia"
    },
    {
      "lat": 13.566677394556189,
      "lon": -15.599259866383678,
      "geoinfo": {
        "display_name": "Farafenni, Illiasa, Kerewan, North Bank Division, The Gambia",
        "road": null,
        "house_number": null,
        "neighbourhood": null,
        "suburb": null,
        "city_district": null,
        "city": "Farafenni",
        "state": "North Bank Division",
        "postcode": null,
        "country": "The Gambia",
        "country_code": "gm"
      },
      "address": "504, Farafenni, Illiasa, Kerewan, 91573 North Bank Division, The Gambia"
    },
    {
      "lat": 13.565732732586875,
      "lon": -15.59797390587078,
      "geoinfo": {
        "display_name": "Farafenni, Illiasa, Kerewan, North Bank Division, The Gambia",
        "road": null,
        "house_number": null,
        "neighbourhood": null,
        "suburb": null,
        "city_district": null,
        "city": "Farafenni",
        "state": "North Bank Division",
        "postcode": null,
        "country": "The Gambia",
        "country_code": "gm"
      },
      "address": "758, Farafenni, Illiasa, Kerewan, 51216 North Bank Division, The Gambia"
    },
    {
      "lat": 13.565357242860848,
      "lon": -15.601246261266096,
      "geoinfo": {
        "display_name": "Farafenni, Illiasa, Kerewan, North Bank Division, The Gambia",
        "road": null,
        "house_number": null,
        "neighbourhood": null,
        "suburb": null,
        "city_district": null,
        "city": "Farafenni",
        "state": "North Bank Division",
        "postcode": null,
        "country": "The Gambia",
        "country_code": "gm"
      },
      "address": "248, Farafenni, Illiasa, Kerewan, 27049 North Bank Division, The Gambia"
    },
    {
      "lat": 13.567068483152362,
      "lon": -15.597979793273677,
      "geoinfo": {
        "display_name": "Farafenni, Illiasa, Kerewan, North Bank Division, The Gambia",
        "road": null,
        "house_number": null,
        "neighbourhood": null,
        "suburb": null,
        "city_district": null,
        "city": "Farafenni",
        "state": "North Bank Division",
        "postcode": null,
        "country": "The Gambia",
        "country_code": "gm"
      },
      "address": "040, Farafenni, Illiasa, Kerewan, 96161 North Bank Division, The Gambia"
    },
    {
      "lat": 13.567305364643692,
      "lon": -15.598972110271978,
      "geoinfo": {
        "display_name": "Farafenni, Illiasa, Kerewan, North Bank Division, The Gambia",
        "road": null,
        "house_number": null,
        "neighbourhood": null,
        "suburb": null,
        "city_district": null,
        "city": "Farafenni",
        "state": "North Bank Division",
        "postcode": null,
        "country": "The Gambia",
        "country_code": "gm"
      },
      "address": "802, Farafenni, Illiasa, Kerewan, 55926 North Bank Division, The Gambia"
    },
    {
      "lat": 13.565621311531121,
      "lon": -15.598707208035778,
      "geoinfo": {
        "display_name": "Jigimar, Illiasa, Kerewan, North Bank Division, The Gambia",
        "road": null,
        "house_number": null,
        "neighbourhood": null,
        "suburb": null,
        "city_district": null,
        "city": "Jigimar",
        "state": "North Bank Division",
        "postcode": null,
        "country": "The Gambia",
        "country_code": "gm"
      },
      "address": "029, Farafenni, 03940 North Bank Division, Gambia"
    },
    {
      "lat": 13.566861568239396,
      "lon": -15.597956362174097,
      "geoinfo": {
        "display_name": "Farafenni, Illiasa, Kerewan, North Bank Division, The Gambia",
        "road": null,
        "house_number": null,
        "neighbourhood": null,
        "suburb": null,
        "city_district": null,
        "city": "Farafenni",
        "state": "North Bank Division",
        "postcode": null,
        "country": "The Gambia",
        "country_code": "gm"
      },
      "address": "989, Farafenni, Illiasa, Kerewan, 59832 North Bank Division, The Gambia"
    },
    {
      "lat": 13.567310689578713,
      "lon": -15.602617466937534,
      "geoinfo": {
        "display_name": "Farafenni, Illiasa, Kerewan, North Bank Division, The Gambia",
        "road": null,
        "house_number": null,
        "neighbourhood": null,
        "suburb": null,
        "city_district": null,
        "city": "Farafenni",
        "state": "North Bank Division",
        "postcode": null,
        "country": "The Gambia",
        "country_code": "gm"
      },
      "address": "655, Farafenni, Illiasa, Kerewan, 84719 North Bank Division, The Gambia"
    },
    {
      "lat": 13.567799246768045,
      "lon": -15.602318970079017,
      "geoinfo": {
        "display_name": "Farafenni, Illiasa, Kerewan, North Bank Division, The Gambia",
        "road": null,
        "house_number": null,
        "neighbourhood": null,
        "suburb": null,
        "city_district": null,
        "city": "Farafenni",
        "state": "North Bank Division",
        "postcode": null,
        "country": "The Gambia",
        "country_code": "gm"
      },
      "address": "938, Farafenni, Illiasa, Kerewan, 21459 North Bank Division, The Gambia"
    },
    {
      "lat": 13.566627280125454,
      "lon": -15.598482218863266,
      "geoinfo": {
        "display_name": "Farafenni, Illiasa, Kerewan, North Bank Division, The Gambia",
        "road": null,
        "house_number": null,
        "neighbourhood": null,
        "suburb": null,
        "city_district": null,
        "city": "Farafenni",
        "state": "North Bank Division",
        "postcode": null,
        "country": "The Gambia",
        "country_code": "gm"
      },
      "address": "502, Farafenni, Illiasa, Kerewan, 30494 North Bank Division, The Gambia"
    },
    {
      "lat": 13.566487163216738,
      "lon": -15.597544413278099,
      "geoinfo": {
        "display_name": "Farafenni, Illiasa, Kerewan, North Bank Division, The Gambia",
        "road": null,
        "house_number": null,
        "neighbourhood": null,
        "suburb": null,
        "city_district": null,
        "city": "Farafenni",
        "state": "North Bank Division",
        "postcode": null,
        "country": "The Gambia",
        "country_code": "gm"
      },
      "address": "464, Farafenni, Illiasa, Kerewan, 78326 North Bank Division, The Gambia"
    },
    {
      "lat": 13.56510443127729,
      "lon": -15.600725621488055,
      "geoinfo": {
        "display_name": "Farafenni, Illiasa, Kerewan, North Bank Division, The Gambia",
        "road": null,
        "house_number": null,
        "neighbourhood": null,
        "suburb": null,
        "city_district": null,
        "city": "Farafenni",
        "state": "North Bank Division",
        "postcode": null,
        "country": "The Gambia",
        "country_code": "gm"
      },
      "address": "154, Farafenni, Illiasa, Kerewan, 79726 North Bank Division, The Gambia"
    },
    {
      "lat": 13.565132935256639,
      "lon": -15.60014834755245,
      "geoinfo": {
        "display_name": "Jigimar, Illiasa, Kerewan, North Bank Division, The Gambia",
        "road": null,
        "house_number": null,
        "neighbourhood": null,
        "suburb": null,
        "city_district": null,
        "city": "Jigimar",
        "state": "North Bank Division",
        "postcode": null,
        "country": "The Gambia",
        "country_code": "gm"
      },
      "address": "967, Farafenni, 50290 North Bank Division, Gambia"
    },
    {
      "lat": 13.567514035170914,
      "lon": -15.599400378550722,
      "geoinfo": {
        "display_name": "Farafenni, Illiasa, Kerewan, North Bank Division, The Gambia",
        "road": null,
        "house_number": null,
        "neighbourhood": null,
        "suburb": null,
        "city_district": null,
        "city": "Farafenni",
        "state": "North Bank Division",
        "postcode": null,
        "country": "The Gambia",
        "country_code": "gm"
      },
      "address": "437, Farafenni, Illiasa, Kerewan, 52588 North Bank Division, The Gambia"
    },
    {
      "lat": 13.566179558257339,
      "lon": -15.602147622290092,
      "geoinfo": {
        "display_name": "Farafenni, Illiasa, Kerewan, North Bank Division, The Gambia",
        "road": null,
        "house_number": null,
        "neighbourhood": null,
        "suburb": null,
        "city_district": null,
        "city": "Farafenni",
        "state": "North Bank Division",
        "postcode": null,
        "country": "The Gambia",
        "country_code": "gm"
      },
      "address": "978, Farafenni, Illiasa, Kerewan, 73951 North Bank Division, The Gambia"
    },
    {
      "lat": 13.567105326527063,
      "lon": -15.600032905086032,
      "geoinfo": {
        "display_name": "Farafenni, Illiasa, Kerewan, North Bank Division, The Gambia",
        "road": null,
        "house_number": null,
        "neighbourhood": null,
        "suburb": null,
        "city_district": null,
        "city": "Farafenni",
        "state": "North Bank Division",
        "postcode": null,
        "country": "The Gambia",
        "country_code": "gm"
      },
      "address": "428, Farafenni, Illiasa, Kerewan, 66375 North Bank Division, The Gambia"
    },
    {
      "lat": 13.567087816633888,
      "lon": -15.601668948230136,
      "geoinfo": {
        "display_name": "Farafenni, Illiasa, Kerewan, North Bank Division, The Gambia",
        "road": null,
        "house_number": null,
        "neighbourhood": null,
        "suburb": null,
        "city_district": null,
        "city": "Farafenni",
        "state": "North Bank Division",
        "postcode": null,
        "country": "The Gambia",
        "country_code": "gm"
      },
      "address": "132, Farafenni, Illiasa, Kerewan, 24743 North Bank Division, The Gambia"
    },
    {
      "lat": 13.566236599123297,
      "lon": -15.597764968492895,
      "geoinfo": {
        "display_name": "Farafenni, Illiasa, Kerewan, North Bank Division, The Gambia",
        "road": null,
        "house_number": null,
        "neighbourhood": null,
        "suburb": null,
        "city_district": null,
        "city": "Farafenni",
        "state": "North Bank Division",
        "postcode": null,
        "country": "The Gambia",
        "country_code": "gm"
      },
      "address": "395, Farafenni, Illiasa, Kerewan, 98235 North Bank Division, The Gambia"
    },
    {
      "lat": 13.566460899536112,
      "lon": -15.602301649884902,
      "geoinfo": {
        "display_name": "Farafenni, Illiasa, Kerewan, North Bank Division, The Gambia",
        "road": null,
        "house_number": null,
        "neighbourhood": null,
        "suburb": null,
        "city_district": null,
        "city": "Farafenni",
        "state": "North Bank Division",
        "postcode": null,
        "country": "The Gambia",
        "country_code": "gm"
      },
      "address": "798, Farafenni, Illiasa, Kerewan, 21833 North Bank Division, The Gambia"
    },
    {
      "lat": 13.565552578831962,
      "lon": -15.600407068165817,
      "geoinfo": {
        "display_name": "Jigimar, Illiasa, Kerewan, North Bank Division, The Gambia",
        "road": null,
        "house_number": null,
        "neighbourhood": null,
        "suburb": null,
        "city_district": null,
        "city": "Jigimar",
        "state": "North Bank Division",
        "postcode": null,
        "country": "The Gambia",
        "country_code": "gm"
      },
      "address": "989, Farafenni, 59641 North Bank Division, Gambia"
    },
    {
      "lat": 13.564403686276318,
      "lon": -15.599631263032425,
      "geoinfo": {
        "display_name": "Jigimar, Illiasa, Kerewan, North Bank Division, The Gambia",
        "road": null,
        "house_number": null,
        "neighbourhood": null,
        "suburb": null,
        "city_district": null,
        "city": "Jigimar",
        "state": "North Bank Division",
        "postcode": null,
        "country": "The Gambia",
        "country_code": "gm"
      },
      "address": "231, Farafenni, 94676 North Bank Division, Gambia"
    }
  ],
  "updated_at": "2025-10-21T23:59:07.757898+00:00",
  "_kind": "geo_samples"
}