{
  "country_code": "GM",
  "country": "Gambia",
  "city": "Farato",
  "geonameid": 2413511,
  "target_addresses": 50,
  "samples": [
    {
      "lat": 13.381079527800866,
      "lon": -14.211134714092106,
      "geoinfo": {
        "display_name": "Nyakoi, Sutukonding, Wuli West, Basse, Upper River Division, The Gambia",
        "road": null,
        "house_number": null,
        "neighbourhood": null,
        "suburb": null,
        "city_district": null,
        "city": "Sutukonding",
        "state": "Upper River Division",
        "postcode": null,
        "country": "The Gambia",
        "country_code": "gm"
      },
      "address": "Farato, Upper River Division, Gambia"
    },
    {
      "lat": 13.399544397604782,
      "lon": -14.216198618983883,
      "geoinfo": {
        "display_name": "Nyakoi, Sutukonding, Wuli West, Basse, Upper River Division, The Gambia",
        "road": null,
        "house_number": null,
        "neighbourhood": null,
        "suburb": null,
        "city_district": null,
        "city": "Sutukonding",
        "state": "Upper River Division",
        "postcode": null,
        "country": "The Gambia",
        "country_code": "gm"
      },
      "address": "672, Farato, 98758 Upper River Division, Gambia"
    },
    {
      "lat": 13.397586263084714,
      "lon": -14.216013107814458,
      "geoinfo": {
        "display_name": "Nyakoi, Sutukonding, Wuli West, Basse, Upper River Division, The Gambia",
        "road": null,
        "house_number": null,
        "neighbourhood": null,
        "suburb": null,
        "city_district": null,
        "city": "Sutukonding",
        "state": "Upper River Division",
        "postcode": null,
        "country": "The Gambia",
        "country_code": "gm"
      },
      "address": "551, Farato, 96141 Upper River Division, Gambia"
    },
    {
      "lat": 13.399018789664774,
      "lon": -14.218209624476735,
      "geoinfo": {
        "display_name": "Farato, Sutukonding, Wuli West, Basse, Upper River Division, The Gambia",
        "road": null,
        "house_number": null,
        "neighbourhood": null,
        "suburb": null,
        "city_district": null,
        "city": "Sutukonding",
        "state": "Upper River Division",
        "postcode": null,
        "country": "The Gambia",
        "country_code": "gm"
      },
      "address": "869, Farato, 53617 Upper River Division, Gambia"
    },
    {
      "lat": 13.402122271319747,
      "lon": -14.215324345266312,
      "geoinfo": {
        "display_name": "Farato, Wuli West, Basse, Upper River Division, The Gambia",
        "road": null,
        "house_number": null,
        "neighbourhood": null,
        "suburb": null,
        "city_district": null,
        "city": null,
        "state": "Upper River Division",
        "postcode": null,
        "country": "The Gambia",
        "country_code": "gm"
      },
      "address": "335, Farato, Wuli West, Basse, 96515 Upper River Division, The Gambia"
    },
    {
      "lat": 13.399720468306967,
      "lon": -14.215214860961234,
      "geoinfo": {
        "display_name": "Farato, Sutukonding, Wuli West, Basse, Upper River Division, The Gambia",
        "road": null,
        "house_number": null,
        "neighbourhood": null,
        "suburb": null,
        "city_district": null,
        "city": "Sutukonding",
        "state": "Upper River Division",
        "postcode": null,
        "country": "The Gambia",
        "country_code": "gm"
      },
      "address": "459, Farato, 38069 Upper River Division, Gambia"
    },
    {
      "lat": 13.399399322627135,
      "lon": -14.213999927064426,
      "geoinfo": {
        "display_name": "Farato, Sutukonding, Wuli West, Basse, Upper River Division, The Gambia",
        "road": null,
        "house_number": null,
        "neighbourhood": null,
        "suburb": null,
        "city_district": null,
        "city": "Sutukonding",
        "state": "Upper River Division",
        "postcode": null,
        "country": "The Gambia",
        "country_code": "gm"
      },
      "address": "655, Farato, 04522 Upper River Division, Gambia"
    },
    {
      "lat": 13.40185877969616,
      "lon": -14.217114500781827,
      "geoinfo": {
        "display_name": "Nyakoi, Sutukonding, Wuli West, Basse, Upper River Division, The Gambia",
        "road": null,
        "house_number": null,
        "neighbourhood": null,
        "suburb": null,
        "city_district": null,
        "city": "Sutukonding",
        "state": "Upper River Division",
        "postcode": null,
        "country": "The Gambia",
        "country_code": "gm"
      },
      "address": "393, Farato, 47994 Upper River Division, Gambia"
    },
    {
      "lat": 13.40218469676058,
      "lon": -14.216048636443556,
      "geoinfo": {
        "display_name": "Farato, Wuli West, Basse, Upper River Division, The Gambia",
        "road": null,
        "house_number": null,
        "neighbourhood": null,
        "suburb": null,
        "city_district": null,
        "city": null,
        "state": "Upper River Division",
        "postcode": null,
        "country": "The Gambia",
        "country_code": "gm"
      },
      "address": "864, Farato, Wuli West, Basse, 12452 Upper River Division, The Gambia"
    },
    {
      "lat": 13.401742058773385,
      "lon": -14.217521947363947,
      "geoinfo": {
        "display_name": "Farato, Wuli West, Basse, Upper River Division, The Gambia",
        "road": null,
        "house_number": null,
        "neighbourhood": null,
        "suburb": null,
        "city_district": null,
        "city": null,
        "state": "Upper River Division",
        "postcode": null,
        "country": "The Gambia",
        "country_code": "gm"
      },
      "address": "057, Farato, Wuli West, Basse, 89469 Upper River Division, The Gambia"
    },
    {
      "lat": 13.397918426620974,
      "lon": -14.215075797479393,
      "geoinfo": {
        "display_name": "Nyakoi, Sutukonding, Wuli West, Basse, Upper River Division, The Gambia",
        "road": null,
        "house_number": null,
        "neighbourhood": null,
        "suburb": null,
        "city_district": null,
        "city": "Sutukonding",
        "state": "Upper River Division",
        "postcode": null,
        "country": "The Gambia",
        "country_code": "gm"
      },
      "address": "181, Farato, 61771 Upper River Division, Gambia"
    },
    {
      "lat": 13.39940609605943,
      "lon": -14.216788858059465,
      "geoinfo": {
        "display_name": "Farato, Sutukonding, Wuli West, Basse, Upper River Division, The Gambia",
        "road": null,
        "house_number": null,
        "neighbourhood": null,
        "suburb": null,
        "city_district": null,
        "city": "Sutukonding",
        "state": "Upper River Division",
        "postcode": null,
        "country": "The Gambia",
        "country_code": "gm"
      },
      "address": "090, Farato, 04681 Upper River Division, Gambia"
    },
    {
      "lat": 13.399182839309148,
      "lon": -14.217643868832809,
      "geoinfo": {
        "display_name": "Farato, Sutukonding, Wuli West, Basse, Upper River Division, The Gambia",
        "road": null,
        "house_number": null,
        "neighbourhood": null,
        "suburb": null,
        "city_district": null,
        "city": "Sutukonding",
        "state": "Upper River Division",
        "postcode": null,
        "country": "The Gambia",
        "country_code": "gm"
      },
      "address": "979, Farato, 77407 Upper River Division, Gambia"
    },
    {
      "lat": 13.40127482649958,
      "lon": -14.21475021170766,
      "geoinfo": {
        "display_name": "Farato, Sutukonding, Wuli West, Basse, Upper River Division, The Gambia",
        "road": null,
        "house_number": null,
        "neighbourhood": null,
        "suburb": null,
        "city_district": null,
        "city": "Sutukonding",
        "state": "Upper River Division",
        "postcode": null,
        "country": "The Gambia",
        "country_code": "gm"
      },
      "address": "840, Farato, 35065 Upper River Division, Gambia"
    },
    {
      "lat": 13.400157614609311,
      "lon": -14.218805838512344,
      "geoinfo": {
        "display_name": "Farato, Wuli West, Basse, Upper River Division, The Gambia",
        "road": null,
        "house_number": null,
        "neighbourhood": null,
        "suburb": null,
        "city_district": null,
        "city": null,
        "state": "Upper River Division",
        "postcode": null,
        "country": "The Gambia",
        "country_code": "gm"
      },
      "address": "035, Farato, Wuli West, Basse, 09665 Upper River Division, The Gambia"
    },
    {
      "lat": 13.397866723810694,
      "lon": -14.218136501270527,
      "geoinfo": {
        "display_name": "Farato, Sutukonding, Wuli West, Basse, Upper River Division, The Gambia",
        "road": null,
        "house_number": null,
        "neighbourhood": null,
        "suburb": null,
        "city_district": null,
        "city": "Sutukonding",
        "state": "Upper River Division",
        "postcode": null,
        "country": "The Gambia",
        "country_code": "gm"
      },
      "address": "859, Farato, 51147 Upper River Division, Gambia"
    },
    {
      "lat": 13.401842861320688,
      "lon": -14.21588400209314,
      "geoinfo": {
        "display_name": "Farato, Wuli West, Basse, Upper River Division, The Gambia",
        "road": null,
        "house_number": null,
        "neighbourhood": null,
        "suburb": null,
        "city_district": null,
        "city": null,
        "state": "Upper River Division",
        "postcode": null,
        "country": "The Gambia",
        "country_code": "gm"
      },
      "address": "152, Farato, Wuli West, Basse, 88574 Upper River Division, The Gambia"
    },
    {
      "lat": 13.40189663917381,
      "lon": -14.216842114596362,
      "geoinfo": {
        "display_name": "Farato, Wuli West, Basse, Upper River Division, The Gambia",
        "road": null,
        "house_number": null,
        "neighbourhood": null,
        "suburb": null,
        "city_district": null,
        "city": null,
        "state": "Upper River Division",
        "postcode": null,
        "country": "The Gambia",
        "country_code": "gm"
      },
      "address": "153, Farato, Wuli West, Basse, 27428 Upper River Division, The Gambia"
    },
    {
      "lat": 13.401519866795754,
      "lon": -14.21758589300038,
      "geoinfo": {
        "display_name": "Farato, Wuli West, Basse, Upper River Division, The Gambia",
        "road": null,
        "house_number": null,
        "neighbourhood": null,
        "suburb": null,
        "city_district": null,
        "city": null,
        "state": "Upper River Division",
        "postcode": null,
        "country": "The Gambia",
        "country_code": "gm"
      },
      "address": "521, Farato, Wuli West, Basse, 48711 Upper River Division, The Gambia"
    },
    {
      "lat": 13.402518571928427,
      "lon": -14.217280107300864,
      "geoinfo": {
        "display_name": "Nyakoi, Sutukonding, Wuli West, Basse, Upper River Division, The Gambia",
        "road": null,
        "house_number": null,
        "neighbourhood": null,
        "suburb": null,
        "city_district": null,
        "city": "Sutukonding",
        "state": "Upper River Division",
        "postcode": null,
        "country": "The Gambia",
        "country_code": "gm"
      },
      "address": "046, Farato, 07565 Upper River Division, Gambia"
    },
    {
      "lat": 13.398780574488274,
      "lon": -14.217395188044922,
      "geoinfo": {
        "display_name": "Farato, Sutukonding, Wuli West, Basse, Upper River Division, The Gambia",
        "road": null,
        "house_number": null,
        "neighbourhood": null,
        "suburb": null,
        "city_district": null,
        "city": "Sutukonding",
        "state": "Upper River Division",
        "postcode": null,
        "country": "The Gambia",
        "country_code": "gm"
      },
      "address": "579, Farato, 45295 Upper River Division, Gambia"
    },
    {
      "lat": 13.401034135414605,
      "lon": -14.216579118620414,
      "geoinfo": {
        "display_name": "Nyakoi, Sutukonding, Wuli West, Basse, Upper River Division, The Gambia",
        "road": null,
        "house_number": null,
        "neighbourhood": null,
        "suburb": null,
        "city_district": null,
        "city": "Sutukonding",
        "state": "Upper River Division",
        "postcode": null,
        "country": "The Gambia",
        "country_code": "gm"
      },
      "address": "737, Farato, 05750 Upper River Division, Gambia"
    },
    {
      "lat": 13.398937180972188,
      "lon": -14.215846049871429,
      "geoinfo": {
        "display_name": "Nyakoi, Sutukonding, Wuli West, Basse, Upper River Division, The Gambia",
        "road": null,
        "house_number": null,
        "neighbourhood": null,
        "suburb": null,
        "city_district": null,
        "city": "Sutukonding",
        "state": "Upper River Division",
        "postcode": null,
        "country": "The Gambia",
        "country_code": "gm"
      },
      "address": "386, Farato, 99973 Upper River Division, Gambia"
    },
    {
      "lat": 13.397763780140362,
      "lon": -14.217481243128127,
      "geoinfo": {
        "display_name": "Farato, Sutukonding, Wuli West, Basse, Upper River Division, The Gambia",
        "road": null,
        "house_number": null,
        "neighbourhood": null,
        "suburb": null,
        "city_district": null,
        "city": "Sutukonding",
        "state": "Upper River Division",
        "postcode": null,
        "country": "The Gambia",
        "country_code": "gm"
      },
      "address": "508, Farato, 88993 Upper River Division, Gambia"
    },
    {
      "lat": 13.3988136405918,
      "lon": -14.216458028215019,
      "geoinfo": {
        "display_name": "Farato, Sutukonding, Wuli West, Basse, Upper River Division, The Gambia",
        "road": null,
        "house_number": null,
        "neighbourhood": null,
        "suburb": null,
        "city_district": null,
        "city": "Sutukonding",
        "state": "Upper River Division",
        "postcode": null,
        "country": "The Gambia",
        "country_code": "gm"
      },
      "address": "764, Farato, 59023 Upper River Division, Gambia"
    },
    {
      "lat": 13.400659367395143,
      "lon": -14.215618448065225,
      "geoinfo": {
        "display_name": "Nyakoi, Sutukonding, Wuli West, Basse, Upper River Division, The Gambia",
        "road": null,
        "house_number": null,
        "neighbourhood": null,
        "suburb": null,
        "city_district": null,
        "city": "Sutukonding",
        "state": "Upper River Division",
        "postcode": null,
        "country": "The Gambia",
        "country_code": "gm"
      },
      "address": "393, Farato, 66277 Upper River Division, Gambia"
    },
    {
      "lat": 13.400786424053937,
      "lon": -14.216365144262483,
      "geoinfo": {
        "display_name": "Nyakoi, Sutukonding, Wuli West, Basse, Upper River Division, The Gambia",
        "road": null,
        "house_number": null,
        "neighbourhood": null,
        "suburb": null,
        "city_district": null,
        "city": "Sutukonding",
        "state": "Upper River Division",
        "postcode": null,
        "country": "The Gambia",
        "country_code": "gm"
      },
      "address": "718, Farato, 39513 Upper River Division, Gambia"
    },
    {
      "lat": 13.399374772894863,
      "lon": -14.219030496212783,
      "geoinfo": {
        "display_name": "Farato, Sutukonding, Wuli West, Basse, Upper River Division, The Gambia",
        "road": null,
        "house_number": null,
        "neighbourhood": null,
        "suburb": null,
        "city_district": null,
        "city": "Sutukonding",
        "state": "Upper River Division",
        "postcode": null,
        "country": "The Gambia",
        "country_code": "gm"
      },
      "address": "526, Farato, 51498 Upper River Division, Gambia"
    },
    {
      "lat": 13.400277434605465,
      "lon": -14.215594748193267,
      "geoinfo": {
        "display_name": "Nyakoi, Sutukonding, Wuli West, Basse, Upper River Division, The Gambia",
        "road": null,
        "house_number": null,
        "neighbourhood": null,
        "suburb": null,
        "city_district": null,
        "city": "Sutukonding",
        "state": "Upper River Division",
        "postcode": null,
        "country": "The Gambia",
        "country_code": "gm"
      },
      "address": "428, Farato, 95567 Upper River Division, Gambia"
    },
    {
      "lat": 13.39755232097788,
      "lon": -14.216641217196868,
      "geoinfo": {
        "display_name": "Farato, Sutukonding, Wuli West, Basse, Upper River Division, The Gambia",
        "road": null,
        "house_number": null,
        "neighbourhood": null,
        "suburb": null,
        "city_district": null,
        "city": "Sutukonding",
        "state": "Upper River Division",
        "postcode": null,
        "country": "The Gambia",
        "country_code": "gm"
      },
      "address": "411, Farato, 75744 Upper River Division, Gambia"
    },
    {
      "lat": 13.401363456303473,
      "lon": -14.21465570233547,
      "geoinfo": {
        "display_name": "Farato, Sutukonding, Wuli West, Basse, Upper River Division, The Gambia",
        "road": null,
        "house_number": null,
        "neighbourhood": null,
        "suburb": null,
        "city_district": null,
        "city": "Sutukonding",
        "state": "Upper River Division",
        "postcode": null,
        "country": "The Gambia",
        "country_code": "gm"
      },
      "address": "650, Farato, 44377 Upper River Division, Gambia"
    },
    {
      "lat": 13.40113121956548,
      "lon": -14.214995276222156,
      "geoinfo": {
        "display_name": "Farato, Sutukonding, Wuli West, Basse, Upper River Division, The Gambia",
        "road": null,
        "house_number": null,
        "neighbourhood": null,
        "suburb": null,
        "city_district": null,
        "city": "Sutukonding",
        "state": "Upper River Division",
        "postcode": null,
        "country": "The Gambia",
        "country_code": "gm"
      },
      "address": "533, Farato, 74079 Upper River Division, Gambia"
    },
    {
      "lat": 13.401549712174571,
      "lon": -14.215203424584674,
      "geoinfo": {
        "display_name": "Farato, Wuli West, Basse, Upper River Division, The Gambia",
        "road": null,
        "house_number": null,
        "neighbourhood": null,
        "suburb": null,
        "city_district": null,
        "city": null,
        "state": "Upper River Division",
        "postcode": null,
        "country": "The Gambia",
        "country_code": "gm"
      },
      "address": "271, Farato, Wuli West, Basse, 19347 Upper River Division, The Gambia"
    },
    {
      "lat": 13.399447631391045,
      "lon": -14.215221077408417,
      "geoinfo": {
        "display_name": "Farato, Sutukonding, Wuli West, Basse, Upper River Division, The Gambia",
        "road": null,
        "house_number": null,
        "neighbourhood": null,
        "suburb": null,
        "city_district": null,
        "city": "Sutukonding",
        "state": "Upper River Division",
        "postcode": null,
        "country": "The Gambia",
        "country_code": "gm"
      },
      "address": "146, Farato, 74556 Upper River Division, Gambia"
    },
    {
      "lat": 13.400204786952575,
      "lon": -14.215685990361496,
      "geoinfo": {
        "display_name": "Nyakoi, Sutukonding, Wuli West, Basse, Upper River Division, The Gambia",
        "road": null,
        "house_number": null,
        "neighbourhood": null,
        "suburb": null,
        "city_district": null,
        "city": "Sutukonding",
        "state": "Upper River Division",
        "postcode": null,
        "country": "The Gambia",
        "country_code": "gm"
      },
      "address": "634, Farato, 15661 Upper River Division, Gambia"
    },
    {
      "lat": 13.399458688442513,
      "lon": -14.214782596587417,
      "geoinfo": {
        "display_name": "Farato, Sutukonding, Wuli West, Basse, Upper River Division, The Gambia",
        "road": null,
        "house_number": null,
        "neighbourhood": null,
        "suburb": null,
        "city_district": null,
        "city": "Sutukonding",
        "state": "Upper River Division",
        "postcode": null,
        "country": "The Gambia",
        "country_code": "gm"
      },
      "address": "457, Farato, 03231 Upper River Division, Gambia"
    },
    {
      "lat": 13.399998760349987,
      "lon": -14.217181895810583,
      "geoinfo": {
        "display_name": "Farato, Sutukonding, Wuli West, Basse, Upper River Division, The Gambia",
        "road": null,
        "house_number": null,
        "neighbourhood": null,
        "suburb": null,
        "city_district": null,
        "city": "Sutukonding",
        "state": "Upper River Division",
        "postcode": null,
        "country": "The Gambia",
        "country_code": "gm"
      },
      "address": "295, Farato, 36825 Upper River Division, Gambia"
    },
    {
      "lat": 13.400966326116874,
      "lon": -14.219133667749787,
      "geoinfo": {
        "display_name": "Farato, Wuli West, Basse, Upper River Division, The Gambia",
        "road": null,
        "house_number": null,
        "neighbourhood": null,
        "suburb": null,
        "city_district": null,
        "city": null,
        "state": "Upper River Division",
        "postcode": null,
        "country": "The Gambia",
        "country_code": "gm"
      },
      "address": "090, Farato, Wuli West, Basse, 46680 Upper River Division, The Gambia"
    },
    {
      "lat": 13.400230957254296,
      "lon": -14.21399782146901,
      "geoinfo": {
        "display_name": "Farato, Sutukonding, Wuli West, Basse, Upper River Division, The Gambia",
        "road": null,
        "house_number": null,
        "neighbourhood": null,
        "suburb": null,
        "city_district": null,
        "city": "Sutukonding",
        "state": "Upper River Division",
        "postcode": null,
        "country": "The Gambia",
        "country_code": "gm"
      },
      "address": "828, Farato, 54112 Upper River Division, Gambia"
    },
    {
      "lat": 13.400011137739803,
      "lon": -14.216091940680869,
      "geoinfo": {
        "display_name": "Nyakoi, Sutukonding, Wuli West, Basse, Upper River Division, The Gambia",
        "road": null,
        "house_number": null,
        "neighbourhood": null,
        "suburb": null,
        "city_district": null,
        "city": "Sutukonding",
        "state": "Upper River Division",
        "postcode": null,
        "country": "The Gambia",
        "country_code": "gm"
      },
      "address": "193, Farato, 19431 Upper River Division, Gambia"
    },
    {
      "lat": 13.39773447578881,
      "lon": -14.216223087414502,
      "geoinfo": {
        "display_name": "Farato, Sutukonding, Wuli West, Basse, Upper River Division, The Gambia",
        "road": null,
        "house_number": null,
        "neighbourhood": null,
        "suburb": null,
        "city_district": null,
        "city": "Sutukonding",
        "state": "Upper River Division",
        "postcode": null,
        "country": "The Gambia",
        "country_code": "gm"
      },
      "address": "312, Farato, 13143 Upper River Division, Gambia"
    },
    {
      "lat": 13.40245774243215,
      "lon": -14.217429860170613,
      "geoinfo": {
        "display_name": "Nyakoi, Sutukonding, Wuli West, Basse, Upper River Division, The Gambia",
        "road": null,
        "house_number": null,
        "neighbourhood": null,
        "suburb": null,
        "city_district": null,
        "city": "Sutukonding",
        "state": "Upper River Division",
        "postcode": null,
        "country": "The Gambia",
        "country_code": "gm"
      },
      "address": "247, Farato, 82709 Upper River Division, Gambia"
    },
    {
      "lat": 13.399230767284482,
      "lon": -14.214120963246062,
      "geoinfo": {
        "display_name": "Farato, Sutukonding, Wuli West, Basse, Upper River Division, The Gambia",
        "road": null,
        "house_number": null,
        "neighbourhood": null,
        "suburb": null,
        "city_district": null,
        "city": "Sutukonding",
        "state": "Upper River Division",
        "postcode": null,
        "country": "The Gambia",
        "country_code": "gm"
      },
      "address": "215, Farato, 24626 Upper River Division, Gambia"
    },
    {
      "lat": 13.401245583803666,
      "lon": -14.218369731613842,
      "geoinfo": {
        "display_name": "Farato, Wuli West, Basse, Upper River Division, The Gambia",
        "road": null,
        "house_number": null,
        "neighbourhood": null,
        "suburb": null,
        "city_district": null,
        "city": null,
        "state": "Upper River Division",
        "postcode": null,
        "country": "The Gambia",
        "country_code": "gm"
      },
      "address": "207, Farato, Wuli West, Basse, 22783 Upper River Division, The Gambia"
    },
    {
      "lat": 13.398941705795716,
      "lon": -14.217209167449868,
      "geoinfo": {
        "display_name": "Farato, Sutukonding, Wuli West, Basse, Upper River Division, The Gambia",
        "road": null,
        "house_number": null,
        "neighbourhood": null,
        "suburb": null,
        "city_district": null,
        "city": "Sutukonding",
        "state": "Upper River Division",
        "postcode": null,
        "country": "The Gambia",
        "country_code": "gm"
      },
      "address": "716, Farato, 49192 Upper River Division, Gambia"
    },
    {
      "lat": 13.399821263402544,
      "lon": -14.214476783722155,
      "geoinfo": {
        "display_name": "Farato, Sutukonding, Wuli West, Basse, Upper River Division, The Gambia",
        "road": null,
        "house_number": null,
        "neighbourhood": null,
        "suburb": null,
        "city_district": null,
        "city": "Sutukonding",
        "state": "Upper River Division",
        "postcode": null,
        "country": "The Gambia",
        "country_code": "gm"
      },
      "address": "045, Farato, 86309 Upper River Division, Gambia"
    },
    {
      "lat": 13.398910565720874,
      "lon": -14.214332100729257,
      "geoinfo": {
        "display_name": "Farato, Sutukonding, Wuli West, Basse, Upper River Division, The Gambia",
        "road": null,
        "house_number": null,
        "neighbourhood": null,
        "suburb": null,
        "city_district": null,
        "city": "Sutukonding",
        "state": "Upper River Division",
        "postcode": null,
        "country": "The Gambia",
        "country_code": "gm"
      },
      "address": "428, Farato, 63929 Upper River Division, Gambia"
    },
    {
      "lat": 13.398167974980508,
      "lon": -14.21520699316703,
      "geoinfo": {
        "display_name": "Nyakoi, Sutukonding, Wuli West, Basse, Upper River Division, The Gambia",
        "road": null,
        "house_number": null,
        "neighbourhood": null,
        "suburb": null,
        "city_district": null,
        "city": "Sutukonding",
        "state": "Upper River Division",
        "postcode": null,
        "country": "The Gambia",
        "country_code": "gm"
      },
      "address": "150, Farato, 29162 Upper River Division, Gambia"
    },
    {
      "lat": 13.398306553150272,
      "lon": -14.218154114853347,
      "geoinfo": {
        "display_name": "Farato, Sutukonding, Wuli West, Basse, Upper River Division, The Gambia",
        "road": null,
        "house_number": null,
        "neighbourhood": null,
        "suburb": null,
        "city_district": null,
        "city": "Sutukonding",
        "state": "Upper River Division",
        "postcode": null,
        "country": "The Gambia",
        "country_code": "gm"
      },
      "address": "770, Farato, 50334 Upper River Division, Gambia"
    },
    {
      "lat": 13.39835119790195,
      "lon": -14.217560620133527,
      "geoinfo": {
        "display_name": "Farato, Sutukonding, Wuli West, Basse, Upper River Division, The Gambia",
        "road": null,
        "house_number": null,
        "neighbourhood": null,
        "suburb": null,
        "city_district": null,
        "city": "Sutukonding",
        "state": "Upper River Division",
        "postcode": null,
        "country": "The Gambia",
        "country_code": "gm"
      },
      "address": "328, Farato, 86814 Upper River Division, Gambia"
    },
    {
      "lat": 13.400592258116014,
      "lon": -14.21606124080634,
      "geoinfo": {
        "display_name": "Nyakoi, Sutukonding, Wuli West, Basse, Upper River Division, The Gambia",
        "road": null,
        "house_number": null,
        "neighbourhood": null,
        "suburb": null,
        "city_district": null,
        "city": "Sutukonding",
        "state": "Upper River Division",
        "postcode": null,
        "country": "The Gambia",
        "country_code": "gm"
      },
      "address": "074, Farato, 74059 Upper River Division, Gambia"
    }
  ],
  "updated_at": "2025-10-21T23:56:18.240255+00:00",
  "_kind": "geo_samples"
}